~VERSION INFORMATION
 VERS.                           2.00:        CWLS LOG ASCII STANDARD - VERSION 2.00
 WRAP.                             NO:        ONE LINE PER DEPTH STEP
~WELL INFORMATION
#MNEM.UNIT                   DATA             INFORMATION
#----------             --------------        ------------------------------
 STRT.F                       50.0000:        START DEPTH
 STOP.F                     2158.0000:        STOP DEPTH
 STEP.F                        0.5000:        STEP VALUE
 NULL.                      -999.2500:        NULL VALUE
 COMP.              HUSKY OIL COMPANY:        COMPANY  
 LOC .                   25  22N  17W:        LOCATION   
 DATE.                        2-19-77:        LOG DATE 
 WELL.               SOUTH BARROW #14:        WELL     
 UWI .                   500232000900:        UNIQUE WELL ID 
 API .                   500232000900:        UNIQUE WELL IDENTIFIER 
 FLD .               SOUTH BARROW GAS:        FIELD    
 CNTY.                    NORTH SLOPE:        COUNTY  
 STAT.                         ALASKA:        STATE   
 CTRY.                            USA:        COUNTRY 
 OPER.              HUSKY OIL COMPANY:        OPERATOR  
 SRVC.                   SCHLUMBERGER:        SERVICE COMPANY 
 LAT .                         0.0000:        LATITUDE
 LON .                         0.0000:        LONGITUDE
 DIGS.               CENTER LINE DATA:        DIGITIZING COMPANY 
~CURVE INFORMATION      
#MNEM        .UNIT         API CODE           CURVE DESCRIPTION
#-----------------      --------------        ------------------------------
 DEPT        .F                      :        1  DEPTH
 LLS         .OHMM                   :        2  
 LLD         .OHMM                   :        3  
 SP          .MV                     :        4  
 ILD         .OHMM                   :        5  
 ILM         .OHMM                   :        6  
 LL8         .OHMM                   :        7  
 CALI        .IN                     :        8  
 GR          .GAPI                   :        9  
 NPHI        .%                      :        10 
 DPHI        .%                      :        11 
 RHOB        .G/C3                   :        12 
 DRHO        .G/C3                   :        13 
 DT          .US/F                   :        14 
~PARAMETER INFORMATION       
#MNEM.UNIT                  VALUE             DESCRIPTION OF MNEMONIC
#---------             ---------------        ------------------------------
 EKB .F                       31.0000:        KELLY BUSHING
 TD  .F                     1042.0000:        TOTAL DEPTH
 BHT .F                       62.0000:        BOTTOM HOLE TEMPERATURE
 BS  .                         6.0000:        BIT SIZE
 FD  .                        10.7000:        FLUID DENSITY
 CSIZ.                         7.0000:        CASING SIZE
 CBD .F                     1947.0000:        CASING DRILLER 1
 CBL .F                     1946.0000:        CASING LOGGER 1
 DFT .                  Miscellaneous:        TYPE FLUID IN HOLE
 DFV .                        50.0000:        VISCOSITY
 DFPH.                        10.0000:        PH
 DFL .                         0.0000:        FLUID LOSS
 RMS .                         0.1500:        RM
 MST .F                       50.0000:        RM MEAS. TEMP.
 RMF .                         0.1600:        RMF
 MFST.F                       61.0000:        RMF MEAS. TEMP.
 RMC .                         0.0000:        RMC
 MCST.F                        0.0000:        RMC MEAS. TEMP.
~OTHER INFORMATION
~A    DEPTH         LLS         LLD          SP         ILD         ILM         LL8        CALI          GR        NPHI        DPHI        RHOB        DRHO          DT  
# ...
  1106.0000   -999.2500   -999.2500    -65.8759     12.2914     12.4616     12.5400      8.6995     83.3413     38.2193     16.8798      2.4118      0.1041    105.8678  
  1106.5000   -999.2500   -999.2500    -65.7805     12.2445     12.5164     12.5643      8.8088     85.2594     38.1009     15.1147      2.3914      0.0877    106.5930  
  1107.0000   -999.2500   -999.2500    -65.3074     12.1979     12.5714     12.5032      8.9081     87.3112     38.4604     15.0075      2.3994      0.0868    106.8023  
  1107.5000   -999.2500   -999.2500    -64.6957     12.1514     12.6267     12.4104      9.0443     88.6561     38.5957     16.6170      2.4275      0.1041     96.5919  
  1108.0000   -999.2500   -999.2500    -64.1759     12.1051     12.6822     12.5884      9.0776     86.7816     38.8709     15.5790      2.4480      0.1107     94.2188  
  1108.5000   -999.2500   -999.2500    -63.8928     12.1344     12.7379     12.6602      8.9979     86.6462     39.3330     13.9239      2.4179      0.0832    111.5464  
  1109.0000   -999.2500   -999.2500    -63.8937     12.1701     12.7556     12.6608      9.0287     86.4212     40.2781     13.6180      2.3936      0.0477    135.1456  
  1109.5000   -999.2500   -999.2500    -64.1321     12.2058     12.6275     12.7980      9.0492     85.3912     39.8437     14.6709      2.4182      0.0547    110.7707  
  1110.0000   -999.2500   -999.2500    -64.5414     12.2417     12.5007     12.7414      9.0743     84.7324     38.9898     16.1613      2.4717      0.0778    108.5162  
  1110.5000   -999.2500   -999.2500    -65.1282     12.2776     12.3752     12.5499      9.0343     84.2194     38.2021     13.8223      2.4626      0.1165    107.2175  
  1111.0000   -999.2500   -999.2500    -65.6340     12.3048     12.2510     12.6343      8.9872     84.8808     38.7235     11.6683      2.4276      0.1155    107.2175  
  1111.5000   -999.2500   -999.2500    -65.9851     12.2324     12.1279     12.6518      8.9968     85.6388     39.5634     11.8887      2.4079      0.0859    107.2106  
  1112.0000   -999.2500   -999.2500    -65.9348     12.1605     12.0062     12.5717      8.9898     84.2388     40.2055     14.0712      2.4073      0.0694    107.6918  
  1112.5000   -999.2500   -999.2500    -65.7105     12.0890     11.8856     12.4593      8.9760     81.9373     40.7125     15.2617      2.4139      0.0751    108.1496  
  1113.0000   -999.2500   -999.2500    -65.6339     12.0179     11.7663     12.3815      9.2381     80.4046     40.3443     15.4000      2.4197      0.1007    108.3726  
  1113.5000   -999.2500   -999.2500    -65.5751     11.9472     11.6482     12.2228      9.2979     80.8544     39.5827     14.9429      2.4270      0.1322    108.7290  
  1114.0000   -999.2500   -999.2500    -65.4825     11.8770     11.5312     12.0566      9.1944     82.3833     39.2092     14.4848      2.4518      0.1639    108.7225  
  1114.5000   -999.2500   -999.2500    -65.2828     11.8072     11.4154     12.0754      9.0838     84.1736     41.4191     13.9845      2.4550      0.1539    108.8299  
  1115.0000   -999.2500   -999.2500    -64.9831     11.8066     11.3307     12.1232      9.0580     84.7840     42.9435     12.2876      2.4053      0.1157    109.7229  
  1115.5000   -999.2500   -999.2500    -64.7877     11.8688     11.4127     12.1173      9.0577     83.8214     44.4051     12.8387      2.4191      0.1114    110.4995  
  1116.0000   -999.2500   -999.2500    -64.7569     11.9314     11.4953     12.2075      9.2681     82.7124     43.8693     15.3737      2.4293      0.1020    111.2740  
  1116.5000   -999.2500   -999.2500    -64.7754     11.9943     11.5785     12.3061      9.4500     81.7216     42.6514     14.5681      2.4526      0.1272    111.4184  
  1117.0000   -999.2500   -999.2500    -64.8412     12.0576     11.6623     12.3766      9.3297     81.6378     41.3159     14.1117      2.4413      0.1273    110.6171  
  1117.5000   -999.2500   -999.2500    -64.9020     12.1212     11.7468     12.4112      9.3208     82.6226     39.9815     13.2092      2.4462      0.1113    110.1254  
  1118.0000   -999.2500   -999.2500    -64.8667     12.1851     11.8318     12.5062      9.1522     82.1886     39.4701     12.9021      2.4313      0.1160    109.5064  
  1118.5000   -999.2500   -999.2500    -64.6956     12.2493     11.9175     12.4375      9.0653     80.9542     39.0642     13.1795      2.4170      0.1015    109.1313  
  1119.0000   -999.2500   -999.2500    -64.4268     12.3139     12.0038     12.3406      9.1268     80.7578     37.8814     13.9019      2.4039      0.0858    109.0922  
  1119.5000   -999.2500   -999.2500    -64.0727     12.3789     12.0907     12.3996      9.0781     81.7643     36.8388     14.6799      2.3912      0.0615    109.0437  
  1120.0000   -999.2500   -999.2500    -63.8037     12.4441     12.1782     12.4974      8.9807     82.0799     36.8109     15.3972      2.3784      0.0326    109.1962  
  1120.5000   -999.2500   -999.2500    -63.6603     12.5098     12.2663     12.4861      8.9277     82.1571     37.7102     16.0591      2.3838      0.0268    109.3611  
  1121.0000   -999.2500   -999.2500    -63.3876     12.5757     12.3552     12.7168      8.9325     83.2865     38.0278     17.2373      2.4104      0.0474    109.4806  
  1121.5000   -999.2500   -999.2500    -63.0391     12.6420     12.4446     12.8576      8.7105     84.1386     38.1538     17.1368      2.4390      0.0741    109.7606  
  1122.0000   -999.2500   -999.2500    -62.8121     12.7087     12.5347     12.9264      8.7656     83.0783     38.9757     14.7460      2.4761      0.0971    110.2182  
  1122.5000   -999.2500   -999.2500    -62.5076     12.7757     12.6254     12.9532      8.9538     83.1347     39.2781     13.2909      2.4738      0.1156    109.3205  
  1123.0000   -999.2500   -999.2500    -62.3140     12.8431     12.7020     13.0662      8.9655     84.6261     39.3699     10.9138      2.4502      0.1066    108.8091  
  1123.5000   -999.2500   -999.2500    -62.5585     12.9108     12.7771     13.0994      8.9893     85.3362     40.0786     11.4179      2.4441      0.1041    108.0979  
  1124.0000   -999.2500   -999.2500    -63.0748     12.9789     12.8525     13.0804      8.8767     85.3561     40.4371     12.5866      2.3879      0.0648    107.3083  
  1124.5000   -999.2500   -999.2500    -63.5626     13.0473     12.9285     13.1241      8.7445     85.1783     40.4017     13.1915      2.3896      0.0502    106.8284  
  1125.0000   -999.2500   -999.2500    -63.8391     13.1161     13.0048     13.1776      8.7053     84.4307     39.8322     16.6357      2.4329      0.0624    106.9993  
  1125.5000   -999.2500   -999.2500    -64.1821     13.0329     12.9871     13.1773      8.7262     83.9037     39.8019     16.3670      2.4723      0.0937    107.4541  
  1126.0000   -999.2500   -999.2500    -64.6699     12.4547     12.4671     12.8771      8.6599     83.6994     40.1934     13.9681      2.4960      0.1170    107.5759  
  1126.5000   -999.2500   -999.2500    -65.1246     11.9020     11.9680     12.3924      8.9094     82.7716     40.1002     11.3417      2.4653      0.0990    107.5220  
  1127.0000   -999.2500   -999.2500    -65.6911     11.3739     11.4888     11.7059      9.0349     81.0135     39.3761      9.8700      2.4179      0.0709    107.0260  
  1127.5000   -999.2500   -999.2500    -65.9969     10.8693     11.0289     11.4877      8.8466     79.4361     38.2685     11.4558      2.4385      0.0760    105.4899  
  1128.0000   -999.2500   -999.2500    -66.2144     10.4838     10.5873     11.6851      8.5461     81.0804     39.3416     14.6898      2.4435      0.1050    105.5999  
  1128.5000   -999.2500   -999.2500    -66.3713     10.1370     10.1635     11.4948      8.4383     84.0126     40.9728     13.3807      2.4078      0.0940    107.9538  
  1129.0000   -999.2500   -999.2500    -66.3970     10.2865     10.3401     11.3833      8.5406     84.4504     42.2146     13.2423      2.3815      0.0600    110.4704  
  1129.5000   -999.2500   -999.2500    -66.3487     10.5046     10.5933     11.4322      8.5656     84.8809     42.4448     14.6351      2.4045      0.0727    113.3888  
