~VERSION INFORMATION
 VERS.                           2.00:        CWLS LOG ASCII STANDARD - VERSION 2.00
 WRAP.                             NO:        ONE LINE PER DEPTH STEP
~WELL INFORMATION
#MNEM.UNIT                   DATA             INFORMATION
#----------             --------------        ------------------------------
 STRT.F                     1260.0000:        START DEPTH
 STOP.F                     2340.0000:        STOP DEPTH
 STEP.F                        0.5000:        STEP VALUE
 NULL.                      -999.2500:        NULL VALUE
 COMP.        U.S.NAVY DEEPT NP & OSR:        COMPANY  
 LOC .                  144  22N 18W UPM:        LOCATION   
 DATE.                        2/24/74:        LOG DATE 
 WELL.               SOUTH BARROW #11:        WELL     
 UWI .                    50023200500:        UNIQUE WELL ID 
 API .                    50023200500:        UNIQUE WELL IDENTIFIER 
 FLD .                   SOUTH BARROW:        FIELD    
 CNTY.                          NPR-4:        COUNTY  
 STAT.                         ALASKA:        STATE   
 CTRY.                            USA:        COUNTRY 
 OPER.        U.S.NAVY DEEPT NP & OSR:        OPERATOR  
 SRVC.                   SCHLUMBERGER:        SERVICE COMPANY 
 LAT .                         0.0000:        LATITUDE
 LON .                         0.0000:        LONGITUDE
 DIGS.               CENTER LINE DATA:        DIGITIZING COMPANY 
~CURVE INFORMATION      
#MNEM        .UNIT         API CODE           CURVE DESCRIPTION
#-----------------      --------------        ------------------------------
 DEPT        .F                      :        1  DEPTH
 CALI        .IN                     :        2  
 GR          .GAPI                   :        3  
 RHOB        .G/C3                   :        4  
 NPHI        .%                      :        5  
 DPHI        .%                      :        6  
 SP          .MV                     :        7  
 LL8         .OHMM                   :        8  
 ILD         .OHMM                   :        9  
 CILD        .MMHO                   :        10 
 DT          .US/F                   :        11 
~PARAMETER INFORMATION       
#MNEM.UNIT                  VALUE             DESCRIPTION OF MNEMONIC
#---------             ---------------        ------------------------------
 EKB .F                       36.0000:        KELLY BUSHING
 TD  .F                     2350.0000:        TOTAL DEPTH
 BHT .F                       60.0000:        BOTTOM HOLE TEMPERATURE
 BS  .                         9.6250:        BIT SIZE
 FD  .                        10.8000:        FLUID DENSITY
 CSIZ.                        10.7500:        CASING SIZE
 CBD .F                     1267.0000:        CASING DRILLER 1
 CBL .F                     1267.0000:        CASING LOGGER 1
 DFT .      Salt Water-Lignosulfonate:        TYPE FLUID IN HOLE
 DFV .                        52.0000:        VISCOSITY
 DFPH.                         9.0000:        PH
 DFL .                         4.2000:        FLUID LOSS
 RMS .                         1.8800:        RM
 MST .F                       50.0000:        RM MEAS. TEMP.
 RMF .                         1.1500:        RMF
 MFST.F                       63.0000:        RMF MEAS. TEMP.
 RMC .                         1.5000:        RMC
 MCST.F                       50.0000:        RMC MEAS. TEMP.
~OTHER INFORMATION
~A    DEPTH        CALI          GR        RHOB        NPHI        DPHI          SP         LL8         ILD        CILD          DT  
# ...
  1410.0000     10.2778     97.7859      2.3805     40.1511     16.2136    -30.7195      9.3785      9.2057    110.8975    112.7969  
  1410.5000     10.2310     98.0008      2.3817     40.3847     16.2806    -30.8311      9.3678      9.1643    111.2214    112.7279  
  1411.0000     10.0752     96.8896      2.3831     40.2894     16.1223    -31.3189      9.3449      9.1229    111.4804    112.8747  
  1411.5000     10.1284     95.7443      2.3763     40.0168     16.2040    -31.5013      9.3316      9.0814    112.0510    113.2868  
  1412.0000     10.1135     94.5841      2.3664     40.0883     16.8784    -31.6845      9.2646      9.0400    112.7621    113.6313  
  1412.5000     10.0818     94.3609      2.3522     40.0994     17.7589    -31.8829      9.2347      8.9986    113.0359    113.7188  
  1413.0000     10.1354     93.9934      2.3444     39.1445     18.3819    -32.0094      9.2692      8.9572    112.8811    114.2535  
  1413.5000     10.2607     92.9068      2.3467     37.9921     18.6675    -32.0884      9.2708      8.9268    112.6241    115.8784  
  1414.0000     10.3062     92.3026      2.3560     38.5112     18.2988    -32.2144      9.2795      8.9732    112.3670    118.9678  
  1414.5000     10.3514     92.0250      2.3667     38.8046     17.6552    -32.1063      9.3213      9.0195    112.3204    120.8182  
  1415.0000     10.4134     93.4563      2.3771     38.6829     17.0910    -31.6218      9.2732      9.0659    112.1885    121.3266  
  1415.5000     10.4068     94.5401      2.3892     38.7132     16.4937    -31.0585      9.3153      9.1123    112.1273    120.6547  
  1416.0000     10.3672     95.3756      2.3897     40.0398     16.0986    -30.6358      9.3692      9.1587    111.2808    118.8407  
  1416.5000     10.3228     96.4301      2.3896     40.8466     15.8745    -30.3492      9.5881      9.2051    109.9312    116.8608  
  1417.0000     10.3290     96.9367      2.3908     40.9917     15.7725    -30.1520      9.8077      9.2515    109.3216    116.1263  
  1417.5000     10.3632     97.0719      2.4002     40.7055     15.3506    -30.1462     10.0274      9.2978    108.8460    115.8945  
  1418.0000     10.3899     97.1676      2.4045     39.4717     14.9449    -29.7742     10.1856      9.3480    108.3704    115.9038  
  1418.5000     10.4047     97.2147      2.4088     38.6853     14.4432    -30.0088     10.2867      9.4007    107.8948    114.8839  
  1419.0000     10.4115     96.3884      2.4060     39.0685     14.7108    -30.3282     10.1847      9.4535    107.4192    113.4498  
  1419.5000     10.4714     95.7223      2.4052     39.4648     14.7418    -30.5376     10.0680      9.4418    106.9436    112.1546  
  1420.0000     10.4571     95.1786      2.4022     39.8595     15.4404    -30.6884     10.0312      9.3864    106.4680    110.6180  
  1420.5000     10.4216     94.7811      2.3904     41.2439     15.6365    -30.7472     10.0061      9.3310    106.0026    111.4724  
  1421.0000     10.4363     94.6307      2.3881     42.5958     15.4283    -30.8009      9.9810      9.3500    105.5520    112.1151  
  1421.5000     10.4553     95.4104      2.3965     42.6686     15.5643    -30.9928     10.0154      9.3950    105.1015    112.8809  
  1422.0000     10.4273     97.8565      2.3845     41.5720     16.0110    -31.1473     10.0694      9.6412    104.6509    113.4583  
  1422.5000     10.4198     99.1586      2.3635     39.0373     17.0103    -31.0477     10.1105      9.9303    102.6352    113.1038  
  1423.0000     10.5321     98.3531      2.3530     37.3049     17.7766    -31.1938     10.2900     10.2195    100.4078    112.6128  
  1423.5000     10.5568     96.6818      2.3578     36.9091     17.6859    -31.3072     10.5253     10.5087     97.7417    112.1040  
  1424.0000     10.5321     94.9135      2.3754     36.7491     16.8801    -31.3962     10.6441     10.7571     94.7940    110.9359  
  1424.5000     10.5235     93.4672      2.3731     36.3088     16.2601    -31.0469     11.1038     10.8397     92.1310    109.1268  
  1425.0000     10.5268     93.5061      2.3633     35.6325     17.1835    -30.7361     11.1661     10.9224     91.0215    107.8258  
  1425.5000     10.5764     93.7312      2.3579     35.7553     17.4939    -30.5536     11.1818     10.9175     89.8565    106.8223  
  1426.0000     10.5628     92.8707      2.3543     36.4768     17.6140    -30.4957     10.9480     10.7281     90.2574    106.3485  
  1426.5000     10.4746     94.4597      2.3553     36.9395     17.8374    -30.4723     10.5266     10.4771     93.5774    106.0601  
  1427.0000     10.3746     97.0174      2.3640     37.1479     17.5969    -30.7043     10.3105     10.2260     96.4905    105.7902  
  1427.5000     10.3362     98.4459      2.3681     37.2719     17.1965    -31.0014     10.0343      9.9750     98.8939    105.7942  
  1428.0000     10.4015     98.3662      2.3726     37.2640     16.9014    -31.2366      9.7388      9.7239    101.6205    105.8854  
  1428.5000     10.4233     97.9078      2.3759     37.4535     16.5955    -31.2813      9.5216      9.4729    104.3458    107.1886  
  1429.0000     10.4107     97.7625      2.3696     40.7019     17.0500    -31.2566      9.4152      9.2219    107.0711    108.6484  
  1429.5000     10.3623     96.8942      2.3607     42.5473     17.3881    -31.2974      9.2099      8.9708    109.7964    110.0160  
  1430.0000     10.3394     94.5845      2.3645     43.0353     17.3901    -31.4641      9.2614      8.8492    112.5217    111.7980  
  1430.5000     10.3501     92.8828      2.3602     42.1684     17.4180    -31.4057      9.2733      8.8500    113.3511    113.6697  
  1431.0000     10.3581     92.7398      2.3592     41.6023     17.6265    -31.2913      9.2462      8.8508    113.3612    113.9385  
  1431.5000     10.3504     93.1703      2.3547     40.5745     17.9063    -31.3014      9.2289      8.8516    113.3713    113.5229  
  1432.0000     10.3158     93.7615      2.3559     38.9595     17.5961    -31.3820      9.2367      8.8524    113.1607    113.1908  
  1432.5000     10.2919     94.9813      2.3656     39.1455     17.1261    -31.3703      9.2877      8.8532    112.7038    112.9502  
  1433.0000     10.2491     96.7248      2.3668     40.2337     17.0932    -31.3248      9.3103      8.8931    112.6838    112.9161  
  1433.5000     10.2457     97.7835      2.3647     40.4531     17.1151    -31.2564      9.2950      8.9628    113.1995    113.1331  
  1434.0000     10.2593     99.4813      2.3720     40.6519     16.8132    -31.0881      9.2636      9.0325    113.0430    113.3536  
  1434.5000     10.2892    100.1756      2.3792     40.7541     16.4192    -30.9824      9.3283      9.1079    112.4010    113.0624  
  1435.0000     10.3058     99.4913      2.3812     40.6715     16.3216    -31.1165      9.3596      9.3215    111.4859    112.4874  
  1435.5000     10.2900     99.4834      2.3802     41.1019     16.3060    -31.3304      9.5210      9.5351    109.6145    112.3231  
  1436.0000     10.2766     99.9697      2.3796     41.5288     16.3336    -31.2903      9.8637      9.7636    106.8968    112.5039  
  1436.5000     10.2816     99.9062      2.3804     41.5683     16.3265    -31.1751     10.0847      9.9959    104.2062    112.8599  
  1437.0000     10.3060     98.7345      2.3921     40.7122     15.9461    -31.0469     10.3020     10.1891    102.1266    113.1221  
  1437.5000     10.3083     97.0212      2.3993     39.4800     15.3793    -30.9318     10.4797     10.3202    100.1757    113.0252  
  1438.0000     10.3514     95.9153      2.4079     37.8449     15.0307    -30.7578     10.6518     10.4512     98.8056    111.6368  
  1438.5000     10.3984     94.7468      2.4140     37.1528     14.5305    -30.6490     10.6815     10.5822     97.7131    108.2779  
  1439.0000     10.4673     92.9796      2.4137     37.7146     14.6964    -30.6187     10.6565     10.6451     95.8705    105.7344  
  1439.5000     10.4757     91.6030      2.4019     38.1542     14.8502    -30.5487     10.5560     10.6784     94.0305    103.7184  
