~VERSION INFORMATION
 VERS.                           2.00:        CWLS LOG ASCII STANDARD - VERSION 2.00
 WRAP.                             NO:        ONE LINE PER DEPTH STEP
~WELL INFORMATION
#MNEM.UNIT                   DATA             INFORMATION
#----------             --------------        ------------------------------
 STRT.F                       96.0000:        START DEPTH
 STOP.F                     2280.0000:        STOP DEPTH
 STEP.F                        0.5000:        STEP VALUE
 NULL.                      -999.2500:        NULL VALUE
 COMP.    USGS/NPR HUSKY OIL OPERATOR:        COMPANY  
 LOC .                   23  22N  17W:        LOCATION   
 DATE.                        9/11/80:        LOG DATE 
 WELL.               SOUTH BARROW #15:        WELL     
 UWI .                   500232001600:        UNIQUE WELL ID 
 API .                   500232001600:        UNIQUE WELL IDENTIFIER 
 FLD .                   SOUTH BARROW:        FIELD    
 CNTY.                    NORTH SLOPE:        COUNTY  
 STAT.                         ALASKA:        STATE   
 CTRY.                            USA:        COUNTRY 
 OPER.    USGS/NPR HUSKY OIL OPERATOR:        OPERATOR  
 SRVC.                   SCHLUMBERGER:        SERVICE COMPANY 
 LAT .                         0.0000:        LATITUDE
 LON .                         0.0000:        LONGITUDE
 DIGS.               CENTER LINE DATA:        DIGITIZING COMPANY 
~CURVE INFORMATION      
#MNEM        .UNIT         API CODE           CURVE DESCRIPTION
#-----------------      --------------        ------------------------------
 DEPT        .F                      :        1  DEPTH
 CALI        .IN                     :        2  
 GR          .GAPI                   :        3  
 RHOB        .G/C3                   :        4  
 DRHO        .G/C3                   :        5  
 NPHI        .%                      :        6  
 DT          .US/F                   :        7  
 SP          .MV                     :        8  
 ILD         .OHMM                   :        9  
 ILM         .OHMM                   :        10 
 SFL         .OHMM                   :        11 
 LLD         .OHMM                   :        12 
 LLS         .OHMM                   :        13 
 MSFL        .OHMM                   :        14 
~PARAMETER INFORMATION       
#MNEM.UNIT                  VALUE             DESCRIPTION OF MNEMONIC
#---------             ---------------        ------------------------------
 EKB .F                       30.0000:        KELLY BUSHING
 TD  .F                     2279.0000:        TOTAL DEPTH
 BHT .F                        0.0000:        BOTTOM HOLE TEMPERATURE
 BS  .                         8.5000:        BIT SIZE
 FD  .                        10.3000:        FLUID DENSITY
 CSIZ.                         9.6250:        CASING SIZE
 CBD .F                     1514.0000:        CASING DRILLER 1
 CBL .F                     1520.0000:        CASING LOGGER 1
 DFT .                  Miscellaneous:        TYPE FLUID IN HOLE
 DFV .                        43.0000:        VISCOSITY
 DFPH.                         0.0000:        PH
 DFL .                         0.0000:        FLUID LOSS
 RMS .                         0.1800:        RM
 MST .F                       48.0000:        RM MEAS. TEMP.
 RMF .                         0.1400:        RMF
 MFST.F                       48.0000:        RMF MEAS. TEMP.
 RMC .                         0.0000:        RMC
 MCST.F                        0.0000:        RMC MEAS. TEMP.
~OTHER INFORMATION
~A    DEPTH        CALI          GR        RHOB        DRHO        NPHI          DT          SP         ILD         ILM         SFL         LLD         LLS        MSFL  
# ...
  2112.0000      8.6986     67.1634      2.4797      0.0586     24.5374     91.3906   -999.2500   -999.2500   -999.2500   -999.2500     13.7419     12.9104     10.5610  
  2112.5000      8.7785     64.3666      2.4828      0.1019     25.5731     91.0950   -999.2500   -999.2500   -999.2500   -999.2500     13.2062     12.3806      8.7324  
  2113.0000      9.2407     61.4453      2.4582      0.1176     27.7857     90.5251   -999.2500   -999.2500   -999.2500   -999.2500     13.2283     11.7643      8.7688  
  2113.5000      9.6645     59.3041      2.4343      0.1151     29.2138     90.2355   -999.2500   -999.2500   -999.2500   -999.2500     13.0483     11.1787      8.5038  
  2114.0000     10.6433     57.3097      2.4000      0.0832     29.6353     90.2500   -999.2500   -999.2500   -999.2500   -999.2500     12.9465     11.0233      6.8692  
  2114.5000     11.2328     54.7929      2.3802      0.0596     30.3166     90.2815   -999.2500   -999.2500   -999.2500   -999.2500     13.0596     11.0652      5.8311  
  2115.0000     10.6329     54.9607      2.4237      0.0937     32.1789     90.7057   -999.2500   -999.2500   -999.2500   -999.2500     13.1001     11.4201      6.8834  
  2115.5000     10.5478     56.7686      2.4598      0.1500     32.2906     90.0990   -999.2500   -999.2500   -999.2500   -999.2500     13.2263     11.7863      8.7498  
  2116.0000     11.0006     59.7462      2.4074      0.1193     31.1355     88.3877   -999.2500   -999.2500   -999.2500   -999.2500     13.8615     12.0589     10.7786  
  2116.5000     11.0270     63.0728      2.3772      0.0818     29.4179     89.9224   -999.2500   -999.2500   -999.2500   -999.2500     15.2649     11.9936     10.8723  
  2117.0000     10.6478     65.9073      2.3921      0.0647     27.9597     89.6977   -999.2500   -999.2500   -999.2500   -999.2500     14.0790     11.9143     10.6551  
  2117.5000      9.8873     67.8671      2.4102      0.0610     26.4624     89.3711   -999.2500   -999.2500   -999.2500   -999.2500     13.1129     11.7557      8.8360  
  2118.0000      9.2523     66.4785      2.4276      0.0569     27.5001     90.1273   -999.2500   -999.2500   -999.2500   -999.2500     12.8584     11.5958      7.3435  
  2118.5000      9.2544     63.4033      2.4441      0.0783     28.8187     90.5701   -999.2500   -999.2500   -999.2500   -999.2500     12.6431     11.4394      7.9767  
  2119.0000      9.5064     60.5206      2.4605      0.1269     30.4410     92.1328   -999.2500   -999.2500   -999.2500   -999.2500     12.8108     11.4003     10.1996  
  2119.5000      9.9529     59.6015      2.4367      0.1421     30.0757     93.3855   -999.2500   -999.2500   -999.2500   -999.2500     13.5579     11.9295     10.5389  
  2120.0000     10.3055     59.2782      2.3897      0.0807     28.3228     93.3476   -999.2500   -999.2500   -999.2500   -999.2500     13.9596     12.0028     10.3904  
  2120.5000      9.9438     59.2246      2.3933      0.0259     26.9236     93.3320   -999.2500   -999.2500   -999.2500   -999.2500     13.8099     11.8786     10.2172  
  2121.0000      9.8412     60.0833      2.4213      0.0111     26.7745     93.7329   -999.2500   -999.2500   -999.2500   -999.2500     13.7732     11.7367     10.2400  
  2121.5000      9.6195     61.7898      2.4445      0.0264     26.6446     94.3830   -999.2500   -999.2500   -999.2500   -999.2500     13.8339     11.9093     10.3324  
  2122.0000      9.5479     63.2728      2.4412      0.0191     27.1044     94.1183   -999.2500   -999.2500   -999.2500   -999.2500     13.6531     12.3413     10.2795  
  2122.5000      9.4792     63.2319      2.4385      0.0149     27.5153     92.5428   -999.2500   -999.2500   -999.2500   -999.2500     13.7408     12.9135      9.8301  
  2123.0000      9.3910     61.6119      2.4372      0.0123     27.8413     90.3881   -999.2500   -999.2500   -999.2500   -999.2500     14.0932     13.1002      9.5999  
  2123.5000      9.3997     60.2690      2.4324      0.0057     28.3398     90.1900   -999.2500   -999.2500   -999.2500   -999.2500     14.4607     13.0170      9.8630  
  2124.0000      9.5012     60.4716      2.4235      0.0131     28.9097     91.1088   -999.2500   -999.2500   -999.2500   -999.2500     14.5255     12.8601      9.9583  
  2124.5000      9.7583     60.9524      2.4139      0.0324     28.8019     92.4326   -999.2500   -999.2500   -999.2500   -999.2500     14.4387     12.6778      9.0582  
  2125.0000      9.9550     60.8346      2.4103      0.0222     28.7784     92.4526   -999.2500   -999.2500   -999.2500   -999.2500     14.0880     12.4104      8.3299  
  2125.5000      9.6554     60.0340      2.4262      0.0124     29.3706     91.7005   -999.2500   -999.2500   -999.2500   -999.2500     13.6354     11.8633      7.5381  
  2126.0000      8.9708     56.8665      2.4608      0.0323     29.9099     90.9581   -999.2500   -999.2500   -999.2500   -999.2500     13.4914     11.7121      8.4004  
  2126.5000      9.3998     57.9602      2.4787      0.0558     29.9704     90.7094   -999.2500   -999.2500   -999.2500   -999.2500     14.1267     12.6660     10.2602  
  2127.0000      9.8683     58.4391      2.4564      0.0408     28.2134     90.6911   -999.2500   -999.2500   -999.2500   -999.2500     14.9848     13.0183     10.3178  
  2127.5000      9.6877     58.9037      2.4202      0.0205     27.4016     91.2178   -999.2500   -999.2500   -999.2500   -999.2500     15.2301     13.0606      9.3217  
  2128.0000      9.4241     58.4151      2.4251      0.0130     28.2466     91.7468   -999.2500   -999.2500   -999.2500   -999.2500     15.1483     12.9663      8.0366  
  2128.5000      9.2279     57.0088      2.4375      0.0148     28.0693     91.6028   -999.2500   -999.2500   -999.2500   -999.2500     15.1707     12.8810      7.7146  
  2129.0000      9.2048     56.1323      2.4428      0.0312     27.2874     91.2541   -999.2500   -999.2500   -999.2500   -999.2500     15.0901     12.9108      7.4694  
  2129.5000      9.2240     56.7142      2.4315      0.0296     27.2203     91.6839   -999.2500   -999.2500   -999.2500   -999.2500     15.4041     13.0366      7.2423  
  2130.0000      9.3143     56.3854      2.4181      0.0155     27.3278     92.2357   -999.2500   -999.2500   -999.2500   -999.2500     15.4379     12.5348      7.0927  
  2130.5000      9.0606     55.4206      2.4039      0.0139     27.1516     91.7581   -999.2500   -999.2500   -999.2500   -999.2500     14.1379     11.6349      6.9323  
  2131.0000      8.9566     53.7332      2.3871      0.0121     26.7919     91.3625   -999.2500   -999.2500   -999.2500   -999.2500     13.3714     11.4946      6.6945  
  2131.5000      8.9590     52.4661      2.3729      0.0051     26.0626     91.5520   -999.2500   -999.2500   -999.2500   -999.2500     12.3734     11.2220      6.3660  
  2132.0000      8.8067     51.2803      2.3619     -0.0074     25.4422     92.0275   -999.2500   -999.2500   -999.2500   -999.2500     12.2689     10.8809      6.0200  
  2132.5000      8.5901     50.8257      2.3593     -0.0103     24.8324     92.5229   -999.2500   -999.2500   -999.2500   -999.2500     12.4387     10.6099      6.1104  
  2133.0000      8.5447     51.3066      2.3564     -0.0087     24.2579     91.5500   -999.2500   -999.2500   -999.2500   -999.2500     12.6864     10.5332      6.4541  
  2133.5000      8.5558     52.0731      2.3457     -0.0065     24.6144     90.7839   -999.2500   -999.2500   -999.2500   -999.2500     14.6418     10.8846      6.9191  
  2134.0000      8.5519     52.3202      2.3277     -0.0057     25.2186     90.2663   -999.2500   -999.2500   -999.2500   -999.2500     15.1581     12.3092      7.1867  
  2134.5000      8.5709     52.2682      2.3282     -0.0034     25.4208     90.5885   -999.2500   -999.2500   -999.2500   -999.2500     15.1131     12.5806      6.9985  
  2135.0000      8.5514     52.0340      2.3378     -0.0020     25.6641     90.9755   -999.2500   -999.2500   -999.2500   -999.2500     15.5129     12.8032      6.1444  
  2135.5000      8.5264     51.2148      2.3450     -0.0021     25.7224     90.8662   -999.2500   -999.2500   -999.2500   -999.2500     15.4394     12.5459      5.1431  
