~VERSION INFORMATION
 VERS.                           2.00:        CWLS LOG ASCII STANDARD - VERSION 2.00
 WRAP.                             NO:        ONE LINE PER DEPTH STEP
~WELL INFORMATION
#MNEM.UNIT                   DATA             INFORMATION
#----------             --------------        ------------------------------
 STRT.F                     1088.0000:        START DEPTH
 STOP.F                     2449.0000:        STOP DEPTH
 STEP.F                        0.5000:        STEP VALUE
 NULL.                      -999.2500:        NULL VALUE
 COMP.             UNITED STATES NAVY:        COMPANY  
 LOC .                   11  22N  18W:        LOCATION   
 DATE.                         4/7/70:        LOG DATE 
 WELL.                    GAS WELL #9:        WELL     
 UWI .                   500232000300:        UNIQUE WELL ID 
 API .                   500232000300:        UNIQUE WELL IDENTIFIER 
 FLD .                   SOUTH BARROW:        FIELD    
 CNTY.                   POINT BARROW:        COUNTY  
 STAT.                         ALASKA:        STATE   
 CTRY.                            USA:        COUNTRY 
 OPER.             UNITED STATES NAVY:        OPERATOR  
 SRVC.                   SCHLUMBERGER:        SERVICE COMPANY 
 LAT .                         0.0000:        LATITUDE
 LON .                         0.0000:        LONGITUDE
 DIGS.               CENTER LINE DATA:        DIGITIZING COMPANY 
~CURVE INFORMATION      
#MNEM        .UNIT         API CODE           CURVE DESCRIPTION
#-----------------      --------------        ------------------------------
 DEPT        .F                      :        1  DEPTH
 SP          .MV                     :        2  
 ASN         .OHMM                   :        3  
 ILD         .OHMM                   :        4  
 CILD        .MMHO                   :        5  
 CALI        .IN                     :        6  
 GR          .GAPI                   :        7  
 DRHO        .G/C3                   :        8  
 RHOB        .G/C3                   :        9  
 DT          .US/F                   :        10 
~PARAMETER INFORMATION       
#MNEM.UNIT                  VALUE             DESCRIPTION OF MNEMONIC
#---------             ---------------        ------------------------------
 EKB .F                       29.0000:        KELLY BUSHING
 TD  .F                     2450.0000:        TOTAL DEPTH
 BHT .F                       75.0000:        BOTTOM HOLE TEMPERATURE
 BS  .                         8.6250:        BIT SIZE
 FD  .                        10.7000:        FLUID DENSITY
 CSIZ.                         9.6250:        CASING SIZE
 CBD .F                     1100.0000:        CASING DRILLER 1
 CBL .F                     1102.0000:        CASING LOGGER 1
 DFT .                            Gel:        TYPE FLUID IN HOLE
 DFV .                        45.0000:        VISCOSITY
 DFPH.                         8.8000:        PH
 DFL .                         3.8000:        FLUID LOSS
 RMS .                         2.7500:        RM
 MST .F                       60.0000:        RM MEAS. TEMP.
 RMF .                         2.3600:        RMF
 MFST.F                       60.0000:        RMF MEAS. TEMP.
 RMC .                         3.7800:        RMC
 MCST.F                       60.0000:        RMC MEAS. TEMP.
~OTHER INFORMATION
~A    DEPTH          SP         ASN         ILD        CILD        CALI          GR        DRHO        RHOB          DT  
# ...
  2144.0000    -18.1159     12.1131      9.2247    105.5307      8.9590     65.7781      0.0279      2.4376     97.3593  
  2144.5000    -17.2868     11.7148      9.2624    105.0718      8.9367     63.5319      0.0419      2.4483     98.1918  
  2145.0000    -16.6289     11.2295      9.0896    106.9189      8.9374     68.0940      0.0531      2.4650    100.4364  
  2145.5000    -16.5058     10.8541      8.7551    110.4591      8.9675     70.8285      0.0405      2.4696    101.4541  
  2146.0000    -16.5983     10.5313      8.4931    114.1093      8.9674     72.2242      0.0575      2.4837    101.8347  
  2146.5000    -16.6259     10.2702      8.2022    117.2148      8.9528     74.5106      0.0770      2.4895    102.4071  
  2147.0000    -16.4925     10.1201      8.0181    119.3536      8.9174     75.9065      0.0441      2.4399    102.7752  
  2147.5000    -16.5624     10.0046      7.9274    120.6309      8.8895     76.0248      0.0378      2.4319    103.0880  
  2148.0000    -16.3972      9.9786      7.9083    121.1964      8.8609     79.0651      0.0429      2.4376    103.3119  
  2148.5000    -16.1271      9.9826      7.8415    121.4663      8.8322     81.5617      0.0450      2.4396    103.3442  
  2149.0000    -16.0857      9.9875      7.8807    121.6633      8.8035     82.7302      0.0392      2.4397    103.3399  
  2149.5000    -16.0444     10.0041      7.8681    121.8470      8.7748     83.2704      0.0463      2.4499    103.2546  
  2150.0000    -16.1828     10.0613      7.8700    121.5103      8.7687     81.6625      0.0476      2.4646    103.2710  
  2150.5000    -16.2652     10.0824      7.8968    120.4488      8.9469     79.8766      0.0403      2.4734    103.4534  
  2151.0000    -16.1387     10.1271      8.0829    118.4882      9.0702     77.9422      0.0431      2.4789    103.8942  
  2151.5000    -15.6642     10.2631      8.2724    115.4866      9.1582     75.5339      0.0478      2.4783    104.3904  
  2152.0000    -14.7316     10.5686      8.7145    110.5231      9.1756     74.3629      0.0417      2.4793    104.2054  
  2152.5000    -15.4535     11.2957      9.1468    104.6840      9.1880     75.2219      0.0338      2.4646    103.1615  
  2153.0000    -15.7754     12.0593     10.1323     96.6418      9.1856     75.1066      0.0267      2.4576    102.0841  
  2153.5000    -15.6846     12.9928     11.2292     87.3287      9.1914     73.7341      0.0326      2.4682    100.4534  
  2154.0000    -15.5937     14.2427     12.6768     77.1911      9.2867     70.4096      0.0275      2.4806     98.9294  
  2154.5000    -16.3541     16.3086     14.1832     70.2887      9.1716     66.9106      0.0183      2.4745     97.7641  
  2155.0000    -17.5510     18.4285     15.3685     65.3385      9.0879     61.0269      0.0168      2.4730     97.7195  
  2155.5000    -19.4924     21.3329     15.8935     63.2656      9.0048     53.8579      0.0329      2.4562     97.2877  
  2156.0000    -21.7435     23.6322     15.6247     64.8698      8.8803     49.2016      0.0582      2.4309     94.2225  
  2156.5000    -22.7872     22.8872     15.0217     67.2615      8.7462     46.3059      0.0814      2.4089     91.1048  
  2157.0000    -22.7034     19.2046     13.9546     72.2336      8.6325     42.3903      0.0946      2.4211     90.3132  
  2157.5000    -21.7274     16.1280     12.6741     79.9880      8.6367     42.4305      0.0767      2.4269     92.5859  
  2158.0000    -19.8112     13.7476     10.9995     89.3587      8.6409     44.8239      0.0679      2.4498     98.3919  
  2158.5000    -18.4218     12.1194      9.7521    100.5830      8.6473     51.7680      0.0799      2.4777    102.6964  
  2159.0000    -17.4824     11.1994      8.8032    110.8191      8.6607     61.3450      0.0639      2.4932    104.8272  
  2159.5000    -16.9077     10.4660      8.1833    118.0132      8.7939     67.1049      0.0414      2.5007    105.5876  
  2160.0000    -16.5469     10.0867      7.9024    122.6731      8.9581     68.7574      0.0573      2.5173    106.6398  
  2160.5000    -16.3804      9.8862      7.5902    126.2983      9.1569     70.2241      0.0545      2.4855    106.3268  
  2161.0000    -16.0809      9.8018      7.4728    126.9277      9.2630     72.5383      0.0614      2.4809    106.1310  
  2161.5000    -15.7623      9.7918      7.5787    125.9839      9.2915     74.4705      0.0620      2.4765    105.8624  
  2162.0000    -16.4409      9.8027      7.7519    123.6025      9.3014     75.9151      0.0459      2.4569    105.7508  
  2162.5000    -17.4446      9.7913      7.9329    120.6744      9.2946     76.0802      0.0213      2.4446    105.7610  
  2163.0000    -17.9724      9.8449      8.1086    119.1523      9.2679     78.3287      0.0198      2.4422    105.6190  
  2163.5000    -17.5807      9.9878      8.1299    118.2994      9.2210     78.5790      0.0234      2.4379    105.1930  
  2164.0000    -17.0007     10.1863      8.1213    119.3403      9.1345     75.5341      0.0246      2.4411    104.2573  
  2164.5000    -16.3876     10.4081      8.0251    120.3024      9.1558     70.3204      0.0240      2.4492    102.7844  
  2165.0000    -15.8740     10.3075      7.9256    120.7516      9.1361     68.1773      0.0174      2.4601    101.1006  
  2165.5000    -15.5679      9.8390      7.9006    121.6110      9.1223     67.5144      0.0224      2.5004    100.6001  
  2166.0000    -15.7175      9.9797      7.8115    123.0930      9.1180     69.2348      0.0084      2.5170    101.2639  
  2166.5000    -16.1434      9.7993      7.7032    124.5400      9.1156     70.1555      0.0260      2.5241    102.8156  
  2167.0000    -16.7982      9.6384      7.6311    126.2505      9.1219     72.8516      0.0606      2.5400    104.6871  
  2167.5000    -17.9529      9.6495      7.4608    127.9722      9.1354     75.7393      0.0906      2.5454    105.7491  
  2168.0000    -18.5573      9.8169      7.4090    128.8658      9.1305     76.5377      0.0725      2.5147    106.4356  
  2168.5000    -18.4839      9.9091      7.4381    128.4745      9.1083     75.9574      0.0517      2.4753    106.5164  
  2169.0000    -18.5576     10.0073      7.4389    127.1718      9.0762     75.0860      0.0417      2.4703    106.1028  
  2169.5000    -18.7077      9.6609      7.5869    125.8074      9.0209     74.1780      0.0479      2.4685    105.6054  
  2170.0000    -18.4979     10.0721      7.6031    124.4012      8.9224     74.4485      0.0581      2.4559    104.9214  
  2170.5000    -18.1762     10.2938      7.6474    124.0515      8.9035     76.5646      0.0711      2.4721    105.0617  
  2171.0000    -17.8685     10.1680      7.7335    124.1046      8.8845     77.9594      0.0583      2.4531    105.2466  
  2171.5000    -17.4963     10.1915      7.7319    124.1989      8.8656     78.8794      0.0630      2.4525    105.4568  
  2172.0000    -17.4785     10.2477      7.6913    124.3083      8.8467     77.4886      0.0531      2.4405    105.6711  
  2172.5000    -17.8091     10.2307      7.6562    124.2500      8.8486     78.0359      0.0363      2.4179    105.7461  
  2173.0000    -17.9744     10.1976      7.6444    124.7998      8.8804     79.3113      0.0478      2.4257    106.1491  
  2173.5000    -17.8713     10.1976      7.6415    125.3500      8.9187     78.2426      0.0819      2.4556    106.7861  
  2174.0000    -18.0005     10.1976      7.6579    125.5063      8.9500     77.0693      0.0796      2.4558    107.3478  
  2174.5000    -17.9887      9.9897      7.6109    125.7972      8.9812     80.6840      0.0735      2.4515    108.2948  
  2175.0000    -18.5126      9.9655      7.6123    125.7916      9.0441     85.3215      0.0742      2.4523    109.1404  
  2175.5000    -19.4845      9.9414      7.6568    125.3494      9.1060     87.5515      0.0585      2.4438    109.9656  
  2176.0000    -19.6946      9.8844      7.7675    124.1875      9.0737     85.5348      0.0439      2.4340    110.6071  
  2176.5000    -19.7866      9.9885      7.8808    122.5107      9.0165     85.2280      0.0271      2.4173    111.3613  
