~VERSION INFORMATION
 VERS.                           2.00:        CWLS LOG ASCII STANDARD - VERSION 2.00
 WRAP.                             NO:        ONE LINE PER DEPTH STEP
~WELL INFORMATION
#MNEM.UNIT                   DATA             INFORMATION
#----------             --------------        ------------------------------
 STRT.F                      990.0000:        START DEPTH
 STOP.F                     2362.0000:        STOP DEPTH
 STEP.F                        0.5000:        STEP VALUE
 NULL.                      -999.2500:        NULL VALUE
 COMP.                 U.S. AIR FORCE:        COMPANY  
 LOC .                   14  22N  18W:        LOCATION   
 DATE.                        4/21/69:        LOG DATE 
 WELL.       SOUTH BARROW GAS WELL #8:        WELL     
 UWI .                   500232000200:        UNIQUE WELL ID 
 API .                   500232000200:        UNIQUE WELL IDENTIFIER 
 FLD .                S. B. GAS FIELD:        FIELD    
 CNTY.                   POINT BARROW:        COUNTY  
 STAT.                         ALASKA:        STATE   
 CTRY.                            USA:        COUNTRY 
 OPER.                 U.S. AIR FORCE:        OPERATOR  
 SRVC.                   SCHLUMBERGER:        SERVICE COMPANY 
 LAT .                         0.0000:        LATITUDE
 LON .                         0.0000:        LONGITUDE
 DIGS.               CENTER LINE DATA:        DIGITIZING COMPANY 
~CURVE INFORMATION      
#MNEM        .UNIT         API CODE           CURVE DESCRIPTION
#-----------------      --------------        ------------------------------
 DEPT        .F                      :        1  DEPTH
 SP          .MV                     :        2  
 ASN         .OHMM                   :        3  
 ILD         .OHMM                   :        4  
 CILD        .MMHO                   :        5  
 CALI        .IN                     :        6  
 DT          .US/F                   :        7  
~PARAMETER INFORMATION       
#MNEM.UNIT                  VALUE             DESCRIPTION OF MNEMONIC
#---------             ---------------        ------------------------------
 EKB .F                       31.0000:        KELLY BUSHING
 TD  .F                     2363.0000:        TOTAL DEPTH
 BHT .F                       74.0000:        BOTTOM HOLE TEMPERATURE
 BS  .                         8.6250:        BIT SIZE
 FD  .                        10.6000:        FLUID DENSITY
 CSIZ.                         9.6250:        CASING SIZE
 CBD .F                      992.0000:        CASING DRILLER 1
 CBL .F                      990.0000:        CASING LOGGER 1
 DFT .                            Gel:        TYPE FLUID IN HOLE
 DFV .                        54.0000:        VISCOSITY
 DFPH.                        10.0000:        PH
 DFL .                         4.8000:        FLUID LOSS
 RMS .                         2.0000:        RM
 MST .F                       82.0000:        RM MEAS. TEMP.
 RMF .                         2.1800:        RMF
 MFST.F                       61.0000:        RMF MEAS. TEMP.
 RMC .                         4.1900:        RMC
 MCST.F                       53.0000:        RMC MEAS. TEMP.
~OTHER INFORMATION
~A    DEPTH          SP         ASN         ILD        CILD        CALI          DT  
# ...
  1507.0000    -38.7276     11.2819     11.3394     86.1086   -999.2500   -999.2500  
  1507.5000    -38.8518     11.3640     11.3374     85.3631   -999.2500   -999.2500  
  1508.0000    -38.9220     11.3573     11.3354     85.8166   -999.2500   -999.2500  
  1508.5000    -38.7767     11.3676     11.3334     86.1421   -999.2500   -999.2500  
  1509.0000    -38.4519     11.3123     11.3314     86.7098   -999.2500   -999.2500  
  1509.5000    -38.8101     11.2700     11.2810     87.4424   -999.2500   -999.2500  
  1510.0000    -39.2364     11.1173     11.1445     87.6596   -999.2500   -999.2500  
  1510.5000    -39.6626     10.9216     11.0079     88.3370   -999.2500   -999.2500  
  1511.0000    -40.0845     10.8397     10.8713     89.4400   -999.2500   -999.2500  
  1511.5000    -40.4329     10.7879     10.7348     90.3160   -999.2500   -999.2500  
  1512.0000    -40.7606     10.8254     10.7254     90.6921   -999.2500   -999.2500  
  1512.5000    -41.3213     10.8327     10.7341     90.5449   -999.2500   -999.2500  
  1513.0000    -41.8756     10.8656     10.7428     89.8965   -999.2500   -999.2500  
  1513.5000    -42.5326     10.9282     10.7515     89.7858   -999.2500   -999.2500  
  1514.0000    -42.2633     10.9209     10.7602     90.1878   -999.2500   -999.2500  
  1514.5000    -41.5554     10.9181     10.7688     91.2537   -999.2500   -999.2500  
  1515.0000    -40.7139     10.8063     10.7775     92.0469   -999.2500   -999.2500  
  1515.5000    -39.7475     10.7651     10.7697     92.2951   -999.2500   -999.2500  
  1516.0000    -40.3390     10.6646     10.7583     92.2422   -999.2500   -999.2500  
  1516.5000    -40.7327     10.6287     10.7470     92.3163   -999.2500   -999.2500  
  1517.0000    -41.7807     10.6287     10.7356     92.7422   -999.2500   -999.2500  
  1517.5000    -42.8772     10.6287     10.7243     93.5335   -999.2500   -999.2500  
  1518.0000    -41.9599     10.6820     10.7249     93.7179   -999.2500   -999.2500  
  1518.5000    -40.4557     10.7506     10.7414     93.5174   -999.2500   -999.2500  
  1519.0000    -39.5137     10.8087     10.7579     92.4119   -999.2500   -999.2500  
  1519.5000    -38.9046     10.8102     10.7743     91.0134   -999.2500   -999.2500  
  1520.0000    -38.5347     10.7831     10.7908     90.4891   -999.2500   -999.2500  
  1520.5000    -38.4876     10.7506     10.8072     90.1218   -999.2500   -999.2500  
  1521.0000    -38.6889     10.7052     10.8237     90.3574   -999.2500   -999.2500  
  1521.5000    -38.3517     10.6811     10.8402     90.6133   -999.2500   -999.2500  
  1522.0000    -38.3998     10.6786     10.8566     90.7983   -999.2500   -999.2500  
  1522.5000    -38.3315     10.7397     10.8731     91.0907   -999.2500   -999.2500  
  1523.0000    -38.3898     10.8173     10.8895     90.4866   -999.2500   -999.2500  
  1523.5000    -38.5302     10.8886     10.9060     90.1658   -999.2500   -999.2500  
  1524.0000    -38.6778     10.9281     10.8928     89.9118   -999.2500   -999.2500  
  1524.5000    -38.8068     10.9281     10.8776     90.2216   -999.2500   -999.2500  
  1525.0000    -38.8571     10.8791     10.8625     89.6986   -999.2500   -999.2500  
  1525.5000    -38.9790     10.8382     10.8473     89.3769   -999.2500   -999.2500  
  1526.0000    -38.9978     10.8605     10.8322     89.6364   -999.2500   -999.2500  
  1526.5000    -38.7731     10.8283     10.8170     90.1919   -999.2500   -999.2500  
  1527.0000    -38.4377     10.7975     10.8019     90.9691   -999.2500   -999.2500  
  1527.5000    -38.4504     10.7531     10.7867     91.9087   -999.2500   -999.2500  
  1528.0000    -38.3404     10.6922     10.6833     92.6410   -999.2500   -999.2500  
  1528.5000    -38.0918     10.5642     10.5652     93.2831   -999.2500   -999.2500  
  1529.0000    -37.8532     10.4032     10.4472     94.1748   -999.2500   -999.2500  
  1529.5000    -37.7435     10.2481     10.3292     95.5534   -999.2500   -999.2500  
  1530.0000    -37.7848     10.1172     10.0146     98.7373   -999.2500   -999.2500  
  1530.5000    -37.9496      9.9862      9.6703    101.9571   -999.2500   -999.2500  
  1531.0000    -38.4641      9.8552      9.1484    105.9955   -999.2500   -999.2500  
  1531.5000    -39.0512      9.7242      8.7890    109.6496   -999.2500   -999.2500  
  1532.0000    -40.4247      9.7664      8.7663    111.5695   -999.2500   -999.2500  
  1532.5000    -42.9104      9.8463      8.6940    112.0260   -999.2500   -999.2500  
  1533.0000    -47.5681      9.9262      8.6869    111.9761   -999.2500   -999.2500  
  1533.5000    -52.6267      9.9626      8.7264    111.9262   -999.2500   -999.2500  
  1534.0000    -54.7840      9.9676      8.8438    111.2360   -999.2500   -999.2500  
  1534.5000    -50.9842      9.9726      9.0783    109.1802   -999.2500   -999.2500  
  1535.0000    -45.7084     10.0143      9.4204    105.9384   -999.2500   -999.2500  
  1535.5000    -42.3336     10.0911      9.7624    101.8855   -999.2500   -999.2500  
  1536.0000    -41.2389     10.2051     10.1045     98.6005   -999.2500   -999.2500  
  1536.5000    -39.8809     10.3671     10.3697     96.2497   -999.2500   -999.2500  
  1537.0000    -39.1231     10.4993     10.4434     94.4640   -999.2500   -999.2500  
  1537.5000    -38.4772     10.5325     10.5171     92.9629   -999.2500   -999.2500  
  1538.0000    -37.8887     10.5721     10.5909     91.6488   -999.2500   -999.2500  
  1538.5000    -37.3717     10.6438     10.6646     90.4664   -999.2500   -999.2500  
  1539.0000    -37.2073     10.7905     10.7383     89.6919   -999.2500   -999.2500  
  1539.5000    -37.4613     10.9479     10.9790     88.4963   -999.2500   -999.2500  
  1540.0000    -38.6668     11.1592     11.2278     86.4393   -999.2500   -999.2500  
  1540.5000    -39.8857     11.4667     11.4765     84.5488   -999.2500   -999.2500  
  1541.0000    -39.8606     11.7357     11.7253     82.9967   -999.2500   -999.2500  
  1541.5000    -39.8493     11.9227     11.9741     81.2208   -999.2500   -999.2500  
  1542.0000    -40.4454     11.9863     12.1908     79.3077   -999.2500   -999.2500  
  1542.5000    -41.1956     11.8807     12.3187     78.5000   -999.2500   -999.2500  
  1543.0000    -40.4608     11.7751     12.4466     77.7855   -999.2500   -999.2500  
  1543.5000    -39.8938     11.7928     12.4624     77.9901   -999.2500   -999.2500  
  1544.0000    -39.8677     11.8707     12.2645     79.1826   -999.2500   -999.2500  
  1544.5000    -39.8497     11.8190     11.8883     81.0697   -999.2500   -999.2500  
  1545.0000    -40.0308     11.5004     11.5521     84.3306   -999.2500   -999.2500  
  1545.5000    -40.3908     11.1478     11.2200     88.7189   -999.2500   -999.2500  
  1546.0000    -41.0645     10.6579     10.8880     92.9310   -999.2500   -999.2500  
  1546.5000    -41.8670     10.2629     10.5559     96.5723   -999.2500   -999.2500  
  1547.0000    -43.3097     10.0156     10.2238     99.9671   -999.2500   -999.2500  
  1547.5000    -46.4811      9.7197      9.8918    102.4894   -999.2500   -999.2500  
  1548.0000    -47.7536      9.5778      9.5597    104.4888   -999.2500   -999.2500  
  1548.5000    -45.8852      9.7594      9.5127    105.3477   -999.2500   -999.2500  
  1549.0000    -43.6924      9.7393      9.6275    104.0115   -999.2500   -999.2500  
  1549.5000    -41.0600      9.8842      9.7422    103.6269   -999.2500   -999.2500  
  1550.0000    -39.4230      9.9421      9.8569    102.0243   -999.2500   -999.2500  
  1550.5000    -38.7629      9.9853      9.9716     99.7728   -999.2500   -999.2500  
  1551.0000    -38.6998     10.0219     10.0864     99.1766   -999.2500   -999.2500  
  1551.5000    -38.6669     10.0840     10.1755     98.4146   -999.2500   -999.2500  
  1552.0000    -38.3363     10.1461     10.2573     97.3893   -999.2500   -999.2500  
  1552.5000    -38.0515     10.2628     10.3392     94.5314   -999.2500   -999.2500  
  1553.0000    -38.1647     10.4369     10.4211     92.5111   -999.2500   -999.2500  
  1553.5000    -38.3890     10.6774     10.5030     91.4797   -999.2500   -999.2500  
