~VERSION INFORMATION
 VERS.                           2.00:        CWLS LOG ASCII STANDARD - VERSION 2.00
 WRAP.                             NO:        ONE LINE PER DEPTH STEP
~WELL INFORMATION
#MNEM.UNIT                   DATA             INFORMATION
#----------             --------------        ------------------------------
 STRT.F                       52.0000:        START DEPTH
 STOP.F                     2296.0000:        STOP DEPTH
 STEP.F                        0.5000:        STEP VALUE
 NULL.                      -999.2500:        NULL VALUE
 COMP.                     USGS/NPR-A:        COMPANY  
 LOC .                   23  22N  17W:        LOCATION   
 DATE.                        4/30/78:        LOG DATE 
 WELL.               SOUTH BARROW #19:        WELL     
 UWI .                   500232001200:        UNIQUE WELL ID 
 API .                   500232001200:        UNIQUE WELL IDENTIFIER 
 FLD .                   SOUTH BARROW:        FIELD    
 CNTY.                    NORTH SLOPE:        COUNTY  
 STAT.                         ALASKA:        STATE   
 CTRY.                            USA:        COUNTRY 
 OPER.                     USGS/NPR-A:        OPERATOR  
 SRVC.                   SCHLUMBERGER:        SERVICE COMPANY 
 LAT .                         0.0000:        LATITUDE
 LON .                         0.0000:        LONGITUDE
 DIGS.               CENTER LINE DATA:        DIGITIZING COMPANY 
~CURVE INFORMATION      
#MNEM        .UNIT         API CODE           CURVE DESCRIPTION
#-----------------      --------------        ------------------------------
 DEPT        .F                      :        1  DEPTH
 GR          .GAPI                   :        2  
 CALI        .IN                     :        3  
 RHOB        .G/C3                   :        4  
 DRHO        .G/C3                   :        5  
 NPHI        .%                      :        6  
 DT          .US/F                   :        7  
 SP          .MV                     :        8  
 ILD         .OHMM                   :        9  
 ILM         .OHMM                   :        10 
 LL8         .OHMM                   :        11 
 LLD         .OHMM                   :        12 
 LLS         .OHMM                   :        13 
 MSFL        .OHMM                   :        14 
~PARAMETER INFORMATION       
#MNEM.UNIT                  VALUE             DESCRIPTION OF MNEMONIC
#---------             ---------------        ------------------------------
 EKB .F                       30.0000:        KELLY BUSHING
 TD  .F                     2300.0000:        TOTAL DEPTH
 BHT .F                      173.0000:        BOTTOM HOLE TEMPERATURE
 BS  .                         8.5000:        BIT SIZE
 FD  .                        11.6000:        FLUID DENSITY
 CSIZ.                         9.6250:        CASING SIZE
 CBD .F                     1491.0000:        CASING DRILLER 1
 CBL .F                     1490.0000:        CASING LOGGER 1
 DFT .                  Miscellaneous:        TYPE FLUID IN HOLE
 DFV .                        46.0000:        VISCOSITY
 DFPH.                         8.5000:        PH
 DFL .                         6.0000:        FLUID LOSS
 RMS .                         0.1090:        RM
 MST .F                       58.0000:        RM MEAS. TEMP.
 RMF .                         0.0720:        RMF
 MFST.F                       61.0000:        RMF MEAS. TEMP.
 RMC .                         0.3000:        RMC
 MCST.F                       70.0000:        RMC MEAS. TEMP.
~OTHER INFORMATION
~A    DEPTH          GR        CALI        RHOB        DRHO        NPHI          DT          SP         ILD         ILM         LL8         LLD         LLS        MSFL  
# ...
   676.0000     91.6697     12.6581   -999.2500   -999.2500   -999.2500    154.7214    -59.8508      8.9860      6.8404     14.4412   -999.2500   -999.2500   -999.2500  
   676.5000     92.6839     12.6585   -999.2500   -999.2500   -999.2500    155.5115    -59.8915      8.8910      6.7692     14.6926   -999.2500   -999.2500   -999.2500  
   677.0000     93.0695     12.6557   -999.2500   -999.2500   -999.2500    156.4376    -59.8931      8.8246      6.6838     14.5934   -999.2500   -999.2500   -999.2500  
   677.5000     93.4902     12.6915   -999.2500   -999.2500   -999.2500    156.9344    -59.7576      8.7193      6.5628     14.5001   -999.2500   -999.2500   -999.2500  
   678.0000     93.4332     12.7385   -999.2500   -999.2500   -999.2500    156.5493    -59.4262      8.5738      6.3846     14.3727   -999.2500   -999.2500   -999.2500  
   678.5000     93.0453     12.7625   -999.2500   -999.2500   -999.2500    155.1116    -59.2750      8.5451      6.2502     14.3404   -999.2500   -999.2500   -999.2500  
   679.0000     92.7747     12.7996   -999.2500   -999.2500   -999.2500    153.8046    -59.3553      8.5591      6.2768     14.2911   -999.2500   -999.2500   -999.2500  
   679.5000     92.3616     12.9199   -999.2500   -999.2500   -999.2500    153.2348    -59.2613      8.5774      6.2666     14.0963   -999.2500   -999.2500   -999.2500  
   680.0000     91.1274     12.8346   -999.2500   -999.2500   -999.2500    153.1284    -59.0320      8.8511      6.6134     13.9427   -999.2500   -999.2500   -999.2500  
   680.5000     90.2787     12.7861   -999.2500   -999.2500   -999.2500    153.1945    -58.7061      9.2131      6.8706     13.9931   -999.2500   -999.2500   -999.2500  
   681.0000     89.8493     12.8297   -999.2500   -999.2500   -999.2500    153.5209    -57.7450      9.4452      7.2643     14.6309   -999.2500   -999.2500   -999.2500  
   681.5000     89.9598     12.9098   -999.2500   -999.2500   -999.2500    154.2032    -56.6901      9.7809      7.4300     15.5299   -999.2500   -999.2500   -999.2500  
   682.0000     91.5155     12.9059   -999.2500   -999.2500   -999.2500    154.9913    -55.7480     10.1285      7.5995     16.2573   -999.2500   -999.2500   -999.2500  
   682.5000     92.9480     12.9517   -999.2500   -999.2500   -999.2500    155.3269    -55.4550     10.4884      7.7729     15.1571   -999.2500   -999.2500   -999.2500  
   683.0000     92.6072     12.9642   -999.2500   -999.2500   -999.2500    153.7408    -56.2902     10.8545      7.9502     13.6062   -999.2500   -999.2500   -999.2500  
   683.5000     90.6948     12.9739   -999.2500   -999.2500   -999.2500    147.3199    -57.1292     11.1054      8.1859     12.7623   -999.2500   -999.2500   -999.2500  
   684.0000     87.5142     13.1600   -999.2500   -999.2500   -999.2500    140.8991    -57.9927     10.9917      8.4364     13.2374   -999.2500   -999.2500   -999.2500  
   684.5000     84.2649     13.2894   -999.2500   -999.2500   -999.2500    136.8743    -58.0915     10.7715      8.3500     13.6174   -999.2500   -999.2500   -999.2500  
   685.0000     81.2480     13.0762   -999.2500   -999.2500   -999.2500    136.7425    -57.7346     10.5556      8.1670     13.5770   -999.2500   -999.2500   -999.2500  
   685.5000     78.3465     12.8823   -999.2500   -999.2500   -999.2500    140.6627    -57.6318     10.4909      8.1318     13.4437   -999.2500   -999.2500   -999.2500  
   686.0000     75.7154     12.8902   -999.2500   -999.2500   -999.2500    144.5829    -57.8280     10.4590      8.0869     13.1874   -999.2500   -999.2500   -999.2500  
   686.5000     73.7807     12.8870   -999.2500   -999.2500   -999.2500    147.6602    -58.0831     10.5271      8.0677     12.8141   -999.2500   -999.2500   -999.2500  
   687.0000     72.3475     12.8233   -999.2500   -999.2500   -999.2500    146.6556    -58.4374     10.7828      8.2204     12.1492   -999.2500   -999.2500   -999.2500  
   687.5000     71.5322     12.8428   -999.2500   -999.2500   -999.2500    144.8639    -58.6555     11.0497      8.5007     11.6509   -999.2500   -999.2500   -999.2500  
   688.0000     70.7395     12.9157   -999.2500   -999.2500   -999.2500    143.0722    -58.0392     11.5376      9.3191     13.3075   -999.2500   -999.2500   -999.2500  
   688.5000     70.1030     12.9854   -999.2500   -999.2500   -999.2500    141.5370    -56.9765     11.6167      9.5881     16.7465   -999.2500   -999.2500   -999.2500  
   689.0000     71.0817     13.0009   -999.2500   -999.2500   -999.2500    142.2863    -56.7005     11.6729      9.5543     18.4650   -999.2500   -999.2500   -999.2500  
   689.5000     72.3322     13.0164   -999.2500   -999.2500   -999.2500    143.0357    -57.3335     11.6870      9.3092     17.0190   -999.2500   -999.2500   -999.2500  
   690.0000     72.0948     13.0319   -999.2500   -999.2500   -999.2500    141.3515    -57.7643     11.6196      9.0703     15.6441   -999.2500   -999.2500   -999.2500  
   690.5000     70.9241     12.9715   -999.2500   -999.2500   -999.2500    137.6743    -58.1436     11.4811      8.8377     14.7335   -999.2500   -999.2500   -999.2500  
   691.0000     69.4483     12.8852   -999.2500   -999.2500   -999.2500    129.7249    -58.3941     11.2182      8.4144     13.4185   -999.2500   -999.2500   -999.2500  
   691.5000     68.4245     12.7730   -999.2500   -999.2500   -999.2500    124.6617    -58.2393     10.7321      8.1317     12.4805   -999.2500   -999.2500   -999.2500  
   692.0000     68.3634     12.6843   -999.2500   -999.2500   -999.2500    123.4547    -58.0379     10.2423      7.8591     12.4283   -999.2500   -999.2500   -999.2500  
   692.5000     70.2218     12.6829   -999.2500   -999.2500   -999.2500    127.3849    -58.0525      9.7962      7.6480     12.8913   -999.2500   -999.2500   -999.2500  
   693.0000     72.1462     12.6815   -999.2500   -999.2500   -999.2500    135.7049    -58.5631      9.2928      7.3944     12.7296   -999.2500   -999.2500   -999.2500  
   693.5000     74.3315     12.7444   -999.2500   -999.2500   -999.2500    140.2607    -58.6726      9.3956      7.1746     12.2645   -999.2500   -999.2500   -999.2500  
   694.0000     76.6591     12.7671   -999.2500   -999.2500   -999.2500    142.7994    -57.9210      9.4784      7.4820     12.6948   -999.2500   -999.2500   -999.2500  
   694.5000     77.7041     12.7772   -999.2500   -999.2500   -999.2500    145.3952    -57.2928      9.4941      7.7008     13.8330   -999.2500   -999.2500   -999.2500  
   695.0000     77.6598     12.8236   -999.2500   -999.2500   -999.2500    145.4485    -57.2647      9.6608      7.8125     14.1316   -999.2500   -999.2500   -999.2500  
   695.5000     77.4400     12.8906   -999.2500   -999.2500   -999.2500    145.1822    -57.5574     10.0449      7.8996     13.6066   -999.2500   -999.2500   -999.2500  
   696.0000     76.8549     12.8802   -999.2500   -999.2500   -999.2500    144.1023    -58.1847     10.3250      8.6386     13.3359   -999.2500   -999.2500   -999.2500  
   696.5000     75.0939     12.8771   -999.2500   -999.2500   -999.2500    143.3150    -58.8088     10.5416      8.3158     13.7632   -999.2500   -999.2500   -999.2500  
   697.0000     73.2329     12.9184   -999.2500   -999.2500   -999.2500    143.4954    -59.3412     10.6812      8.2547     13.8112   -999.2500   -999.2500   -999.2500  
   697.5000     72.6562     12.9298   -999.2500   -999.2500   -999.2500    143.9610    -59.0214     10.4099      8.2018     13.0610   -999.2500   -999.2500   -999.2500  
   698.0000     73.3144     12.8992   -999.2500   -999.2500   -999.2500    144.9389    -58.1623      9.9119      8.1958     12.7312   -999.2500   -999.2500   -999.2500  
   698.5000     74.3422     12.8178   -999.2500   -999.2500   -999.2500    145.7522    -57.8464      9.6236      7.8159     12.6441   -999.2500   -999.2500   -999.2500  
   699.0000     74.5753     12.8054   -999.2500   -999.2500   -999.2500    146.9299    -58.0959      9.4563      7.3559     12.2153   -999.2500   -999.2500   -999.2500  
   699.5000     74.3274     12.8835   -999.2500   -999.2500   -999.2500    146.9902    -58.5700      9.1750      7.1076     11.6492   -999.2500   -999.2500   -999.2500  
