~VERSION INFORMATION
 VERS.                           2.00:        CWLS LOG ASCII STANDARD - VERSION 2.00
 WRAP.                             NO:        ONE LINE PER DEPTH STEP
~WELL INFORMATION
#MNEM.UNIT                   DATA             INFORMATION
#----------             --------------        ------------------------------
 STRT.F                      101.0000:        START DEPTH
 STOP.F                     3666.0000:        STOP DEPTH
 STEP.F                        0.5000:        STEP VALUE
 NULL.                      -999.2500:        NULL VALUE
 COMP.     USGS/NPR HUSKY OIL COMPANY:        COMPANY
 LOC .                      9 20N 19W:        LOCATION
 DATE.                       12/30/79:        LOG DATE
 WELL.           WALAKPA TEST WELL #1:        WELL
 UWI .                   500232001300:        UNIQUE WELL ID
 API .                   500232001300:        UNIQUE WELL IDENTIFIER
 FLD .                        WILDCAT:        FIELD
 CNTY.                    NORTH SLOPE:        COUNTY
 STAT.                         ALASKA:        STATE
 CTRY.                            USA:        COUNTRY
 OPER.     USGS/NPR HUSKY OIL COMPANY:        OPERATOR
 SRVC.                   SCHLUMBERGER:        SERVICE COMPANY
 LAT .                         0.0000:        LATITUDE
 LON .                         0.0000:        LONGITUDE
 DIGS.               CENTER LINE DATA:        DIGITIZING COMPANY
~CURVE INFORMATION      
#MNEM        .UNIT         API CODE           CURVE DESCRIPTION
#-----------------      --------------        ------------------------------
 DEPT        .F                      :        1  DEPTH
 GR          .GAPI                   :        2  
 CALI        .IN                     :        3  
 RHOB        .G/C3                   :        4  
 DRHO        .G/C3                   :        5  
 NPHI        .%                      :        6  
 DT          .US/F                   :        7  
 SP          .MV                     :        8  
 ILD         .OHMM                   :        9  
 ILM         .OHMM                   :        10 
 LL8         .OHMM                   :        11 
 SFL         .OHMM                   :        12 
~PARAMETER INFORMATION
#MNEM.UNIT                  VALUE             DESCRIPTION OF MNEMONIC
#---------             ---------------        ------------------------------
 EKB .F                       50.0000:        KELLY BUSHING
 TD  .F                     3672.0000:        TOTAL DEPTH
 BHT .F                       80.0000:        BOTTOM HOLE TEMPERATURE
 BS  .                        12.2500:        BIT SIZE
 FD  .                         9.9000:        FLUID DENSITY
 CSIZ.                        13.3750:        CASING SIZE
 CBD .F                      100.0000:        CASING DRILLER 1
 CBL .F                      106.0000:        CASING LOGGER 1
 DFT .                             99:        TYPE FLUID IN HOLE
 DFV .                        45.0000:        VISCOSITY
 DFPH.                         8.0000:        PH
 DFL .                        23.0000:        FLUID LOSS
 RMS .                         5.9200:        RM
 MST .F                       58.0000:        RM MEAS. TEMP.
 RMF .                         6.2200:        RMF
 MFST.F                       57.0000:        RMF MEAS. TEMP.
 RMC .                         7.0500:        RMC
 MCST.F                       57.0000:        RMC MEAS. TEMP.
~OTHER INFORMATION
~A    DEPTH          GR        CALI        RHOB        DRHO        NPHI          DT          SP         ILD         ILM         LL8         SFL 
# ...
  3629.0000     64.9596      8.2644      2.5498     -0.0053     12.7779     61.0662    -42.0144     52.5237     49.6487   -999.2500     88.3429 
  3629.5000     66.3153      8.2689      2.5479     -0.0004     12.7177     61.1950    -38.2730     55.2707     54.1565   -999.2500     84.5953 
  3630.0000     68.3007      8.2363      2.5710      0.0044     12.6550     61.2516    -34.1972     56.4823     52.9871   -999.2500     87.7993 
  3630.5000     73.7303      8.2305      2.5848      0.0087     12.7207     61.1237    -29.2429     55.9458     51.1757   -999.2500     93.9177 
  3631.0000     79.7700      8.2571      2.5923      0.0128     13.0728     61.3177    -24.5339     53.1619     49.4263   -999.2500     82.5774 
  3631.5000     85.3477      8.2520      2.6057      0.0112     14.3358     63.9797    -20.2574     50.5166     47.7366   -999.2500     69.9352 
  3632.0000     91.6189      8.2606      2.6166      0.0047     15.7491     65.8184    -17.3907     48.8358     46.3652   -999.2500     63.0629 
  3632.5000     97.4035      8.2631      2.6249     -0.0017     17.1624     65.4261    -15.1310     47.7193     45.3052   -999.2500     63.5493 
  3633.0000    100.4161      8.2377      2.6415     -0.0050     19.0903     66.9578    -13.6992     47.3559     45.2126   -999.2500     60.2273 
  3633.5000    100.7059      8.2162      2.6498     -0.0043     21.1822     66.3382    -12.7859     47.3559     45.2126   -999.2500     57.1429 
  3634.0000    101.5978      8.2380      2.6425     -0.0002     23.5751     66.9534    -11.6111     47.7036     45.4325   -999.2500     54.2714 
  3634.5000    104.0137      8.2339      2.6246      0.0039     26.8136     68.3178    -10.4104     48.4453     46.1376   -999.2500     56.2320 
  3635.0000    106.4530      8.2243      2.6336      0.0080     27.7087     68.2607     -9.7396     49.1987     46.8537   -999.2500     63.5651 
  3635.5000    107.6913      8.2312      2.6459      0.0100     27.5069     67.8563     -9.4905     49.9637     47.5808   -999.2500     72.3859 
  3636.0000    106.7537      8.2518      2.6302      0.0026     27.2791     67.6608     -8.7159     50.7406     48.3193   -999.2500     72.8262 
  3636.5000    105.4418      8.2621      2.6415     -0.0014     28.2767     67.7261     -8.0430     51.2724     48.9288   -999.2500     71.0332 
  3637.0000    103.7412      8.2557      2.6558      0.0071     29.2170     67.7778     -7.8908     51.9354     49.5018   -999.2500     69.3120 
  3637.5000    101.9496      8.2495      2.6600      0.0135     29.8435     67.6477     -7.5774     52.5525     50.0942   -999.2500     66.8405 
  3638.0000    102.3675      8.2433      2.6560      0.0153     30.3166     67.5226     -7.3877     53.1768     50.6893   -999.2500     62.4225 
  3638.5000    102.1787      8.2371      2.6463      0.0172     29.6582     67.3855     -7.2234     53.8086     51.2915   -999.2500     58.2966 
  3639.0000    101.3769      8.2536      2.6428      0.0165     29.6753     67.3043     -7.0250     54.4479     51.9009   -999.2500     55.3976 
  3639.5000    100.9949      8.2617      2.6298      0.0129     29.7320     67.2804     -6.7714     55.0949     52.5175   -999.2500     55.4180 
  3640.0000    101.3659      8.2548      2.6030      0.0093     29.1195     67.1964     -6.5178     55.1426     52.6380   -999.2500     57.3447 
  3640.5000    101.2225      8.2468      2.5942      0.0057     28.0340     66.9854     -6.2642     54.9883     52.4913   -999.2500     59.4512 
  3641.0000    100.4842      8.2433      2.6004      0.0021     27.1329     67.0233     -6.0082     54.8345     52.3451   -999.2500     61.7750 
  3641.5000    100.8889      8.2586      2.6145     -0.0007     27.1428     67.2372     -5.8402     54.6811     52.1992   -999.2500     60.1340 
  3642.0000    102.4522      8.2535      2.6329      0.0071     27.8736     67.7352     -5.8879     55.0565     52.4685   -999.2500     58.4856 
  3642.5000    103.9479      8.2361      2.6457      0.0122     28.4185     68.2643     -6.0093     55.7869     53.1645   -999.2500     57.1760 
  3643.0000    104.7552      8.2335      2.6560      0.0151     28.8409     68.2912     -6.2806     57.2616     54.2565   -999.2500     57.2352 
  3643.5000    105.3528      8.2487      2.6669      0.0180     29.1034     67.9753     -6.5993     58.8658     55.7765   -999.2500     59.5366 
  3644.0000    105.9744      8.2488      2.6513      0.0160     29.3213     67.2207     -6.8056     60.5150     57.3392   -999.2500     62.3800 
  3644.5000    109.1170      8.2582      2.6508      0.0137     29.3695     66.3188     -7.0075     62.2103     58.9456   -999.2500     65.6465 
  3645.0000    110.0209      8.2503      2.6360      0.0113     29.1624     65.8608     -7.2094     63.9531     60.5970   -999.2500     68.7751 
  3645.5000    108.3372      8.2327      2.6293      0.0090     28.7420     65.6958     -7.4113     65.7448     62.2947   -999.2500     71.5991 
  3646.0000    106.2584      8.2388      2.6182      0.0059     28.1407     65.2732     -7.4654     67.3461     63.9524   -999.2500     74.0683 
  3646.5000    105.7783      8.2464      2.6302      0.0019     27.8531     64.6769     -7.4490     68.9157     65.4429   -999.2500     76.0435 
  3647.0000    106.4481      8.2469      2.6433      0.0080     27.6177     64.3062     -7.4327     70.5219     66.9682   -999.2500     77.1246 
  3647.5000    107.4113      8.2430      2.6592      0.0143     27.6109     63.7908     -7.4164     72.1655     68.5291   -999.2500     77.8910 
  3648.0000    108.5704      8.2392      2.6629      0.0182     27.6632     62.9532     -7.4001     73.1207     69.7988   -999.2500     78.6650 
  3648.5000    108.8682      8.2353      2.6662      0.0221     27.6813     62.4827     -7.3838     72.8798     69.5688   -999.2500     79.0505 
  3649.0000    109.5803      8.2314      2.6673      0.0228     27.4957     62.2554     -7.3283     72.6396     69.3396   -999.2500     78.6147 
  3649.5000    109.7970      8.2295      2.6647      0.0226     27.2403     62.0280     -7.2484     72.4003     69.0762   -999.2500     78.1813 
  3650.0000    109.6575      8.2280      2.6592      0.0209     26.9949     62.0377     -7.1684     71.7822     68.4728   -999.2500     77.7502 
  3650.5000    109.5625      8.2273      2.6558      0.0178     26.7473     62.1983     -7.0885     71.1543     67.8746   -999.2500     77.0706 
  3651.0000    109.9291      8.2272      2.6552      0.0141     26.6106     62.5174     -6.9721     70.5320     67.2817   -999.2500     75.2203 
  3651.5000    109.0640      8.2164      2.6602      0.0112     27.0186     62.8366     -6.8450     69.9150     66.6940   -999.2500     73.2215 
  3652.0000    109.4360      8.2216      2.6632      0.0085     27.8395     63.3457     -6.7224     69.3035     66.1114   -999.2500     72.2329 
  3652.5000    107.5396      8.2247      2.6607      0.0058     28.3530     63.8313     -6.6060     68.9047     65.7743   -999.2500     72.1995 
  3653.0000    104.0642      8.2264      2.6544      0.0031     28.8246     63.7932     -6.3406     68.6459     65.1932   -999.2500     72.3820 
  3653.5000    100.7319      8.2343      2.6576      0.0011     29.0895     63.6168     -6.0628     68.3881     64.5571   -999.2500     75.5317 
  3654.0000    101.0018      8.2347      2.6710      0.0130     28.4518     63.6436     -6.0922     68.1313     63.9271   -999.2500     75.7078 
  3654.5000    101.9589      8.2327      2.6522      0.0100     28.3075     64.3128     -6.1585     67.8755     63.3033   -999.2500     70.5689 
  3655.0000    103.0322      8.2307      2.6287      0.0062     28.5032     65.2610     -6.1294     67.6206     62.6856   -999.2500     68.8587 
  3655.5000    104.1697      8.2286      2.6274      0.0024     28.7386     66.1113     -5.9977     67.3666     62.0740   -999.2500     68.8269 
  3656.0000    104.7900      8.2266      2.6286      0.0021     29.0253     66.3541     -5.7743     67.8966     61.4683   -999.2500     71.2367 
  3656.5000    103.9795      8.2246      2.6304      0.0041     29.3625     66.4188     -5.6035     68.6644     60.8685   -999.2500     66.7682 
