~VERSION INFORMATION
 VERS.                           2.00:        CWLS LOG ASCII STANDARD - VERSION 2.00
 WRAP.                             NO:        ONE LINE PER DEPTH STEP
~WELL INFORMATION
#MNEM.UNIT                   DATA             INFORMATION
#----------             --------------        ------------------------------
 STRT.F                       75.0000:        START DEPTH
 STOP.F                     2534.0000:        STOP DEPTH
 STEP.F                        0.5000:        STEP VALUE
 NULL.                      -999.2500:        NULL VALUE
 COMP.                      HUSKY OIL:        COMPANY  
 LOC .                   14  22N  18W:        LOCATION   
 DATE.                       12/20/76:        LOG DATE 
 WELL.               SOUTH BARROW #13:        WELL     
 UWI .                   500232000800:        UNIQUE WELL ID 
 API .                   500232000800:        UNIQUE WELL IDENTIFIER 
 FLD .                   SOUTH BARROW:        FIELD    
 CNTY.                    NORTH SLOPE:        COUNTY  
 STAT.                         ALASKA:        STATE   
 CTRY.                            USA:        COUNTRY 
 OPER.                      HUSKY OIL:        OPERATOR  
 SRVC.                   SCHLUMBERGER:        SERVICE COMPANY 
 LAT .                         0.0000:        LATITUDE
 LON .                         0.0000:        LONGITUDE
 DIGS.               CENTER LINE DATA:        DIGITIZING COMPANY 
~CURVE INFORMATION      
#MNEM        .UNIT         API CODE           CURVE DESCRIPTION
#-----------------      --------------        ------------------------------
 DEPT        .F                      :        1  DEPTH
 SP          .MV                     :        2  
 ILD         .OHMM                   :        3  
 LL8         .OHMM                   :        4  
 CILD        .MMHO                   :        5  
 ILM         .OHMM                   :        6  
 GR          .GAPI                   :        7  
 CALI        .IN                     :        8  
 DRHO        .G/C3                   :        9  
 RHOB        .G/C3                   :        10 
 NPHI        .%                      :        11 
 DPHI        .%                      :        12 
 DT          .US/F                   :        13 
~PARAMETER INFORMATION       
#MNEM.UNIT                  VALUE             DESCRIPTION OF MNEMONIC
#---------             ---------------        ------------------------------
 EKB .F                       40.0000:        KELLY BUSHING
 TD  .F                     1139.0000:        TOTAL DEPTH
 BHT .F                        0.0000:        BOTTOM HOLE TEMPERATURE
 BS  .                        14.7500:        BIT SIZE
 FD  .                        10.3000:        FLUID DENSITY
 CSIZ.                        20.0000:        CASING SIZE
 CBD .F                       65.0000:        CASING DRILLER 1
 CBL .F                       75.0000:        CASING LOGGER 1
 DFT .                  Miscellaneous:        TYPE FLUID IN HOLE
 DFV .                        34.0000:        VISCOSITY
 DFPH.                         8.5000:        PH
 DFL .                        10.2000:        FLUID LOSS
 RMS .                         5.3200:        RM
 MST .F                       55.0000:        RM MEAS. TEMP.
 RMF .                         3.8000:        RMF
 MFST.F                       55.0000:        RMF MEAS. TEMP.
 RMC .                         6.0000:        RMC
 MCST.F                       55.0000:        RMC MEAS. TEMP.
~OTHER INFORMATION
~A    DEPTH          SP         ILD         LL8        CILD         ILM          GR        CALI        DRHO        RHOB        NPHI        DPHI          DT  
# ...
  1962.0000    -29.0786      7.6039      9.5434   -999.2500      7.9997     51.1881     11.2507      0.0559      2.4727     38.5408     13.2500    115.7557  
  1962.5000    -28.1866      7.4452      9.6533   -999.2500      7.8289     50.0986     11.0772      0.0634      2.4563     38.5119     15.1404    115.0813  
  1963.0000    -27.0272      7.4082      9.7646   -999.2500      7.8313     49.0092     10.9037      0.0545      2.4419     38.3869     15.3310    113.8297  
  1963.5000    -28.2163      7.4839      9.9054   -999.2500      7.8337     48.0560     10.7302      0.0443      2.4057     38.3952     14.2218    111.9888  
  1964.0000    -29.0191      7.5605     10.1139   -999.2500      7.8361     47.9142     10.5961      0.0429      2.4040     38.4673     12.5158    110.4165  
  1964.5000    -27.6511      7.6379     10.2465   -999.2500      7.8386     48.3381     10.5196      0.0527      2.4401     38.5395     10.5563    110.2650  
  1965.0000    -26.9654      7.7160     10.3138   -999.2500      7.8720     48.4873     10.5544      0.0605      2.4643     38.5793     10.1890    110.5358  
  1965.5000    -24.7259      7.7949     10.3013   -999.2500      7.9297     48.5662     10.6479      0.0781      2.4838     38.5490     10.1262    110.7595  
  1966.0000    -21.7893      7.8747     10.3061   -999.2500      7.9878     48.6451     10.7565      0.0695      2.4921     38.6386      9.7608    110.8332  
  1966.5000    -22.5683      7.8846     10.2757   -999.2500      8.0126     48.7239     10.8651      0.0885      2.4993     38.8276     11.3062    111.0476  
  1967.0000    -23.1298      7.8505     10.2702   -999.2500      7.9687     48.1206     10.9736      0.0710      2.4931     39.2619     12.9183    111.5312  
  1967.5000    -24.1629      7.8167     10.2161   -999.2500      7.9250     47.4528     10.9869      0.0481      2.4665     39.8563     13.4068    111.9369  
  1968.0000    -24.8804      7.7829     10.0718   -999.2500      7.8816     47.6003     10.9138      0.0429      2.4439     40.3878     13.0689    112.3826  
  1968.5000    -24.3749      7.7494      9.8113   -999.2500      7.9457     47.8083     10.8406      0.0449      2.4442     40.5715     12.6218    112.3040  
  1969.0000    -23.7642      7.7523      9.5575   -999.2500      8.0200     47.8310     10.8569      0.0463      2.4506     40.2603     12.2757    110.8038  
  1969.5000    -22.5706      7.7718     10.2111   -999.2500      8.0949     47.3697     10.8783      0.0380      2.4555     39.4267     11.9874    108.9945  
  1970.0000    -23.1256      7.7914     11.0193   -999.2500      8.1706     46.8266     10.8106      0.0131      2.4673     39.0928     11.8596    108.9411  
  1970.5000    -24.0537      7.8110     11.4511   -999.2500      8.1228     47.0055     10.7282      0.0034      2.4613     39.5688     11.3132    110.2331  
  1971.0000    -25.3292      7.8307     10.9488   -999.2500      8.0512     47.2080     10.7737      0.0114      2.4666     40.2565     11.5178    112.3290  
  1971.5000    -25.8885      7.8800     10.3210   -999.2500      7.9802     47.4714     10.8354      0.0354      2.4747     40.9650     13.6009    113.5393  
  1972.0000    -25.1979      8.0014      9.8019   -999.2500      8.1726     48.1344     10.8970      0.0239      2.4602     41.1381     12.8168    112.8167  
  1972.5000    -24.1870      8.0486     10.0347   -999.2500      8.3598     48.6430     10.8942      0.0221      2.4394     40.3611     12.2326    112.4601  
  1973.0000    -24.4593      8.0754     10.3881   -999.2500      8.3627     48.3415     10.8263      0.0335      2.4544     39.1635     12.4083    112.5941  
  1973.5000    -27.0859      8.0109     10.6895   -999.2500      8.3656     47.8120     10.7585      0.0334      2.4580     37.9741     11.0444    113.3412  
  1974.0000    -27.5668      8.0632     10.3909   -999.2500      8.3685     47.1580     10.6906      0.0270      2.4623     37.4572     10.4810    114.8975  
  1974.5000    -28.1868      8.1728     10.0239   -999.2500      8.3714     46.7672     10.6338      0.0385      2.4934     38.2252     11.6165    115.2958  
  1975.0000    -28.2666      8.2839      9.9486   -999.2500      8.5232     46.6426     10.7156      0.0501      2.4875     37.9311     12.3273    113.8949  
  1975.5000    -27.4528      8.3965      9.9244   -999.2500      8.7092     47.1851     10.7975      0.0484      2.4660     37.0871     10.6827    112.1379  
  1976.0000    -26.3517      8.5106     11.4660   -999.2500      8.8993     47.7276     10.8793      0.0572      2.4621     36.3210     10.1491    110.2790  
  1976.5000    -25.5199      8.4544     11.9106   -999.2500      8.8166     48.2701     10.9592      0.0607      2.4871     35.8059      9.0404    108.7992  
  1977.0000    -25.7740      8.3419     11.7795   -999.2500      8.6572     48.8126     10.9497      0.0607      2.4933     35.7157      8.9431    108.9746  
  1977.5000    -26.1757      8.2308     11.4381   -999.2500      8.5006     48.9930     10.8276      0.0651      2.5123     35.8012      9.8598    109.8818  
  1978.0000    -26.0195      8.1212     10.9639   -999.2500      8.3469     49.1032     10.6511      0.0648      2.4994     36.0109     12.7234    110.0877  
  1978.5000    -25.6836      8.0131     10.2923   -999.2500      8.1960     48.7515     10.7728      0.0514      2.4822     37.7488     14.6098    110.3283  
  1979.0000    -24.6946      7.9064      9.9442   -999.2500      8.0478     48.5006     10.8864      0.0258      2.4384     39.2131     14.3333    110.3826  
  1979.5000    -23.6923      7.7794      9.6270   -999.2500      7.9022     48.6512     10.7438      0.0250      2.4213     40.1379     14.1275    109.7403  
  1980.0000    -23.7154      7.6503      9.8813   -999.2500      7.7593     48.8017     10.6118      0.0287      2.4253     40.7128     13.4434    109.8524  
  1980.5000    -23.8962      7.5234      9.9249   -999.2500      7.6190     48.9523     10.6424      0.0159      2.4274     40.5900     12.6132    110.1982  
  1981.0000    -24.5035      7.6019      9.9627   -999.2500      7.5841     48.8100     10.6070      0.0198      2.4462     40.8842     11.2277    110.0764  
  1981.5000    -25.3889      7.7191     10.1024   -999.2500      7.7420     48.3272     10.5316      0.0278      2.4578     41.0992      9.7178    109.6995  
  1982.0000    -25.0297      7.8381     10.3685   -999.2500      7.9032     47.7893     10.5791      0.0588      2.4839     40.2626      9.2578    109.1650  
  1982.5000    -24.2404      7.9536     10.5445   -999.2500      8.0678     48.4520     10.6356      0.0791      2.5044     39.4657     10.2996    108.9965  
  1983.0000    -24.0512      8.0429     10.6589   -999.2500      8.2358     49.3228     10.6426      0.0661      2.5048     38.9750     10.5172    109.3605  
  1983.5000    -23.7864      8.1217     10.8620   -999.2500      8.4073     50.0216     10.6769      0.0565      2.4913     39.4601      8.5037    109.5815  
  1984.0000    -23.6166      8.1282     11.0141   -999.2500      8.5004     50.0060     10.7971      0.0588      2.4959     40.2367      8.4961    109.7834  
  1984.5000    -23.5177      8.1084     11.0536   -999.2500      8.4191     49.3249     10.8519      0.0817      2.5186     39.6624     10.0686    110.0093  
  1985.0000    -23.3966      8.0587     10.9438   -999.2500      8.3387     49.2410     10.8232      0.0634      2.5069     39.0539     10.9778    110.3034  
  1985.5000    -22.6495      7.9786     10.6640   -999.2500      8.2590     50.2193     10.7623      0.0373      2.4912     38.7666     11.4980    111.0188  
  1986.0000    -21.4483      7.9085     10.3591   -999.2500      8.1801     50.0578     10.6839      0.0509      2.4747     39.1320     11.8303    111.8808  
  1986.5000    -22.6894      7.8760     10.1902   -999.2500      8.1019     49.5270     10.5640      0.0596      2.4648     39.6621     11.8215    112.3616  
  1987.0000    -24.9466      7.9159     10.2238   -999.2500      8.0245     49.0043     10.5065      0.0619      2.4642     40.1515     11.9788    112.2754  
