~VERSION INFORMATION
 VERS.                           2.00:        CWLS LOG ASCII STANDARD - VERSION 2.00
 WRAP.                             NO:        ONE LINE PER DEPTH STEP
~WELL INFORMATION
#MNEM.UNIT                   DATA             INFORMATION
#----------             --------------        ------------------------------
 STRT.F                       96.0000:        START DEPTH
 STOP.F                     2280.0000:        STOP DEPTH
 STEP.F                        0.5000:        STEP VALUE
 NULL.                      -999.2500:        NULL VALUE
 COMP.    USGS/NPR HUSKY OIL OPERATOR:        COMPANY  
 LOC .                   23  22N  17W:        LOCATION   
 DATE.                        9/11/80:        LOG DATE 
 WELL.               SOUTH BARROW #15:        WELL     
 UWI .                   500232001600:        UNIQUE WELL ID 
 API .                   500232001600:        UNIQUE WELL IDENTIFIER 
 FLD .                   SOUTH BARROW:        FIELD    
 CNTY.                    NORTH SLOPE:        COUNTY  
 STAT.                         ALASKA:        STATE   
 CTRY.                            USA:        COUNTRY 
 OPER.    USGS/NPR HUSKY OIL OPERATOR:        OPERATOR  
 SRVC.                   SCHLUMBERGER:        SERVICE COMPANY 
 LAT .                         0.0000:        LATITUDE
 LON .                         0.0000:        LONGITUDE
 DIGS.               CENTER LINE DATA:        DIGITIZING COMPANY 
~CURVE INFORMATION      
#MNEM        .UNIT         API CODE           CURVE DESCRIPTION
#-----------------      --------------        ------------------------------
 DEPT        .F                      :        1  DEPTH
 CALI        .IN                     :        2  
 GR          .GAPI                   :        3  
 RHOB        .G/C3                   :        4  
 DRHO        .G/C3                   :        5  
 NPHI        .%                      :        6  
 DT          .US/F                   :        7  
 SP          .MV                     :        8  
 ILD         .OHMM                   :        9  
 ILM         .OHMM                   :        10 
 SFL         .OHMM                   :        11 
 LLD         .OHMM                   :        12 
 LLS         .OHMM                   :        13 
 MSFL        .OHMM                   :        14 
~PARAMETER INFORMATION       
#MNEM.UNIT                  VALUE             DESCRIPTION OF MNEMONIC
#---------             ---------------        ------------------------------
 EKB .F                       30.0000:        KELLY BUSHING
 TD  .F                     2279.0000:        TOTAL DEPTH
 BHT .F                        0.0000:        BOTTOM HOLE TEMPERATURE
 BS  .                         8.5000:        BIT SIZE
 FD  .                        10.3000:        FLUID DENSITY
 CSIZ.                         9.6250:        CASING SIZE
 CBD .F                     1514.0000:        CASING DRILLER 1
 CBL .F                     1520.0000:        CASING LOGGER 1
 DFT .                  Miscellaneous:        TYPE FLUID IN HOLE
 DFV .                        43.0000:        VISCOSITY
 DFPH.                         0.0000:        PH
 DFL .                         0.0000:        FLUID LOSS
 RMS .                         0.1800:        RM
 MST .F                       48.0000:        RM MEAS. TEMP.
 RMF .                         0.1400:        RMF
 MFST.F                       48.0000:        RMF MEAS. TEMP.
 RMC .                         0.0000:        RMC
 MCST.F                        0.0000:        RMC MEAS. TEMP.
~OTHER INFORMATION
~A    DEPTH        CALI          GR        RHOB        DRHO        NPHI          DT          SP         ILD         ILM         SFL         LLD         LLS        MSFL  
# ...
  2208.0000      8.5032     55.0466      2.4618     -0.0064     28.6904     91.4944   -999.2500   -999.2500   -999.2500   -999.2500     10.0238      6.9159      6.4754  
  2208.5000      8.7445     57.8594      2.4785     -0.0062     28.6141     93.1869   -999.2500   -999.2500   -999.2500   -999.2500     11.7085      9.9618      6.9870  
  2209.0000      8.6055     61.7105      2.4920     -0.0064     27.9769     94.3462   -999.2500   -999.2500   -999.2500   -999.2500     11.8839     10.5716      7.5488  
  2209.5000      8.3235     67.5248      2.4984     -0.0083     26.6284     93.4449   -999.2500   -999.2500   -999.2500   -999.2500     13.2033     10.7944      8.5957  
  2210.0000      8.3676     71.9359      2.4989     -0.0080     25.9984     90.8271   -999.2500   -999.2500   -999.2500   -999.2500     12.8378     11.0096      9.8744  
  2210.5000      8.5190     68.5575      2.4926      0.0003     25.9214     89.4772   -999.2500   -999.2500   -999.2500   -999.2500     12.6037     11.7434      9.6746  
  2211.0000      8.6282     63.2951      2.4902      0.0063     26.0629     89.5922   -999.2500   -999.2500   -999.2500   -999.2500     13.7228     12.2713      9.8209  
  2211.5000      8.6090     64.4931      2.4894      0.0018     26.5534     90.5153   -999.2500   -999.2500   -999.2500   -999.2500     14.9375     12.3859     10.3148  
  2212.0000      8.6090     69.9698      2.4810     -0.0042     27.0965     91.7621   -999.2500   -999.2500   -999.2500   -999.2500     14.9700     12.4259     10.6554  
  2212.5000      8.5971     74.1093      2.4688     -0.0107     27.6258     92.8943   -999.2500   -999.2500   -999.2500   -999.2500     14.3967     12.9650     10.3060  
  2213.0000      8.6924     72.6874      2.4591     -0.0127     28.0646     90.7510   -999.2500   -999.2500   -999.2500   -999.2500     13.9586     13.5249     10.6179  
  2213.5000      8.6912     70.1258      2.4595     -0.0157     27.6988     89.8951   -999.2500   -999.2500   -999.2500   -999.2500     14.3242     13.7517     11.8759  
  2214.0000      8.7182     68.1969      2.4638     -0.0086     27.0725     88.0588   -999.2500   -999.2500   -999.2500   -999.2500     15.1560     13.6790     13.5181  
  2214.5000      8.7135     67.6591      2.4770     -0.0046     26.5565     85.8285   -999.2500   -999.2500   -999.2500   -999.2500     15.7767     13.7234     14.0592  
  2215.0000      8.6676     67.3749      2.5037     -0.0005     26.2789     86.5558   -999.2500   -999.2500   -999.2500   -999.2500     15.7948     13.8645     13.8567  
  2215.5000      8.7187     66.2119      2.5243      0.0024     26.0728     86.7749   -999.2500   -999.2500   -999.2500   -999.2500     15.2922     13.7313     12.6506  
  2216.0000      8.8239     64.8238      2.5168      0.0031     25.7118     87.5452   -999.2500   -999.2500   -999.2500   -999.2500     14.8771     13.3946     11.5495  
  2216.5000      8.7827     63.9242      2.4993     -0.0023     25.5935     88.5306   -999.2500   -999.2500   -999.2500   -999.2500     14.4734     13.0120     10.8085  
  2217.0000      8.6602     63.5898      2.4947     -0.0076     25.4751     88.7497   -999.2500   -999.2500   -999.2500   -999.2500     14.1717     12.6790     10.4396  
  2217.5000      8.5295     63.3796      2.4922     -0.0095     25.4763     89.2522   -999.2500   -999.2500   -999.2500   -999.2500     13.9613     12.3805     10.3303  
  2218.0000      8.6676     63.3988      2.4924     -0.0104     25.9486     89.7108   -999.2500   -999.2500   -999.2500   -999.2500     14.0666     12.1840     10.7773  
  2218.5000      8.7081     63.6024      2.4933     -0.0039     26.8810     89.8701   -999.2500   -999.2500   -999.2500   -999.2500     13.3542     12.1038     10.6539  
  2219.0000      8.7110     63.4250      2.4937      0.0034     27.1750     89.9379   -999.2500   -999.2500   -999.2500   -999.2500     12.9666     12.1662     10.0110  
  2219.5000      8.7073     63.5450      2.4874     -0.0002     27.5730     89.7568   -999.2500   -999.2500   -999.2500   -999.2500     13.1660     12.2856     10.7631  
  2220.0000      8.7208     63.2193      2.4774     -0.0135     27.6040     89.4222   -999.2500   -999.2500   -999.2500   -999.2500     13.6893     12.4269     12.3209  
  2220.5000      8.7590     62.9426      2.4675     -0.0077     27.5144     89.1247   -999.2500   -999.2500   -999.2500   -999.2500     14.0559     12.3704     13.4574  
  2221.0000      8.7188     63.2043      2.4602     -0.0033     27.3298     88.7297   -999.2500   -999.2500   -999.2500   -999.2500     13.8876     12.1429     11.8923  
  2221.5000      8.7239     62.9487      2.4678     -0.0019     27.1368     88.4218   -999.2500   -999.2500   -999.2500   -999.2500     13.3320     11.7376      8.9806  
  2222.0000      8.5854     62.5328      2.4798     -0.0077     27.0580     88.1478   -999.2500   -999.2500   -999.2500   -999.2500     12.6120     11.2331      7.5333  
  2222.5000      8.4608     62.3486      2.4834     -0.0119     27.0016     88.1749   -999.2500   -999.2500   -999.2500   -999.2500     11.9143     10.7503      7.0534  
  2223.0000      8.6414     61.5021      2.4688     -0.0129     27.0504     88.5733   -999.2500   -999.2500   -999.2500   -999.2500     11.2552     10.1286      6.8855  
  2223.5000      8.6522     58.9962      2.4542     -0.0058     27.0693     89.0329   -999.2500   -999.2500   -999.2500   -999.2500     10.4104      9.5410      6.4355  
  2224.0000      8.6434     55.2419      2.4442     -0.0013     27.2733     89.2892   -999.2500   -999.2500   -999.2500   -999.2500      9.9272      9.1677      6.2589  
  2224.5000      8.6288     53.1390      2.4444      0.0007     27.6518     89.4694   -999.2500   -999.2500   -999.2500   -999.2500      9.6301      8.8883      6.3834  
  2225.0000      8.6656     52.8001      2.4432     -0.0001     27.5490     88.9015   -999.2500   -999.2500   -999.2500   -999.2500      9.5089      9.0304      6.7786  
  2225.5000      8.6092     53.1429      2.4342     -0.0038     26.9800     88.2846   -999.2500   -999.2500   -999.2500   -999.2500      9.6446      9.1747      6.7484  
  2226.0000      8.5980     54.3363      2.4262     -0.0075     26.7027     88.2031   -999.2500   -999.2500   -999.2500   -999.2500     10.0783      9.6371      6.8967  
  2226.5000      8.5868     56.4068      2.4222     -0.0120     26.6531     88.4251   -999.2500   -999.2500   -999.2500   -999.2500     10.9686     10.3605      9.0116  
  2227.0000      8.5003     58.6264      2.4330     -0.0110     26.9296     88.6128   -999.2500   -999.2500   -999.2500   -999.2500     12.0396     11.1371     11.2306  
  2227.5000      8.4809     59.6987      2.4535     -0.0085     27.1429     88.7386   -999.2500   -999.2500   -999.2500   -999.2500     13.2360     11.9720     12.4176  
  2228.0000      8.5663     60.6304      2.4663     -0.0093     27.1675     88.4769   -999.2500   -999.2500   -999.2500   -999.2500     14.5513     12.8694     13.0695  
  2228.5000      8.6729     61.9060      2.4791     -0.0073     27.3059     88.4983   -999.2500   -999.2500   -999.2500   -999.2500     15.2868     13.8342     13.2199  
  2229.0000      8.6760     64.1126      2.4904     -0.0044     27.5948     88.7191   -999.2500   -999.2500   -999.2500   -999.2500     15.1553     14.1708     13.3719  
  2229.5000      8.6498     66.4960      2.4931     -0.0047     27.1755     88.6286   -999.2500   -999.2500   -999.2500   -999.2500     15.1843     14.6914     13.6005  
  2230.0000      8.6128     69.3145      2.5005     -0.0071     26.9975     88.7815   -999.2500   -999.2500   -999.2500   -999.2500     15.3253     14.8447     13.5230  
  2230.5000      8.6609     69.6080      2.5113     -0.0066     27.0489     88.9779   -999.2500   -999.2500   -999.2500   -999.2500     15.4115     14.2492     13.4418  
  2231.0000      8.6893     69.0160      2.5194     -0.0086     27.0784     88.9772   -999.2500   -999.2500   -999.2500   -999.2500     15.0655     13.6776     13.5384  
  2231.5000      8.6549     67.7585      2.5211     -0.0113     27.0888     88.8215   -999.2500   -999.2500   -999.2500   -999.2500     14.6951     13.3271     13.5414  
