~VERSION INFORMATION
 VERS.                           2.00:        CWLS LOG ASCII STANDARD - VERSION 2.00
 WRAP.                             NO:        ONE LINE PER DEPTH STEP
~WELL INFORMATION
#MNEM.UNIT                   DATA             INFORMATION
#----------             --------------        ------------------------------
 STRT.F                       96.0000:        START DEPTH
 STOP.F                     2280.0000:        STOP DEPTH
 STEP.F                        0.5000:        STEP VALUE
 NULL.                      -999.2500:        NULL VALUE
 COMP.    USGS/NPR HUSKY OIL OPERATOR:        COMPANY  
 LOC .                   23  22N  17W:        LOCATION   
 DATE.                        9/11/80:        LOG DATE 
 WELL.               SOUTH BARROW #15:        WELL     
 UWI .                   500232001600:        UNIQUE WELL ID 
 API .                   500232001600:        UNIQUE WELL IDENTIFIER 
 FLD .                   SOUTH BARROW:        FIELD    
 CNTY.                    NORTH SLOPE:        COUNTY  
 STAT.                         ALASKA:        STATE   
 CTRY.                            USA:        COUNTRY 
 OPER.    USGS/NPR HUSKY OIL OPERATOR:        OPERATOR  
 SRVC.                   SCHLUMBERGER:        SERVICE COMPANY 
 LAT .                         0.0000:        LATITUDE
 LON .                         0.0000:        LONGITUDE
 DIGS.               CENTER LINE DATA:        DIGITIZING COMPANY 
~CURVE INFORMATION      
#MNEM        .UNIT         API CODE           CURVE DESCRIPTION
#-----------------      --------------        ------------------------------
 DEPT        .F                      :        1  DEPTH
 CALI        .IN                     :        2  
 GR          .GAPI                   :        3  
 RHOB        .G/C3                   :        4  
 DRHO        .G/C3                   :        5  
 NPHI        .%                      :        6  
 DT          .US/F                   :        7  
 SP          .MV                     :        8  
 ILD         .OHMM                   :        9  
 ILM         .OHMM                   :        10 
 SFL         .OHMM                   :        11 
 LLD         .OHMM                   :        12 
 LLS         .OHMM                   :        13 
 MSFL        .OHMM                   :        14 
~PARAMETER INFORMATION       
#MNEM.UNIT                  VALUE             DESCRIPTION OF MNEMONIC
#---------             ---------------        ------------------------------
 EKB .F                       30.0000:        KELLY BUSHING
 TD  .F                     2279.0000:        TOTAL DEPTH
 BHT .F                        0.0000:        BOTTOM HOLE TEMPERATURE
 BS  .                         8.5000:        BIT SIZE
 FD  .                        10.3000:        FLUID DENSITY
 CSIZ.                         9.6250:        CASING SIZE
 CBD .F                     1514.0000:        CASING DRILLER 1
 CBL .F                     1520.0000:        CASING LOGGER 1
 DFT .                  Miscellaneous:        TYPE FLUID IN HOLE
 DFV .                        43.0000:        VISCOSITY
 DFPH.                         0.0000:        PH
 DFL .                         0.0000:        FLUID LOSS
 RMS .                         0.1800:        RM
 MST .F                       48.0000:        RM MEAS. TEMP.
 RMF .                         0.1400:        RMF
 MFST.F                       48.0000:        RMF MEAS. TEMP.
 RMC .                         0.0000:        RMC
 MCST.F                        0.0000:        RMC MEAS. TEMP.
~OTHER INFORMATION
~A    DEPTH        CALI          GR        RHOB        DRHO        NPHI          DT          SP         ILD         ILM         SFL         LLD         LLS        MSFL  
# ...
  2016.0000     10.6078     78.9877      2.3160      0.1622     29.7454    102.2485   -999.2500   -999.2500   -999.2500   -999.2500     13.0905     11.3947     10.4865  
  2016.5000     10.6059     78.2858      2.3273      0.1752     28.9808    100.0307   -999.2500   -999.2500   -999.2500   -999.2500     12.5861     11.2723     10.2809  
  2017.0000     10.4428     75.5206      2.3129      0.1516     28.6168     98.0732   -999.2500   -999.2500   -999.2500   -999.2500     12.0448     11.0478     10.0237  
  2017.5000     10.3814     74.7309      2.3206      0.1546     29.1534     97.1654   -999.2500   -999.2500   -999.2500   -999.2500     11.5267     10.6775      9.5703  
  2018.0000     10.1733     75.3587      2.3137      0.1441     29.9447     95.6440   -999.2500   -999.2500   -999.2500   -999.2500     11.1248     10.0051      9.1374  
  2018.5000     10.1510     76.0172      2.3038      0.1446     30.6723     96.1982   -999.2500   -999.2500   -999.2500   -999.2500     10.8349      9.5840      8.7898  
  2019.0000     10.6972     76.5371      2.2765      0.1583     31.2201     96.4271   -999.2500   -999.2500   -999.2500   -999.2500     10.6188      9.5223      8.6422  
  2019.5000     10.6726     76.0061      2.2342      0.1490     31.4919     96.4762   -999.2500   -999.2500   -999.2500   -999.2500     10.6001      9.5228      8.5296  
  2020.0000     11.1957     72.5823      2.2021      0.1420     31.3330     95.9636   -999.2500   -999.2500   -999.2500   -999.2500     10.5814      9.5758      8.4637  
  2020.5000     11.1584     69.5188      2.1899      0.1343     30.8021     95.3217   -999.2500   -999.2500   -999.2500   -999.2500     10.5628      9.5580      8.4696  
  2021.0000     11.4583     70.0755      2.1677      0.1323     30.1461     95.3972   -999.2500   -999.2500   -999.2500   -999.2500     10.6480      9.5399      8.5164  
  2021.5000     11.0405     71.2672      2.1610      0.1514     29.7826     94.5619   -999.2500   -999.2500   -999.2500   -999.2500     10.7712      9.5562      8.5594  
  2022.0000     11.2496     72.6822      2.1726      0.1475     30.6397     94.9765   -999.2500   -999.2500   -999.2500   -999.2500     10.7669      9.7216      8.5831  
  2022.5000     11.3997     73.7579      2.1971      0.1405     31.5418     95.1679   -999.2500   -999.2500   -999.2500   -999.2500     10.6947      9.9417      8.5256  
  2023.0000     11.3461     75.2096      2.2101      0.1320     31.4572     94.9726   -999.2500   -999.2500   -999.2500   -999.2500     10.5165      9.8818      8.3110  
  2023.5000     11.6730     77.9848      2.2189      0.1232     31.8692     95.4432   -999.2500   -999.2500   -999.2500   -999.2500     10.3028      9.5085      7.5049  
  2024.0000     11.6158     79.2742      2.2050      0.1252     32.6018     96.1221   -999.2500   -999.2500   -999.2500   -999.2500     10.0884      9.1610      6.9543  
  2024.5000     11.3285     80.1995      2.1853      0.1306     32.8047     96.8643   -999.2500   -999.2500   -999.2500   -999.2500      9.8505      8.8294      6.4691  
  2025.0000     11.2455     80.5240      2.1779      0.1423     33.1767     97.4052   -999.2500   -999.2500   -999.2500   -999.2500      9.6105      8.5368      6.0212  
  2025.5000     11.3018     80.5647      2.1799      0.1430     33.7713     97.3092   -999.2500   -999.2500   -999.2500   -999.2500      9.4362      8.3642      5.8702  
  2026.0000     11.3562     80.5104      2.2109      0.1348     33.6820     96.6310   -999.2500   -999.2500   -999.2500   -999.2500      9.3038      8.2683      6.0612  
  2026.5000     11.2954     80.5837      2.2494      0.1352     33.5327     96.8684   -999.2500   -999.2500   -999.2500   -999.2500      9.2576      8.2392      6.3078  
  2027.0000     11.4548     80.8095      2.2467      0.1399     32.8671     96.8619   -999.2500   -999.2500   -999.2500   -999.2500      9.2903      8.4199      6.4602  
  2027.5000     11.6941     79.7382      2.2448      0.1495     32.2865     97.0400   -999.2500   -999.2500   -999.2500   -999.2500      9.4521      8.6301      6.3891  
  2028.0000     10.9433     77.5626      2.2541      0.1624     32.2733     97.0639   -999.2500   -999.2500   -999.2500   -999.2500      9.7946      8.8525      6.2253  
  2028.5000     10.6539     79.0940      2.2638      0.1535     32.5999     97.1770   -999.2500   -999.2500   -999.2500   -999.2500      9.9846      9.0806      6.0672  
  2029.0000     11.1210     80.5639      2.2682      0.1556     32.6302     97.5207   -999.2500   -999.2500   -999.2500   -999.2500     10.1748      9.3587      6.6674  
  2029.5000     11.2997     82.3150      2.2664      0.1640     32.0193     96.9695   -999.2500   -999.2500   -999.2500   -999.2500     10.3056      9.3949      7.5080  
  2030.0000     11.2260     83.3212      2.2338      0.1451     31.9722     98.0989   -999.2500   -999.2500   -999.2500   -999.2500     10.2425      9.4313      8.0534  
  2030.5000     11.6872     83.1634      2.1971      0.1286     33.0142     98.5691   -999.2500   -999.2500   -999.2500   -999.2500     10.1317      9.3554      7.6068  
  2031.0000     11.6759     82.5938      2.1826      0.1364     33.6131     98.5200   -999.2500   -999.2500   -999.2500   -999.2500      9.9256      9.0513      7.0592  
  2031.5000     11.6429     82.1393      2.1902      0.1420     34.0421     99.3544   -999.2500   -999.2500   -999.2500   -999.2500      9.7236      8.7844      6.6752  
  2032.0000     11.6125     81.8061      2.1978      0.1392     34.3788    101.4698   -999.2500   -999.2500   -999.2500   -999.2500      9.5258      8.6527      6.4856  
  2032.5000     11.6656     81.2869      2.2073      0.1406     34.8498    103.7947   -999.2500   -999.2500   -999.2500   -999.2500      9.3320      8.5361      6.3765  
  2033.0000     11.4719     79.5894      2.2437      0.1505     36.2942    105.2188   -999.2500   -999.2500   -999.2500   -999.2500      9.1725      8.4773      6.2691  
  2033.5000     11.3879     79.4113      2.2484      0.1508     36.8660    102.0437   -999.2500   -999.2500   -999.2500   -999.2500      9.1400      8.4209      6.2861  
  2034.0000     11.9244     80.9434      2.2599      0.1600     36.7907    102.0373   -999.2500   -999.2500   -999.2500   -999.2500      9.1077      8.3722      6.3751  
  2034.5000     11.6802     83.0145      2.2852      0.1512     36.2070     98.9365   -999.2500   -999.2500   -999.2500   -999.2500      9.1316      8.3847      6.1572  
  2035.0000     12.1631     83.5162      2.2709      0.1376     35.4638    101.2762   -999.2500   -999.2500   -999.2500   -999.2500      9.2821      8.4619      5.2133  
  2035.5000     11.5138     83.1996      2.2830      0.1215     35.9482    101.4848   -999.2500   -999.2500   -999.2500   -999.2500      9.4485      8.6480      5.5894  
  2036.0000     10.5794     82.3376      2.3058      0.1365     35.4409    100.0838   -999.2500   -999.2500   -999.2500   -999.2500      9.8303      8.8087      6.3650  
  2036.5000     10.7278     82.5384      2.2993      0.1488     34.5450     98.5008   -999.2500   -999.2500   -999.2500   -999.2500     10.2276      8.9723      7.0862  
  2037.0000     11.1505     83.1495      2.2801      0.1719     34.1670     99.2140   -999.2500   -999.2500   -999.2500   -999.2500     10.3096      9.1390      7.1403  
  2037.5000     11.5398     84.1621      2.2490      0.1617     33.8726     99.9081   -999.2500   -999.2500   -999.2500   -999.2500     10.2136      9.2259      7.2261  
  2038.0000     11.1585     84.3373      2.2621      0.1701     33.2720    100.1234   -999.2500   -999.2500   -999.2500   -999.2500     10.0778      9.2118      7.0708  
  2038.5000     11.1358     83.9937      2.2626      0.1546     32.8854    100.1894   -999.2500   -999.2500   -999.2500   -999.2500      9.9439      9.1481      6.8734  
  2039.0000     11.3612     83.5850      2.2514      0.1362     32.9290    100.3740   -999.2500   -999.2500   -999.2500   -999.2500      9.8117      9.0518      6.5457  
  2039.5000     11.1359     83.1918      2.2435      0.1225     34.0811    100.3167   -999.2500   -999.2500   -999.2500   -999.2500      9.6776      8.7967      6.0880  
