~VERSION INFORMATION
 VERS.                           2.00:        CWLS LOG ASCII STANDARD - VERSION 2.00
 WRAP.                             NO:        ONE LINE PER DEPTH STEP
~WELL INFORMATION
#MNEM.UNIT                   DATA             INFORMATION
#----------             --------------        ------------------------------
 STRT.F                       25.0000:        START DEPTH
 STOP.F                     2347.0000:        STOP DEPTH
 STEP.F                        0.5000:        STEP VALUE
 NULL.                      -999.2500:        NULL VALUE
 COMP.        HUSKY OIL COMPANY/NPR-A:        COMPANY
 LOC .                     26 22N 17W:        LOCATION
 DATE.                        4/14/80:        LOG DATE
 WELL.                     BARROW #20:        WELL
 UWI .                   500232001500:        UNIQUE WELL ID
 API .                   500232001500:        UNIQUE WELL IDENTIFIER
 FLD .                   SOUTH BARROW:        FIELD
 CNTY.                    NORTH SLOPE:        COUNTY
 STAT.                        ALAASKA:        STATE
 CTRY.                            USA:        COUNTRY
 OPER.        HUSKY OIL COMPANY/NPR-A:        OPERATOR
 SRVC.                   SCHLUMBERGER:        SERVICE COMPANY
 LAT .                         0.0000:        LATITUDE
 LON .                         0.0000:        LONGITUDE
 DIGS.               CENTER LINE DATA:        DIGITIZING COMPANY
~CURVE INFORMATION      
#MNEM        .UNIT         API CODE           CURVE DESCRIPTION
#-----------------      --------------        ------------------------------
 DEPT        .F                      :        1  DEPTH
 CALI        .IN                     :        2  
 GR          .GAPI                   :        3  
 DRHO        .G/C3                   :        4  
 RHOB        .G/C3                   :        5  
 NPHI        .%                      :        6  
 SP          .MV                     :        7  
 ILD         .OHMM                   :        8  
 ILM         .OHMM                   :        9  
 SFL         .OHMM                   :        10 
 LLD         .OHMM                   :        11 
 LLS         .OHMM                   :        12 
 MSFL        .OHMM                   :        13 
 DT          .US/F                   :        14 
~PARAMETER INFORMATION
#MNEM.UNIT                  VALUE             DESCRIPTION OF MNEMONIC
#---------             ---------------        ------------------------------
 EKB .F                       30.0000:        KELLY BUSHING
 TD  .F                     2356.0000:        TOTAL DEPTH
 BHT .F                        0.0000:        BOTTOM HOLE TEMPERATURE
 BS  .                         8.5000:        BIT SIZE
 FD  .                        10.8000:        FLUID DENSITY
 CSIZ.                         9.6250:        CASING SIZE
 CBD .F                     1500.0000:        CASING DRILLER 1
 CBL .F                     1485.0000:        CASING LOGGER 1
 DFT .                            GEL:        TYPE FLUID IN HOLE
 DFV .                        10.0000:        VISCOSITY
 DFPH.                         9.0000:        PH
 DFL .                        10.0000:        FLUID LOSS
 RMS .                         0.1840:        RM
 MST .F                       61.0000:        RM MEAS. TEMP.
 RMF .                         0.1270:        RMF
 MFST.F                       61.0000:        RMF MEAS. TEMP.
 RMC .                         0.2660:        RMC
 MCST.F                       61.0000:        RMC MEAS. TEMP.
~OTHER INFORMATION
~A    DEPTH        CALI          GR        DRHO        RHOB        NPHI          SP         ILD         ILM         SFL         LLD         LLS        MSFL          DT 
# ...
  1681.0000      8.8189     73.1556     -0.0002      2.5104     34.5252    -57.1862   -999.2500   -999.2500   -999.2500     14.5070     11.6077     10.8592    101.7293 
  1681.5000      8.8230     71.8171     -0.0009      2.5092     33.0439    -57.0380   -999.2500   -999.2500   -999.2500     14.4237     11.6106     10.8276    102.3823 
  1682.0000      8.8097     71.3774     -0.0006      2.5223     32.8363    -57.0022   -999.2500   -999.2500   -999.2500     14.3856     11.6134     10.7897    103.1119 
  1682.5000      8.7656     72.2367      0.0002      2.5345     33.6082    -56.8612   -999.2500   -999.2500   -999.2500     14.3476     11.6160     10.7519    103.1211 
  1683.0000      8.7706     72.6255      0.0010      2.5159     33.4594    -56.7432   -999.2500   -999.2500   -999.2500     14.3097     11.6187     10.6787    102.8949 
  1683.5000      9.0460     72.8360      0.0018      2.5019     33.0618    -56.6239   -999.2500   -999.2500   -999.2500     14.2719     11.6214     10.6490    102.3733 
  1684.0000      8.9513     73.4331      0.0009      2.4845     34.5451    -56.5251   -999.2500   -999.2500   -999.2500     14.5860     11.9235     10.9898    100.9397 
  1684.5000      8.8433     73.8394     -0.0044      2.4932     35.9029    -56.2267   -999.2500   -999.2500   -999.2500     15.0794     12.2456     12.0290     99.4808 
  1685.0000      8.8388     73.5069     -0.0026      2.5017     37.2198    -56.1513   -999.2500   -999.2500   -999.2500     15.5895     12.5763     12.1737     98.2846 
  1685.5000      8.8344     72.8388      0.0060      2.5143     37.8445    -56.2447   -999.2500   -999.2500   -999.2500     15.9626     12.6568     12.1070     98.2621 
  1686.0000      8.7604     72.6762     -0.0003      2.5095     38.7210    -56.1467   -999.2500   -999.2500   -999.2500     15.8377     12.5578     11.6171     99.1404 
  1686.5000      8.8780     72.9313     -0.0133      2.5021     39.2654    -56.0288   -999.2500   -999.2500   -999.2500     15.6227     12.4595     11.1369    100.3648 
  1687.0000      8.7884     73.5768     -0.0046      2.5213     37.5817    -55.7947   -999.2500   -999.2500   -999.2500     15.3578     12.3698     10.9822    100.9856 
  1687.5000      8.7524     74.1010      0.0062      2.5309     35.6544    -55.5507   -999.2500   -999.2500   -999.2500     15.2638     12.3320     11.0823    100.7153 
  1688.0000      8.7915     74.7939      0.0080      2.5135     34.8037    -55.4842   -999.2500   -999.2500   -999.2500     15.2321     12.3832     11.3971     99.4809 
  1688.5000      8.8306     75.7653      0.0117      2.5019     34.8889    -55.1444   -999.2500   -999.2500   -999.2500     15.3028     12.7316     11.8352     98.0959 
  1689.0000      8.8472     76.9032      0.0210      2.5034     34.9584    -54.8856   -999.2500   -999.2500   -999.2500     16.2713     13.0898     12.2902     97.1426 
  1689.5000      8.8146     77.4720      0.0312      2.5119     35.0217    -54.6030   -999.2500   -999.2500   -999.2500     17.0567     13.4663     12.6302     96.0222 
  1690.0000      8.7823     75.3751      0.0265      2.5007     37.1305    -54.4394   -999.2500   -999.2500   -999.2500     17.4018     14.1508     12.8705     95.3234 
  1690.5000      8.7565     72.3015      0.0145      2.5075     37.5157    -54.2936   -999.2500   -999.2500   -999.2500     17.7540     14.8700     13.0253     95.3665 
  1691.0000      8.7406     70.7410      0.0076      2.5166     36.5776    -54.1872   -999.2500   -999.2500   -999.2500     18.0998     15.5812     12.5946     95.3760 
  1691.5000      8.7476     69.3569      0.0100      2.5283     35.3682    -54.1810   -999.2500   -999.2500   -999.2500     18.3802     15.7853     12.0714     95.4535 
  1692.0000      8.7609     68.6343      0.0086      2.5340     34.7373    -53.9769   -999.2500   -999.2500   -999.2500     18.7340     15.7201     12.0132     95.2153 
  1692.5000      8.7742     69.7762      0.0074      2.5371     34.4218    -53.8521   -999.2500   -999.2500   -999.2500     20.0944     15.9218     14.0896     94.4478 
  1693.0000      8.7875     70.1681      0.0103      2.5443     34.5492    -53.8718   -999.2500   -999.2500   -999.2500     21.5537     17.1224     16.0551     93.5993 
  1693.5000      8.7935     69.2893      0.0122      2.5448     34.9276    -53.7209   -999.2500   -999.2500   -999.2500     22.0877     18.4632     15.9356     93.1352 
  1694.0000      8.7980     67.8335      0.0065      2.5460     35.8271    -53.7286   -999.2500   -999.2500   -999.2500     21.7738     18.7647     15.5417     92.5733 
  1694.5000      8.8024     65.7950      0.0007      2.5232     34.8224    -54.0066   -999.2500   -999.2500   -999.2500     21.2957     18.2766     15.0302     92.5396 
  1695.0000      8.8032     65.3466     -0.0020      2.5083     34.0059    -54.1809   -999.2500   -999.2500   -999.2500     20.6073     17.6911     14.4204     93.1123 
  1695.5000      8.7998     66.1963     -0.0046      2.5033     32.8633    -54.3822   -999.2500   -999.2500   -999.2500     19.9412     17.1243     13.5765     93.9308 
  1696.0000      8.7826     66.8701     -0.0040      2.5122     32.1684    -54.5412   -999.2500   -999.2500   -999.2500     19.2967     16.5090     13.2401     94.9799 
  1696.5000      8.7542     68.0020     -0.0019      2.5212     31.8351    -54.7230   -999.2500   -999.2500   -999.2500     18.6729     15.7498     13.0534     95.4740 
  1697.0000      8.7182     69.5611      0.0010      2.5225     32.4714    -55.1182   -999.2500   -999.2500   -999.2500     18.2089     15.1895     12.9710     95.4747 
  1697.5000      8.6968     71.1427      0.0060      2.5204     32.8687    -55.3721   -999.2500   -999.2500   -999.2500     17.9144     14.9333     12.8963     95.3682 
  1698.0000      8.8119     71.7990      0.0169      2.5249     32.5648    -55.6101   -999.2500   -999.2500   -999.2500     17.7441     14.8191     12.8221     95.0916 
  1698.5000      8.5430     71.5252      0.0082      2.5224     32.0776    -55.7401   -999.2500   -999.2500   -999.2500     17.7228     14.8854     12.7501     94.8997 
  1699.0000      8.8443     72.4213      0.0020      2.5197     31.9506    -55.6140   -999.2500   -999.2500   -999.2500     17.7908     15.0982     12.6884     95.0941 
  1699.5000      8.7883     73.7412      0.0103      2.5262     32.2544    -55.7701   -999.2500   -999.2500   -999.2500     17.7606     15.0388     12.6269     95.3660 
  1700.0000      8.7052     75.1640      0.0121      2.5248     33.1086    -55.6558   -999.2500   -999.2500   -999.2500     17.3331     14.8373     12.5658     95.1722 
  1700.5000      8.7558     75.5971      0.0088      2.5214     33.4814    -55.5407   -999.2500   -999.2500   -999.2500     17.1359     14.6897     12.7477     94.9277 
  1701.0000      8.8028     74.9778      0.0129      2.5167     33.1546    -55.5240   -999.2500   -999.2500   -999.2500     17.9908     14.5806     12.9508     95.1063 
  1701.5000      8.8222     74.0473      0.0223      2.5278     32.9089    -55.5613   -999.2500   -999.2500   -999.2500     18.1339     14.4911     12.8782     95.6672 
  1702.0000      8.8020     73.4806      0.0388      2.5458     32.0400    -55.5869   -999.2500   -999.2500   -999.2500     17.4818     14.4509      9.5379     95.7323 
  1702.5000      8.7887     73.1444      0.0448      2.5599     31.0016    -55.6378   -999.2500   -999.2500   -999.2500     16.8531     14.4622      7.5655     93.7450 
  1703.0000      8.7921     71.9404      0.0332      2.5413     30.3238    -55.5588   -999.2500   -999.2500   -999.2500     16.7190     14.8032      9.6118     92.1853 
  1703.5000      8.8005     70.9470      0.0156      2.5179     30.7638    -55.4770   -999.2500   -999.2500   -999.2500     17.1864     15.4367     13.8036     90.4225 
  1704.0000      8.8090     69.7265      0.0268      2.5154     31.2379    -55.5602   -999.2500   -999.2500   -999.2500     18.3909     16.1725     15.4941     89.4095 
  1704.5000      8.8174     68.0876      0.0232      2.5166     32.2801    -55.4610   -999.2500   -999.2500   -999.2500     19.7464     17.4316     15.8496     88.3676 
