~VERSION INFORMATION
 VERS.                           2.00:        CWLS LOG ASCII STANDARD - VERSION 2.00
 WRAP.                             NO:        ONE LINE PER DEPTH STEP
~WELL INFORMATION
#MNEM.UNIT                   DATA             INFORMATION
#----------             --------------        ------------------------------
 STRT.F                      101.0000:        START DEPTH
 STOP.F                     3666.0000:        STOP DEPTH
 STEP.F                        0.5000:        STEP VALUE
 NULL.                      -999.2500:        NULL VALUE
 COMP.     USGS/NPR HUSKY OIL COMPANY:        COMPANY
 LOC .                      9 20N 19W:        LOCATION
 DATE.                       12/30/79:        LOG DATE
 WELL.           WALAKPA TEST WELL #1:        WELL
 UWI .                   500232001300:        UNIQUE WELL ID
 API .                   500232001300:        UNIQUE WELL IDENTIFIER
 FLD .                        WILDCAT:        FIELD
 CNTY.                    NORTH SLOPE:        COUNTY
 STAT.                         ALASKA:        STATE
 CTRY.                            USA:        COUNTRY
 OPER.     USGS/NPR HUSKY OIL COMPANY:        OPERATOR
 SRVC.                   SCHLUMBERGER:        SERVICE COMPANY
 LAT .                         0.0000:        LATITUDE
 LON .                         0.0000:        LONGITUDE
 DIGS.               CENTER LINE DATA:        DIGITIZING COMPANY
~CURVE INFORMATION      
#MNEM        .UNIT         API CODE           CURVE DESCRIPTION
#-----------------      --------------        ------------------------------
 DEPT        .F                      :        1  DEPTH
 GR          .GAPI                   :        2  
 CALI        .IN                     :        3  
 RHOB        .G/C3                   :        4  
 DRHO        .G/C3                   :        5  
 NPHI        .%                      :        6  
 DT          .US/F                   :        7  
 SP          .MV                     :        8  
 ILD         .OHMM                   :        9  
 ILM         .OHMM                   :        10 
 LL8         .OHMM                   :        11 
 SFL         .OHMM                   :        12 
~PARAMETER INFORMATION
#MNEM.UNIT                  VALUE             DESCRIPTION OF MNEMONIC
#---------             ---------------        ------------------------------
 EKB .F                       50.0000:        KELLY BUSHING
 TD  .F                     3672.0000:        TOTAL DEPTH
 BHT .F                       80.0000:        BOTTOM HOLE TEMPERATURE
 BS  .                        12.2500:        BIT SIZE
 FD  .                         9.9000:        FLUID DENSITY
 CSIZ.                        13.3750:        CASING SIZE
 CBD .F                      100.0000:        CASING DRILLER 1
 CBL .F                      106.0000:        CASING LOGGER 1
 DFT .                             99:        TYPE FLUID IN HOLE
 DFV .                        45.0000:        VISCOSITY
 DFPH.                         8.0000:        PH
 DFL .                        23.0000:        FLUID LOSS
 RMS .                         5.9200:        RM
 MST .F                       58.0000:        RM MEAS. TEMP.
 RMF .                         6.2200:        RMF
 MFST.F                       57.0000:        RMF MEAS. TEMP.
 RMC .                         7.0500:        RMC
 MCST.F                       57.0000:        RMC MEAS. TEMP.
~OTHER INFORMATION
~A    DEPTH          GR        CALI        RHOB        DRHO        NPHI          DT          SP         ILD         ILM         LL8         SFL 
# ...
  1977.0000    103.8436      8.8166      2.2616      0.0896     48.8872    103.9555    -29.7528      8.0637      7.0451   -999.2500      8.8383 
  1977.5000    103.7093      8.8271      2.2299      0.0712     49.3951    105.1294    -29.6132      8.0303      7.0313   -999.2500      8.6569 
  1978.0000    100.6693      8.8147      2.2406      0.0325     49.9030    105.3130    -29.5470      7.9969      7.0177   -999.2500      8.8124 
  1978.5000     98.7903      8.8002      2.2940      0.0302     47.1826    105.3311    -28.6966      7.9638      7.0040   -999.2500      9.1112 
  1979.0000     97.2519      8.8005      2.2902      0.0542     47.5326    105.3585    -27.8462      7.9308      6.9904   -999.2500      9.2872 
  1979.5000     96.5052      8.8107      2.2777      0.1082     48.9700    105.4671    -27.5371      7.8965      6.9768   -999.2500      8.9473 
  1980.0000     97.0080      8.8282      2.3012      0.1610     49.9374    105.5134    -27.4882      7.8571      6.9632   -999.2500      8.6198 
  1980.5000     97.4146      8.8496      2.2552      0.1218     50.2400    107.0930    -27.4393      7.8178      6.9496   -999.2500      8.4677 
  1981.0000     97.4517      8.8427      2.2369      0.0771     49.5953    106.6981    -27.1983      7.7788      6.9201   -999.2500      8.3813 
  1981.5000     97.7286      8.8294      2.2817      0.0607     48.1912    109.0128    -26.5533      7.7400      6.8670   -999.2500      8.3588 
  1982.0000     97.9797      8.8230      2.3139      0.0934     47.9364    109.9037    -25.8934      7.7013      6.8143   -999.2500      8.3940 
  1982.5000     98.0017      8.8307      2.2914      0.1178     48.2758    106.6627    -25.1805      7.6628      6.7620   -999.2500      8.4293 
  1983.0000     96.5963      8.8331      2.2808      0.1362     48.5309    106.6450    -24.9908      7.6246      6.7100   -999.2500      8.4648 
  1983.5000     94.3434      8.8334      2.2727      0.1378     48.6341    106.3234    -25.2051      7.5865      6.6585   -999.2500      8.5004 
  1984.0000     92.6200      8.8378      2.2794      0.1324     50.0500    106.2933    -25.9500      7.5486      6.6074   -999.2500      8.5242 
  1984.5000     91.9987      8.8257      2.2838      0.1270     50.8802    106.1769    -26.6850      7.5109      6.5567   -999.2500      8.4849 
  1985.0000     91.8506      8.8074      2.2592      0.1166     51.2582    106.2973    -26.9127      7.4734      6.5063   -999.2500      8.4457 
  1985.5000     92.0419      8.8060      2.2238      0.1038     51.4773    107.8108    -26.9561      7.4386      6.4564   -999.2500      8.4067 
  1986.0000     92.7949      8.8045      2.2027      0.1043     51.6963    109.9858    -27.0467      7.4100      6.4068   -999.2500      8.3679 
  1986.5000     94.0735      8.8030      2.1523      0.1127     51.9154    110.5969    -27.0215      7.3815      6.3576   -999.2500      8.3084 
  1987.0000     95.3947      8.8015      2.1470      0.1151     52.1345    110.4174    -27.0403      7.3531      6.3088   -999.2500      8.1987 
  1987.5000     96.9904      8.8001      2.1241      0.1196     52.3536    107.8975    -27.0750      7.3248      6.2604   -999.2500      8.0905 
  1988.0000     98.8439      8.7986      2.1041      0.1279     52.5720    109.6037    -26.9006      7.2967      6.2123   -999.2500      7.9838 
  1988.5000     99.5243      8.7971      2.0790      0.1219     52.6656    111.6094    -26.4868      7.2686      6.1646   -999.2500      7.8784 
  1989.0000    100.2493      8.7957      2.0346      0.1044     52.7591    113.8872    -26.2626      7.2407      6.1173   -999.2500      7.7793 
  1989.5000    101.3168      8.7942      2.0525      0.0680     52.8526    112.5523    -26.0106      7.2128      6.0703   -999.2500      7.6876 
  1990.0000    102.7019      8.7927      2.1409      0.0558     51.0616    110.3277    -25.8950      7.1851      6.0072   -999.2500      7.5969 
  1990.5000    103.1440      8.7912      2.2055      0.0970     49.5307    107.8589    -25.7794      7.1575      5.9420   -999.2500      7.5073 
  1991.0000    103.0316      8.7898      2.2040      0.0991     50.0318    108.6992    -25.6646      7.1300      5.8775   -999.2500      7.4188 
  1991.5000    101.6438      8.7883      2.1988      0.0755     49.7726    107.1563    -25.6302      7.1025      5.8137   -999.2500      7.3313 
  1992.0000     99.4209      8.7868      2.2438      0.0937     48.9566    109.3597    -25.7551      7.0752      5.7506   -999.2500      7.3850 
  1992.5000     96.7858      8.7853      2.2679      0.1234     49.4832    109.1894    -25.9010      7.0480      5.6882   -999.2500      7.4614 
  1993.0000     94.3366      8.7839      2.2485      0.1661     50.7916    110.7805    -25.9139      7.0209      5.6265   -999.2500      7.5386 
  1993.5000     95.4796      8.7824      2.2040      0.1758     52.7011    112.3359    -25.9979      6.9939      5.5654   -999.2500      7.6165 
  1994.0000     99.6024      8.7809      2.1717      0.1708     54.9207    108.6502    -26.1789      6.9671      5.5050   -999.2500      7.6930 
  1994.5000    104.1899      8.7794      2.1745      0.1501     56.2040    110.3368    -26.3449      6.9403      5.5018   -999.2500      7.7640 
  1995.0000    106.8693      8.7780      2.1652      0.1313     56.3134    109.6383    -26.4953      6.9136      5.5043   -999.2500      7.8358 
  1995.5000    106.9615      8.7765      2.1895      0.1295     56.2835    108.9537    -26.6457      6.8870      5.5069   -999.2500      7.9081 
  1996.0000    105.6979      8.7750      2.1858      0.1303     54.3997    108.3844    -26.7961      6.8605      5.5094   -999.2500      7.9312 
  1996.5000    105.1500      8.7736      2.1734      0.1376     51.9008    105.7049    -26.9466      6.8342      5.5198   -999.2500      7.8823 
  1997.0000    105.4623      8.7721      2.1694      0.1679     51.4103    108.3445    -27.0970      6.8079      5.5366   -999.2500      7.8337 
  1997.5000    106.0500      8.7706      2.1261      0.1579     52.2526    110.4277    -27.1558      6.7817      5.5535   -999.2500      7.7854 
  1998.0000    106.3433      8.7691      2.0771      0.1375     53.4636    111.9535    -27.1558      6.7556      5.5705   -999.2500      7.7374 
  1998.5000    105.3869      8.7677      2.0495      0.1285     54.1161    110.6606    -27.1498      6.7311      5.5933   -999.2500      7.6868 
  1999.0000    104.6402      8.7662      2.0345      0.1311     54.7686    108.8979    -27.0436      6.7260      5.6408   -999.2500      7.6303 
  1999.5000    104.0336      8.7647      2.0521      0.1206     54.9297    111.2936    -26.9374      6.7209      5.6887   -999.2500      7.5743 
  2000.0000    105.0300      8.7632      2.0818      0.1277     53.7103    113.5486    -26.8311      6.7158      5.7370   -999.2500      7.5187 
  2000.5000    107.4198      8.7618      2.0494      0.1283     52.4908    112.6815    -26.7249      6.7107      5.7857   -999.2500      7.4635 
  2001.0000    108.2131      8.7603      2.0228      0.1194     51.2714    111.7321    -26.6187      6.7057      5.8348   -999.2500      7.6419 
  2001.5000    108.6125      8.7588      2.0567      0.1102     50.0111    110.2372    -26.5124      6.7006      5.8844   -999.2500      7.8388 
  2002.0000    108.5109      8.7573      2.0846      0.0777     49.3140    110.0158    -26.4062      6.6955      5.9115   -999.2500      7.8928 
  2002.5000    107.9786      8.7435      2.1175      0.0523     48.9896    110.2568    -26.2965      6.6904      5.8973   -999.2500      7.8928 
  2003.0000    106.9881      8.6975      2.1546      0.0518     49.0683    110.7005    -26.1500      6.6854      5.8831   -999.2500      7.8928 
  2003.5000    106.1888      8.7269      2.1676      0.0988     50.1371    110.5096    -26.0035      6.6803      5.8690   -999.2500      7.8628 
  2004.0000    106.7856      8.7368      2.1444      0.1350     51.9417    109.6644    -25.8570      6.6753      5.8549   -999.2500      7.8062 
  2004.5000    108.7336      8.7427      2.1040      0.1355     53.1110    108.2126    -26.0124      6.6702      5.8125   -999.2500      7.7501 
