~VERSION INFORMATION
 VERS.                           2.00:        CWLS LOG ASCII STANDARD - VERSION 2.00
 WRAP.                             NO:        ONE LINE PER DEPTH STEP
~WELL INFORMATION
#MNEM.UNIT                   DATA             INFORMATION
#----------             --------------        ------------------------------
 STRT.F                     1244.0000:        START DEPTH
 STOP.F                     2340.0000:        STOP DEPTH
 STEP.F                        0.5000:        STEP VALUE
 NULL.                      -999.2500:        NULL VALUE
 COMP.        U.S. NAVY DEPT NP & OSR:        COMPANY  
 LOC .                   14  22N  18W:        LOCATION   
 DATE.                        3/16/73:        LOG DATE 
 WELL.               SOUTH BARROW #10:        WELL     
 UWI .                   500232000400:        UNIQUE WELL ID 
 API .                   500232000400:        UNIQUE WELL IDENTIFIER 
 FLD .                   SOUTH BARROW:        FIELD    
 CNTY.                         NPR #4:        COUNTY  
 STAT.                         ALASKA:        STATE   
 CTRY.                            USA:        COUNTRY 
 OPER.        U.S. NAVY DEPT NP & OSR:        OPERATOR  
 SRVC.                   SCHLUMBERGER:        SERVICE COMPANY 
 LAT .                         0.0000:        LATITUDE
 LON .                         0.0000:        LONGITUDE
 DIGS.               CENTER LINE DATA:        DIGITIZING COMPANY 
~CURVE INFORMATION      
#MNEM        .UNIT         API CODE           CURVE DESCRIPTION
#-----------------      --------------        ------------------------------
 DEPT        .F                      :        1  DEPTH
 SP          .MV                     :        2  
 LL8         .OHMM                   :        3  
 ILD         .OHMM                   :        4  
 CILD        .MMHO                   :        5  
 DT          .US/F                   :        6  
~PARAMETER INFORMATION       
#MNEM.UNIT                  VALUE             DESCRIPTION OF MNEMONIC
#---------             ---------------        ------------------------------
 EKB .F                       38.0000:        KELLY BUSHING
 TD  .F                     2349.0000:        TOTAL DEPTH
 BHT .F                       60.0000:        BOTTOM HOLE TEMPERATURE
 BS  .                         9.6250:        BIT SIZE
 FD  .                        10.6000:        FLUID DENSITY
 CSIZ.                        10.7500:        CASING SIZE
 CBD .F                     1240.0000:        CASING DRILLER 1
 CBL .F                     1244.0000:        CASING LOGGER 1
 DFT .                  Miscellaneous:        TYPE FLUID IN HOLE
 DFV .                        15.0000:        VISCOSITY
 DFPH.                        11.0000:        PH
 DFL .                         1.8000:        FLUID LOSS
 RMS .                         1.1900:        RM
 MST .F                       55.0000:        RM MEAS. TEMP.
 RMF .                         0.8500:        RMF
 MFST.F                       55.0000:        RMF MEAS. TEMP.
 RMC .                         1.2000:        RMC
 MCST.F                       55.0000:        RMC MEAS. TEMP.
~OTHER INFORMATION
~A    DEPTH          SP         LL8         ILD        CILD          DT  
# ...
  2225.0000    -21.9293     16.2446     11.8235     85.0404    102.4534  
  2225.5000    -21.9961     16.1190     11.3516     88.2442    104.2595  
  2226.0000    -21.9430     15.8818     11.0824     90.6048    105.7449  
  2226.5000    -21.9869     15.5275     10.8344     93.1760    105.8780  
  2227.0000    -22.2477     15.2697     10.5974     94.7857    105.9949  
  2227.5000    -22.6013     15.1043     10.2946     95.6369    106.0233  
  2228.0000    -22.8627     14.9239     10.1925     96.9098    105.5885  
  2228.5000    -23.1113     14.7253     10.0919     98.0644    105.0890  
  2229.0000    -23.0436     14.6401      9.9913     99.0790    105.1921  
  2229.5000    -22.7593     14.6294      9.9160     99.7443    106.1772  
  2230.0000    -22.6219     14.6419      9.9355     99.6406    105.9769  
  2230.5000    -22.5117     14.6677     10.0167     98.7001    105.4705  
  2231.0000    -22.2771     14.6821     10.1704     97.0123    104.9270  
  2231.5000    -22.0695     14.6966     10.3276     95.2380    103.7814  
  2232.0000    -21.9739     14.8413     10.8551     93.4637    102.0836  
  2232.5000    -21.8466     15.0676     10.7294     91.6759    100.7824  
  2233.0000    -21.7470     15.2302     11.1251     90.0553     99.8998  
  2233.5000    -21.4901     15.1361     11.1833     89.3683     99.6113  
  2234.0000    -21.2203     14.6986     11.1440     90.7394     99.6045  
  2234.5000    -21.1127     13.6878     10.7538     93.7901     98.1835  
  2235.0000    -21.1721     12.3626     10.1475     98.4691     96.1518  
  2235.5000    -21.1097     11.1571      9.5057    104.5001     94.8097  
  2236.0000    -20.9468     10.2380      8.7328    112.0490     93.7636  
  2236.5000    -20.7739      9.4140      8.2918    120.0646     96.5092  
  2237.0000    -20.6939      8.9240      7.7133    126.5500    100.0393  
  2237.5000    -20.6138      8.6278      7.4349    131.4218    103.1591  
  2238.0000    -20.6087      8.5024      7.1056    136.9823    105.9082  
  2238.5000    -20.4407      8.4517      6.8893    139.8530    107.9999  
  2239.0000    -20.2972      8.7132      6.7595    142.3393    108.7610  
  2239.5000    -20.1957      9.1092      6.8006    140.6061    106.1038  
  2240.0000    -20.1922      9.8327      7.0804    134.7165    105.6186  
  2240.5000    -20.0647     10.4398      7.5771    127.7129    105.0563  
  2241.0000    -20.0742     10.8753      8.2159    120.5123    104.6920  
  2241.5000    -20.1083     10.8353      8.2729    117.3783    103.2680  
  2242.0000    -20.3238     10.5648      8.1417    120.1751    100.7169  
  2242.5000    -20.3778     10.2475      7.8757    124.0825     97.7030  
  2243.0000    -20.2413      9.9192      7.5395    128.0498     93.9409  
  2243.5000    -20.2109      9.5357      7.3475    132.2935     94.5503  
  2244.0000    -20.0181      9.1764      7.1705    135.7873     97.6848  
  2244.5000    -19.8815      8.6383      6.8833    140.0079    101.7842  
  2245.0000    -19.8871      8.3707      6.5663    146.9875    107.7273  
  2245.5000    -20.0598      8.5228      6.3162    150.9136    110.4997  
  2246.0000    -20.3737      8.9330      6.3167    150.6985    111.6682  
  2246.5000    -20.7884      9.6378      6.4306    148.1698    110.5037  
  2247.0000    -21.3420     10.5329      6.7309    142.0555    108.5524  
  2247.5000    -21.6244     11.6983      7.2698    131.0811    106.4159  
  2248.0000    -21.6961     13.5228      8.8062    113.8987    103.5865  
  2248.5000    -21.7599     15.1330     10.2555     96.8994     99.9637  
  2249.0000    -21.7021     16.8518     10.7023     91.9936     96.7982  
  2249.5000    -21.9894     18.2606     10.8765     90.2604     94.1717  
  2250.0000    -22.1616     19.0981     10.9292     90.4978     90.5753  
  2250.5000    -22.3196     19.0358     10.9709     90.8154     88.9175  
  2251.0000    -22.2332     18.4343     11.0262     90.1297     88.5331  
  2251.5000    -22.0316     17.7752     11.1118     89.7977     87.4358  
  2252.0000    -22.1019     17.1160     11.1453     89.4756     87.4738  
  2252.5000    -22.2839     16.4569     11.1708     89.3738     88.8907  
  2253.0000    -22.8383     15.8711     11.0793     90.0685     90.1986  
  2253.5000    -23.1589     15.4322     10.9727     90.9627     91.7275  
  2254.0000    -25.9185     17.3917     12.2304     82.3672     92.0593  
  2254.5000    -26.6122     17.9864     11.9809     82.5930     93.7903  
  2255.0000    -27.7098     19.5672     12.0151     81.3941     92.6525  
  2255.5000    -29.2792     22.4602     12.7958     77.4602     91.0894  
  2256.0000    -31.3185     26.5191     14.3877     70.3369     89.7486  
  2256.5000    -33.0950     32.1355     16.1023     63.3782     88.1596  
  2257.0000    -34.4476     40.5907     18.3781     55.5258     88.1468  
  2257.5000    -35.1694     49.0459     21.2588     49.1314     89.8187  
  2258.0000    -35.3559     94.8233     25.9415     40.6113     90.7740  
  2258.5000    -35.3323    116.1991     32.2800     34.2920     92.0438  
  2259.0000    -35.1309    119.0974     40.6281     28.9413     93.5552  
  2259.5000    -34.8248    119.3781     48.9762     24.3617     93.5440  
  2260.0000    -33.9761    120.0779     54.9426     22.2750     93.6106  
  2260.5000    -33.1274    118.9561     58.4778     21.5215     93.6965  
  2261.0000    -31.7350    118.7032     56.4368     22.3524     92.8804  
  2261.5000    -30.4508    112.7249     47.9144     24.8994     91.0660  
  2262.0000    -29.1324     75.9832     39.1197     29.4124     88.7859  
  2262.5000    -28.0239     48.6837     30.4170     35.6962     87.0204  
  2263.0000    -26.7369     40.7331     24.6574     43.6246     87.6028  
  2263.5000    -25.8129     33.3209     20.7669     50.9675     89.5023  
  2264.0000    -25.4989     28.3122     17.7520     57.7687     90.5021  
  2264.5000    -25.2721     23.9408     15.8624     63.6659     91.1728  
  2265.0000    -25.3415     20.7495     14.5152     69.5063     90.2411  
  2265.5000    -25.0704     19.3910     13.0360     75.5217     89.0103  
  2266.0000    -24.7147     19.5734     12.3331     78.9909     87.8823  
  2266.5000    -24.3621     19.9820     12.1961     81.1301     88.7509  
  2267.0000    -24.0161     19.5673     12.2576     80.5269     90.3146  
  2267.5000    -23.9739     19.1378     12.4552     79.4689     89.6172  
  2268.0000    -24.2364     19.1085     12.6943     78.1694     88.5406  
  2268.5000    -24.5785     19.1990     13.0047     76.8698     87.8219  
  2269.0000    -24.8544     19.3240     13.3090     75.6307     87.3821  
  2269.5000    -25.1303     19.3254     13.5171     74.3126     87.1057  
  2270.0000    -25.4061     18.8626     13.5181     73.3507     86.2022  
  2270.5000    -25.6820     18.6012     13.5171     73.1035     86.5522  
  2271.0000    -25.9239     18.7814     13.5021     73.7016     87.0594  
  2271.5000    -26.1874     18.9930     13.5209     74.1000     88.0194  
  2272.0000    -26.5742     18.9606     13.5396     74.6262     88.2846  
  2272.5000    -26.9593     18.9772     13.5612     73.3833     88.3679  
  2273.0000    -27.4671     19.0925     13.6767     72.8849     88.2231  
  2273.5000    -28.2745     19.3604     13.8661     72.0914     89.1522  
  2274.0000    -28.9501     19.9991     14.0119     71.3069     89.3443  
  2274.5000    -29.6704     20.4774     14.2165     70.3931     88.6422  
  2275.0000    -30.2341     20.6652     14.6484     68.4455     90.0481  
  2275.5000    -30.4387     20.7930     14.9282     67.3054     91.4110  
  2276.0000    -30.1922     20.9796     15.1262     66.7738     89.5468  
  2276.5000    -30.0088     21.0562     15.2872     66.1279     87.6392  
  2277.0000    -29.8500     21.1250     15.3775     65.6553     85.1402  
  2277.5000    -29.6103     21.2227     15.3691     65.6224     84.1828  
  2278.0000    -29.3356     20.8882     15.3608     65.7847     83.0769  
  2278.5000    -29.1200     20.3850     15.3525     65.6557   -999.2500  
  2279.0000    -29.0710     20.1084     15.3441     65.7554   -999.2500  
