~VERSION INFORMATION
 VERS.                           2.00:        CWLS LOG ASCII STANDARD - VERSION 2.00
 WRAP.                             NO:        ONE LINE PER DEPTH STEP
~WELL INFORMATION
#MNEM.UNIT                   DATA             INFORMATION
#----------             --------------        ------------------------------
 STRT.F                     1244.0000:        START DEPTH
 STOP.F                     2340.0000:        STOP DEPTH
 STEP.F                        0.5000:        STEP VALUE
 NULL.                      -999.2500:        NULL VALUE
 COMP.        U.S. NAVY DEPT NP & OSR:        COMPANY  
 LOC .                   14  22N  18W:        LOCATION   
 DATE.                        3/16/73:        LOG DATE 
 WELL.               SOUTH BARROW #10:        WELL     
 UWI .                   500232000400:        UNIQUE WELL ID 
 API .                   500232000400:        UNIQUE WELL IDENTIFIER 
 FLD .                   SOUTH BARROW:        FIELD    
 CNTY.                         NPR #4:        COUNTY  
 STAT.                         ALASKA:        STATE   
 CTRY.                            USA:        COUNTRY 
 OPER.        U.S. NAVY DEPT NP & OSR:        OPERATOR  
 SRVC.                   SCHLUMBERGER:        SERVICE COMPANY 
 LAT .                         0.0000:        LATITUDE
 LON .                         0.0000:        LONGITUDE
 DIGS.               CENTER LINE DATA:        DIGITIZING COMPANY 
~CURVE INFORMATION      
#MNEM        .UNIT         API CODE           CURVE DESCRIPTION
#-----------------      --------------        ------------------------------
 DEPT        .F                      :        1  DEPTH
 SP          .MV                     :        2  
 LL8         .OHMM                   :        3  
 ILD         .OHMM                   :        4  
 CILD        .MMHO                   :        5  
 DT          .US/F                   :        6  
~PARAMETER INFORMATION       
#MNEM.UNIT                  VALUE             DESCRIPTION OF MNEMONIC
#---------             ---------------        ------------------------------
 EKB .F                       38.0000:        KELLY BUSHING
 TD  .F                     2349.0000:        TOTAL DEPTH
 BHT .F                       60.0000:        BOTTOM HOLE TEMPERATURE
 BS  .                         9.6250:        BIT SIZE
 FD  .                        10.6000:        FLUID DENSITY
 CSIZ.                        10.7500:        CASING SIZE
 CBD .F                     1240.0000:        CASING DRILLER 1
 CBL .F                     1244.0000:        CASING LOGGER 1
 DFT .                  Miscellaneous:        TYPE FLUID IN HOLE
 DFV .                        15.0000:        VISCOSITY
 DFPH.                        11.0000:        PH
 DFL .                         1.8000:        FLUID LOSS
 RMS .                         1.1900:        RM
 MST .F                       55.0000:        RM MEAS. TEMP.
 RMF .                         0.8500:        RMF
 MFST.F                       55.0000:        RMF MEAS. TEMP.
 RMC .                         1.2000:        RMC
 MCST.F                       55.0000:        RMC MEAS. TEMP.
~OTHER INFORMATION
~A    DEPTH          SP         LL8         ILD        CILD          DT  
# ...
  2116.0000    -21.3911     12.0092      9.7885    101.7189    107.1850  
  2116.5000    -20.9263     11.8062      9.2269    107.8560    109.6732  
  2117.0000    -20.7428     11.8084      8.7752    111.5693    109.5963  
  2117.5000    -21.0856     11.7505      8.6298    113.9781    109.3126  
  2118.0000    -21.5154     11.5571      8.4238    116.3529    109.1813  
  2118.5000    -21.5580     11.3309      8.2905    117.8898    109.0499  
  2119.0000    -21.1382     11.1004      8.1484    120.0099    108.7741  
  2119.5000    -20.9373     11.0664      8.0268    121.4044    107.5553  
  2120.0000    -20.8991     11.3214      8.0144    121.7487    107.5793  
  2120.5000    -20.6868     11.5488      8.0893    120.6956    107.6613  
  2121.0000    -20.9013     11.7763      8.2927    117.8779    108.1038  
  2121.5000    -21.0263     12.1821      8.5741    114.3316    109.4560  
  2122.0000    -21.0143     13.0255      8.9948    110.3486    108.3799  
  2122.5000    -21.0805     14.2899      9.4156    105.6432    104.6669  
  2123.0000    -21.2743     14.9431      9.8363    101.1263    102.0948  
  2123.5000    -21.4461     15.1417     10.2016     97.3844    101.0557  
  2124.0000    -21.4853     14.7746     10.4559     96.1516     99.1615  
  2124.5000    -21.4478     14.5512     10.3502     97.0658     99.9425  
  2125.0000    -21.4116     14.2942     10.1575     98.5896     99.7571  
  2125.5000    -21.2583     13.8223      9.9648    100.0664     99.7031  
  2126.0000    -21.0078     12.7913      9.6953    102.6062    100.9771  
  2126.5000    -20.8042     11.7561      9.1377    109.0537    104.8694  
  2127.0000    -20.7307     11.4227      8.5752    115.2145    107.5790  
  2127.5000    -20.8448     11.3696      8.2116    119.9344    107.7478  
  2128.0000    -21.0416     11.2968      8.0395    121.9060    106.8280  
  2128.5000    -21.1470     11.1537      7.9404    122.9895    106.0211  
  2129.0000    -21.1800     11.0124      7.9265    123.2295    106.5409  
  2129.5000    -21.0574     10.9496      7.8978    123.3946    106.6673  
  2130.0000    -21.2650     11.0159      7.9487    123.2499    106.5208  
  2130.5000    -21.6427     11.0671      7.9752    122.4202    106.4897  
  2131.0000    -22.1863     11.0116      8.0652    121.1861    105.7569  
  2131.5000    -22.4833     10.9202      8.1474    120.5377    105.7930  
  2132.0000    -22.5510     10.8962      8.1710    119.9551    107.1436  
  2132.5000    -22.5694     10.9302      8.2495    118.7501    108.3813  
  2133.0000    -22.5436     10.9553      8.3896    117.2929    108.3653  
  2133.5000    -22.3188     10.9524      8.4563    116.3820    107.9116  
  2134.0000    -21.7596     10.8935      8.4651    116.2045    107.2210  
  2134.5000    -21.3570     10.8237      8.4454    116.4530    106.6466  
  2135.0000    -21.3582     10.6314      8.3888    116.8279    106.6137  
  2135.5000    -21.4556     10.6636      8.3863    117.1755    106.4071  
  2136.0000    -21.4091     10.7387      8.4178    116.5046    106.4646  
  2136.5000    -21.3819     10.7774      8.5565    114.6312    104.8869  
  2137.0000    -20.7757     10.8498      8.6620    113.4456    103.9121  
  2137.5000    -20.2928     11.0162      8.7182    112.9113    103.3328  
  2138.0000    -19.9218     11.1389      8.8084    112.1044    102.5766  
  2138.5000    -20.0900     11.3369      8.7969    112.1609    103.0593  
  2139.0000    -20.2581     11.7663      8.7795    112.2384    104.5143  
  2139.5000    -20.4263     11.9212      8.8353    111.4786    104.9937  
  2140.0000    -20.5460     11.8914      8.8611    110.7820    104.3881  
  2140.5000    -20.4739     11.8657      8.8760    110.5070    103.9610  
  2141.0000    -20.3612     11.8460      8.8908    110.3251    103.6927  
  2141.5000    -20.2361     11.8013      8.9056    110.4222    102.5410  
  2142.0000    -20.5867     11.8359      8.9075    110.6807    103.5727  
  2142.5000    -20.8509     11.8533      8.9179    110.5925    104.5877  
  2143.0000    -20.8509     11.8100      8.9056    110.4099    104.8184  
  2143.5000    -20.8460     11.8105      8.8815    110.2273    104.5405  
  2144.0000    -20.6457     11.9045      8.8755    110.0448    104.8916  
  2144.5000    -20.4454     11.9775      8.9423    109.8622    104.7672  
  2145.0000    -20.4665     11.9676      8.9958    109.6941    104.0719  
  2145.5000    -20.6400     11.9908      9.0378    109.5791    103.7609  
  2146.0000    -20.8402     12.0140      9.0376    109.4641    104.0882  
  2146.5000    -20.9947     12.0434      9.0503    109.3491    104.5250  
  2147.0000    -21.1711     12.1791      9.1559    108.6883    102.6736  
  2147.5000    -21.3356     12.6751      9.3343    106.3985    102.0856  
  2148.0000    -21.3884     13.4559      9.6576    103.3043    102.0066  
  2148.5000    -21.5288     13.7363      9.9533     99.4513    101.9989  
  2149.0000    -21.9356     13.8454     10.1610     96.9856    102.4091  
  2149.5000    -22.2982     13.8482     10.3458     96.2457    102.4166  
  2150.0000    -22.1104     13.8858     10.3701     95.6470     99.8287  
  2150.5000    -21.8255     13.9441     10.3943     95.2652     96.9340  
  2151.0000    -21.6750     13.8610     10.4162     94.7520     96.2958  
  2151.5000    -21.5461     13.1914     10.2490     94.7787     96.6873  
  2152.0000    -21.5522     12.5577     10.0817     97.0559     98.6889  
  2152.5000    -21.5927     12.2953      9.8914    100.2188    100.8307  
  2153.0000    -21.4555     12.2613      9.6462    102.9222    101.4547  
  2153.5000    -21.4109     12.2444      9.3824    104.4158    102.0759  
  2154.0000    -21.4008     12.2190      9.3073    105.3866    102.3276  
  2154.5000    -21.4175     12.1694      9.2665    106.0140    102.7816  
  2155.0000    -21.4341     12.1089      9.2474    105.8377    104.3207  
  2155.5000    -21.5140     12.0726      9.2448    105.6615    102.4758  
  2156.0000    -21.6822     12.0418      9.2774    105.4852    102.8101  
  2156.5000    -21.7846     12.0709      9.3285    105.3089    102.0461  
  2157.0000    -21.7632     12.1512      9.5888    104.6544    102.0297  
  2157.5000    -21.7382     12.2794      9.6187    103.9451    103.0713  
  2158.0000    -21.8130     12.3036      9.6201    103.3442    103.1892  
  2158.5000    -21.8879     12.2405      9.6305    102.5618    103.0644  
  2159.0000    -21.9594     12.2019      9.6480    102.7771    103.2024  
  2159.5000    -21.9923     12.2387      9.6116    102.9439    103.1278  
  2160.0000    -21.9954     12.3137      9.5374    102.9617    101.2459  
  2160.5000    -22.0286     12.3257      9.4768    102.7776    101.3083  
  2161.0000    -21.8663     12.1774      9.4954    102.7892    101.2543  
  2161.5000    -21.8394     12.0098      9.4503    103.8946    101.6593  
  2162.0000    -22.0818     12.0527      9.4466    104.5112    102.8795  
  2162.5000    -22.4027     12.3045      9.4428    105.1279    102.2876  
  2163.0000    -22.8452     12.8488      9.6048    103.1956    101.7923  
  2163.5000    -23.2929     13.8714      9.9358     99.8741    102.0206  
  2164.0000    -23.5123     15.0981     10.4671     94.6205    102.2642  
  2164.5000    -23.6856     15.7124     11.1003     90.7888    102.0470  
  2165.0000    -24.0203     15.7175     11.2943     88.3432    101.2747  
  2165.5000    -24.0841     15.5125     11.2997     88.2615     99.9993  
  2166.0000    -23.5908     15.3020     11.2841     88.8937     98.4903  
  2166.5000    -23.0975     15.1034     11.2685     89.6333     95.8550  
  2167.0000    -22.7275     14.5839     11.2529     90.1592     94.9776  
  2167.5000    -22.5998     13.4809     10.9294     91.9155     95.8927  
  2168.0000    -22.4132     12.7156     10.4531     95.8569     99.1626  
  2168.5000    -22.1184     11.8218      9.8352    100.6303    100.9580  
  2169.0000    -21.8439     11.7026      9.3558    106.5940    102.9892  
  2169.5000    -21.7604     11.6559      8.9466    110.1030    104.1612  
  2170.0000    -21.8733     11.6032      8.6368    112.2290    103.3704  
