~VERSION INFORMATION
 VERS.                           2.00:        CWLS LOG ASCII STANDARD - VERSION 2.00
 WRAP.                             NO:        ONE LINE PER DEPTH STEP
~WELL INFORMATION
#MNEM.UNIT                   DATA             INFORMATION
#----------             --------------        ------------------------------
 STRT.F                     1088.0000:        START DEPTH
 STOP.F                     2449.0000:        STOP DEPTH
 STEP.F                        0.5000:        STEP VALUE
 NULL.                      -999.2500:        NULL VALUE
 COMP.             UNITED STATES NAVY:        COMPANY  
 LOC .                   11  22N  18W:        LOCATION   
 DATE.                         4/7/70:        LOG DATE 
 WELL.                    GAS WELL #9:        WELL     
 UWI .                   500232000300:        UNIQUE WELL ID 
 API .                   500232000300:        UNIQUE WELL IDENTIFIER 
 FLD .                   SOUTH BARROW:        FIELD    
 CNTY.                   POINT BARROW:        COUNTY  
 STAT.                         ALASKA:        STATE   
 CTRY.                            USA:        COUNTRY 
 OPER.             UNITED STATES NAVY:        OPERATOR  
 SRVC.                   SCHLUMBERGER:        SERVICE COMPANY 
 LAT .                         0.0000:        LATITUDE
 LON .                         0.0000:        LONGITUDE
 DIGS.               CENTER LINE DATA:        DIGITIZING COMPANY 
~CURVE INFORMATION      
#MNEM        .UNIT         API CODE           CURVE DESCRIPTION
#-----------------      --------------        ------------------------------
 DEPT        .F                      :        1  DEPTH
 SP          .MV                     :        2  
 ASN         .OHMM                   :        3  
 ILD         .OHMM                   :        4  
 CILD        .MMHO                   :        5  
 CALI        .IN                     :        6  
 GR          .GAPI                   :        7  
 DRHO        .G/C3                   :        8  
 RHOB        .G/C3                   :        9  
 DT          .US/F                   :        10 
~PARAMETER INFORMATION       
#MNEM.UNIT                  VALUE             DESCRIPTION OF MNEMONIC
#---------             ---------------        ------------------------------
 EKB .F                       29.0000:        KELLY BUSHING
 TD  .F                     2450.0000:        TOTAL DEPTH
 BHT .F                       75.0000:        BOTTOM HOLE TEMPERATURE
 BS  .                         8.6250:        BIT SIZE
 FD  .                        10.7000:        FLUID DENSITY
 CSIZ.                         9.6250:        CASING SIZE
 CBD .F                     1100.0000:        CASING DRILLER 1
 CBL .F                     1102.0000:        CASING LOGGER 1
 DFT .                            Gel:        TYPE FLUID IN HOLE
 DFV .                        45.0000:        VISCOSITY
 DFPH.                         8.8000:        PH
 DFL .                         3.8000:        FLUID LOSS
 RMS .                         2.7500:        RM
 MST .F                       60.0000:        RM MEAS. TEMP.
 RMF .                         2.3600:        RMF
 MFST.F                       60.0000:        RMF MEAS. TEMP.
 RMC .                         3.7800:        RMC
 MCST.F                       60.0000:        RMC MEAS. TEMP.
~OTHER INFORMATION
~A    DEPTH          SP         ASN         ILD        CILD        CALI          GR        DRHO        RHOB          DT  
# ...
  1517.0000    -22.2226     12.9193     11.8200     83.8589     10.1076     68.1302      0.0570      2.4794    106.4753  
  1517.5000    -22.2361     12.8245     11.6058     85.2975     10.1394     67.4371      0.0365      2.4711    106.4887  
  1518.0000    -22.0144     12.7436     11.4378     85.9401     10.1565     68.7921      0.0189      2.4500    106.8092  
  1518.5000    -21.6132     12.5578     11.5079     85.6433     10.1768     71.0490      0.0239      2.4350    107.5144  
  1519.0000    -21.1225     12.6102     11.6964     85.1535     10.1866     73.5120      0.0337      2.4475    108.0439  
  1519.5000    -21.2997     12.6732     11.7713     84.2781     10.2183     73.8640      0.0551      2.4698    108.2531  
  1520.0000    -21.7501     12.7362     11.8462     83.5440     10.2270     73.9919      0.0436      2.4711    108.1684  
  1520.5000    -22.0910     12.8311     11.9881     82.7826     10.2408     72.9975      0.0360      2.4683    107.1963  
  1521.0000    -21.8367     13.0437     12.0617     82.5078     10.2612     71.1293      0.0313      2.4765    106.1318  
  1521.5000    -21.6054     13.2563     12.0051     82.6626     10.2593     70.3782      0.0191      2.4798    104.9286  
  1522.0000    -22.3154     13.3997     11.8969     83.5082     10.2455     71.2727      0.0192      2.4886    104.2894  
  1522.5000    -22.6880     13.3362     11.7451     84.7016     10.1908     71.5318      0.0227      2.4796    104.4856  
  1523.0000    -22.0156     13.0166     11.4625     86.1871     10.1581     71.2638      0.0355      2.4933    105.3966  
  1523.5000    -21.2165     12.5695     11.0845     88.8470     10.1629     72.4008      0.0419      2.4968    106.8306  
  1524.0000    -21.1100     12.0624     10.7683     91.3546     10.1704     72.4186      0.0409      2.4854    109.0177  
  1524.5000    -21.3240     11.6854     10.3735     94.6701     10.1745     73.2732      0.0502      2.4772    110.8994  
  1525.0000    -21.7509     11.3524     10.0379     97.1733     10.1822     74.7289      0.0469      2.4623    112.2739  
  1525.5000    -21.8207     11.1698      9.9067     98.8852     10.1760     78.1376      0.0444      2.4605    113.1513  
  1526.0000    -21.9984     11.1004      9.7837     99.9895     10.1793     81.6893      0.0547      2.4742    113.4990  
  1526.5000    -21.4992     11.1121      9.7562    100.7173     10.1662     79.7044      0.0614      2.4861    113.3323  
  1527.0000    -21.1704     11.1830      9.7393    100.7500     10.1529     78.7600      0.0266      2.4533    113.1230  
  1527.5000    -21.2789     11.2539      9.7562    100.7500     10.1672     78.6066      0.0198      2.4385    112.8668  
  1528.0000    -22.1019     11.2526      9.7241    100.7500     10.1734     78.6739      0.0364      2.4556    112.6107  
  1528.5000    -22.4698     11.1500      9.7395    100.7373     10.1784     78.6011      0.0335      2.4608    112.4182  
  1529.0000    -21.7272     11.0768      9.7634    100.7160     10.1802     77.7188      0.0310      2.4587    112.3283  
  1529.5000    -21.3460     11.0569      9.7493    100.6948     10.2013     77.5487      0.0362      2.4635    112.2517  
  1530.0000    -21.6010     11.0709      9.8245    100.1567     10.2139     77.6972      0.0559      2.4850    112.0769  
  1530.5000    -21.8684     11.0847      9.8180     99.2379     10.2308     78.5448      0.0483      2.4731    111.9672  
  1531.0000    -21.9862     11.1506      9.9628     97.7069     10.2442     78.1895      0.0346      2.4655    111.4770  
  1531.5000    -22.2509     11.2164     10.1337     95.2434     10.2417     75.3505      0.0294      2.4668    110.8799  
  1532.0000    -22.3464     11.4655     10.3708     92.9992     10.2425     75.9214      0.0260      2.4836    110.4002  
  1532.5000    -22.2704     11.8487     10.6980     90.6220     10.2461     74.4340      0.0319      2.4716    109.8962  
  1533.0000    -21.9788     12.2319     11.0251     88.6519     10.2547     71.8261      0.0457      2.4824    108.7369  
  1533.5000    -22.1095     12.6350     11.3445     86.7494     10.2525     70.2500      0.0468      2.4732    107.6225  
  1534.0000    -22.2025     12.9337     11.5115     85.5000     10.2601     69.5856      0.0325      2.4598    106.3244  
  1534.5000    -22.2265     13.0977     11.5475     85.6307     10.2695     69.0795      0.0394      2.4651    105.2873  
  1535.0000    -22.7006     13.0832     11.4228     86.9411     10.2817     68.0770      0.0434      2.4669    104.8278  
  1535.5000    -22.7686     12.9048     11.1188     88.9347     10.2689     68.7511      0.0273      2.4513    104.8957  
  1536.0000    -22.6668     12.6027     10.8056     91.4164     10.2328     69.0920      0.0169      2.4497    105.7417  
  1536.5000    -22.8181     11.9844     10.5374     93.8368     10.1919     69.9755      0.0267      2.4730    107.3604  
  1537.0000    -22.6906     11.4556     10.2004     96.8174     10.1956     69.9607      0.0412      2.4884    109.6325  
  1537.5000    -22.2515     11.1101      9.7976     99.4655     10.1960     71.7635      0.0344      2.4728    111.4100  
  1538.0000    -22.5998     10.7499      9.4568    102.4000     10.1895     75.6873      0.0484      2.4690    113.1332  
  1538.5000    -22.9059     10.8570      9.3077    105.2187     10.1786     75.4713      0.0647      2.4875    113.6230  
  1539.0000    -22.7090     10.8288      9.0381    107.2339     10.1793     74.4894      0.0508      2.4715    113.5998  
  1539.5000    -22.2472     10.7981      8.9021    108.5940     10.1860     72.8842      0.0355      2.4523    113.4920  
  1540.0000    -21.6460     10.6139      8.7661    109.0000     10.1688     69.6305      0.0294      2.4434    113.4771  
  1540.5000    -20.6976     10.2899      8.8263    108.6908     10.1597     70.5302      0.0250      2.4370    114.1610  
  1541.0000    -20.5734     10.2194      8.9500    107.7226     10.1674     72.7604      0.0321      2.4528    115.2198  
  1541.5000    -20.5489     10.2326      9.0870    106.4604     10.1683     76.0086      0.0340      2.4587    116.1948  
  1542.0000    -21.0276     10.5722      9.3015    104.9600     10.1532     79.0199      0.0440      2.4663    116.0713  
  1542.5000    -22.7687     10.9118      9.5339    102.6716     10.1122     78.8117      0.0475      2.4726    114.9299  
  1543.0000    -23.0815     11.2496      9.7664    100.2108     10.0447     79.0134      0.0317      2.4619    112.9538  
  1543.5000    -23.2457     11.5260      9.9989     96.7447     10.0607     79.9721      0.0221      2.4527    110.9298  
  1544.0000    -23.7683     11.6713     10.3028     93.7146     10.0173     79.6269      0.0284      2.4638    109.9610  
  1544.5000    -23.9974     11.8412     10.5965     92.0944      9.9878     77.4369      0.0338      2.4605    109.2574  
  1545.0000    -23.8884     11.9842     10.7874     91.0030      9.9638     77.2640      0.0359      2.4570    108.7544  
  1545.5000    -23.7173     12.0019     10.8146     90.5409      9.9556     75.9216      0.0432      2.4579    108.2142  
  1546.0000    -23.2613     11.9055     10.6377     90.1864     10.0157     74.4339      0.0421      2.4591    107.6788  
  1546.5000    -23.1002     11.8563     10.6180     90.6700     10.0757     76.5959      0.0251      2.4472    107.3447  
  1547.0000    -23.1447     11.8793     10.6153     91.3762     10.0046     77.9737      0.0251      2.4447    107.3209  
  1547.5000    -22.9066     11.9023     10.6126     92.1158      9.9788     75.8105      0.0432      2.4673    107.5605  
  1548.0000    -23.1860     11.9196     10.6094     92.8574      9.9548     75.0405      0.0531      2.4754    107.6279  
  1548.5000    -23.3501     11.8496     10.6057     93.0627      9.9412     74.4940      0.0610      2.4847    107.8336  
  1549.0000    -22.4454     11.7303     10.5743     93.1450      9.9274     74.3016      0.0497      2.4853    108.3636  
  1549.5000    -22.0037     11.6535     10.5333     93.2998      9.9081     75.0798      0.0385      2.4748    109.0038  
