~VERSION INFORMATION
 VERS.                           2.00:        CWLS LOG ASCII STANDARD - VERSION 2.00
 WRAP.                             NO:        ONE LINE PER DEPTH STEP
~WELL INFORMATION
#MNEM.UNIT                   DATA             INFORMATION
#----------             --------------        ------------------------------
 STRT.F                      884.0000:        START DEPTH
 STOP.F                     2365.0000:        STOP DEPTH
 STEP.F                        0.5000:        STEP VALUE
 NULL.                      -999.2500:        NULL VALUE
 COMP.                      U.S. NAVY:        COMPANY  
 LOC .                   14  22N  18W:        LOCATION   
 DATE.                        3/19/64:        LOG DATE 
 WELL.                SOUTH BARROW #6:        WELL     
 UWI .                   500231001500:        UNIQUE WELL ID 
 API .                   500231001500:        UNIQUE WELL IDENTIFIER 
 FLD .                   SOUTH BARROW:        FIELD    
 CNTY.                         NPR #4:        COUNTY  
 STAT.                         ALASKA:        STATE   
 CTRY.                            USA:        COUNTRY 
 OPER.                      U.S. NAVY:        OPERATOR  
 SRVC.                   SCHLUMBERGER:        SERVICE COMPANY 
 LAT .                         0.0000:        LATITUDE
 LON .                         0.0000:        LONGITUDE
 DIGS.               CENTER LINE DATA:        DIGITIZING COMPANY 
~CURVE INFORMATION      
#MNEM        .UNIT         API CODE           CURVE DESCRIPTION
#-----------------      --------------        ------------------------------
 DEPT        .F                      :        1  DEPTH
 SP          .MV                     :        2  
 SN          .OHMM                   :        3  
 ILD         .OHMM                   :        4  
 CILD        .OHMM                   :        5  
 DT          .US/F                   :        6  
~PARAMETER INFORMATION       
#MNEM.UNIT                  VALUE             DESCRIPTION OF MNEMONIC
#---------             ---------------        ------------------------------
 EKB .F                       40.0000:        KELLY BUSHING
 TD  .F                     2366.0000:        TOTAL DEPTH
 BHT .F                        0.0000:        BOTTOM HOLE TEMPERATURE
 BS  .                         9.6250:        BIT SIZE
 FD  .                        85.0000:        FLUID DENSITY
 CSIZ.                        11.7500:        CASING SIZE
 CBD .F                      884.0000:        CASING DRILLER 1
 CBL .F                      884.0000:        CASING LOGGER 1
 DFT .                  Miscellaneous:        TYPE FLUID IN HOLE
 DFV .                        45.0000:        VISCOSITY
 DFPH.                         0.0000:        PH
 DFL .                         2.8000:        FLUID LOSS
 RMS .                         5.3700:        RM
 MST .F                       33.0000:        RM MEAS. TEMP.
 RMF .                         2.9500:        RMF
 MFST.F                       45.0000:        RMF MEAS. TEMP.
 RMC .                         2.4800:        RMC
 MCST.F                       35.0000:        RMC MEAS. TEMP.
~OTHER INFORMATION
~A    DEPTH          SP          SN         ILD        CILD          DT  
# ...
  1919.5000    -23.2687     13.4634     11.8134     88.1162   -999.2500  
  1920.0000    -23.4119     13.4475     11.7250     88.6889   -999.2500  
  1920.5000    -23.7665     13.3856     11.5807     89.3437   -999.2500  
  1921.0000    -24.1409     13.0886     11.3985     90.5945   -999.2500  
  1921.5000    -24.2254     12.7175     11.1629     92.5750   -999.2500  
  1922.0000    -24.1067     12.4181     10.9010     94.5245   -999.2500  
  1922.5000    -23.8498     12.2345     10.7512     96.2232   -999.2500  
  1923.0000    -23.6768     12.1464     10.6360     97.4126   -999.2500  
  1923.5000    -23.6493     12.1419     10.5254     98.4763   -999.2500  
  1924.0000    -23.6237     12.1490     10.4485     99.7266   -999.2500  
  1924.5000    -23.4784     12.0904     10.2803    100.5360   -999.2500  
  1925.0000    -23.2859     11.9766     10.2171    101.6353   -999.2500  
  1925.5000    -23.1118     11.8100     10.0870    102.4979   -999.2500  
  1926.0000    -22.9536     11.5934     10.1600    103.4052   -999.2500  
  1926.5000    -22.8490     11.3753     10.0903    103.9815   -999.2500  
  1927.0000    -22.9195     11.2300      9.9954    104.7553   -999.2500  
  1927.5000    -23.0595     11.2458      9.9004    105.1440   -999.2500  
  1928.0000    -23.2744     11.3884      9.9027    105.6706   -999.2500  
  1928.5000    -23.4308     11.5169      9.9580    105.8162   -999.2500  
  1929.0000    -23.4893     11.5752     10.1046    104.5249   -999.2500  
  1929.5000    -23.5479     11.5451     10.1726    102.9358   -999.2500  
  1930.0000    -23.7664     11.5141     10.3099    102.8131   -999.2500  
  1930.5000    -23.9841     11.4895     10.1497    102.8335   -999.2500  
  1931.0000    -24.0709     11.5058     10.1185    103.2123   -999.2500  
  1931.5000    -24.1441     11.4988      9.9675    105.2984   -999.2500  
  1932.0000    -24.4863     11.4697      9.8431    106.4589   -999.2500  
  1932.5000    -25.0087     11.4009      9.7605    107.6403   -999.2500  
  1933.0000    -25.2432     11.2863      9.7391    108.5578   -999.2500  
  1933.5000    -24.8799     11.1192      9.6284    109.3021   -999.2500  
  1934.0000    -24.3765     10.9896      9.5917    109.8362   -999.2500  
  1934.5000    -24.0619     10.9260      9.4853    110.8329   -999.2500  
  1935.0000    -23.8506     10.9568      9.4120    111.9895   -999.2500  
  1935.5000    -23.7854     11.0276      9.3096    112.8953   -999.2500  
  1936.0000    -23.7625     11.0665      9.2900    113.6486   -999.2500  
  1936.5000    -23.7358     11.0402      9.3130    113.8133   -999.2500  
  1937.0000    -23.6954     10.9961      9.4227    112.8191   -999.2500  
  1937.5000    -23.6406     11.0040      9.5582    111.0232   -999.2500  
  1938.0000    -23.6790     11.1222      9.8725    107.7216   -999.2500  
  1938.5000    -23.7803     11.3165     10.1392    104.7496   -999.2500  
  1939.0000    -23.9354     11.5941     10.2294    102.4809   -999.2500  
  1939.5000    -23.9660     11.9576     10.1984    102.2675   -999.2500  
  1940.0000    -24.0353     12.1704     10.1916    102.4656   -999.2500  
  1940.5000    -24.3213     12.1726     10.2022    102.5513   -999.2500  
  1941.0000    -24.7629     12.1640     10.2183    102.5302   -999.2500  
  1941.5000    -25.0688     12.1409     10.1938    102.6259   -999.2500  
  1942.0000    -24.9287     11.7243     10.0944    104.2048   -999.2500  
  1942.5000    -24.6478     11.2767      9.7893    107.5401   -999.2500  
  1943.0000    -24.3442     11.0560      9.6458    110.9166   -999.2500  
  1943.5000    -24.1373     11.0394      9.3844    112.8931   -999.2500  
  1944.0000    -23.9711     11.0921      9.4071    113.5238   -999.2500  
  1944.5000    -23.9340     11.1514      9.4913    112.7208   -999.2500  
  1945.0000    -24.0334     11.2071      9.5767    110.9106   -999.2500  
  1945.5000    -24.3667     11.2301      9.5961    109.6593   -999.2500  
  1946.0000    -24.9148     11.1771      9.6398    109.9742   -999.2500  
  1946.5000    -25.6279     11.0904      9.5929    111.0482   -999.2500  
  1947.0000    -26.2425     10.9779      9.3886    112.5503   -999.2500  
  1947.5000    -26.5280     11.0189      9.2861    114.0750   -999.2500  
  1948.0000    -26.6184     11.1128      9.2761    114.7427   -999.2500  
  1948.5000    -26.5545     11.0834      9.3314    114.5462   -999.2500  
  1949.0000    -26.5127     10.9504      9.4216    113.8786   -999.2500  
  1949.5000    -26.4861     10.8709      9.5210    112.8286   -999.2500  
  1950.0000    -26.2976     10.9089      9.5161    112.1178   -999.2500  
  1950.5000    -26.1164     11.0437      9.4626    112.2785   -999.2500  
  1951.0000    -26.0851     11.2736      9.4182    113.2137   -999.2500  
  1951.5000    -26.2063     11.4298      9.4575    113.2253   -999.2500  
  1952.0000    -26.2950     11.5289      9.5835    112.0068   -999.2500  
  1952.5000    -25.9696     11.5382      9.6739    110.2853   -999.2500  
  1953.0000    -25.5744     11.3748      9.6688    108.8680   -999.2500  
  1953.5000    -24.9409     11.1661      9.6637    109.2198   -999.2500  
  1954.0000    -24.4636     11.0397      9.6406    110.7962   -999.2500  
  1954.5000    -24.0696     10.9753      9.4451    112.6075   -999.2500  
  1955.0000    -23.8504     10.9544      9.2642    114.6155   -999.2500  
  1955.5000    -23.7243     10.9646      9.0828    116.7041   -999.2500  
  1956.0000    -23.7429     10.9210      8.9785    118.7685   -999.2500  
  1956.5000    -23.8023     10.8025      8.9332    119.4649   -999.2500  
  1957.0000    -23.8618     10.6281      8.9767    118.9999   -999.2500  
  1957.5000    -23.9039     10.4652      9.0305    118.4113   -999.2500  
  1958.0000    -23.8684     10.4884      9.0080    118.2657   -999.2500  
  1958.5000    -23.8081     10.5641      8.9724    118.4995   -999.2500  
  1959.0000    -23.7575     10.7963      8.9376    119.1119   -999.2500  
  1959.5000    -23.6279     11.0814      8.9269    119.2881   -999.2500  
  1960.0000    -23.5135     11.2143      8.9731    119.0021   -999.2500  
  1960.5000    -23.4335     11.2545      8.9963    118.4712   -999.2500  
  1961.0000    -23.4539     11.2964      9.0892    117.7926   -999.2500  
  1961.5000    -23.6224     11.3956      9.3342    116.1514   -999.2500  
  1962.0000    -23.9485     11.6453     10.0042    110.1997   -999.2500  
  1962.5000    -24.3700     12.0146     10.8097    101.6620   -999.2500  
  1963.0000    -24.7816     12.6512     11.4958     94.9674   -999.2500  
  1963.5000    -25.5784     13.8932     11.9797     90.7065   -999.2500  
  1964.0000    -26.8729     15.9169     12.2508     88.6840   -999.2500  
  1964.5000    -28.0198     18.1104     12.5067     86.8350   -999.2500  
  1965.0000    -28.5899     19.0768     13.0240     83.5423   -999.2500  
  1965.5000    -28.2195     17.6022     13.3691     80.4266   -999.2500  
  1966.0000    -26.9031     16.0202     12.8270     82.0706   -999.2500  
  1966.5000    -25.6349     14.5146     12.0724     87.2093   -999.2500  
  1967.0000    -24.7315     13.3994     11.0008     95.2993   -999.2500  
  1967.5000    -24.3296     12.6261     10.3214    102.2310   -999.2500  
  1968.0000    -23.9554     12.0311      9.8080    108.6604   -999.2500  
  1968.5000    -23.5323     11.6894      9.3425    112.3992   -999.2500  
  1969.0000    -23.1745     11.4332      9.1317    115.2234   -999.2500  
  1969.5000    -22.9111     11.2112      8.9524    117.0374   -999.2500  
  1970.0000    -22.6012     11.0229      8.9211    118.1544   -999.2500  
  1970.5000    -22.4552     10.8562      8.8645    118.9049   -999.2500  
  1971.0000    -22.4294     10.7408      8.8023    119.3877   -999.2500  
  1971.5000    -22.4911     10.6738      8.8110    119.8118   -999.2500  
  1972.0000    -22.5975     10.6239      8.7891    119.9700   -999.2500  
  1972.5000    -22.8047     10.6166      8.7837    119.8964   -999.2500  
  1973.0000    -23.0417     10.6268      8.6977    120.7889   -999.2500  
  1973.5000    -23.1322     10.5953      8.5854    122.1066   -999.2500  
