~VERSION INFORMATION
 VERS.                           2.00:        CWLS LOG ASCII STANDARD - VERSION 2.00
 WRAP.                             NO:        ONE LINE PER DEPTH STEP
~WELL INFORMATION
#MNEM.UNIT                   DATA             INFORMATION
#----------             --------------        ------------------------------
 STRT.F                       78.0000:        START DEPTH
 STOP.F                     2392.0000:        STOP DEPTH
 STEP.F                        0.5000:        STEP VALUE
 NULL.                      -999.2500:        NULL VALUE
 COMP.              U.S.G.S./NPR -  A:        COMPANY  
 LOC .                    1  22N  18W:        LOCATION   
 DATE.                        2/14/78:        LOG DATE 
 WELL.               SOUTH BARROW #16:        WELL     
 UWI .                   500232001000:        UNIQUE WELL ID 
 API .                   500232001000:        UNIQUE WELL IDENTIFIER 
 FLD .                   SOUTH BARROW:        FIELD    
 CNTY.                    NORTH SLOPE:        COUNTY  
 STAT.                         ALASKA:        STATE   
 CTRY.                            USA:        COUNTRY 
 OPER.              U.S.G.S./NPR -  A:        OPERATOR  
 SRVC.                   SCHLUMBERGER:        SERVICE COMPANY 
 LAT .                         0.0000:        LATITUDE
 LON .                         0.0000:        LONGITUDE
 DIGS.               CENTER LINE DATA:        DIGITIZING COMPANY 
~CURVE INFORMATION      
#MNEM        .UNIT         API CODE           CURVE DESCRIPTION
#-----------------      --------------        ------------------------------
 DEPT        .F                      :        1  DEPTH
 CALI        .IN                     :        2  
 GR          .GAPI                   :        3  
 RHOB        .G/C3                   :        4  
 DRHO        .G/C3                   :        5  
 NPHI        .%                      :        6  
 DT          .US/F                   :        7  
 SP          .MV                     :        8  
 ILD         .OHMM                   :        9  
 ILM         .OHMM                   :        10 
 LL8         .OHMM                   :        11 
 LLD         .OHMM                   :        12 
 LLS         .OHMM                   :        13 
~PARAMETER INFORMATION       
#MNEM.UNIT                  VALUE             DESCRIPTION OF MNEMONIC
#---------             ---------------        ------------------------------
 EKB .F                       30.0000:        KELLY BUSHING
 TD  .F                     2399.0000:        TOTAL DEPTH
 BHT .F                       73.0000:        BOTTOM HOLE TEMPERATURE
 BS  .                         8.5000:        BIT SIZE
 FD  .                        11.0000:        FLUID DENSITY
 CSIZ.                         8.5000:        CASING SIZE
 CBD .F                     1489.0000:        CASING DRILLER 1
 CBL .F                     1487.0000:        CASING LOGGER 1
 DFT .                  Miscellaneous:        TYPE FLUID IN HOLE
 DFV .                        52.0000:        VISCOSITY
 DFPH.                         8.5000:        PH
 DFL .                         8.0000:        FLUID LOSS
 RMS .                         0.0210:        RM
 MST .F                       58.0000:        RM MEAS. TEMP.
 RMF .                         0.0130:        RMF
 MFST.F                       52.0000:        RMF MEAS. TEMP.
 RMC .                         0.0170:        RMC
 MCST.F                       56.0000:        RMC MEAS. TEMP.
~OTHER INFORMATION
~A    DEPTH        CALI          GR        RHOB        DRHO        NPHI          DT          SP         ILD         ILM         LL8         LLD         LLS  
# ...
  1174.5000     12.6637     89.4556   -999.2500   -999.2500   -999.2500    114.7482      9.3865      9.3659      8.6955      9.6039   -999.2500   -999.2500  
  1175.0000     12.7544     88.3017   -999.2500   -999.2500   -999.2500    114.9950      9.7617      9.4328      8.7297      9.6144   -999.2500   -999.2500  
  1175.5000     12.7598     88.4506   -999.2500   -999.2500   -999.2500    115.1406     11.0181      9.5003      8.7639      9.6459   -999.2500   -999.2500  
  1176.0000     12.7926     89.1392   -999.2500   -999.2500   -999.2500    114.9503     12.0395      9.5682      8.7826      9.6839   -999.2500   -999.2500  
  1176.5000     12.8606     89.0579   -999.2500   -999.2500   -999.2500    114.5344     12.8164      9.6366      8.7738      9.7221   -999.2500   -999.2500  
  1177.0000     12.7902     87.9870   -999.2500   -999.2500   -999.2500    113.9618     12.9380      9.7010      8.7650      9.7604   -999.2500   -999.2500  
  1177.5000     12.6899     86.3551   -999.2500   -999.2500   -999.2500    114.5478     11.8190      9.6936      8.7561      9.7989   -999.2500   -999.2500  
  1178.0000     12.6380     86.4274   -999.2500   -999.2500   -999.2500    115.1553     10.0040      9.6862      8.7473      9.8375   -999.2500   -999.2500  
  1178.5000     12.5894     87.8446   -999.2500   -999.2500   -999.2500    115.7314      8.1376      9.6788      8.7385      9.8763   -999.2500   -999.2500  
  1179.0000     12.6121     88.0778   -999.2500   -999.2500   -999.2500    115.8783      7.2630      9.6714      8.7297      9.9152   -999.2500   -999.2500  
  1179.5000     12.6791     87.0689   -999.2500   -999.2500   -999.2500    115.9118      8.2065      9.6640      8.7165      9.9543   -999.2500   -999.2500  
  1180.0000     12.6867     85.7535   -999.2500   -999.2500   -999.2500    116.2832     12.2845      9.6566      8.6630      9.9935   -999.2500   -999.2500  
  1180.5000     12.6943     86.7717   -999.2500   -999.2500   -999.2500    116.6068     14.2363      9.6492      8.6098     10.0329   -999.2500   -999.2500  
  1181.0000     12.6642     90.0530   -999.2500   -999.2500   -999.2500    116.6049     10.9898      9.6418      8.5569     10.0725   -999.2500   -999.2500  
  1181.5000     12.6765     92.8325   -999.2500   -999.2500   -999.2500    115.8708      9.9197      9.6344      8.5044     10.1122   -999.2500   -999.2500  
  1182.0000     12.7404     94.9444   -999.2500   -999.2500   -999.2500    114.5020      9.2413      9.6270      8.4521     10.1520   -999.2500   -999.2500  
  1182.5000     12.7862     95.4955   -999.2500   -999.2500   -999.2500    113.9677      8.8001      9.6197      8.4286     10.1920   -999.2500   -999.2500  
  1183.0000     12.7931     94.1018   -999.2500   -999.2500   -999.2500    114.2487      8.9986      9.6123      8.4273     10.2322   -999.2500   -999.2500  
  1183.5000     12.7727     91.6730   -999.2500   -999.2500   -999.2500    114.8154      8.1238      9.6049      8.4260     10.2725   -999.2500   -999.2500  
  1184.0000     12.7385     90.3914   -999.2500   -999.2500   -999.2500    115.6247      5.9855      9.5976      8.4247     10.3130   -999.2500   -999.2500  
  1184.5000     12.6991     89.3786   -999.2500   -999.2500   -999.2500    116.3610      9.4350      9.5902      8.4234     10.3537   -999.2500   -999.2500  
  1185.0000     12.7042     89.4851   -999.2500   -999.2500   -999.2500    116.9996      4.8288      9.5829      8.4221     10.3945   -999.2500   -999.2500  
  1185.5000     12.7550     90.2611   -999.2500   -999.2500   -999.2500    117.4431      5.9876      9.5756      8.4208     10.4355   -999.2500   -999.2500  
  1186.0000     12.8029     89.8410   -999.2500   -999.2500   -999.2500    117.6522      9.0123      9.5682      8.4196     10.4544   -999.2500   -999.2500  
  1186.5000     12.7819     87.8989   -999.2500   -999.2500   -999.2500    117.7516     11.6747      9.5609      8.4183     10.3234   -999.2500   -999.2500  
  1187.0000     12.7420     87.1632   -999.2500   -999.2500   -999.2500    117.7480     10.2133      9.5191      8.4170     10.1940   -999.2500   -999.2500  
  1187.5000     12.7657     87.5093   -999.2500   -999.2500   -999.2500    117.3842      9.9501      9.4543      8.4157     10.0662   -999.2500   -999.2500  
  1188.0000     12.7933     87.3507   -999.2500   -999.2500   -999.2500    116.8764     10.8741      9.3900      8.3780      9.9400   -999.2500   -999.2500  
  1188.5000     12.8088     86.5630   -999.2500   -999.2500   -999.2500    116.3746     11.9623      9.3261      8.2869      9.8154   -999.2500   -999.2500  
  1189.0000     12.8155     85.4362   -999.2500   -999.2500   -999.2500    115.9359     13.8614      9.2626      8.1968      9.6924   -999.2500   -999.2500  
  1189.5000     12.8612     86.3662   -999.2500   -999.2500   -999.2500    115.8792     16.7403      9.1996      8.1077      9.5709   -999.2500   -999.2500  
  1190.0000     12.8535     89.8652   -999.2500   -999.2500   -999.2500    115.8490     18.7256      9.1370      8.1300      9.4510   -999.2500   -999.2500  
  1190.5000     12.8457     92.6035   -999.2500   -999.2500   -999.2500    115.5572     15.8954      9.0748      8.1567      9.3325   -999.2500   -999.2500  
  1191.0000     12.7993     94.6534   -999.2500   -999.2500   -999.2500    115.5234     15.6789      9.0131      8.1835      9.2939   -999.2500   -999.2500  
  1191.5000     12.7561     96.7739   -999.2500   -999.2500   -999.2500    115.7105     17.2040      8.9517      8.2104      9.2939   -999.2500   -999.2500  
  1192.0000     12.7874     97.1049   -999.2500   -999.2500   -999.2500    116.2635     18.9750      8.8908      8.2373      9.2939   -999.2500   -999.2500  
  1192.5000     12.7862     96.9207   -999.2500   -999.2500   -999.2500    115.9530     18.7011      8.8303      8.2644      9.2939   -999.2500   -999.2500  
  1193.0000     12.7956     95.7765   -999.2500   -999.2500   -999.2500    115.5689     18.8751      8.8288      8.2915      9.2939   -999.2500   -999.2500  
  1193.5000     12.8294     93.8768   -999.2500   -999.2500   -999.2500    115.0473     18.8477      8.8751      8.3321      9.2939   -999.2500   -999.2500  
  1194.0000     12.8591     92.5319   -999.2500   -999.2500   -999.2500    114.1056     19.3916      8.9216      8.4071      9.2939   -999.2500   -999.2500  
  1194.5000     12.8801     91.3300   -999.2500   -999.2500   -999.2500    113.1366     19.8295      8.9683      8.4828      9.2939   -999.2500   -999.2500  
  1195.0000     12.8740     90.2797   -999.2500   -999.2500   -999.2500    112.8770     19.4303      9.0153      8.5592      9.2939   -999.2500   -999.2500  
  1195.5000     12.8718     89.6746   -999.2500   -999.2500   -999.2500    112.7777     18.4023      9.0625      8.6363      9.3759   -999.2500   -999.2500  
  1196.0000     12.8502     89.3519   -999.2500   -999.2500   -999.2500    112.8679     20.0069      9.1100      8.7141      9.5038   -999.2500   -999.2500  
  1196.5000     12.8275     89.8162   -999.2500   -999.2500   -999.2500    113.1470     18.8478      9.1577      8.7926      9.6335   -999.2500   -999.2500  
  1197.0000     12.7303     88.9632   -999.2500   -999.2500   -999.2500    113.2231     18.4804      9.2057      8.8718      9.7650   -999.2500   -999.2500  
  1197.5000     12.6908     87.1973   -999.2500   -999.2500   -999.2500    113.3010     19.0659      9.2539      8.9450      9.8983   -999.2500   -999.2500  
  1198.0000     12.7029     84.0553   -999.2500   -999.2500   -999.2500    113.5141     20.8750      9.3280      8.9563     10.0334   -999.2500   -999.2500  
  1198.5000     12.7043     82.0639   -999.2500   -999.2500   -999.2500    113.6065     20.5240      9.4127      8.9677     10.1703   -999.2500   -999.2500  
  1199.0000     12.6985     81.1057   -999.2500   -999.2500   -999.2500    113.3441     19.6292      9.4982      8.9791     10.3030   -999.2500   -999.2500  
  1199.5000     12.6877     81.0941   -999.2500   -999.2500   -999.2500    113.0917     19.5290      9.5844      8.9904     10.3536   -999.2500   -999.2500  
