~VERSION INFORMATION
 VERS.                           2.00:        CWLS LOG ASCII STANDARD - VERSION 2.00
 WRAP.                             NO:        ONE LINE PER DEPTH STEP
~WELL INFORMATION
#MNEM.UNIT                   DATA             INFORMATION
#----------             --------------        ------------------------------
 STRT.F                       52.0000:        START DEPTH
 STOP.F                     2296.0000:        STOP DEPTH
 STEP.F                        0.5000:        STEP VALUE
 NULL.                      -999.2500:        NULL VALUE
 COMP.                     USGS/NPR-A:        COMPANY  
 LOC .                   23  22N  17W:        LOCATION   
 DATE.                        4/30/78:        LOG DATE 
 WELL.               SOUTH BARROW #19:        WELL     
 UWI .                   500232001200:        UNIQUE WELL ID 
 API .                   500232001200:        UNIQUE WELL IDENTIFIER 
 FLD .                   SOUTH BARROW:        FIELD    
 CNTY.                    NORTH SLOPE:        COUNTY  
 STAT.                         ALASKA:        STATE   
 CTRY.                            USA:        COUNTRY 
 OPER.                     USGS/NPR-A:        OPERATOR  
 SRVC.                   SCHLUMBERGER:        SERVICE COMPANY 
 LAT .                         0.0000:        LATITUDE
 LON .                         0.0000:        LONGITUDE
 DIGS.               CENTER LINE DATA:        DIGITIZING COMPANY 
~CURVE INFORMATION      
#MNEM        .UNIT         API CODE           CURVE DESCRIPTION
#-----------------      --------------        ------------------------------
 DEPT        .F                      :        1  DEPTH
 GR          .GAPI                   :        2  
 CALI        .IN                     :        3  
 RHOB        .G/C3                   :        4  
 DRHO        .G/C3                   :        5  
 NPHI        .%                      :        6  
 DT          .US/F                   :        7  
 SP          .MV                     :        8  
 ILD         .OHMM                   :        9  
 ILM         .OHMM                   :        10 
 LL8         .OHMM                   :        11 
 LLD         .OHMM                   :        12 
 LLS         .OHMM                   :        13 
 MSFL        .OHMM                   :        14 
~PARAMETER INFORMATION       
#MNEM.UNIT                  VALUE             DESCRIPTION OF MNEMONIC
#---------             ---------------        ------------------------------
 EKB .F                       30.0000:        KELLY BUSHING
 TD  .F                     2300.0000:        TOTAL DEPTH
 BHT .F                      173.0000:        BOTTOM HOLE TEMPERATURE
 BS  .                         8.5000:        BIT SIZE
 FD  .                        11.6000:        FLUID DENSITY
 CSIZ.                         9.6250:        CASING SIZE
 CBD .F                     1491.0000:        CASING DRILLER 1
 CBL .F                     1490.0000:        CASING LOGGER 1
 DFT .                  Miscellaneous:        TYPE FLUID IN HOLE
 DFV .                        46.0000:        VISCOSITY
 DFPH.                         8.5000:        PH
 DFL .                         6.0000:        FLUID LOSS
 RMS .                         0.1090:        RM
 MST .F                       58.0000:        RM MEAS. TEMP.
 RMF .                         0.0720:        RMF
 MFST.F                       61.0000:        RMF MEAS. TEMP.
 RMC .                         0.3000:        RMC
 MCST.F                       70.0000:        RMC MEAS. TEMP.
~OTHER INFORMATION
~A    DEPTH          GR        CALI        RHOB        DRHO        NPHI          DT          SP         ILD         ILM         LL8         LLD         LLS        MSFL  
# ...
   244.0000     89.6990     13.7183   -999.2500   -999.2500   -999.2500    176.4111    -82.0294     15.6005      8.9128     44.1433   -999.2500   -999.2500   -999.2500  
   244.5000     88.3135     13.6924   -999.2500   -999.2500   -999.2500    184.0674    -82.6092     15.8301      8.8528     41.1660   -999.2500   -999.2500   -999.2500  
   245.0000     86.8811     13.6948   -999.2500   -999.2500   -999.2500    188.5519    -83.1472     16.5283      8.7938     38.7490   -999.2500   -999.2500   -999.2500  
   245.5000     86.5157     13.7070   -999.2500   -999.2500   -999.2500    188.8273    -83.3545     17.0436      8.7351     37.6169   -999.2500   -999.2500   -999.2500  
   246.0000     86.7177     13.7107   -999.2500   -999.2500   -999.2500    186.6398    -83.2742     16.9246      8.6769     36.9450   -999.2500   -999.2500   -999.2500  
   246.5000     86.8040     13.7100   -999.2500   -999.2500   -999.2500    183.9337    -82.7679     16.8476      8.7738     39.6143   -999.2500   -999.2500   -999.2500  
   247.0000     86.6547     13.7885   -999.2500   -999.2500   -999.2500    181.6994    -82.1804     17.0643      9.2280     41.6713   -999.2500   -999.2500   -999.2500  
   247.5000     86.6858     13.7774   -999.2500   -999.2500   -999.2500    181.2313    -82.0967     17.3858      9.4237     41.8638   -999.2500   -999.2500   -999.2500  
   248.0000     86.9904     13.7278   -999.2500   -999.2500   -999.2500    181.6916    -82.4586     18.2136      9.6295     40.3814   -999.2500   -999.2500   -999.2500  
   248.5000     88.4252     13.6782   -999.2500   -999.2500   -999.2500    182.2481    -83.1482     18.2034      9.8398     38.7770   -999.2500   -999.2500   -999.2500  
   249.0000     89.3550     13.6611   -999.2500   -999.2500   -999.2500    181.7502    -83.5731     18.9008     10.0129     39.9000   -999.2500   -999.2500   -999.2500  
   249.5000     89.4090     13.6431   -999.2500   -999.2500   -999.2500    180.6481    -84.2887     18.5401      9.7584     41.9172   -999.2500   -999.2500   -999.2500  
   250.0000     89.4895     13.6346   -999.2500   -999.2500   -999.2500    179.1569    -84.9723     18.1862      9.5104     44.2601   -999.2500   -999.2500   -999.2500  
   250.5000     90.3649     13.6268   -999.2500   -999.2500   -999.2500    177.9764    -84.7320     17.8300      9.2686     46.7303   -999.2500   -999.2500   -999.2500  
   251.0000     91.9339     13.6072   -999.2500   -999.2500   -999.2500    177.4690    -83.8596     17.0010      9.0337     46.4240   -999.2500   -999.2500   -999.2500  
   251.5000     93.9543     13.6122   -999.2500   -999.2500   -999.2500    178.0010    -83.3839     16.3057      8.8980     45.6072   -999.2500   -999.2500   -999.2500  
   252.0000     95.0515     13.6366   -999.2500   -999.2500   -999.2500    179.2317    -83.6162     15.4807      8.3976     44.5673   -999.2500   -999.2500   -999.2500  
   252.5000     95.4377     13.6628   -999.2500   -999.2500   -999.2500    177.7356    -83.8739     14.7035      8.2447     42.8738   -999.2500   -999.2500   -999.2500  
   253.0000     95.0949     13.7006   -999.2500   -999.2500   -999.2500    177.0651    -83.7357     14.1763      8.1042     38.7883   -999.2500   -999.2500   -999.2500  
   253.5000     94.4186     13.8709   -999.2500   -999.2500   -999.2500    178.9169    -84.0024     14.1504      8.0019     34.1257   -999.2500   -999.2500   -999.2500  
   254.0000     93.7268     13.8096   -999.2500   -999.2500   -999.2500    181.4255    -84.1312     14.4382      7.9435     31.5747   -999.2500   -999.2500   -999.2500  
   254.5000     93.3781     13.6381   -999.2500   -999.2500   -999.2500    182.9178    -84.1616     14.8124      8.2220     32.0192   -999.2500   -999.2500   -999.2500  
   255.0000     93.8399     13.6444   -999.2500   -999.2500   -999.2500    182.9902    -84.3307     15.2394      9.1670     31.8965   -999.2500   -999.2500   -999.2500  
   255.5000     94.5901     13.6917   -999.2500   -999.2500   -999.2500    182.4188    -84.8103     15.6896      9.7850     32.1489   -999.2500   -999.2500   -999.2500  
   256.0000     94.2976     13.6592   -999.2500   -999.2500   -999.2500    180.1628    -85.5056     16.2343     10.0325     32.0428   -999.2500   -999.2500   -999.2500  
   256.5000     93.6447     13.6266   -999.2500   -999.2500   -999.2500    177.1697    -85.3920     16.9653     10.0752     28.6962   -999.2500   -999.2500   -999.2500  
   257.0000     93.2177     13.5723   -999.2500   -999.2500   -999.2500    174.8099    -84.8406     18.5461     10.2058     24.7526   -999.2500   -999.2500   -999.2500  
   257.5000     92.6864     13.5872   -999.2500   -999.2500   -999.2500    173.8051    -84.5239     18.3579     10.2825     24.1309   -999.2500   -999.2500   -999.2500  
   258.0000     90.2379     13.6341   -999.2500   -999.2500   -999.2500    172.5816    -84.8016     17.2157     10.1522     26.6214   -999.2500   -999.2500   -999.2500  
   258.5000     85.6927     13.7054   -999.2500   -999.2500   -999.2500    171.2433    -84.9137     15.8837      9.4772     28.5563   -999.2500   -999.2500   -999.2500  
   259.0000     78.8694     13.8270   -999.2500   -999.2500   -999.2500    169.4652    -83.9499     14.9877      8.8471     26.3858   -999.2500   -999.2500   -999.2500  
   259.5000     74.2225     13.9119   -999.2500   -999.2500   -999.2500    167.8573    -83.0185     14.6804      8.2588     24.3240   -999.2500   -999.2500   -999.2500  
   260.0000     72.0844     13.8679   -999.2500   -999.2500   -999.2500    166.5949    -83.3141     14.3684      8.3009     24.3581   -999.2500   -999.2500   -999.2500  
   260.5000     74.0153     13.8450   -999.2500   -999.2500   -999.2500    165.4401    -83.8506     14.0134      8.5574     24.7987   -999.2500   -999.2500   -999.2500  
   261.0000     75.4135     13.8512   -999.2500   -999.2500   -999.2500    167.3373    -83.6070     14.1285      8.8218     24.0106   -999.2500   -999.2500   -999.2500  
   261.5000     77.5910     13.8574   -999.2500   -999.2500   -999.2500    166.5228    -82.4480     14.2855      9.0945     21.8933   -999.2500   -999.2500   -999.2500  
   262.0000     81.2732     13.8636   -999.2500   -999.2500   -999.2500    166.4483    -81.7545     14.4592      9.6197     23.2175   -999.2500   -999.2500   -999.2500  
   262.5000     84.5711     13.8698   -999.2500   -999.2500   -999.2500    168.8267    -82.9576     14.5088      9.9673     24.8168   -999.2500   -999.2500   -999.2500  
   263.0000     85.4116     13.8525   -999.2500   -999.2500   -999.2500    169.3680    -84.0293     14.3942      9.7087     24.8065   -999.2500   -999.2500   -999.2500  
   263.5000     84.5704     13.7909   -999.2500   -999.2500   -999.2500    168.7995    -83.7466     14.6399      9.3889     22.1207   -999.2500   -999.2500   -999.2500  
   264.0000     82.0414     13.7504   -999.2500   -999.2500   -999.2500    167.5320    -82.4539     14.4721      9.1155     20.1085   -999.2500   -999.2500   -999.2500  
   264.5000     80.0953     13.7043   -999.2500   -999.2500   -999.2500    165.9563    -81.6806     14.1374      8.7560     19.6911   -999.2500   -999.2500   -999.2500  
   265.0000     79.5718     13.6696   -999.2500   -999.2500   -999.2500    165.5144    -81.3720     13.1424      8.3838     20.1455   -999.2500   -999.2500   -999.2500  
   265.5000     79.1584     13.6290   -999.2500   -999.2500   -999.2500    165.6848    -80.9772     12.2000      8.0274     19.9873   -999.2500   -999.2500   -999.2500  
   266.0000     77.5887     13.6224   -999.2500   -999.2500   -999.2500    165.5339    -80.6284     11.8149      7.6908     18.3924   -999.2500   -999.2500   -999.2500  
   266.5000     77.1296     13.6053   -999.2500   -999.2500   -999.2500    164.3957    -80.1702     11.4893      7.4358     18.8970   -999.2500   -999.2500   -999.2500  
   267.0000     77.8983     13.5882   -999.2500   -999.2500   -999.2500    163.6659    -79.5814     11.5050      7.3973     19.5605   -999.2500   -999.2500   -999.2500  
   267.5000     79.0345     13.5710   -999.2500   -999.2500   -999.2500    163.4192    -79.2953     11.8452      7.6463     19.9630   -999.2500   -999.2500   -999.2500  
