~VERSION INFORMATION
 VERS.                           2.00:        CWLS LOG ASCII STANDARD - VERSION 2.00
 WRAP.                             NO:        ONE LINE PER DEPTH STEP
~WELL INFORMATION
#MNEM.UNIT                   DATA             INFORMATION
#----------             --------------        ------------------------------
 STRT.F                     1244.0000:        START DEPTH
 STOP.F                     2340.0000:        STOP DEPTH
 STEP.F                        0.5000:        STEP VALUE
 NULL.                      -999.2500:        NULL VALUE
 COMP.        U.S. NAVY DEPT NP & OSR:        COMPANY  
 LOC .                   14  22N  18W:        LOCATION   
 DATE.                        3/16/73:        LOG DATE 
 WELL.               SOUTH BARROW #10:        WELL     
 UWI .                   500232000400:        UNIQUE WELL ID 
 API .                   500232000400:        UNIQUE WELL IDENTIFIER 
 FLD .                   SOUTH BARROW:        FIELD    
 CNTY.                         NPR #4:        COUNTY  
 STAT.                         ALASKA:        STATE   
 CTRY.                            USA:        COUNTRY 
 OPER.        U.S. NAVY DEPT NP & OSR:        OPERATOR  
 SRVC.                   SCHLUMBERGER:        SERVICE COMPANY 
 LAT .                         0.0000:        LATITUDE
 LON .                         0.0000:        LONGITUDE
 DIGS.               CENTER LINE DATA:        DIGITIZING COMPANY 
~CURVE INFORMATION      
#MNEM        .UNIT         API CODE           CURVE DESCRIPTION
#-----------------      --------------        ------------------------------
 DEPT        .F                      :        1  DEPTH
 SP          .MV                     :        2  
 LL8         .OHMM                   :        3  
 ILD         .OHMM                   :        4  
 CILD        .MMHO                   :        5  
 DT          .US/F                   :        6  
~PARAMETER INFORMATION       
#MNEM.UNIT                  VALUE             DESCRIPTION OF MNEMONIC
#---------             ---------------        ------------------------------
 EKB .F                       38.0000:        KELLY BUSHING
 TD  .F                     2349.0000:        TOTAL DEPTH
 BHT .F                       60.0000:        BOTTOM HOLE TEMPERATURE
 BS  .                         9.6250:        BIT SIZE
 FD  .                        10.6000:        FLUID DENSITY
 CSIZ.                        10.7500:        CASING SIZE
 CBD .F                     1240.0000:        CASING DRILLER 1
 CBL .F                     1244.0000:        CASING LOGGER 1
 DFT .                  Miscellaneous:        TYPE FLUID IN HOLE
 DFV .                        15.0000:        VISCOSITY
 DFPH.                        11.0000:        PH
 DFL .                         1.8000:        FLUID LOSS
 RMS .                         1.1900:        RM
 MST .F                       55.0000:        RM MEAS. TEMP.
 RMF .                         0.8500:        RMF
 MFST.F                       55.0000:        RMF MEAS. TEMP.
 RMC .                         1.2000:        RMC
 MCST.F                       55.0000:        RMC MEAS. TEMP.
~OTHER INFORMATION
~A    DEPTH          SP         LL8         ILD        CILD          DT  
# ...
  1298.5000    -34.6769     16.1291     14.4847     69.8624    102.3533  
  1299.0000    -34.9277     15.9715     14.3264     70.6049    103.6980  
  1299.5000    -35.2396     15.7978     14.1502     71.5795    104.8839  
  1300.0000    -35.4774     15.7954     13.9266     72.6539    104.6568  
  1300.5000    -35.7828     15.8347     13.6897     73.6068    104.0272  
  1301.0000    -36.2491     15.9954     13.6178     73.9511    104.4558  
  1301.5000    -36.5406     16.3218     13.6042     73.7626    102.6553  
  1302.0000    -36.7869     16.7701     13.7287     73.0306    101.1976  
  1302.5000    -37.2320     17.3875     13.9013     72.2986    100.5322  
  1303.0000    -37.4291     18.0162     14.2462     70.9502     99.3581  
  1303.5000    -37.1870     18.6398     14.5937     69.1206     98.0465  
  1304.0000    -36.6997     19.0328     15.2160     66.6508     97.2799  
  1304.5000    -36.3466     20.5329     15.9231     64.2013     96.0068  
  1305.0000    -36.0648     21.5921     16.4025     61.7570     94.4703  
  1305.5000    -35.8824     22.5848     17.1493     59.7763     93.6136  
  1306.0000    -35.7795     23.2037     18.1644     56.8930     93.0617  
  1306.5000    -35.4582     23.7261     18.8247     54.7480     92.0121  
  1307.0000    -35.0741     24.2705     19.5352     53.5573     90.9700  
  1307.5000    -34.9513     24.5963     19.8267     52.1930     90.5527  
  1308.0000    -35.3012     24.3926     20.0717     50.7319     90.3156  
  1308.5000    -35.5672     23.8378     20.1937     50.2176     90.4767  
  1309.0000    -35.6492     22.9100     20.0316     51.7533     90.5739  
  1309.5000    -35.6592     22.0653     19.7776     53.1146     90.0613  
  1310.0000    -35.6287     21.4036     19.1727     54.6453     90.4077  
  1310.5000    -35.4923     20.2219     18.1251     56.5918     92.1055  
  1311.0000    -35.0216     19.2370     17.2922     58.8837     93.9847  
  1311.5000    -34.8586     18.2481     16.4593     61.8229     94.4397  
  1312.0000    -35.5947     17.4417     15.6423     64.3775     96.9940  
  1312.5000    -36.0425     17.2024     15.2326     66.4242     99.3943  
  1313.0000    -35.7316     16.8408     14.8228     67.8877    100.7120  
  1313.5000    -35.6620     16.3513     14.4130     69.0884    101.0532  
  1314.0000    -35.5336     15.5604     13.8773     70.2890    100.7623  
  1314.5000    -35.0469     14.7447     13.3271     75.2457    100.1312  
  1315.0000    -34.9759     13.9856     12.7770     78.4571     99.9469  
  1315.5000    -35.4696     13.5264     12.2055     81.7503    101.6302  
  1316.0000    -36.0660     12.8104     11.8215     84.7684    104.9298  
  1316.5000    -36.4152     12.0596     11.4495     87.2146    109.8767  
  1317.0000    -36.8619     11.8106     11.0774     90.8011    112.3197  
  1317.5000    -38.0005     11.6580     10.4838     95.8847    112.3723  
  1318.0000    -39.8846     11.5334      9.9546    100.2864    111.4926  
  1318.5000    -41.6530     11.4401      9.5124    103.6656    111.2865  
  1319.0000    -42.8354     11.3272      9.2396    106.2660    111.5272  
  1319.5000    -42.2586     11.1983      9.0992    107.3350    111.6134  
  1320.0000    -39.6813     11.1004      9.0709    107.7153    111.9377  
  1320.5000    -37.2362     11.0631      9.0781    107.4527    113.2662  
  1321.0000    -36.2639     11.0880      9.2212    105.9337    114.5353  
  1321.5000    -35.7871     11.1887      9.5039    102.7528    115.3241  
  1322.0000    -35.4796     11.5457      9.9078     98.4224    115.9032  
  1322.5000    -35.1525     11.9979     10.3117     95.3474    116.0584  
  1323.0000    -35.0994     12.2990     10.7156     92.4663    115.1923  
  1323.5000    -35.0946     12.5987     11.0474     90.3119    112.3763  
  1324.0000    -34.9182     12.8757     11.1690     88.7888    108.0022  
  1324.5000    -34.4904     12.8290     11.3375     87.6765    105.3533  
  1325.0000    -34.3769     12.7632     11.4470     87.0888    105.3994  
  1325.5000    -34.6247     12.5997     11.4401     86.8408    107.7708  
  1326.0000    -34.5602     12.4361     11.3238     87.7553    109.8316  
  1326.5000    -34.5303     12.2783     11.2036     88.2976    111.4476  
  1327.0000    -34.6210     12.1512     11.0833     89.2477    112.0681  
  1327.5000    -34.8126     12.0242     10.8994     91.2731    112.5090  
  1328.0000    -34.6857     11.9438     10.6990     93.0490    113.1300  
  1328.5000    -34.4058     11.9702     10.4986     94.2918    111.6961  
  1329.0000    -34.1978     12.1520     10.4996     94.8659    110.4692  
  1329.5000    -34.1028     12.3410     10.5504     93.6743    111.3040  
  1330.0000    -34.1136     12.5759     10.6594     91.8767    112.2691  
  1330.5000    -34.2933     12.8729     10.9446     90.2916    112.0038  
  1331.0000    -34.3680     13.0981     11.0966     88.8194    112.0106  
  1331.5000    -34.3633     13.3276     11.2485     87.8620    110.1840  
  1332.0000    -34.2392     13.4479     11.4004     87.0662    108.3645  
  1332.5000    -34.1150     13.8001     11.5524     86.1407    106.7001  
  1333.0000    -33.9987     14.0276     11.7043     84.7183    107.4316  
  1333.5000    -34.0098     14.1851     11.8563     83.2324    107.7757  
  1334.0000    -33.8760     14.3124     12.0278     82.5756    107.9855  
  1334.5000    -33.6166     14.3846     12.2330     81.3655    107.0070  
  1335.0000    -33.2431     14.5319     12.3281     81.2817    105.9782  
  1335.5000    -32.9101     14.8340     12.3320     81.1769    104.7186  
  1336.0000    -32.8812     15.0400     12.3937     80.6580    104.1694  
  1336.5000    -32.9859     15.2414     12.5351     79.7793    104.0066  
  1337.0000    -33.0201     15.2144     12.6383     79.2708    104.0297  
  1337.5000    -33.0954     15.0977     12.7118     78.7677    103.5993  
  1338.0000    -33.4915     14.9427     12.7491     78.6920    102.3140  
  1338.5000    -34.0136     14.8105     12.7361     78.6825    103.9643  
  1339.0000    -34.3323     14.7192     12.6734     78.9053    105.3744  
  1339.5000    -34.5179     14.6852     12.6795     79.0928    105.9690  
  1340.0000    -34.5643     14.6623     12.6624     79.1397    106.2109  
  1340.5000    -34.4128     14.6492     12.6417     79.1037    106.4275  
  1341.0000    -34.1989     14.6264     12.6539     79.1280    106.3964  
  1341.5000    -34.0421     14.6786     12.6856     79.1424    106.3694  
  1342.0000    -33.7603     14.9264     12.7363     78.7638    106.8986  
  1342.5000    -33.9801     15.1001     12.8266     78.0816    106.6669  
  1343.0000    -34.0340     15.0603     12.9099     77.8201    106.4638  
  1343.5000    -34.0081     14.9800     12.9181     77.5241    105.4119  
  1344.0000    -34.0968     14.9678     12.8881     77.7874    104.7371  
  1344.5000    -34.0485     15.0517     12.8714     78.0088    105.1263  
  1345.0000    -33.9446     15.0568     12.8961     77.7027    104.6381  
  1345.5000    -33.7767     14.9276     12.9043     77.8529    105.2971  
  1346.0000    -33.4729     15.0131     12.8546     78.0011    106.0714  
  1346.5000    -33.4805     15.1087     12.8551     77.9327    105.7676  
  1347.0000    -33.4827     15.1423     12.8500     77.9124    105.8332  
  1347.5000    -33.3628     15.1948     12.8924     77.5982    105.0653  
  1348.0000    -33.1923     15.1879     12.9296     77.5518    104.2158  
  1348.5000    -33.0869     15.1775     12.9909     77.1670    103.5961  
  1349.0000    -32.9568     15.2283     13.1372     76.7740    103.5908  
  1349.5000    -32.8981     15.3648     13.3134     76.4427    103.8160  
  1350.0000    -32.9272     15.2770     13.4896     75.5824    105.2758  
  1350.5000    -32.9515     15.1301     13.4945     74.7149    105.9247  
  1351.0000    -32.9142     15.0540     13.4367     74.7801    104.9005  
  1351.5000    -32.9203     14.9789     13.3830     75.0004    103.6381  
  1352.0000    -32.9593     14.7921     13.3328     76.2170    103.5866  
  1352.5000    -33.0497     14.6052     13.2458     75.9704    104.2033  
