~VERSION INFORMATION
 VERS.                           2.00:        CWLS LOG ASCII STANDARD - VERSION 2.00
 WRAP.                             NO:        ONE LINE PER DEPTH STEP
~WELL INFORMATION
#MNEM.UNIT                   DATA             INFORMATION
#----------             --------------        ------------------------------
 STRT.F                       52.0000:        START DEPTH
 STOP.F                     2296.0000:        STOP DEPTH
 STEP.F                        0.5000:        STEP VALUE
 NULL.                      -999.2500:        NULL VALUE
 COMP.                     USGS/NPR-A:        COMPANY  
 LOC .                   23  22N  17W:        LOCATION   
 DATE.                        4/30/78:        LOG DATE 
 WELL.               SOUTH BARROW #19:        WELL     
 UWI .                   500232001200:        UNIQUE WELL ID 
 API .                   500232001200:        UNIQUE WELL IDENTIFIER 
 FLD .                   SOUTH BARROW:        FIELD    
 CNTY.                    NORTH SLOPE:        COUNTY  
 STAT.                         ALASKA:        STATE   
 CTRY.                            USA:        COUNTRY 
 OPER.                     USGS/NPR-A:        OPERATOR  
 SRVC.                   SCHLUMBERGER:        SERVICE COMPANY 
 LAT .                         0.0000:        LATITUDE
 LON .                         0.0000:        LONGITUDE
 DIGS.               CENTER LINE DATA:        DIGITIZING COMPANY 
~CURVE INFORMATION      
#MNEM        .UNIT         API CODE           CURVE DESCRIPTION
#-----------------      --------------        ------------------------------
 DEPT        .F                      :        1  DEPTH
 GR          .GAPI                   :        2  
 CALI        .IN                     :        3  
 RHOB        .G/C3                   :        4  
 DRHO        .G/C3                   :        5  
 NPHI        .%                      :        6  
 DT          .US/F                   :        7  
 SP          .MV                     :        8  
 ILD         .OHMM                   :        9  
 ILM         .OHMM                   :        10 
 LL8         .OHMM                   :        11 
 LLD         .OHMM                   :        12 
 LLS         .OHMM                   :        13 
 MSFL        .OHMM                   :        14 
~PARAMETER INFORMATION       
#MNEM.UNIT                  VALUE             DESCRIPTION OF MNEMONIC
#---------             ---------------        ------------------------------
 EKB .F                       30.0000:        KELLY BUSHING
 TD  .F                     2300.0000:        TOTAL DEPTH
 BHT .F                      173.0000:        BOTTOM HOLE TEMPERATURE
 BS  .                         8.5000:        BIT SIZE
 FD  .                        11.6000:        FLUID DENSITY
 CSIZ.                         9.6250:        CASING SIZE
 CBD .F                     1491.0000:        CASING DRILLER 1
 CBL .F                     1490.0000:        CASING LOGGER 1
 DFT .                  Miscellaneous:        TYPE FLUID IN HOLE
 DFV .                        46.0000:        VISCOSITY
 DFPH.                         8.5000:        PH
 DFL .                         6.0000:        FLUID LOSS
 RMS .                         0.1090:        RM
 MST .F                       58.0000:        RM MEAS. TEMP.
 RMF .                         0.0720:        RMF
 MFST.F                       61.0000:        RMF MEAS. TEMP.
 RMC .                         0.3000:        RMC
 MCST.F                       70.0000:        RMC MEAS. TEMP.
~OTHER INFORMATION
~A    DEPTH          GR        CALI        RHOB        DRHO        NPHI          DT          SP         ILD         ILM         LL8         LLD         LLS        MSFL  
# ...
   388.0000     83.2274     12.0683   -999.2500   -999.2500   -999.2500    161.6674    -82.6020     18.6581     10.0252     34.0523   -999.2500   -999.2500   -999.2500  
   388.5000     85.8312     12.0307   -999.2500   -999.2500   -999.2500    161.4294    -82.4954     18.8295     10.0713     35.7289   -999.2500   -999.2500   -999.2500  
   389.0000     88.5850     12.0422   -999.2500   -999.2500   -999.2500    161.8062    -82.1533     18.9667     10.1178     37.3101   -999.2500   -999.2500   -999.2500  
   389.5000     89.2842     12.0433   -999.2500   -999.2500   -999.2500    162.1830    -81.6655     18.8921     10.3021     37.1818   -999.2500   -999.2500   -999.2500  
   390.0000     89.6952     12.0404   -999.2500   -999.2500   -999.2500    162.4112    -81.5270     19.1300     10.2717     36.3111   -999.2500   -999.2500   -999.2500  
   390.5000     90.6858     12.0366   -999.2500   -999.2500   -999.2500    162.1745    -81.2042     19.5880     10.2359     35.2297   -999.2500   -999.2500   -999.2500  
   391.0000     90.5619     12.0420   -999.2500   -999.2500   -999.2500    161.9379    -80.9227     19.7185     10.2102     34.4779   -999.2500   -999.2500   -999.2500  
   391.5000     89.2415     12.0616   -999.2500   -999.2500   -999.2500    162.5666    -80.6195     19.8632     10.2436     35.7921   -999.2500   -999.2500   -999.2500  
   392.0000     86.9408     12.0355   -999.2500   -999.2500   -999.2500    162.2115    -79.8778     20.0119     10.2620     39.1995   -999.2500   -999.2500   -999.2500  
   392.5000     84.9986     12.0291   -999.2500   -999.2500   -999.2500    161.5804    -79.1348     19.7296     10.2696     41.2463   -999.2500   -999.2500   -999.2500  
   393.0000     83.9833     12.0306   -999.2500   -999.2500   -999.2500    160.9495    -78.8497     19.3782     10.2787     41.7000   -999.2500   -999.2500   -999.2500  
   393.5000     83.0292     12.0367   -999.2500   -999.2500   -999.2500    160.3185    -78.4464     18.0796     10.0219     42.2277   -999.2500   -999.2500   -999.2500  
   394.0000     82.3073     12.0535   -999.2500   -999.2500   -999.2500    160.5430    -77.8196     17.3316      9.7411     43.5848   -999.2500   -999.2500   -999.2500  
   394.5000     81.9855     12.1179   -999.2500   -999.2500   -999.2500    161.6733    -77.2749     16.8239      9.4003     44.5949   -999.2500   -999.2500   -999.2500  
   395.0000     82.0751     12.1037   -999.2500   -999.2500   -999.2500    162.8036    -76.7933     16.5005      8.9647     44.2053   -999.2500   -999.2500   -999.2500  
   395.5000     82.3308     12.0786   -999.2500   -999.2500   -999.2500    163.6685    -76.7918     16.1863      8.8264     42.4524   -999.2500   -999.2500   -999.2500  
   396.0000     83.0642     12.1010   -999.2500   -999.2500   -999.2500    163.2789    -77.0357     16.0068      8.8196     40.9640   -999.2500   -999.2500   -999.2500  
   396.5000     84.1555     12.1030   -999.2500   -999.2500   -999.2500    162.8892    -77.0880     15.8032      8.9012     40.1719   -999.2500   -999.2500   -999.2500  
   397.0000     84.4972     12.0161   -999.2500   -999.2500   -999.2500    162.4995    -76.8478     15.4511      9.0004     40.6099   -999.2500   -999.2500   -999.2500  
   397.5000     83.5045     12.0145   -999.2500   -999.2500   -999.2500    162.2293    -76.6317     15.3573      9.1352     41.4653   -999.2500   -999.2500   -999.2500  
   398.0000     81.6332     12.0181   -999.2500   -999.2500   -999.2500    162.4718    -76.4390     15.1794      9.2692     43.3803   -999.2500   -999.2500   -999.2500  
   398.5000     81.2402     12.0228   -999.2500   -999.2500   -999.2500    161.7400    -76.1492     15.9075      9.4052     44.6405   -999.2500   -999.2500   -999.2500  
   399.0000     81.9461     12.0629   -999.2500   -999.2500   -999.2500    161.6404    -76.2039     16.3022      9.5432     45.1992   -999.2500   -999.2500   -999.2500  
   399.5000     82.2644     12.1910   -999.2500   -999.2500   -999.2500    162.3636    -76.7109     16.4424      9.6832     43.3028   -999.2500   -999.2500   -999.2500  
   400.0000     81.9842     12.2533   -999.2500   -999.2500   -999.2500    163.0869    -77.1983     16.6351      9.8252     40.5214   -999.2500   -999.2500   -999.2500  
   400.5000     81.6319     12.3155   -999.2500   -999.2500   -999.2500    163.5008    -77.6443     16.8011      9.9523     37.7756   -999.2500   -999.2500   -999.2500  
   401.0000     81.2858     12.3304   -999.2500   -999.2500   -999.2500    163.3762    -77.7535     16.8374      9.9446     39.1435   -999.2500   -999.2500   -999.2500  
   401.5000     80.8880     12.3389   -999.2500   -999.2500   -999.2500    163.2516    -77.9803     16.8567      9.9538     39.7488   -999.2500   -999.2500   -999.2500  
   402.0000     79.6497     12.3645   -999.2500   -999.2500   -999.2500    161.9857    -78.2999     16.6732      9.9249     38.4193   -999.2500   -999.2500   -999.2500  
   402.5000     76.9838     12.4193   -999.2500   -999.2500   -999.2500    160.4674    -78.6196     16.5738      9.8961     36.7193   -999.2500   -999.2500   -999.2500  
   403.0000     75.8123     12.4565   -999.2500   -999.2500   -999.2500    158.9492    -79.4095     16.5614      9.8674     35.0552   -999.2500   -999.2500   -999.2500  
   403.5000     75.5541     12.3195   -999.2500   -999.2500   -999.2500    158.7181    -80.3781     16.6661      9.8388     34.3629   -999.2500   -999.2500   -999.2500  
   404.0000     75.5814     12.2778   -999.2500   -999.2500   -999.2500    159.6833    -81.3110     16.6346      9.8103     34.3510   -999.2500   -999.2500   -999.2500  
   404.5000     75.6205     12.3372   -999.2500   -999.2500   -999.2500    159.8190    -81.6363     16.5507      9.7818     34.2568   -999.2500   -999.2500   -999.2500  
   405.0000     76.2140     12.3100   -999.2500   -999.2500   -999.2500    158.4111    -81.6893     16.7422      9.7535     33.9473   -999.2500   -999.2500   -999.2500  
   405.5000     77.5168     12.2409   -999.2500   -999.2500   -999.2500    157.0032    -81.5395     16.9950      9.7252     33.7394   -999.2500   -999.2500   -999.2500  
   406.0000     78.4573     12.2692   -999.2500   -999.2500   -999.2500    155.2467    -81.4070     17.3090      9.6970     33.2366   -999.2500   -999.2500   -999.2500  
   406.5000     79.0848     12.3355   -999.2500   -999.2500   -999.2500    154.7918    -81.4064     17.6702      9.6750     32.0969   -999.2500   -999.2500   -999.2500  
   407.0000     79.0726     12.4135   -999.2500   -999.2500   -999.2500    154.7956    -81.7437     18.2119      9.8558     30.7608   -999.2500   -999.2500   -999.2500  
   407.5000     78.4922     12.3682   -999.2500   -999.2500   -999.2500    154.8683    -81.8291     18.7247     10.0340     30.7335   -999.2500   -999.2500   -999.2500  
   408.0000     79.1138     12.3362   -999.2500   -999.2500   -999.2500    155.2308    -81.5285     18.9957     10.3325     34.4519   -999.2500   -999.2500   -999.2500  
   408.5000     80.5025     12.3119   -999.2500   -999.2500   -999.2500    156.7452    -80.8395     19.1077     10.4649     40.6963   -999.2500   -999.2500   -999.2500  
   409.0000     81.6471     12.3098   -999.2500   -999.2500   -999.2500    158.2306    -80.5516     19.2203     10.5128     44.7779   -999.2500   -999.2500   -999.2500  
   409.5000     82.1385     12.3283   -999.2500   -999.2500   -999.2500    158.7852    -80.6895     19.3632     10.4517     44.7414   -999.2500   -999.2500   -999.2500  
   410.0000     82.3306     12.2024   -999.2500   -999.2500   -999.2500    160.0542    -80.7971     19.5332     10.3737     42.6691   -999.2500   -999.2500   -999.2500  
   410.5000     81.3102     12.1362   -999.2500   -999.2500   -999.2500    162.0702    -80.1154     19.7242     10.3405     40.9499   -999.2500   -999.2500   -999.2500  
   411.0000     79.8868     12.1372   -999.2500   -999.2500   -999.2500    164.0862    -79.8667     20.4655     10.4264     39.8939   -999.2500   -999.2500   -999.2500  
   411.5000     78.7028     12.1481   -999.2500   -999.2500   -999.2500    166.1023    -79.5368     21.1212     10.6261     38.8505   -999.2500   -999.2500   -999.2500  
