~VERSION INFORMATION
 VERS.                           2.00:        CWLS LOG ASCII STANDARD - VERSION 2.00
 WRAP.                             NO:        ONE LINE PER DEPTH STEP
~WELL INFORMATION
#MNEM.UNIT                   DATA             INFORMATION
#----------             --------------        ------------------------------
 STRT.F                     1088.0000:        START DEPTH
 STOP.F                     2449.0000:        STOP DEPTH
 STEP.F                        0.5000:        STEP VALUE
 NULL.                      -999.2500:        NULL VALUE
 COMP.             UNITED STATES NAVY:        COMPANY  
 LOC .                   11  22N  18W:        LOCATION   
 DATE.                         4/7/70:        LOG DATE 
 WELL.                    GAS WELL #9:        WELL     
 UWI .                   500232000300:        UNIQUE WELL ID 
 API .                   500232000300:        UNIQUE WELL IDENTIFIER 
 FLD .                   SOUTH BARROW:        FIELD    
 CNTY.                   POINT BARROW:        COUNTY  
 STAT.                         ALASKA:        STATE   
 CTRY.                            USA:        COUNTRY 
 OPER.             UNITED STATES NAVY:        OPERATOR  
 SRVC.                   SCHLUMBERGER:        SERVICE COMPANY 
 LAT .                         0.0000:        LATITUDE
 LON .                         0.0000:        LONGITUDE
 DIGS.               CENTER LINE DATA:        DIGITIZING COMPANY 
~CURVE INFORMATION      
#MNEM        .UNIT         API CODE           CURVE DESCRIPTION
#-----------------      --------------        ------------------------------
 DEPT        .F                      :        1  DEPTH
 SP          .MV                     :        2  
 ASN         .OHMM                   :        3  
 ILD         .OHMM                   :        4  
 CILD        .MMHO                   :        5  
 CALI        .IN                     :        6  
 GR          .GAPI                   :        7  
 DRHO        .G/C3                   :        8  
 RHOB        .G/C3                   :        9  
 DT          .US/F                   :        10 
~PARAMETER INFORMATION       
#MNEM.UNIT                  VALUE             DESCRIPTION OF MNEMONIC
#---------             ---------------        ------------------------------
 EKB .F                       29.0000:        KELLY BUSHING
 TD  .F                     2450.0000:        TOTAL DEPTH
 BHT .F                       75.0000:        BOTTOM HOLE TEMPERATURE
 BS  .                         8.6250:        BIT SIZE
 FD  .                        10.7000:        FLUID DENSITY
 CSIZ.                         9.6250:        CASING SIZE
 CBD .F                     1100.0000:        CASING DRILLER 1
 CBL .F                     1102.0000:        CASING LOGGER 1
 DFT .                            Gel:        TYPE FLUID IN HOLE
 DFV .                        45.0000:        VISCOSITY
 DFPH.                         8.8000:        PH
 DFL .                         3.8000:        FLUID LOSS
 RMS .                         2.7500:        RM
 MST .F                       60.0000:        RM MEAS. TEMP.
 RMF .                         2.3600:        RMF
 MFST.F                       60.0000:        RMF MEAS. TEMP.
 RMC .                         3.7800:        RMC
 MCST.F                       60.0000:        RMC MEAS. TEMP.
~OTHER INFORMATION
~A    DEPTH          SP         ASN         ILD        CILD        CALI          GR        DRHO        RHOB          DT  
# ...
  1880.0000    -17.2981     11.6232      9.9134     98.0727      9.1427     75.3430      0.0634      2.4642    105.0137  
  1880.5000    -17.1438     11.7581      9.9920     97.3341      9.1193     74.5810      0.0473      2.4735    104.7476  
  1881.0000    -17.6393     11.7976     10.0612     96.8512      9.1324     74.4935      0.0550      2.4875    104.8788  
  1881.5000    -18.2490     11.7037     10.1761     96.5000      9.1414     77.6882      0.0874      2.5200    105.5258  
  1882.0000    -17.7724     11.6659     10.2574     96.5000      9.1375     80.0414      0.0832      2.4923    105.7045  
  1882.5000    -16.5190     11.6535     10.1146     96.5000      9.1343     77.3435      0.0746      2.4815    104.8535  
  1883.0000    -16.0351     11.7319     10.1281     96.5000      9.1496     74.4357      0.0730      2.4835    104.1610  
  1883.5000    -15.6463     11.8102     10.0731     96.5000      9.1811     74.3374      0.0691      2.4896    103.5702  
  1884.0000    -14.4017     11.8424     10.0370     96.6063      9.2488     73.4549      0.0624      2.4863    102.9467  
  1884.5000    -13.7409     11.9447     10.1973     96.5064      9.3072     71.3399      0.0546      2.4903    102.3667  
  1885.0000    -13.8470     12.0676     10.0910     96.2450      9.3471     68.6387      0.0394      2.4691    101.9582  
  1885.5000    -13.5348     12.1069     10.3230     95.9362      9.4006     67.7815      0.0496      2.4591    102.0798  
  1886.0000    -13.2441     12.0622     10.3681     94.8615      9.4502     67.0259      0.0554      2.4711    102.1658  
  1886.5000    -13.6443     12.0954     10.3834     93.2406      9.5186     65.8818      0.0607      2.4652    102.2401  
  1887.0000    -15.0764     12.2171     10.5291     92.1671      9.4185     64.7517      0.0806      2.4782    102.1757  
  1887.5000    -15.3832     12.3687     10.5749     92.4352      9.3236     64.4361      0.0679      2.4768    101.2277  
  1888.0000    -16.0459     12.5638     10.5175     92.3106      9.2493     63.5523      0.0554      2.4609     99.2943  
  1888.5000    -16.5721     12.7277     10.4722     92.2787      9.1291     62.1020      0.0435      2.4346     97.8430  
  1889.0000    -16.2007     12.7732     10.4351     93.2818      8.9972     64.0454      0.0423      2.4260     97.3485  
  1889.5000    -16.2985     12.6869     10.3980     94.1138      8.9099     62.3489      0.0607      2.4418     97.3874  
  1890.0000    -16.0805     12.3094     10.3610     93.7559      8.9649     66.0538      0.0855      2.4541     99.3950  
  1890.5000    -15.3801     11.9369     10.3239     93.8256      9.0176     70.5123      0.0754      2.4416    102.4346  
  1891.0000    -14.8699     11.8332     10.2868     94.3577      9.1692     72.9386      0.0475      2.4232    104.2278  
  1891.5000    -14.7332     11.9224     10.3005     93.7701      9.2477     72.3635      0.0411      2.4322    104.4819  
  1892.0000    -14.4185     12.1599     10.3162     93.6531      9.2771     70.5091      0.0448      2.4363    103.3529  
  1892.5000    -14.3050     12.4188     10.2344     94.0000      9.3114     69.0169      0.0254      2.4281    100.4076  
  1893.0000    -14.7414     12.5955     10.2447     93.8000      9.2966     68.9964      0.0253      2.4406     98.7274  
  1893.5000    -15.2638     12.5472     10.3328     93.3000      9.3496     68.6928      0.0380      2.4563     99.1421  
  1894.0000    -15.2898     12.3931     10.4007     93.0000      9.3837     68.5175      0.0385      2.4629    100.1417  
  1894.5000    -15.3481     12.2416     10.5209     93.0409      9.4258     68.4771      0.0388      2.4504    101.5656  
  1895.0000    -15.4412     12.1238     10.5032     93.1090      9.4036     72.0536      0.0570      2.4651    102.2602  
  1895.5000    -14.8842     12.1250     10.4301     93.2562      9.3046     74.8186      0.0722      2.4616    102.0946  
  1896.0000    -14.0927     12.2952     10.3221     94.6051      9.2701     73.5803      0.0596      2.4378    101.2757  
  1896.5000    -14.5876     12.4592     10.1476     95.3115      9.1879     71.2102      0.0605      2.4468    100.2938  
  1897.0000    -15.1707     12.4891     10.1827     95.8886      9.0872     67.8034      0.0763      2.4615    100.1810  
  1897.5000    -15.9331     12.3004     10.2337     95.4070      9.0616     67.1901      0.0645      2.4478    100.7400  
  1898.0000    -17.0959     12.0272     10.3890     93.5791      9.0454     69.6710      0.0609      2.4409    103.0188  
  1898.5000    -17.6335     11.8324     10.4471     93.5613      9.0973     71.7750      0.0689      2.4475    105.3293  
  1899.0000    -17.3480     11.7499     10.5696     92.4166      9.1504     73.7572      0.0797      2.4566    106.3752  
  1899.5000    -16.9932     11.7837     10.7796     91.2719      9.2791     74.8895      0.0882      2.4649    106.2012  
  1900.0000    -16.7340     12.1549     11.1127     89.0520      9.3443     76.3532      0.0891      2.4592    104.7567  
  1900.5000    -16.3675     12.6006     11.4494     86.3312      9.3533     73.5000      0.0768      2.4485    102.4277  
  1901.0000    -15.2441     13.0680     11.7861     84.0651      9.3457     70.5638      0.0736      2.4567    100.3015  
  1901.5000    -14.5429     13.5272     12.1806     81.8088      9.3480     69.0895      0.0531      2.4573     98.4948  
  1902.0000    -16.0764     14.0351     12.4420     80.1654      9.3665     68.9690      0.0387      2.4714     96.0221  
  1902.5000    -16.6125     14.2089     12.5159     79.7500      9.3672     70.6497      0.0475      2.4808     94.6501  
  1903.0000    -16.2302     14.1554     12.3643     80.1248      9.4012     70.0032      0.0362      2.4642     94.3809  
  1903.5000    -16.5538     14.0029     12.2318     80.9260      9.4372     67.2620      0.0480      2.4896     94.7910  
  1904.0000    -16.4076     13.6685     12.0814     81.9354      9.4216     64.1088      0.0416      2.4665     95.9571  
  1904.5000    -15.9267     13.2825     12.0273     82.3049      9.4038     62.7642      0.0377      2.4548     98.2171  
  1905.0000    -15.5176     12.7620     12.1157     82.0826      9.3808     63.8792      0.0628      2.4699    101.3129  
  1905.5000    -14.9446     12.5835     12.0761     81.9602      9.3031     68.2728      0.0814      2.4666    103.1469  
  1906.0000    -14.8471     13.0479     12.0310     82.0479      9.2399     71.4953      0.0832      2.4663    102.6420  
  1906.5000    -14.7800     13.5147     11.9922     82.1500      9.2858     74.1041      0.0648      2.4734     99.7187  
  1907.0000    -13.7728     14.0863     11.9893     82.0284      9.3072     69.3237      0.0589      2.4853     95.9949  
  1907.5000    -13.5891     14.3757     12.1110     81.5546      9.3284     65.8312      0.0652      2.5021     93.2981  
  1908.0000    -14.4854     14.3283     12.2686     80.5992      9.2654     63.2383      0.0731      2.5030     93.3287  
  1908.5000    -15.2187     13.9300     12.4075     79.8924      9.2023     62.2803      0.0638      2.4803     95.1246  
  1909.0000    -16.2365     13.5876     12.4682     79.4990      9.1819     66.3521      0.0658      2.4774     96.8862  
  1909.5000    -17.3166     13.2855     12.5288     79.2677      9.0915     72.2482      0.0778      2.4657     98.6121  
  1910.0000    -18.0539     13.1818     12.5895     78.9901      8.9233     76.5607      0.0931      2.4776     99.4115  
  1910.5000    -17.4912     13.5604     12.6502     78.5275      8.9826     75.4296      0.1174      2.5069     99.5164  
  1911.0000    -17.4166     13.9390     12.7109     77.9889      9.0032     71.2311      0.1196      2.5241     98.9577  
  1911.5000    -17.6469     14.3203     12.7831     77.1956      9.1262     68.0295      0.0856      2.4904     97.2349  
  1912.0000    -17.5182     14.5421     12.7139     78.3100      9.2370     65.3137      0.0872      2.5010     94.8811  
  1912.5000    -16.6491     14.6890     12.4497     80.0207      9.3322     64.0857      0.0740      2.5018     93.1451  
