~VERSION INFORMATION
 VERS.                           2.00:        CWLS LOG ASCII STANDARD - VERSION 2.00
 WRAP.                             NO:        ONE LINE PER DEPTH STEP
~WELL INFORMATION
#MNEM.UNIT                   DATA             INFORMATION
#----------             --------------        ------------------------------
 STRT.F                     1260.0000:        START DEPTH
 STOP.F                     2340.0000:        STOP DEPTH
 STEP.F                        0.5000:        STEP VALUE
 NULL.                      -999.2500:        NULL VALUE
 COMP.        U.S.NAVY DEEPT NP & OSR:        COMPANY  
 LOC .                  144  22N 18W UPM:        LOCATION   
 DATE.                        2/24/74:        LOG DATE 
 WELL.               SOUTH BARROW #11:        WELL     
 UWI .                    50023200500:        UNIQUE WELL ID 
 API .                    50023200500:        UNIQUE WELL IDENTIFIER 
 FLD .                   SOUTH BARROW:        FIELD    
 CNTY.                          NPR-4:        COUNTY  
 STAT.                         ALASKA:        STATE   
 CTRY.                            USA:        COUNTRY 
 OPER.        U.S.NAVY DEEPT NP & OSR:        OPERATOR  
 SRVC.                   SCHLUMBERGER:        SERVICE COMPANY 
 LAT .                         0.0000:        LATITUDE
 LON .                         0.0000:        LONGITUDE
 DIGS.               CENTER LINE DATA:        DIGITIZING COMPANY 
~CURVE INFORMATION      
#MNEM        .UNIT         API CODE           CURVE DESCRIPTION
#-----------------      --------------        ------------------------------
 DEPT        .F                      :        1  DEPTH
 CALI        .IN                     :        2  
 GR          .GAPI                   :        3  
 RHOB        .G/C3                   :        4  
 NPHI        .%                      :        5  
 DPHI        .%                      :        6  
 SP          .MV                     :        7  
 LL8         .OHMM                   :        8  
 ILD         .OHMM                   :        9  
 CILD        .MMHO                   :        10 
 DT          .US/F                   :        11 
~PARAMETER INFORMATION       
#MNEM.UNIT                  VALUE             DESCRIPTION OF MNEMONIC
#---------             ---------------        ------------------------------
 EKB .F                       36.0000:        KELLY BUSHING
 TD  .F                     2350.0000:        TOTAL DEPTH
 BHT .F                       60.0000:        BOTTOM HOLE TEMPERATURE
 BS  .                         9.6250:        BIT SIZE
 FD  .                        10.8000:        FLUID DENSITY
 CSIZ.                        10.7500:        CASING SIZE
 CBD .F                     1267.0000:        CASING DRILLER 1
 CBL .F                     1267.0000:        CASING LOGGER 1
 DFT .      Salt Water-Lignosulfonate:        TYPE FLUID IN HOLE
 DFV .                        52.0000:        VISCOSITY
 DFPH.                         9.0000:        PH
 DFL .                         4.2000:        FLUID LOSS
 RMS .                         1.8800:        RM
 MST .F                       50.0000:        RM MEAS. TEMP.
 RMF .                         1.1500:        RMF
 MFST.F                       63.0000:        RMF MEAS. TEMP.
 RMC .                         1.5000:        RMC
 MCST.F                       50.0000:        RMC MEAS. TEMP.
~OTHER INFORMATION
~A    DEPTH        CALI          GR        RHOB        NPHI        DPHI          SP         LL8         ILD        CILD          DT  
# ...
  2070.0000     10.1565    102.5045      2.5140     39.3366      7.1063    -17.5162      9.9819      8.6482    113.0223     97.0785  
  2070.5000     10.1787    104.6369      2.4625     40.7168      9.6888    -17.2168      9.8373      8.3953    116.4780    100.3551  
  2071.0000     10.1885    105.1281      2.4568     40.9929     11.4613    -16.9791      9.8680      8.2088    118.6649    101.7428  
  2071.5000     10.1926    104.6876      2.4645     40.4888     11.3630    -16.6208      9.8797      8.1168    120.2270    102.4311  
  2072.0000     10.1845    104.7527      2.4691     39.1649     11.1174    -16.3203     10.0088      8.0950    120.6488    102.6763  
  2072.5000     10.1790    105.2943      2.4738     38.7795     10.8497    -16.1703     10.2161      8.1018    120.5039    102.3722  
  2073.0000     10.2038    105.5908      2.4829     38.5841     10.5197    -16.3382     10.2008      8.1457    119.9527    101.2716  
  2073.5000     10.1935    105.5101      2.4967     38.3959     10.1123    -16.4629     10.0552      8.1957    119.3768    100.4719  
  2074.0000     10.1831    106.3793      2.5084     37.9655      9.2538    -16.5661     10.0591      8.2654    118.3996    100.1988  
  2074.5000     10.1871    107.7205      2.4982     37.2774      8.6806    -16.5896     10.1071      8.3709    117.3065    100.4230  
  2075.0000     10.1911    108.4849      2.4880     36.5619      9.5109    -16.4990     10.0724      8.4580    116.4730    101.1724  
  2075.5000     10.1978    109.0234      2.4889     36.6386      9.7433    -16.5291     10.0469      8.5112    115.7123    101.7645  
  2076.0000     10.1993    108.6716      2.4832     37.1508      9.8302    -16.6765     10.0765      8.5346    115.3728    102.0135  
  2076.5000     10.2100    108.2435      2.4784     37.6258     10.1214    -16.6824     10.1896      8.5384    115.2676    101.7409  
  2077.0000     10.2004    108.0154      2.4849     37.9369     10.1870    -16.5360     10.1856      8.5311    115.1749    101.0170  
  2077.5000     10.1772    107.2460      2.4882     38.0210      9.8310    -16.5780     10.1234      8.6046    114.6800    100.6291  
  2078.0000     10.1720    107.4712      2.4827     37.5000      9.5143    -16.6535     10.0646      8.6278    114.0663    100.4359  
  2078.5000     10.1763    108.2909      2.4769     37.3672      9.9434    -16.5422     10.0678      8.7315    113.3218    100.7903  
  2079.0000     10.1956    108.9714      2.4701     38.1952     10.3051    -16.4894     10.0956      8.7739    112.9295    101.9741  
  2079.5000     10.1969    109.4710      2.4666     38.3708     10.5991    -16.4594     10.1182      8.7737    112.6075    102.8974  
  2080.0000     10.2069    109.0393      2.4730     38.1581     10.6027    -16.2246     10.3201      8.7689    112.1807    103.3365  
  2080.5000     10.2130    108.2458      2.4705     37.8366     10.6063    -16.0065     10.4638      8.7833    111.9832    103.2447  
  2081.0000     10.2110    107.9692      2.4703     37.1587     10.6688    -15.9879     10.5180      8.8486    111.3639    103.0890  
  2081.5000     10.2029    107.2991      2.4878     36.8913     10.4759    -16.0660     10.5392      8.9378    110.3939    102.5842  
  2082.0000     10.2023    105.9540      2.4844     36.8244      9.2563    -16.2049     10.5288      9.0218    109.5769    101.7269  
  2082.5000     10.2058    105.4402      2.4756     36.9354     10.1170    -16.3094     10.4310      9.0573    109.4134    100.9344  
  2083.0000     10.2396    107.2160      2.4667     36.9187     10.6769    -16.2732     10.4111      9.0309    109.4507    100.5567  
  2083.5000     10.2337    108.9989      2.4739     36.9736     10.7600    -16.2011     10.4031      8.9892    109.9873    100.2713  
  2084.0000     10.2213    108.8503      2.4789     36.6573     10.4121    -16.1505     10.3978      9.0344    109.7776    100.1028  
  2084.5000     10.2306    107.5793      2.4808     36.0048     10.1067    -16.0872     10.3871      9.0781    108.7727     99.9370  
  2085.0000     10.2468    106.2423      2.4815     36.1935      9.9673    -16.0590     10.6222      9.2287    106.6063     99.8738  
  2085.5000     10.2144    104.6183      2.4806     36.8564     10.0013    -16.0551     11.0720      9.7742    104.1027     99.6883  
  2086.0000     10.1976    102.2673      2.4980     37.4602      9.7367    -16.2644     11.3970      9.9083    100.8701     99.4806  
  2086.5000     10.1863     99.3743      2.4852     37.8543      9.6587    -16.8554     11.7790     10.1791     98.2069     99.2248  
  2087.0000     10.1742     97.6467      2.4780     37.8934     10.1431    -17.7981     12.3705     10.3092     97.6256     98.9726  
  2087.5000     10.1855     96.5431      2.4668     37.7909     10.6520    -18.7045     12.6744     10.3070     97.4235     98.1891  
  2088.0000     10.1637     94.8208      2.4507     36.6241     11.6591    -18.7141     12.3441     10.3062     97.3411     96.1306  
  2088.5000     10.1010     94.5850      2.4395     34.0118     12.2217    -17.9574     11.9296     10.3440     97.0900     94.6124  
  2089.0000     10.0074     97.6289      2.4444     29.6460     12.3332    -17.1202     11.5859     10.4566     97.3242     94.2795  
  2089.5000     10.0217    103.1782      2.4647     31.8806     12.1587    -16.6169     11.1278     10.3194     98.3705     94.9606  
  2090.0000     10.1299    107.2471      2.4803     34.7925     10.8658    -16.3108     10.8562      9.9638    101.3846     97.2933  
  2090.5000     10.1955    107.4141      2.4800     36.5892     10.0991    -16.1192     10.6698      9.6319    104.1969     98.7700  
  2091.0000     10.2145    107.0169      2.4879     37.0824      9.8363    -16.0589     10.5961      9.3621    105.8844     99.0030  
  2091.5000     10.2153    105.7443      2.4851     37.2480      9.7136    -15.9795     10.5224      9.2029    107.4101     99.3334  
  2092.0000     10.2160    104.1579      2.4808     37.1208      9.9682    -15.9732     10.4517      9.1814    108.5576     99.7449  
  2092.5000     10.2179    102.0185      2.4766     36.8781     10.2818    -16.0376     10.4329      9.2115    107.5824     99.9973  
  2093.0000     10.2396    101.0324      2.4718     37.2008     10.6177    -16.0573     10.4150      9.3064    106.3991     99.9407  
  2093.5000     10.2297    101.0249      2.4698     37.6765     10.7442    -15.9912     10.4169      9.3986    105.7060     99.9672  
  2094.0000     10.2099    102.4099      2.4615     37.2700     11.0637    -16.0493     10.5546      9.4828    104.6775     99.7920  
  2094.5000     10.2247    103.5561      2.4562     36.9672     11.5396    -16.0250     10.7166      9.5670    103.5475     99.6245  
  2095.0000     10.2254    103.8097      2.4542     37.2287     11.6753    -16.0255     10.8787      9.6513    103.4901    100.2531  
  2095.5000     10.2320    104.2264      2.4650     38.1151     11.6040    -16.0167     11.0203      9.6440    103.6195     99.6843  
  2096.0000     10.2342    104.3380      2.4825     38.4699     10.8285    -15.9418     11.0298      9.6263    104.0704     98.6750  
  2096.5000     10.2196    104.3980      2.4988     38.5697      9.5859    -15.8567     10.9629      9.6085    103.4612     97.5283  
  2097.0000     10.1942    105.2025      2.5112     38.2530      8.8160    -15.8048     10.8884      9.5908    103.5571     97.3547  
  2097.5000     10.1875    107.7056      2.4993     37.7345      8.0460    -15.8200     10.7697      9.5730    103.4890     97.7700  
  2098.0000     10.2089    107.2405      2.4742     37.2074     10.0994    -16.0692     10.6506      9.5553    103.6947     98.8478  
  2098.5000     10.2163    105.9209      2.4714     36.9744     10.6325    -16.4026     10.6033      9.7476    102.5767     99.7865  
  2099.0000     10.2052    104.9560      2.4789     36.8342     10.6238    -16.5821     10.9038     10.0259    100.4799     99.8272  
  2099.5000     10.2052    104.2263      2.4833     37.0736     10.3759    -16.9137     11.5457     10.4506     97.0473     99.6159  
