~VERSION INFORMATION
 VERS.                           2.00:        CWLS LOG ASCII STANDARD - VERSION 2.00
 WRAP.                             NO:        ONE LINE PER DEPTH STEP
~WELL INFORMATION
#MNEM.UNIT                   DATA             INFORMATION
#----------             --------------        ------------------------------
 STRT.F                     1088.0000:        START DEPTH
 STOP.F                     2449.0000:        STOP DEPTH
 STEP.F                        0.5000:        STEP VALUE
 NULL.                      -999.2500:        NULL VALUE
 COMP.             UNITED STATES NAVY:        COMPANY  
 LOC .                   11  22N  18W:        LOCATION   
 DATE.                         4/7/70:        LOG DATE 
 WELL.                    GAS WELL #9:        WELL     
 UWI .                   500232000300:        UNIQUE WELL ID 
 API .                   500232000300:        UNIQUE WELL IDENTIFIER 
 FLD .                   SOUTH BARROW:        FIELD    
 CNTY.                   POINT BARROW:        COUNTY  
 STAT.                         ALASKA:        STATE   
 CTRY.                            USA:        COUNTRY 
 OPER.             UNITED STATES NAVY:        OPERATOR  
 SRVC.                   SCHLUMBERGER:        SERVICE COMPANY 
 LAT .                         0.0000:        LATITUDE
 LON .                         0.0000:        LONGITUDE
 DIGS.               CENTER LINE DATA:        DIGITIZING COMPANY 
~CURVE INFORMATION      
#MNEM        .UNIT         API CODE           CURVE DESCRIPTION
#-----------------      --------------        ------------------------------
 DEPT        .F                      :        1  DEPTH
 SP          .MV                     :        2  
 ASN         .OHMM                   :        3  
 ILD         .OHMM                   :        4  
 CILD        .MMHO                   :        5  
 CALI        .IN                     :        6  
 GR          .GAPI                   :        7  
 DRHO        .G/C3                   :        8  
 RHOB        .G/C3                   :        9  
 DT          .US/F                   :        10 
~PARAMETER INFORMATION       
#MNEM.UNIT                  VALUE             DESCRIPTION OF MNEMONIC
#---------             ---------------        ------------------------------
 EKB .F                       29.0000:        KELLY BUSHING
 TD  .F                     2450.0000:        TOTAL DEPTH
 BHT .F                       75.0000:        BOTTOM HOLE TEMPERATURE
 BS  .                         8.6250:        BIT SIZE
 FD  .                        10.7000:        FLUID DENSITY
 CSIZ.                         9.6250:        CASING SIZE
 CBD .F                     1100.0000:        CASING DRILLER 1
 CBL .F                     1102.0000:        CASING LOGGER 1
 DFT .                            Gel:        TYPE FLUID IN HOLE
 DFV .                        45.0000:        VISCOSITY
 DFPH.                         8.8000:        PH
 DFL .                         3.8000:        FLUID LOSS
 RMS .                         2.7500:        RM
 MST .F                       60.0000:        RM MEAS. TEMP.
 RMF .                         2.3600:        RMF
 MFST.F                       60.0000:        RMF MEAS. TEMP.
 RMC .                         3.7800:        RMC
 MCST.F                       60.0000:        RMC MEAS. TEMP.
~OTHER INFORMATION
~A    DEPTH          SP         ASN         ILD        CILD        CALI          GR        DRHO        RHOB          DT  
# ...
  2408.0000    -41.5244     25.7995     23.6287     44.1011      8.7973     29.3524      0.0117      2.3548     83.5433  
  2408.5000    -40.8489     24.8881     23.6681     44.2510      8.7962     30.9005     -0.0005      2.3947     84.5297  
  2409.0000    -41.3136     23.3034     22.9190     45.7305      8.7951     35.2014      0.0073      2.4202     89.0029  
  2409.5000    -41.5203     22.2498     21.6921     48.1739      8.7940     40.0830      0.0331      2.4110     92.6122  
  2410.0000    -39.6028     21.5311     20.4368     50.7266      8.7929     41.1265      0.0271      2.3546     92.5150  
  2410.5000    -36.6105     21.2392     19.3441     53.1041      8.7918     42.1292      0.0212      2.3375     90.6235  
  2411.0000    -34.3009     21.3371     18.9107     53.5916      8.7986     45.2235      0.0157      2.3576     90.5173  
  2411.5000    -34.4449     21.4094     18.9263     53.9096      8.8460     49.1853      0.0135      2.3892     92.4928  
  2412.0000    -37.3439     21.5300     19.2316     53.5996      8.8924     52.1954      0.0171      2.4117     94.3687  
  2412.5000    -40.4861     21.6830     19.5688     52.9912      8.8560     53.1251      0.0151      2.3858     94.0735  
  2413.0000    -40.6691     21.7402     19.1792     53.3865      8.8196     52.8764      0.0111      2.3531     93.7053  
  2413.5000    -38.2648     21.8330     18.6687     55.1847      8.7885     53.5677      0.0170      2.3556     92.3426  
  2414.0000    -34.4202     21.8394     17.6310     58.6983      8.8255     54.1965      0.0263      2.3983     89.8005  
  2414.5000    -34.7232     21.6794     16.1284     62.6199      8.8626     55.2589      0.0186      2.4695     86.3421  
  2415.0000    -36.7706     20.7728     15.3126     64.4190      8.8526     54.9420      0.0153      2.5223     84.5795  
  2415.5000    -38.9616     19.8874     15.9457     63.2481      8.8418     52.3753      0.0107      2.5586     83.4406  
  2416.0000    -37.5889     18.2966     16.5788     60.9348      8.7778     50.7839     -0.0021      2.5904     84.1041  
  2416.5000    -34.7963     17.5015     17.2119     59.2404      8.7352     53.1007      0.0105      2.6102     85.9653  
  2417.0000    -34.5337     17.7641     17.5001     58.5274      8.7563     54.5193      0.0333      2.5671     88.6912  
  2417.5000    -34.9981     19.2041     17.5439     57.9353      8.7720     54.2692      0.0362      2.5047     88.9562  
  2418.0000    -36.0513     21.0026     18.3964     55.4149      8.7806     53.2967      0.0455      2.4986     86.6645  
  2418.5000    -38.4047     22.8059     19.7809     51.0791      8.7699     51.9454      0.0330      2.5220     84.4427  
  2419.0000    -41.5327     24.5597     23.1491     45.5987      8.7497     48.6457      0.0117      2.5702     85.6561  
  2419.5000    -45.0769     26.6505     25.8714     40.4070      8.7294     42.7626      0.0165      2.6215     91.3059  
  2420.0000    -47.8841     28.2248     27.2873     38.2242      8.7268     40.4740      0.0379      2.5941     95.4853  
  2420.5000    -48.5705     28.0937     27.4497     37.8925      8.6903     42.0195      0.0357      2.4897     93.0778  
  2421.0000    -50.0660     27.8519     27.0626     39.1615      8.6548     43.8296      0.0039      2.3936     91.7106  
  2421.5000    -50.1180     27.3908     26.3686     40.4304      8.6201     43.9580      0.0134      2.3958     89.7982  
  2422.0000    -49.2381     26.9297     25.4187     41.6234      8.1576     43.4026      0.0172      2.4048     89.1735  
  2422.5000    -48.8713     26.4687     24.4986     42.2521      7.9608     42.1814      0.0197      2.4236     89.9565  
  2423.0000    -48.6551     26.1023     24.0168     43.4395      7.9529     42.2991      0.0234      2.4113     90.4454  
  2423.5000    -48.2893     25.8646     23.5350     44.2554      7.9450     43.2058      0.0252      2.3816     91.1522  
  2424.0000    -48.5949     25.6269     23.0851     44.5832      7.9453     41.4374      0.0184      2.3435     90.8752  
  2424.5000    -49.1408     25.4372     22.7739     45.2187      7.9591     40.0966      0.0163      2.3166     90.6896  
  2425.0000    -48.8670     25.3598     22.7788     45.6636      7.9614     38.7558      0.0329      2.3141     90.4996  
  2425.5000    -47.6201     25.2829     22.8277     45.2728      7.9576     37.0275      0.0236      2.2953     90.5221  
  2426.0000    -46.3582     25.4287     22.9253     44.8469      7.9608     34.3917      0.0171      2.2862     90.6568  
  2426.5000    -46.9961     25.7210     23.2145     44.5813      7.9630     34.0686      0.0205      2.3131     91.2082  
  2427.0000    -48.4911     26.1321     23.3992     44.3905      7.9628     34.2327      0.0360      2.3346     91.8721  
  2427.5000    -48.3515     26.3909     23.7047     43.9272      7.9833     32.8769      0.0524      2.3383     91.1610  
  2428.0000    -47.5323     26.3690     24.2423     43.0921      7.9859     31.1551      0.0419      2.3248     87.7121  
  2428.5000    -46.0953     26.4569     24.5725     42.2834      8.0220     31.7171      0.0329      2.3182     85.8408  
  2429.0000    -46.1245     26.8041     25.0647     41.6589      8.0475     33.3777      0.0512      2.3700     85.5823  
  2429.5000    -48.0923     26.9919     25.5181     41.2356      8.1284     34.1562      0.0406      2.4067     86.6439  
  2430.0000    -50.0276     27.0728     25.7833     40.7509      8.2776     34.3802      0.0532      2.3920     89.2664  
  2430.5000    -51.3335     27.1445     25.8509     40.3577      8.5804     34.5952      0.0305      2.3355     90.9499  
  2431.0000    -51.8255     27.1910     25.6768     40.6671      8.5921     34.3190      0.0194      2.3042     91.0192  
  2431.5000    -51.9481     27.1682     25.4446     40.9765      8.5751     32.8656      0.0167      2.2979     90.8594  
  2432.0000    -52.0770     27.0741     25.2125     41.2974      8.5798     31.6525      0.0168      2.2964     90.7536  
  2432.5000    -52.5803     26.9812     24.9803     41.8869      8.5848     32.1751      0.0180      2.2882     90.7738  
  2433.0000    -52.9983     26.8531     24.8363     42.3352      8.5837     31.9237      0.0299      2.3011     91.3468  
  2433.5000    -53.2728     26.7160     24.6042     42.7835      8.5822     31.9943      0.0239      2.3016     91.8130  
  2434.0000    -54.1978     26.6431     24.4134     43.0000      8.5723     33.7144      0.0289      2.3086     92.3471  
  2434.5000    -54.7447     26.6259     24.2334     42.8185      8.5780     34.3125      0.0318      2.3010     92.8588  
  2435.0000    -54.8298     26.7844     24.7106     42.1450      8.5690     33.4346      0.0310      2.2947     93.2169  
  2435.5000    -55.1816     27.2449     25.1347     41.0312      8.5745     33.5029      0.0312      2.2969     93.5681  
  2436.0000    -55.1926     27.7861     26.7793     39.4590      8.5799     32.2982      0.0333      2.3031     94.0330  
  2436.5000    -55.2041     28.3273     27.9854     37.9197      8.5760     31.3124      0.0309      2.2954     94.5912  
  2437.0000    -55.7748     29.9548     29.1915     36.5452      8.5728     31.4912      0.0306      2.3039     94.8379  
  2437.5000    -56.3578     31.0097     30.3976     35.0179      8.5828     32.2776      0.0352      2.3212     96.1896  
  2438.0000    -56.6729     31.8526     31.6037     33.5017      8.5710     32.2913      0.0398      2.3189    100.2982  
  2438.5000    -56.7573     32.4239     32.0787     33.0000      8.5626     32.0387      0.0329      2.3147     98.4063  
  2439.0000    -57.5848     33.4066     32.4039     33.1115      8.5759     32.0898      0.0154      2.3203     94.0494  
  2439.5000    -58.0984     33.4287     32.0408     33.4677      8.5674     32.2101      0.0128      2.3364     93.8942  
  2440.0000    -58.1174     32.9555     31.2752     34.3808      8.5587     33.4845      0.0330      2.3241     93.8637  
  2440.5000    -58.1363     32.2683     30.4330     34.8529      8.5557     36.5073      0.0175      2.2445     93.8658  
