~VERSION INFORMATION
 VERS.                           2.00:        CWLS LOG ASCII STANDARD - VERSION 2.00
 WRAP.                             NO:        ONE LINE PER DEPTH STEP
~WELL INFORMATION
#MNEM.UNIT                   DATA             INFORMATION
#----------             --------------        ------------------------------
 STRT.F                       25.0000:        START DEPTH
 STOP.F                     4165.0000:        STOP DEPTH
 STEP.F                        0.5000:        STEP VALUE
 NULL.                      -999.2500:        NULL VALUE
 COMP.    USGS/NPR HUSKY OIL OPERATOR:        COMPANY
 LOC .                     21 21N 14W:        LOCATION
 DATE.                         3/3/80:        LOG DATE
 WELL.                 WEST  DEASE #1:        WELL
 UWI .                   500232001400:        UNIQUE WELL ID
 API .                   500232001400:        UNIQUE WELL IDENTIFIER
 FLD .                        WILDCAT:        FIELD
 CNTY.                    NORTH SLOPE:        COUNTY
 STAT.                         ALASKA:        STATE
 CTRY.                            USA:        COUNTRY
 OPER.    USGS/NPR HUSKY OIL OPERATOR:        OPERATOR
 SRVC.                   SCHLUMBERGER:        SERVICE COMPANY
 LAT .                         0.0000:        LATITUDE
 LON .                         0.0000:        LONGITUDE
 DIGS.               CENTER LINE DATA:        DIGITIZING COMPANY
~CURVE INFORMATION      
#MNEM        .UNIT         API CODE           CURVE DESCRIPTION
#-----------------      --------------        ------------------------------
 DEPT        .F                      :        1  DEPTH
 SP          .MV                     :        2  
 LLD         .OHMM                   :        3  
 LLS         .OHMM                   :        4  
 MSFL        .OHMM                   :        5  
 CALI        .IN                     :        6  
 RHOB        .G/C3                   :        7  
 DRHO        .G/C3                   :        8  
 NPHI        .%                      :        9  
 GR          .GAPI                   :        10 
 DT          .US/F                   :        11 
~PARAMETER INFORMATION
#MNEM.UNIT                  VALUE             DESCRIPTION OF MNEMONIC
#---------             ---------------        ------------------------------
 EKB .F                       24.0000:        KELLY BUSHING
 TD  .F                     4173.0000:        TOTAL DEPTH
 BHT .F                       85.0000:        BOTTOM HOLE TEMPERATURE
 BS  .                        12.2500:        BIT SIZE
 FD  .                        10.4000:        FLUID DENSITY
 CSIZ.                        13.3750:        CASING SIZE
 CBD .F                      288.0000:        CASING DRILLER 1
 CBL .F                      292.0000:        CASING LOGGER 1
 DFT .                             99:        TYPE FLUID IN HOLE
 DFV .                        52.0000:        VISCOSITY
 DFPH.                         8.0000:        PH
 DFL .                         7.5000:        FLUID LOSS
 RMS .                         0.1250:        RM
 MST .F                       35.0000:        RM MEAS. TEMP.
 RMF .                         0.1440:        RMF
 MFST.F                       44.0000:        RMF MEAS. TEMP.
 RMC .                         0.2360:        RMC
 MCST.F                       36.0000:        RMC MEAS. TEMP.
~OTHER INFORMATION
~A    DEPTH          SP         LLD         LLS        MSFL        CALI        RHOB        DRHO        NPHI          GR          DT 
# ...
   299.5000   -126.2203     71.1675     12.6640      1.4495     15.1698      2.3511      0.1599     53.8426     53.6632    145.6948 
   300.0000   -126.4428     64.7519     12.0332      1.4514     14.8067      2.3726      0.1591     53.5275     55.7215    149.2885 
   300.5000   -126.0862     54.7195     11.7911      1.8770     13.8310      2.3584      0.1160     52.7965     54.2247    162.7389 
   301.0000   -126.4567     46.2415     11.7463      1.9524     12.7946      2.3646      0.1071     51.6948     53.2417    167.8589 
   301.5000   -126.7785     39.0770     11.5844      1.8366     12.7097      2.3959      0.1172     51.1578     52.4019    170.5663 
   302.0000   -127.2465     34.4325     11.6023      1.7332     12.6528      2.4055      0.1336     51.6661     52.4460    169.6923 
   302.5000   -127.6636     38.4665     11.6782      1.5990     12.5787      2.4215      0.1534     52.1335     53.7815    161.4742 
   303.0000   -128.1884     42.5402     11.8855      1.7402     12.7709      2.4034      0.1477     51.0962     55.3415    151.7400 
   303.5000   -128.6457     48.5269     12.5621      2.1996     13.4160      2.3701      0.1411     49.5807     56.4422    149.3687 
   304.0000   -129.2443     56.5533     13.5071      1.9078     12.8574      2.4154      0.1825     48.7563     57.9669    147.3106 
   304.5000   -129.8916     61.5669     13.3863      1.9291     12.7643      2.4099      0.1367     47.6074     57.6743    148.9943 
   305.0000   -130.0755     60.9979     13.0950      1.8678     12.7727      2.3944      0.1146     47.9972     57.1734    150.6781 
   305.5000   -130.3419     62.7148     13.0089      1.4099     12.7987      2.4167      0.1247     48.1771     56.8110    151.2958 
   306.0000   -130.5752     63.0356     12.6161      1.8519     12.7739      2.4089      0.1153     47.8810     56.8335    152.1140 
   306.5000   -130.8181     65.2033     12.8795      2.1365     12.7282      2.4147      0.1230     47.5622     56.5451    151.4009 
   307.0000   -131.1830     63.2269     13.1390      2.0079     12.7382      2.4055      0.1024     48.2039     56.4441    150.3417 
   307.5000   -131.3654     64.8978     13.3587      2.4372     12.7416      2.3942      0.1054     49.3921     56.8998    150.1052 
   308.0000   -131.6542     66.1750     13.8508      2.4793     12.7384      2.3807      0.0981     50.5230     57.4094    150.8962 
   308.5000   -132.0083     65.6386     14.1451      2.5290     12.7292      2.3619      0.0971     51.8351     57.6193    150.1591 
   309.0000   -132.0685     66.0829     14.2008      2.5738     12.7148      2.3462      0.0880     53.2487     57.5979    150.2260 
   309.5000   -132.4173     64.2358     13.9732      2.5623     12.7357      2.3528      0.1128     51.6177     58.5197    150.1180 
   310.0000   -132.4792     63.6219     13.9585      2.5380     12.7361      2.3779      0.1376     51.6238     59.2751    151.0325 
   310.5000   -132.6826     66.5412     14.0082      2.5233     12.7554      2.3998      0.1625     51.8324     60.0284    152.3825 
   311.0000   -132.8927     65.2676     14.0806      2.5029     12.7691      2.4068      0.1637     51.8532     61.1907    153.1341 
   311.5000   -132.7638     64.9855     14.1746      2.3987     12.7641      2.3984      0.1541     51.2353     62.3453    154.6754 
   312.0000   -132.9508     62.3842     13.8999      2.1976     12.7783      2.3904      0.1464     50.9577     63.0010    155.1077 
   312.5000   -133.2180     60.0136     13.6197      2.0938     12.8013      2.3503      0.1096     51.3690     61.0731    156.2673 
   313.0000   -133.3062     58.1057     13.3693      2.1125     12.8178      2.3413      0.1046     52.3143     59.3967    157.1561 
   313.5000   -133.3312     54.7923     13.0199      2.1477     12.8289      2.3605      0.1131     53.8329     58.4140    157.4740 
   314.0000   -133.6942     51.5512     12.7941      2.2103     12.8038      2.3454      0.1181     54.7569     57.9018    157.8540 
   314.5000   -134.0987     52.3464     13.0874      2.0725     12.7757      2.3885      0.1443     54.4439     58.0496    157.2353 
   315.0000   -133.9736     52.4878     13.1849      2.1580     12.7984      2.4111      0.1525     52.5896     58.2343    156.5247 
   315.5000   -134.3316     52.4916     13.2873      2.3252     12.7872      2.3835      0.1291     52.0231     57.9836    155.3375 
   316.0000   -134.4260     54.0660     13.3764      1.9381     12.7872      2.3691      0.1085     51.3464     56.5799    153.3100 
   316.5000   -134.8032     56.2272     13.2640      2.0386     12.8700      2.3590      0.0988     49.6812     55.2461    152.1894 
   317.0000   -135.2383     59.2586     13.1263      2.4522     12.8959      2.3670      0.1438     48.3410     54.9997    152.6326 
   317.5000   -135.4377     61.6983     13.0578      2.2810     12.7804      2.3718      0.1797     47.4857     55.5605    153.4398 
   318.0000   -135.6371     64.9942     13.2346      1.8990     13.1689      2.3550      0.1887     48.5341     56.6509    154.3445 
   318.5000   -135.8365     71.4225     13.5950      2.3964     13.6931      2.3264      0.1710     50.6681     57.6313    153.5859 
   319.0000   -136.0358     70.9264     13.8650      2.4800     13.1267      2.3246      0.1602     51.4548     57.6998    150.4148 
   319.5000   -136.3917     76.7241     13.9419      2.6683     13.0287      2.3642      0.1548     51.4880     57.2468    148.5425 
   320.0000   -136.4243     72.7402     14.3290      2.2442     13.9590      2.3502      0.1647     51.7223     56.1753    149.3933 
   320.5000   -136.5650     70.6712     13.6926      1.8876     13.9744      2.3611      0.1883     52.0323     55.1711    150.3246 
   321.0000   -136.7022     68.2877     13.5706      1.9308     13.9693      2.3745      0.2042     53.0325     54.8432    151.2559 
   321.5000   -136.7315     67.9551     13.6042      1.8373     13.7428      2.3518      0.1868     54.2317     54.8581    152.7232 
   322.0000   -136.3164     65.7140     13.3491      1.6118     13.2185      2.3682      0.1794     55.3935     54.7763    152.3544 
   322.5000   -136.5517     62.2513     12.8403      1.3755     13.3547      2.3412      0.1537     55.6885     54.4615    155.0663 
   323.0000   -136.9808     59.8257     12.4611      1.2723     13.0599      2.3380      0.1730     52.8257     54.5906    158.1356 
   323.5000   -137.0864     57.5925     12.1677      1.3012     12.8431      2.3258      0.1863     50.4680     55.1077    159.0147 
   324.0000   -137.7212     58.1265     12.1262      1.4060     12.9393      2.3212      0.1973     49.9975     54.2433    159.5578 
   324.5000   -138.6927     61.6770     12.7902      1.6075     13.0317      2.3136      0.1901     50.3678     52.8159    155.7361 
   325.0000   -138.7306     66.6268     13.5610      1.7803     13.0456      2.3100      0.1739     50.7537     52.8763    152.2679 
   325.5000   -138.7461     72.0852     14.0299      1.8599     13.2243      2.3340      0.1819     50.4935     54.0326    149.8209 
   326.0000   -138.1146     72.5045     13.9887      1.6921     13.0495      2.3368      0.1777     49.4621     55.2804    147.3684 
   326.5000   -139.2522     72.9262     13.9753      1.6760     13.4487      2.3150      0.1625     47.7455     56.0485    149.6320 
   327.0000   -139.2579     76.5150     14.0098      1.3814     14.0233      2.3123      0.1798     50.1254     55.9914    150.6166 
   327.5000   -139.2797     75.9313     14.0760      1.3422     13.7848      2.3092      0.1958     53.4882     55.1679    149.6034 
   328.0000   -139.3817     72.6046     13.7598      1.5532     13.9204      2.2875      0.1859     56.7933     53.9880    147.0147 
   328.5000   -139.3923     65.8930     13.2735      1.5360     13.3555      2.2828      0.1760     57.3975     53.4000    148.0806 
   329.0000   -139.5592     61.9316     12.2470      1.3787     13.3904      2.3304      0.1669     54.7054     54.3025    149.8814 
   329.5000   -139.6923     59.2266     11.4736      1.3569     13.0708      2.3681      0.1806     51.8960     55.5577    154.2449 
