~VERSION INFORMATION
 VERS.                           2.00:        CWLS LOG ASCII STANDARD - VERSION 2.00
 WRAP.                             NO:        ONE LINE PER DEPTH STEP
~WELL INFORMATION
#MNEM.UNIT                   DATA             INFORMATION
#----------             --------------        ------------------------------
 STRT.F                      884.0000:        START DEPTH
 STOP.F                     2365.0000:        STOP DEPTH
 STEP.F                        0.5000:        STEP VALUE
 NULL.                      -999.2500:        NULL VALUE
 COMP.                      U.S. NAVY:        COMPANY  
 LOC .                   14  22N  18W:        LOCATION   
 DATE.                        3/19/64:        LOG DATE 
 WELL.                SOUTH BARROW #6:        WELL     
 UWI .                   500231001500:        UNIQUE WELL ID 
 API .                   500231001500:        UNIQUE WELL IDENTIFIER 
 FLD .                   SOUTH BARROW:        FIELD    
 CNTY.                         NPR #4:        COUNTY  
 STAT.                         ALASKA:        STATE   
 CTRY.                            USA:        COUNTRY 
 OPER.                      U.S. NAVY:        OPERATOR  
 SRVC.                   SCHLUMBERGER:        SERVICE COMPANY 
 LAT .                         0.0000:        LATITUDE
 LON .                         0.0000:        LONGITUDE
 DIGS.               CENTER LINE DATA:        DIGITIZING COMPANY 
~CURVE INFORMATION      
#MNEM        .UNIT         API CODE           CURVE DESCRIPTION
#-----------------      --------------        ------------------------------
 DEPT        .F                      :        1  DEPTH
 SP          .MV                     :        2  
 SN          .OHMM                   :        3  
 ILD         .OHMM                   :        4  
 CILD        .OHMM                   :        5  
 DT          .US/F                   :        6  
~PARAMETER INFORMATION       
#MNEM.UNIT                  VALUE             DESCRIPTION OF MNEMONIC
#---------             ---------------        ------------------------------
 EKB .F                       40.0000:        KELLY BUSHING
 TD  .F                     2366.0000:        TOTAL DEPTH
 BHT .F                        0.0000:        BOTTOM HOLE TEMPERATURE
 BS  .                         9.6250:        BIT SIZE
 FD  .                        85.0000:        FLUID DENSITY
 CSIZ.                        11.7500:        CASING SIZE
 CBD .F                      884.0000:        CASING DRILLER 1
 CBL .F                      884.0000:        CASING LOGGER 1
 DFT .                  Miscellaneous:        TYPE FLUID IN HOLE
 DFV .                        45.0000:        VISCOSITY
 DFPH.                         0.0000:        PH
 DFL .                         2.8000:        FLUID LOSS
 RMS .                         5.3700:        RM
 MST .F                       33.0000:        RM MEAS. TEMP.
 RMF .                         2.9500:        RMF
 MFST.F                       45.0000:        RMF MEAS. TEMP.
 RMC .                         2.4800:        RMC
 MCST.F                       35.0000:        RMC MEAS. TEMP.
~OTHER INFORMATION
~A    DEPTH          SP          SN         ILD        CILD          DT  
# ...
  1647.0000    -31.5177     11.6614     10.1526     96.2659   -999.2500  
  1647.5000    -31.5059     11.7697     10.3750     94.6983   -999.2500  
  1648.0000    -31.1367     11.8705     10.5357     93.4045   -999.2500  
  1648.5000    -30.9147     11.9883     10.8206     91.4809   -999.2500  
  1649.0000    -30.8955     12.0731     11.0800     89.4068   -999.2500  
  1649.5000    -31.1928     12.1912     11.2704     87.7014   -999.2500  
  1650.0000    -31.3124     12.2979     11.2101     86.7382   -999.2500  
  1650.5000    -31.2496     12.3936     11.4435     86.1689   -999.2500  
  1651.0000    -31.3075     12.4313     11.4232     86.2953   -999.2500  
  1651.5000    -31.2313     12.4191     11.4033     86.3727   -999.2500  
  1652.0000    -30.8751     12.4129     11.4123     86.3175   -999.2500  
  1652.5000    -30.6890     12.4503     11.3890     86.3997   -999.2500  
  1653.0000    -30.6538     12.4986     11.3345     86.6925   -999.2500  
  1653.5000    -30.6007     12.5273     11.2274     87.2490   -999.2500  
  1654.0000    -30.5489     12.5208     11.0517     88.3358   -999.2500  
  1654.5000    -30.5546     12.4531     10.8543     89.7259   -999.2500  
  1655.0000    -30.6102     12.3730     10.5597     91.6294   -999.2500  
  1655.5000    -31.2808     12.3616     10.3197     93.9016   -999.2500  
  1656.0000    -32.3750     12.3675     10.0317     96.5011   -999.2500  
  1656.5000    -34.0963     12.3899      9.7015     98.5327   -999.2500  
  1657.0000    -36.9262     12.4637      9.5871    100.2765   -999.2500  
  1657.5000    -39.3002     12.4584      9.4475    101.2694   -999.2500  
  1658.0000    -39.2554     12.3231      9.4559    101.6471   -999.2500  
  1658.5000    -37.5181     12.1812      9.4888    101.8898   -999.2500  
  1659.0000    -34.9138     12.0809      9.4962    101.7974   -999.2500  
  1659.5000    -32.5712     12.0478      9.5221    101.4697   -999.2500  
  1660.0000    -31.9797     12.1596      9.5497    100.7399   -999.2500  
  1660.5000    -32.6618     12.3535      9.8069    100.0557   -999.2500  
  1661.0000    -35.0462     12.6160      9.9586     98.3540   -999.2500  
  1661.5000    -37.7757     12.9015     10.1830     96.1811   -999.2500  
  1662.0000    -39.6926     13.1177     10.8260     92.4185   -999.2500  
  1662.5000    -40.1225     13.4133     11.2936     88.8340   -999.2500  
  1663.0000    -38.1987     13.6539     11.8493     85.1079   -999.2500  
  1663.5000    -35.2541     13.8012     12.4773     81.0716   -999.2500  
  1664.0000    -33.2872     13.9657     13.0454     77.4923   -999.2500  
  1664.5000    -31.6528     14.1302     13.4441     74.8302   -999.2500  
  1665.0000    -30.3715     14.2948     13.8429     72.9273   -999.2500  
  1665.5000    -29.3459     14.4597     13.9047     71.9027   -999.2500  
  1666.0000    -28.2751     14.6249     13.9347     71.3448   -999.2500  
  1666.5000    -27.4784     14.5736     13.9664     71.3037   -999.2500  
  1667.0000    -27.0810     14.4995     13.9983     71.4224   -999.2500  
  1667.5000    -27.0442     14.4023     13.8139     71.6565   -999.2500  
  1668.0000    -27.2284     14.2845     13.6162     72.7081   -999.2500  
  1668.5000    -27.4934     14.1545     13.3448     74.3445   -999.2500  
  1669.0000    -27.5704     14.0369     12.8704     76.6607   -999.2500  
  1669.5000    -27.3767     13.9371     12.2861     79.7938   -999.2500  
  1670.0000    -27.1000     13.7016     11.8116     83.2113   -999.2500  
  1670.5000    -26.7792     13.3523     11.3071     86.7262   -999.2500  
  1671.0000    -26.5653     12.8385     10.7922     90.3168   -999.2500  
  1671.5000    -26.7769     12.3061     10.3248     93.5405   -999.2500  
  1672.0000    -27.5950     11.6980      9.9338     96.4998   -999.2500  
  1672.5000    -28.6749     11.4308      9.5755    100.5288   -999.2500  
  1673.0000    -29.5694     11.2998      9.3156    103.8985   -999.2500  
  1673.5000    -29.6112     11.0585      9.0736    106.2294   -999.2500  
  1674.0000    -29.5077     10.8826      8.9525    107.7377   -999.2500  
  1674.5000    -29.7125     10.8454      8.8626    108.6295   -999.2500  
  1675.0000    -29.6728     10.7532      8.8743    108.8657   -999.2500  
  1675.5000    -29.5701     10.5805      8.8464    109.0995   -999.2500  
  1676.0000    -29.7538     10.6013      8.7287    110.0519   -999.2500  
  1676.5000    -30.4956     10.7914      8.6375    111.1138   -999.2500  
  1677.0000    -32.3978     11.0788      8.5783    111.8760   -999.2500  
  1677.5000    -35.1781     11.2286      8.5125    112.6014   -999.2500  
  1678.0000    -37.3657     11.3891      8.4497    113.4121   -999.2500  
  1678.5000    -38.6742     11.5014      8.3651    114.3031   -999.2500  
  1679.0000    -40.3555     11.5669      8.2515    115.5838   -999.2500  
  1679.5000    -43.3588     11.7696      8.1250    117.4338   -999.2500  
  1680.0000    -45.3493     11.8647      8.1204    118.0818   -999.2500  
  1680.5000    -45.8243     11.6797      8.2123    117.0555   -999.2500  
  1681.0000    -43.5604     11.0766      8.6156    113.9817   -999.2500  
  1681.5000    -39.6050     10.6164      9.0026    109.6319   -999.2500  
  1682.0000    -34.9756     10.3934      9.3356    104.3747   -999.2500  
  1682.5000    -31.5345     10.8046      9.6132    101.5936   -999.2500  
  1683.0000    -30.0557     11.5055      9.8752     99.9672   -999.2500  
  1683.5000    -29.1928     12.1408     10.0936     98.1905   -999.2500  
  1684.0000    -28.7701     12.2194     10.3462     95.3810   -999.2500  
  1684.5000    -28.7227     11.8725     10.7268     92.1145   -999.2500  
  1685.0000    -28.8427     11.5663     11.0389     89.6935   -999.2500  
  1685.5000    -29.0494     11.4922     11.1558     88.6321   -999.2500  
  1686.0000    -29.3822     11.7211     11.1413     88.5954   -999.2500  
  1686.5000    -29.8334     12.1744     11.1477     88.8789   -999.2500  
  1687.0000    -29.9943     12.3876     11.2522     88.3139   -999.2500  
  1687.5000    -30.1132     12.4331     11.3837     87.1803   -999.2500  
  1688.0000    -30.2322     12.4994     11.5293     86.0908   -999.2500  
  1688.5000    -30.3014     12.5985     11.7008     85.0135   -999.2500  
  1689.0000    -30.2696     12.6540     11.7236     84.5646   -999.2500  
  1689.5000    -30.0884     12.6917     11.6146     85.0905   -999.2500  
  1690.0000    -29.8951     12.6845     11.5030     85.8432   -999.2500  
  1690.5000    -29.8179     12.6347     11.3217     87.0259   -999.2500  
  1691.0000    -29.7021     12.4861     11.2043     88.0863   -999.2500  
  1691.5000    -29.5863     12.2929     11.1193     88.7186   -999.2500  
  1692.0000    -29.3372     12.1262     11.0436     89.2693   -999.2500  
  1692.5000    -29.1391     12.0708     10.9800     89.7392   -999.2500  
  1693.0000    -28.8238     12.0948     10.9287     90.0846   -999.2500  
  1693.5000    -28.6480     12.1323     10.8989     90.4300   -999.2500  
  1694.0000    -28.5545     12.1958     10.9159     90.4759   -999.2500  
  1694.5000    -28.4820     12.2860     10.9654     90.3755   -999.2500  
  1695.0000    -28.4078     12.4169     11.0301     89.7910   -999.2500  
  1695.5000    -28.3524     12.5398     11.1328     89.2064   -999.2500  
  1696.0000    -28.2864     12.5882     11.2021     88.4445   -999.2500  
  1696.5000    -28.2567     12.5925     11.2186     88.2219   -999.2500  
  1697.0000    -28.3407     12.5937     11.1950     88.2935   -999.2500  
  1697.5000    -28.4401     12.6108     11.1535     88.5470   -999.2500  
  1698.0000    -28.4151     12.6355     11.1411     88.8729   -999.2500  
  1698.5000    -28.4748     12.6739     11.1487     88.7374   -999.2500  
  1699.0000    -28.9145     12.6649     11.2237     88.2653   -999.2500  
  1699.5000    -29.3942     12.5770     11.2735     87.8441   -999.2500  
  1700.0000    -29.3336     12.5238     11.2857     87.8332   -999.2500  
  1700.5000    -29.2735     12.5217     11.2605     87.7323   -999.2500  
  1701.0000    -29.2149     12.6019     11.2322     87.9140   -999.2500  
