~VERSION INFORMATION
 VERS.                           2.00:        CWLS LOG ASCII STANDARD - VERSION 2.00
 WRAP.                             NO:        ONE LINE PER DEPTH STEP
~WELL INFORMATION
#MNEM.UNIT                   DATA             INFORMATION
#----------             --------------        ------------------------------
 STRT.F                      152.0000:        START DEPTH
 STOP.F                     2285.0000:        STOP DEPTH
 STEP.F                        0.5000:        STEP VALUE
 NULL.                      -999.2500:        NULL VALUE
 COMP.                      U.S. NAVY:        COMPANY  
 LOC .                   26  22N  17W:        LOCATION   
 DATE.                         4/1/74:        LOG DATE 
 WELL.            SOUTH BARROW NO. 12:        WELL     
 UWI .                   500232000600:        UNIQUE WELL ID 
 API .                   500232000600:        UNIQUE WELL IDENTIFIER 
 FLD .                   SOUTH BARROW:        FIELD    
 CNTY.                         NPPR-4:        COUNTY  
 STAT.                         ALASKA:        STATE   
 CTRY.                            USA:        COUNTRY 
 OPER.                      U.S. NAVY:        OPERATOR  
 SRVC.                   SCHLUMBERGER:        SERVICE COMPANY 
 LAT .                         0.0000:        LATITUDE
 LON .                         0.0000:        LONGITUDE
 DIGS.               CENTER LINE DATA:        DIGITIZING COMPANY 
~CURVE INFORMATION      
#MNEM        .UNIT         API CODE           CURVE DESCRIPTION
#-----------------      --------------        ------------------------------
 DEPT        .F                      :        1  DEPTH
 RHOB        .G/C3                   :        2  
 DRHO        .G/C3                   :        3  
 GR          .GAPI                   :        4  
 CALI        .IN                     :        5  
 DPHI        .%                      :        6  
 NPHI        .%                      :        7  
 SP          .MV                     :        8  
 ALL8        .OHMM                   :        9  
 ILD         .OHMM                   :        10 
 CILD        .MMHO                   :        11 
 DT          .US/F                   :        12 
~PARAMETER INFORMATION       
#MNEM.UNIT                  VALUE             DESCRIPTION OF MNEMONIC
#---------             ---------------        ------------------------------
 EKB .F                       26.0000:        KELLY BUSHING
 TD  .F                     2285.0000:        TOTAL DEPTH
~OTHER INFORMATION
~A    DEPTH        RHOB        DRHO          GR        CALI        DPHI        NPHI          SP        ALL8         ILD        CILD          DT  
# ...
  1142.0000      2.4366      0.0357    105.1064     10.8020     13.9121     47.2282    -34.7470      9.3488      8.8063    108.7398    119.3747  
  1142.5000      2.4578      0.0655    106.4332     10.7538     13.0427     48.2924    -34.5988      9.3803      8.8019    108.8562    119.7089  
  1143.0000      2.4710      0.0665    106.6438     10.7541     11.8418     47.0932    -34.5337      9.4249      8.7975    108.7980    120.1080  
  1143.5000      2.4702      0.0612    107.0074     10.7544     11.1303     45.5693    -34.5118      9.4616      8.7932    108.4929    120.6306  
  1144.0000      2.4757      0.0543    107.7971     10.7547     11.0250     42.2079    -34.4900      9.5200      8.7888    108.4441    121.3072  
  1144.5000      2.4695      0.0559    108.2667     10.7549     11.0437     41.2541    -34.4682      9.5397      8.8090    108.4352    121.6241  
  1145.0000      2.4813      0.0719    109.5055     10.7593     11.2072     40.6390    -34.4464      9.5343      8.8328    108.3957    121.5280  
  1145.5000      2.4549      0.0568    109.9565     10.7533     10.5579     39.9787    -34.4245      9.5502      8.8567    108.3678    121.3639  
  1146.0000      2.4449      0.0493    109.8517     10.7204     11.9403     39.3892    -34.4027      9.5366      8.8805    108.3059    121.6665  
  1146.5000      2.4456      0.0492    109.7167     10.7186     12.6642     39.8069    -34.3809      9.4964      8.9043    108.1703    122.4738  
  1147.0000      2.4514      0.0580    108.8173     10.7042     12.6852     39.9558    -34.3590      9.4870      8.9281    108.3219    123.4509  
  1147.5000      2.4586      0.0522    106.1266     10.7169     12.1525     39.8451    -34.5442      9.5266      8.9520    108.9398    124.9666  
  1148.0000      2.4488      0.0523    101.9573     10.7208     11.4065     38.7572    -34.7456      9.5494      9.0217    109.6722    125.8045  
  1148.5000      2.4418      0.0501     99.0882     10.7091     12.4283     37.6551    -34.7749      9.6546      9.1534    109.6618    126.1719  
  1149.0000      2.4167      0.0431     97.5027     10.7099     12.9371     37.3487    -34.7196      9.8206      9.2852    107.5820    126.3785  
  1149.5000      2.4100      0.0359     95.8638     10.6985     14.2783     37.5389    -34.6643      9.9089      9.4707    104.2203    126.4343  
  1150.0000      2.3922      0.0375     93.1191     10.6966     14.9601     37.0746    -34.6090     10.0268      9.7546     99.3513    125.8217  
  1150.5000      2.3838      0.0351     90.9847     10.6970     15.8033     36.5895    -34.4835     10.1874     10.0455     95.9351    126.7607  
  1151.0000      2.3586      0.0188     90.8009     10.7102     16.2127     36.2294    -34.4195     10.3648     10.3967     92.3922    127.7125  
  1151.5000      2.3491      0.0043     89.7753     10.7443     17.5009     35.9718    -34.6016     10.5443     10.7480     89.3592    128.8032  
  1152.0000      2.3522      0.0245     89.0136     10.8051     18.5014     35.5462    -34.6444     10.7249     10.9638     87.6995    130.1570  
  1152.5000      2.3613      0.0403     87.9027     10.8104     18.1509     35.6464    -34.8865     10.5757     10.9669     86.8980    129.4277  
  1153.0000      2.3528      0.0522     90.4754     10.8949     17.8605     36.1561    -35.1550     10.3673     10.9521     87.2761    127.5684  
  1153.5000      2.3533      0.0527     94.2817     11.0329     17.8201     36.8293    -35.2284     10.1434     10.8974     87.4975    125.3386  
  1154.0000      2.3534      0.0348     96.1730     11.1621     17.9631     37.5231    -35.2288     10.0157     10.8428     87.6541    123.0779  
  1154.5000      2.3695      0.0268     96.8176     10.8899     18.2859     38.9160    -35.2632      9.9408     10.7881     87.6932    123.2109  
  1155.0000      2.3948      0.0399     96.2263     10.7260     17.6091     39.9449    -35.3514      9.9169     10.7755     87.4988    123.6907  
  1155.5000      2.3993      0.0429     95.2154     10.7525     15.9065     40.0806    -35.5369      9.9218     10.8515     87.8200    122.8363  
  1156.0000      2.4238      0.0439     94.2613     10.7351     15.6003     39.5296    -35.7184     10.1082     10.9308     87.7722    117.9086  
  1156.5000      2.4497      0.0430     94.2424     10.7972     14.0929     39.0594    -35.7501     10.2965     11.0424     86.9230    126.7462  
  1157.0000      2.4586      0.0378     94.2064     10.7655     12.5287     38.9403    -35.7974     10.4848     11.1540     85.4236    137.8679  
  1157.5000      2.4616      0.0504     93.9016     10.6559     11.8429     39.3893    -36.0027     10.6732     11.5045     83.5608    141.2195  
  1158.0000      2.4408      0.0467     93.6943     10.6534     11.4009     39.3035    -36.0186     10.7834     11.6729     81.5579    139.2505  
  1158.5000      2.4299      0.0498     93.3939     10.6398     12.8074     39.0552    -35.9292     10.7884     11.8266     79.7431    141.1311  
  1159.0000      2.4342      0.0541     91.2071     10.6335     13.5512     40.0342    -35.9280     10.9360     11.9803     78.5431    143.1200  
  1159.5000      2.4051      0.0452     87.3759     10.6641     13.1630     40.9490    -36.0502     11.2257     12.1339     78.1824    150.0937  
  1160.0000      2.3555      0.0343     82.9177     10.6802     14.9581     41.2133    -36.7100     11.4860     12.1501     77.7878    156.6712  
  1160.5000      2.3102      0.0234     80.2811     10.6908     17.9787     40.3587    -37.6882     11.7161     12.1551     77.6218    153.7737  
  1161.0000      2.2966      0.0248     78.1286     10.7465     20.5090     38.9767    -38.6324     11.9424     12.1530     77.9989    150.2245  
  1161.5000      2.2923      0.0284     77.5771     10.8232     21.3895     37.3623    -39.2694     11.8743     12.1248     78.7859    150.5850  
  1162.0000      2.3057      0.0327     79.1896     10.7729     21.8576     36.3135    -39.5904     11.6808     12.0967     79.4857    141.2326  
  1162.5000      2.3304      0.0370     82.2819     10.6960     20.7845     35.6660    -39.1982     11.4816     11.9176     80.3091    133.2980  
  1163.0000      2.3659      0.0467     85.8891     10.8035     19.3553     35.8405    -38.0432     11.2687     11.7054     81.4976    133.0621  
  1163.5000      2.4154      0.0627     88.9695     10.5031     17.3225     36.7296    -36.9041     10.9292     11.4931     83.1741    136.1606  
  1164.0000      2.4288      0.0656     90.6837     10.4919     14.4528     38.5317    -36.2868     10.5469     11.2809     84.8466    136.0216  
  1164.5000      2.4324      0.0700     92.3797     10.4807     13.5527     40.1919    -35.7722     10.3484     11.0989     86.5276    129.6179  
  1165.0000      2.4410      0.0597     93.4669     10.4931     13.3441     41.0652    -35.5473     10.2566     10.9858     86.8785    116.2902  
  1165.5000      2.4451      0.0467     94.3023     10.5614     12.9063     39.8778    -35.7360     10.2235     11.0311     86.5215    113.2039  
  1166.0000      2.4565      0.0620     94.8711     10.6157     12.5178     38.0481    -36.0901     10.2302     11.0880     85.9245    113.3314  
  1166.5000      2.4650      0.0615     95.5694     10.6461     11.7926     37.3279    -36.1686     10.3131     11.1704     85.0128    113.4039  
  1167.0000      2.4495      0.0463     97.0540     10.6592     11.2800     37.2825    -36.2026     10.3314     11.2570     84.0377    113.1876  
  1167.5000      2.4457      0.0552     99.0573     10.6696     12.2281     37.3311    -36.1173     10.2862     11.4945     83.1745    113.1087  
  1168.0000      2.4591      0.0572     99.6407     10.6748     12.2846     37.7559    -35.7932     10.2155     11.5087     82.4043    113.4145  
  1168.5000      2.4573      0.0528     98.6174     10.6677     12.0210     38.5105    -35.5145     10.1391     11.6065     81.7480    113.9121  
  1169.0000      2.4478      0.0520     97.1709     10.6500     11.9833     40.2435    -35.4223     10.0671     11.5979     81.9152    114.3334  
