~VERSION INFORMATION
 VERS.                           2.00:        CWLS LOG ASCII STANDARD - VERSION 2.00
 WRAP.                             NO:        ONE LINE PER DEPTH STEP
~WELL INFORMATION
#MNEM.UNIT                   DATA             INFORMATION
#----------             --------------        ------------------------------
 STRT.F                       78.0000:        START DEPTH
 STOP.F                     2392.0000:        STOP DEPTH
 STEP.F                        0.5000:        STEP VALUE
 NULL.                      -999.2500:        NULL VALUE
 COMP.              U.S.G.S./NPR -  A:        COMPANY  
 LOC .                    1  22N  18W:        LOCATION   
 DATE.                        2/14/78:        LOG DATE 
 WELL.               SOUTH BARROW #16:        WELL     
 UWI .                   500232001000:        UNIQUE WELL ID 
 API .                   500232001000:        UNIQUE WELL IDENTIFIER 
 FLD .                   SOUTH BARROW:        FIELD    
 CNTY.                    NORTH SLOPE:        COUNTY  
 STAT.                         ALASKA:        STATE   
 CTRY.                            USA:        COUNTRY 
 OPER.              U.S.G.S./NPR -  A:        OPERATOR  
 SRVC.                   SCHLUMBERGER:        SERVICE COMPANY 
 LAT .                         0.0000:        LATITUDE
 LON .                         0.0000:        LONGITUDE
 DIGS.               CENTER LINE DATA:        DIGITIZING COMPANY 
~CURVE INFORMATION      
#MNEM        .UNIT         API CODE           CURVE DESCRIPTION
#-----------------      --------------        ------------------------------
 DEPT        .F                      :        1  DEPTH
 CALI        .IN                     :        2  
 GR          .GAPI                   :        3  
 RHOB        .G/C3                   :        4  
 DRHO        .G/C3                   :        5  
 NPHI        .%                      :        6  
 DT          .US/F                   :        7  
 SP          .MV                     :        8  
 ILD         .OHMM                   :        9  
 ILM         .OHMM                   :        10 
 LL8         .OHMM                   :        11 
 LLD         .OHMM                   :        12 
 LLS         .OHMM                   :        13 
~PARAMETER INFORMATION       
#MNEM.UNIT                  VALUE             DESCRIPTION OF MNEMONIC
#---------             ---------------        ------------------------------
 EKB .F                       30.0000:        KELLY BUSHING
 TD  .F                     2399.0000:        TOTAL DEPTH
 BHT .F                       73.0000:        BOTTOM HOLE TEMPERATURE
 BS  .                         8.5000:        BIT SIZE
 FD  .                        11.0000:        FLUID DENSITY
 CSIZ.                         8.5000:        CASING SIZE
 CBD .F                     1489.0000:        CASING DRILLER 1
 CBL .F                     1487.0000:        CASING LOGGER 1
 DFT .                  Miscellaneous:        TYPE FLUID IN HOLE
 DFV .                        52.0000:        VISCOSITY
 DFPH.                         8.5000:        PH
 DFL .                         8.0000:        FLUID LOSS
 RMS .                         0.0210:        RM
 MST .F                       58.0000:        RM MEAS. TEMP.
 RMF .                         0.0130:        RMF
 MFST.F                       52.0000:        RMF MEAS. TEMP.
 RMC .                         0.0170:        RMC
 MCST.F                       56.0000:        RMC MEAS. TEMP.
~OTHER INFORMATION
~A    DEPTH        CALI          GR        RHOB        DRHO        NPHI          DT          SP         ILD         ILM         LL8         LLD         LLS  
# ...
  1021.5000     12.9133     96.9041   -999.2500   -999.2500   -999.2500    114.9021      0.4297      9.8396      9.1770     10.1991   -999.2500   -999.2500  
  1022.0000     12.9493     96.3896   -999.2500   -999.2500   -999.2500    114.3127     -0.1565      9.9506      9.2690     10.3010   -999.2500   -999.2500  
  1022.5000     12.9748     94.2726   -999.2500   -999.2500   -999.2500    113.7040     -1.1251     10.0629      9.3619     10.4040   -999.2500   -999.2500  
  1023.0000     12.9880     92.6077   -999.2500   -999.2500   -999.2500    113.2918     -1.5260     10.1764      9.4557     10.5079   -999.2500   -999.2500  
  1023.5000     13.0012     90.8651   -999.2500   -999.2500   -999.2500    112.9359     -1.4143     10.2911      9.5504     10.6129   -999.2500   -999.2500  
  1024.0000     13.0143     90.4373   -999.2500   -999.2500   -999.2500    112.8577     -1.5943     10.3406      9.6353     10.7190   -999.2500   -999.2500  
  1024.5000     13.0092     90.8490   -999.2500   -999.2500   -999.2500    113.5049     -2.4264     10.2244      9.6646     10.5523   -999.2500   -999.2500  
  1025.0000     12.9837     90.8501   -999.2500   -999.2500   -999.2500    114.7145     -2.9407     10.1096      9.6940     10.2768   -999.2500   -999.2500  
  1025.5000     12.9505     90.0867   -999.2500   -999.2500   -999.2500    115.8436     -2.8679      9.9960      9.7234     10.1005   -999.2500   -999.2500  
  1026.0000     12.9111     88.9984   -999.2500   -999.2500   -999.2500    117.3138     -3.9670      9.8837      9.6543     10.0317   -999.2500   -999.2500  
  1026.5000     12.8732     89.1142   -999.2500   -999.2500   -999.2500    118.2663     -6.0062      9.7727      9.5457      9.9634   -999.2500   -999.2500  
  1027.0000     12.8569     90.3112   -999.2500   -999.2500   -999.2500    118.2893     -4.3444      9.6629      9.4383      9.8956   -999.2500   -999.2500  
  1027.5000     12.8655     92.3626   -999.2500   -999.2500   -999.2500    118.0865     -2.3773      9.5544      9.3322      9.8282   -999.2500   -999.2500  
  1028.0000     12.9168     93.7801   -999.2500   -999.2500   -999.2500    118.0191     -1.7293      9.4471      9.2455      9.7613   -999.2500   -999.2500  
  1028.5000     12.9445     92.8700   -999.2500   -999.2500   -999.2500    117.9966     -1.3277      9.3410      9.1619      9.6949   -999.2500   -999.2500  
  1029.0000     12.9613     89.7949   -999.2500   -999.2500   -999.2500    118.1529     -2.0598      9.2360      9.0790      9.6288   -999.2500   -999.2500  
  1029.5000     12.9535     87.2645   -999.2500   -999.2500   -999.2500    118.3339     -2.0643      9.1323      8.9969      9.5633   -999.2500   -999.2500  
  1030.0000     12.9375     87.5606   -999.2500   -999.2500   -999.2500    118.3406     -0.4113      9.0297      8.9156      9.4982   -999.2500   -999.2500  
  1030.5000     12.9215     89.7256   -999.2500   -999.2500   -999.2500    118.0514      1.4550      8.9283      8.8349      9.4335   -999.2500   -999.2500  
  1031.0000     12.8933     91.6601   -999.2500   -999.2500   -999.2500    117.4268      2.7389      8.8280      8.7550      9.3693   -999.2500   -999.2500  
  1031.5000     12.8903     92.3497   -999.2500   -999.2500   -999.2500    116.8988      2.2026      8.7288      8.6758      9.3055   -999.2500   -999.2500  
  1032.0000     12.8723     91.4540   -999.2500   -999.2500   -999.2500    116.7995      3.1507      8.6823      8.5974      9.2421   -999.2500   -999.2500  
  1032.5000     12.8559     90.1322   -999.2500   -999.2500   -999.2500    117.4515     -0.0529      8.6987      8.5930      9.1792   -999.2500   -999.2500  
  1033.0000     12.8551     90.4970   -999.2500   -999.2500   -999.2500    118.9474     -3.2565      8.7151      8.6117      9.1250   -999.2500   -999.2500  
  1033.5000     12.8549     90.0094   -999.2500   -999.2500   -999.2500    119.9728     -4.8250      8.7315      8.6304      9.1331   -999.2500   -999.2500  
  1034.0000     12.8718     88.3323   -999.2500   -999.2500   -999.2500    120.5879     -8.7015      8.7479      8.6492      9.1412   -999.2500   -999.2500  
  1034.5000     12.9212     86.7851   -999.2500   -999.2500   -999.2500    119.6741     -5.1215      8.7644      8.6680      9.1494   -999.2500   -999.2500  
  1035.0000     12.9715     86.3763   -999.2500   -999.2500   -999.2500    118.2092     -2.0936      8.7809      8.6868      9.1576   -999.2500   -999.2500  
  1035.5000     13.0249     87.1946   -999.2500   -999.2500   -999.2500    117.2709     -5.0336      8.7974      8.7057      9.1657   -999.2500   -999.2500  
  1036.0000     13.0848     88.7715   -999.2500   -999.2500   -999.2500    117.2532    -11.3648      8.8140      8.7246      9.1739   -999.2500   -999.2500  
  1036.5000     13.1427     90.6873   -999.2500   -999.2500   -999.2500    117.6798    -17.5904      8.8306      8.7436      9.1821   -999.2500   -999.2500  
  1037.0000     13.1324     92.3547   -999.2500   -999.2500   -999.2500    118.2707    -17.6323      8.8472      8.7626      9.1903   -999.2500   -999.2500  
  1037.5000     13.1402     91.8906   -999.2500   -999.2500   -999.2500    119.0852    -18.6513      8.8639      8.7816      9.1985   -999.2500   -999.2500  
  1038.0000     13.1638     89.6177   -999.2500   -999.2500   -999.2500    119.7769    -19.6704      8.8806      8.7762      9.2067   -999.2500   -999.2500  
  1038.5000     13.1775     86.6712   -999.2500   -999.2500   -999.2500    120.2885    -19.9408      8.8973      8.7648      9.2149   -999.2500   -999.2500  
  1039.0000     13.1816     84.9717   -999.2500   -999.2500   -999.2500    119.5350    -19.1483      8.9131      8.7534      9.2231   -999.2500   -999.2500  
  1039.5000     13.1681     85.1047   -999.2500   -999.2500   -999.2500    118.2461    -19.3321      8.9075      8.7421      9.2313   -999.2500   -999.2500  
  1040.0000     13.1608     85.9458   -999.2500   -999.2500   -999.2500    117.0389    -19.5396      8.9020      8.7308      9.2395   -999.2500   -999.2500  
  1040.5000     13.1575     86.8457   -999.2500   -999.2500   -999.2500    117.3309    -19.0274      8.8964      8.7144      9.2478   -999.2500   -999.2500  
  1041.0000     13.1418     87.8537   -999.2500   -999.2500   -999.2500    118.3197    -18.0374      8.8909      8.6932      9.2560   -999.2500   -999.2500  
  1041.5000     13.1765     88.6287   -999.2500   -999.2500   -999.2500    120.3964    -15.8784      8.8854      8.6721      9.2643   -999.2500   -999.2500  
  1042.0000     13.2104     88.5683   -999.2500   -999.2500   -999.2500    122.0964    -13.4737      8.8798      8.6510      9.2725   -999.2500   -999.2500  
  1042.5000     13.2749     89.5658   -999.2500   -999.2500   -999.2500    121.4356    -15.2987      8.8743      8.6299      9.2808   -999.2500   -999.2500  
  1043.0000     13.3550     90.7919   -999.2500   -999.2500   -999.2500    120.0226    -15.5451      8.8688      8.6089      9.2891   -999.2500   -999.2500  
  1043.5000     13.4118     91.8792   -999.2500   -999.2500   -999.2500    117.5822    -14.6426      8.8632      8.5880      9.2682   -999.2500   -999.2500  
  1044.0000     13.4077     92.7629   -999.2500   -999.2500   -999.2500    115.4356    -11.9636      8.8577      8.5671      9.2471   -999.2500   -999.2500  
  1044.5000     13.3108     93.2985   -999.2500   -999.2500   -999.2500    115.1276     -7.8815      8.8522      8.5463      9.2260   -999.2500   -999.2500  
  1045.0000     13.2667     92.8154   -999.2500   -999.2500   -999.2500    116.0757     -8.1962      8.8467      8.5255      9.2050   -999.2500   -999.2500  
  1045.5000     13.2728     91.6253   -999.2500   -999.2500   -999.2500    118.9281    -11.1292      8.8412      8.5047      9.1840   -999.2500   -999.2500  
  1046.0000     13.2541     90.7886   -999.2500   -999.2500   -999.2500    122.4032    -12.9290      8.8357      8.4840      9.1631   -999.2500   -999.2500  
  1046.5000     13.2178     91.7862   -999.2500   -999.2500   -999.2500    125.4429     -9.4896      8.8302      8.3903      9.1041   -999.2500   -999.2500  
