~VERSION INFORMATION
 VERS.                           2.00:        CWLS LOG ASCII STANDARD - VERSION 2.00
 WRAP.                             NO:        ONE LINE PER DEPTH STEP
~WELL INFORMATION
#MNEM.UNIT                   DATA             INFORMATION
#----------             --------------        ------------------------------
 STRT.F                     1260.0000:        START DEPTH
 STOP.F                     2340.0000:        STOP DEPTH
 STEP.F                        0.5000:        STEP VALUE
 NULL.                      -999.2500:        NULL VALUE
 COMP.        U.S.NAVY DEEPT NP & OSR:        COMPANY  
 LOC .                  144  22N 18W UPM:        LOCATION   
 DATE.                        2/24/74:        LOG DATE 
 WELL.               SOUTH BARROW #11:        WELL     
 UWI .                    50023200500:        UNIQUE WELL ID 
 API .                    50023200500:        UNIQUE WELL IDENTIFIER 
 FLD .                   SOUTH BARROW:        FIELD    
 CNTY.                          NPR-4:        COUNTY  
 STAT.                         ALASKA:        STATE   
 CTRY.                            USA:        COUNTRY 
 OPER.        U.S.NAVY DEEPT NP & OSR:        OPERATOR  
 SRVC.                   SCHLUMBERGER:        SERVICE COMPANY 
 LAT .                         0.0000:        LATITUDE
 LON .                         0.0000:        LONGITUDE
 DIGS.               CENTER LINE DATA:        DIGITIZING COMPANY 
~CURVE INFORMATION      
#MNEM        .UNIT         API CODE           CURVE DESCRIPTION
#-----------------      --------------        ------------------------------
 DEPT        .F                      :        1  DEPTH
 CALI        .IN                     :        2  
 GR          .GAPI                   :        3  
 RHOB        .G/C3                   :        4  
 NPHI        .%                      :        5  
 DPHI        .%                      :        6  
 SP          .MV                     :        7  
 LL8         .OHMM                   :        8  
 ILD         .OHMM                   :        9  
 CILD        .MMHO                   :        10 
 DT          .US/F                   :        11 
~PARAMETER INFORMATION       
#MNEM.UNIT                  VALUE             DESCRIPTION OF MNEMONIC
#---------             ---------------        ------------------------------
 EKB .F                       36.0000:        KELLY BUSHING
 TD  .F                     2350.0000:        TOTAL DEPTH
 BHT .F                       60.0000:        BOTTOM HOLE TEMPERATURE
 BS  .                         9.6250:        BIT SIZE
 FD  .                        10.8000:        FLUID DENSITY
 CSIZ.                        10.7500:        CASING SIZE
 CBD .F                     1267.0000:        CASING DRILLER 1
 CBL .F                     1267.0000:        CASING LOGGER 1
 DFT .      Salt Water-Lignosulfonate:        TYPE FLUID IN HOLE
 DFV .                        52.0000:        VISCOSITY
 DFPH.                         9.0000:        PH
 DFL .                         4.2000:        FLUID LOSS
 RMS .                         1.8800:        RM
 MST .F                       50.0000:        RM MEAS. TEMP.
 RMF .                         1.1500:        RMF
 MFST.F                       63.0000:        RMF MEAS. TEMP.
 RMC .                         1.5000:        RMC
 MCST.F                       50.0000:        RMC MEAS. TEMP.
~OTHER INFORMATION
~A    DEPTH        CALI          GR        RHOB        NPHI        DPHI          SP         LL8         ILD        CILD          DT  
# ...
  2010.0000     10.1150    103.5290      2.3864     44.0438     16.0596    -19.4300      9.7383      8.1591    119.7096    109.3453  
  2010.5000     10.1536    102.7310      2.3920     42.6225     15.9629    -19.5789      9.8267      8.2235    118.6650    109.2597  
  2011.0000     10.1700    103.1280      2.3921     40.2422     15.8736    -19.7919      9.9047      8.3277    118.0541    108.9128  
  2011.5000     10.1274    104.9081      2.3938     39.8642     15.8347    -19.6755      9.9827      8.4040    117.2137    108.4834  
  2012.0000     10.0929    107.0720      2.3955     39.7524     15.5096    -19.5773     10.0198      8.4307    116.4331    108.2199  
  2012.5000     10.0317    107.4660      2.3973     39.0437     15.2788    -19.5036     10.0047      8.3774    116.8676    108.1411  
  2013.0000      9.9430    106.5176      2.3990     38.8989     15.1962    -19.4488      9.9284      8.3340    117.9040    108.0745  
  2013.5000     10.0861    105.6925      2.4020     38.9111     15.1497    -19.5088      9.8041      8.2135    119.1198    107.8880  
  2014.0000     10.2113    104.8240      2.4064     39.7647     15.1542    -19.4506      9.6403      8.1631    120.2785    107.3178  
  2014.5000     10.2121    104.0691      2.4038     40.1722     14.8833    -19.1820      9.5532      8.0761    121.3508    106.5351  
  2015.0000     10.1034    103.6369      2.3991     39.6357     15.0246    -18.9092      9.4957      7.9759    122.3755    105.9128  
  2015.5000     10.1207    103.3230      2.3960     38.3147     15.1316    -18.5107      9.4851      8.0101    122.7505    105.6679  
  2016.0000     10.2186    102.7385      2.3951     39.2251     15.2467    -18.4485      9.5497      8.0644    121.7988    106.7364  
  2016.5000     10.3165    101.6485      2.3914     40.3524     15.5035    -18.3815      9.6359      8.1424    120.4427    106.7449  
  2017.0000     10.5625    100.6709      2.3947     40.5261     15.6886    -18.3146      9.7805      8.2334    119.2559    106.5236  
  2017.5000     10.5201     98.8002      2.4028     40.5363     15.5481    -18.2820      9.8704      8.2581    118.8957    105.7558  
  2018.0000     10.4079     95.5447      2.4193     40.7871     14.6482    -18.3407      9.8726      8.2830    118.4545    104.3559  
  2018.5000     10.3048     93.4034      2.4525     40.8028     13.3221    -18.4181      9.8845      8.3223    117.6151    102.7530  
  2019.0000     10.2575     93.5307      2.4766     40.2374     11.8417    -18.5527      9.7491      8.3977    117.0666    101.9492  
  2019.5000     10.2053     94.8767      2.4765     39.9854     10.5669    -18.6806      9.6410      8.4080    116.7228    102.1347  
  2020.0000     10.2379     95.9655      2.4543     40.9847     11.9803    -18.6422      9.5932      8.4125    116.9709    103.3198  
  2020.5000     10.3717     96.8239      2.4279     41.9197     13.3928    -18.4919      9.5594      8.3541    117.6212    104.9559  
  2021.0000     10.3441     97.8193      2.4186     42.3878     13.9397    -18.4041      9.5233      8.2131    119.2117    105.8587  
  2021.5000     10.2678     98.9231      2.4325     42.1038     13.8906    -18.3318      9.5253      8.1167    120.6606    106.4752  
  2022.0000     10.2320    100.0784      2.4337     41.1615     13.3988    -18.2238      9.5320      8.0535    121.6266    107.0856  
  2022.5000     10.2074    101.8582      2.4334     40.8995     13.2337    -18.1534      9.5318      8.0245    121.7358    107.4563  
  2023.0000     10.2088    103.0560      2.4318     41.2136     13.3337    -18.1595      9.5398      8.0554    121.3837    107.6935  
  2023.5000     10.2325    103.6042      2.4266     41.5174     13.5405    -18.2178      9.4816      8.1175    120.7896    107.7333  
  2024.0000     10.2123    103.9752      2.4347     41.6114     13.3993    -18.3589      9.5144      8.1340    120.4857    107.5039  
  2024.5000     10.2412    103.0558      2.4407     41.7053     12.5836    -18.5130      9.6252      8.1238    120.2351    107.0658  
  2025.0000     10.2279    100.6214      2.4406     41.8303     12.4187    -18.6692      9.6665      8.0925    120.2284    106.4296  
  2025.5000     10.2235     98.8450      2.4464     42.3929     12.1641    -18.6834      9.7589      8.1286    120.1624    105.6618  
  2026.0000     10.2211     97.4477      2.4602     43.0425     11.4968    -18.5623      9.9198      8.3438    118.0920    104.8733  
  2026.5000     10.2347     97.2780      2.4609     43.3945     11.1657    -18.5121     10.1210      8.6212    114.6538    104.0574  
  2027.0000     10.2518     96.7544      2.4565     42.4483     11.4729    -18.6200     10.4394      9.1544    108.9943    103.7560  
  2027.5000     10.2260     95.1365      2.4522     41.9596     11.6987    -18.8939     11.2719      9.7788    102.6721    103.8194  
  2028.0000     10.2237     93.0831      2.4556     41.9243     11.7677    -19.2432     12.2638     10.4031     96.7249    104.4199  
  2028.5000     10.2288     90.1531      2.4533     41.6122     12.0086    -19.7434     13.1998     10.8820     91.5393    103.9796  
  2029.0000     10.2266     86.7730      2.4409     40.4765     12.8896    -20.3956     14.2055     11.0392     90.1990    102.0628  
  2029.5000     10.2158     83.2001      2.4231     37.7685     13.4400    -20.8808     14.6190     11.0813     89.7344     98.7464  
  2030.0000     10.1835     80.0142      2.4171     33.4086     14.0387    -20.5544     13.8499     11.1974     89.4456     93.7456  
  2030.5000     10.1610     83.8600      2.4207     28.7244     13.8151    -19.7494     12.7874     11.2681     90.0374     91.9334  
  2031.0000     10.1901     90.5513      2.4219     29.5808     13.6621    -19.2591     12.0087     11.1142     92.2771     93.2647  
  2031.5000     10.2570     96.2651      2.4178     33.3434     13.8131    -18.7745     11.1089     10.6645     95.0885     96.6047  
  2032.0000     10.2889     99.7830      2.4182     36.2282     14.2521    -18.3790     10.5644      9.8245    100.9396     99.9320  
  2032.5000     10.2983    100.5874      2.4318     37.8753     13.4149    -18.1065     10.4770      9.2455    105.7947    101.1650  
  2033.0000     10.2886    100.2653      2.4346     37.8152     13.0711    -17.9823     10.4419      8.9955    107.0827    101.0654  
  2033.5000     10.2626    100.5427      2.4355     37.6457     12.8992    -17.9006     10.4190      8.8686    108.3707    101.1435  
  2034.0000     10.2619    101.0522      2.4372     37.9074     12.7531    -17.9670     10.3955      8.8402    109.6587    101.5359  
  2034.5000     10.2613    100.2347      2.4408     38.4921     12.4954    -18.1473     10.3728      8.8229    110.9466    101.7416  
  2035.0000     10.2431     98.7984      2.4481     39.2867     11.9950    -18.3805     10.3221      8.7644    112.2346    101.7285  
  2035.5000     10.2425     96.8251      2.4624     39.6926     11.0991    -18.4129     10.2638      8.6743    113.2160    101.5361  
  2036.0000     10.2144     95.3204      2.4952     39.5503      9.1519    -18.2896     10.2014      8.6585    114.0969    100.7839  
  2036.5000     10.2016     94.7796      2.5104     38.9333      8.6921    -18.1061     10.1115      8.6816    113.7280     99.8532  
  2037.0000     10.2180     94.4821      2.5055     38.5164      8.7699    -17.8844      9.9936      8.8581    112.1163     99.5931  
  2037.5000     10.2070     95.2628      2.4903     38.5399      9.1900    -17.8011     10.1895      9.1146    109.4897    100.2552  
  2038.0000     10.2405     97.4826      2.4767     39.2992     10.5719    -17.8586     10.5796      9.3336    105.8373    101.4031  
  2038.5000     10.2599     99.5679      2.4639     40.7637     11.2325    -18.0453     10.9698      9.5526    102.4616    102.2856  
  2039.0000     10.2759     98.8110      2.4654     41.0418     11.2176    -18.2943     11.3816      9.8064    100.9102    102.3818  
  2039.5000     10.2186     96.1245      2.4669     40.9494     11.1169    -18.5975     11.9398     10.0397    100.0211    101.7601  
