~VERSION INFORMATION
 VERS.                           2.00:        CWLS LOG ASCII STANDARD - VERSION 2.00
 WRAP.                             NO:        ONE LINE PER DEPTH STEP
~WELL INFORMATION
#MNEM.UNIT                   DATA             INFORMATION
#----------             --------------        ------------------------------
 STRT.F                      151.0000:        START DEPTH
 STOP.F                     2726.0000:        STOP DEPTH
 STEP.F                        0.5000:        STEP VALUE
 NULL.                      -999.2500:        NULL VALUE
 COMP.                      U.S. NAVY:        COMPANY  
 WELL.                     IKO BAY #1:        WELL     
 FLD .                        WILDCAT:        FIELD    
 LOC .                   16  21N  16W:        LOCATION   
 CNTY.                    NORTH SLOPE:        COUNTY  
 STAT.                         ALASKA:        STATE   
 CTRY.                            USA:        COUNTRY 
 DATE.                         2/8/75:        LOG DATE 
 API .                   502790000000:        UNIQUE WELL IDENTIFIER 
 OPER.                      U.S. NAVY:        OPERATOR  
 SRVC.                            440:        SERVICE COMPANY 
 UWI .                   502790000000:        UNIQUE WELL ID 
 LAT .                         0.0000:        LATITUDE
 LON .                         0.0000:        LONGITUDE
 DIGS.                             65:        DIGITIZING COMPANY 
~CURVE INFORMATION      
#MNEM.UNIT                 API CODE           CURVE DESCRIPTION
#---------              --------------        ------------------------------
 DEPT.F                              :        1  DEPTH
 SP  .MV                             :        2
 ILD .OHMM                           :        3
 LL8 .OHMM                           :        4
 ILM .OHMM                           :        5
 RHOB.G/C3                           :        6
 DRHO.G/C3                           :        7
 CALI.IN                             :        8
 GR  .GAPI                           :        9
 NPHI.%                              :       10
 DT  .US/F                           :       11
~PARAMETER INFORMATION       
#MNEM.UNIT                  VALUE             DESCRIPTION OF MNEMONIC
#---------             ---------------        ------------------------------
 EKB .F                        0.0000:        KELLY BUSHING
 TD  .F                     2731.0000:        TOTAL DEPTH
 BHT .F                             0.0000:        BOTTOM HOLE TEMPERATURE
 BS  .                             14.7500:        BIT SIZE
 FD  .                              0.0000:        FLUID DENSITY
 CSIZ.                             16.0000:        CASING SIZE
 CBD .F                           149.0000:        CASING DRILLER 1
 CBL .F                           152.0000:        CASING LOGGER 1
 DFT .                            Gel:        TYPE FLUID IN HOLE
 DFV .                              0.0000:        VISCOSITY
 DFPH.                              0.0000:        PH
 DFL .                              0.0000:        FLUID LOSS
 RMS .                              0.3000:        RM
 MST .F                       49.0000:        RM MEAS. TEMP.
 RMF .                              0.2300:        RMF
 MFST.F                       49.0000:        RMF MEAS. TEMP.
 RMC .                              0.4600:        RMC
 MCST.F                       49.0000:        RMC MEAS. TEMP.
 UWI .                   502790000000:        UNIQUE WELL ID
~OTHER INFORMATION
~A    DEPTH          SP         ILD         LL8         ILM        RHOB        DRHO        CALI          GR        NPHI          DT  
# ...
  2041.0000    -56.1637      4.0854      5.9195      4.2408      2.4368      0.0190     10.6301    109.9833     40.3478    117.2342  
  2041.5000    -56.5692      4.0598      5.9376      4.2158      2.4338      0.0112     10.5822    108.4947     40.2657    118.3396  
  2042.0000    -54.1429      4.0521      5.9437      4.2061      2.4391      0.0185     10.6015    108.7593     40.2797    119.3835  
  2042.5000    -51.9731      4.0468      5.8993      4.2029      2.4533      0.0186     10.6509    109.4162     40.0306    119.7265  
  2043.0000    -49.7117      4.0182      5.8575      4.1718      2.4629      0.0264     10.6647    109.7623     39.7588    119.2654  
  2043.5000    -38.3007      4.0223      5.8637      4.1762      2.4670      0.0312     10.6531    110.5191     40.4343    118.1052  
  2044.0000    -35.2426      4.0380      5.8622      4.1919      2.4741      0.0403     10.5967    111.9574     40.7744    117.0663  
  2044.5000    -42.5422      4.0516      5.8417      4.2055      2.4789      0.0455     10.5338    113.9265     39.8607    116.6259  
  2045.0000    -39.9175      4.0579      5.8161      4.2138      2.4737      0.0283     10.6528    113.3368     38.9811    115.7797  
  2045.5000    -38.8159      4.0803      5.7855      4.2362      2.4702      0.0205     10.7393    110.8703     38.4226    114.6524  
  2046.0000    -52.4546      4.1017      5.8201      4.2584      2.4573      0.0173     10.7077    109.8387     38.4091    114.2276  
  2046.5000    -58.1082      4.1232      6.0074      4.2808      2.4511      0.0196     10.6876    110.7897     38.5207    114.3616  
  2047.0000    -57.3618      4.1448      6.0150      4.3032      2.4563      0.0256     10.7131    112.4614     38.2107    114.8136  
  2047.5000    -48.8657      4.1665      6.0332      4.3258      2.4663      0.0352     10.6838    113.2319     38.3109    115.3392  
  2048.0000    -36.0628      4.1884      6.1154      4.3484      2.4710      0.0296     10.6773    114.3411     40.0545    115.8387  
  2048.5000    -32.6409      4.2103      6.2121      4.3712      2.4579      0.0196     10.6849    115.1856     41.5705    116.2990  
  2049.0000    -45.0798      4.2324      6.1750      4.3942      2.4441      0.0135     10.7046    113.7197     40.7444    116.1873  
  2049.5000    -55.0514      4.2427      6.1080      4.4042      2.4358      0.0103     10.7560    111.9087     39.3514    115.1247  
  2050.0000    -54.5676      4.2174      6.0737      4.3798      2.4326      0.0090     10.7589    111.4324     38.3972    113.8398  
  2050.5000    -49.6664      4.1848      6.0206      4.3460      2.4470      0.0175     10.7513    111.2604     38.0186    112.9170  
  2051.0000    -45.4451      4.1525      5.9420      4.3124      2.4578      0.0233     10.7945    112.1577     38.0999    112.6628  
  2051.5000    -44.8320      4.1204      5.9023      4.2790      2.4576      0.0167     10.8565    111.3248     38.3934    113.1630  
  2052.0000    -50.3525      4.1247      5.9092      4.2838      2.4512      0.0117     10.9270    110.7855     39.4169    114.0996  
  2052.5000    -45.1521      4.1576      5.8945      4.3180      2.4551      0.0115     10.8210    110.7802     40.4979    114.9021  
  2053.0000    -39.1975      4.1908      5.9027      4.3524      2.4805      0.0231     10.6590    109.8141     40.4526    115.2064  
  2053.5000    -49.9843      4.2242      6.0268      4.3871      2.4850      0.0178     10.6388    109.0710     40.1159    115.7579  
  2054.0000    -49.3068      4.2579      6.3302      4.4221      2.4734      0.0120     10.6705    110.3825     40.2993    116.3063  
  2054.5000    -44.7333      4.2806      6.4932      4.4439      2.4668     -0.0002     10.6939    111.7670     40.8541    116.5697  
  2055.0000    -44.2042      4.2991      6.3552      4.4631      2.4548     -0.0003     10.6328    112.2901     40.1541    116.4773  
  2055.5000    -43.9058      4.3176      6.3844      4.4823      2.4387     -0.0003     10.5671    112.1900     38.8877    116.2397  
  2056.0000    -40.6933      4.3374      6.4893      4.5036      2.4244      0.0098     10.6547    112.0009     38.7490    116.1558  
  2056.5000    -36.6974      4.3639      6.5405      4.5311      2.4404      0.0368     10.7421    111.4663     38.9492    116.0835  
  2057.0000    -46.0799      4.3906      6.5656      4.5588      2.4559      0.0627     10.9371    109.7280     38.9623    115.9240  
  2057.5000    -55.2120      4.4174      6.4633      4.5867      2.4621      0.0783     11.0175    108.5928     37.9156    115.3732  
  2058.0000    -55.9719      4.4445      6.3211      4.6118      2.4866      0.0869     11.1216    109.6408     37.4715    114.5829  
  2058.5000    -53.3711      4.4717      6.3115      4.6238      2.4721      0.0648     11.0986    111.4572     35.9774    114.1199  
  2059.0000    -51.3213      4.4990      6.3159      4.6358      2.4405      0.0484     10.8338    113.0677     35.8141    114.0485  
  2059.5000    -54.2829      4.5197      6.4213      4.6479      2.4464      0.0508     10.6411    114.8325     36.9959    113.7093  
  2060.0000    -55.7241      4.4412      6.5513      4.6473      2.4523      0.0463     10.6018    113.7607     38.5996    113.0931  
  2060.5000    -55.1949      4.4545      6.5987      4.6333      2.4672      0.0392     10.5941    109.0358     39.6609    112.7823  
  2061.0000    -54.2417      4.4574      6.5051      4.6209      2.4858      0.0440     10.6535    108.1780     39.6647    112.9162  
  2061.5000    -54.2448      4.4602      6.4512      4.6248      2.4972      0.0491     10.8479    109.1184     39.4531    112.7987  
  2062.0000    -56.2405      4.4631      6.3721      4.6286      2.4930      0.0513     10.8849    109.4757     39.1654    112.3060  
  2062.5000    -57.4617      4.4660      6.3088      4.6325      2.4980      0.0431     10.8538    108.9189     38.8767    111.5916  
  2063.0000    -56.9330      4.4689      6.3845      4.6363      2.5248      0.0683     10.8260    107.9114     38.7088    110.6727  
  2063.5000    -55.0564      4.4718      6.5663      4.6402      2.5388      0.0975     10.6871    109.8598     38.3004    110.5321  
  2064.0000    -54.2118      4.4747      6.8601      4.6440      2.4938      0.0759     10.6427    112.4961     38.3950    110.8358  
  2064.5000    -56.4597      4.4450      6.7293      4.6219      2.4727      0.0786     10.7219    114.0926     38.8210    111.0106  
  2065.0000    -57.9270      4.3965      6.2086      4.5675      2.4752      0.0713     10.8866    113.9567     39.7907    110.9216  
  2065.5000    -58.0952      4.4002      6.0272      4.5719      2.4646      0.0501     10.9026    112.7842     40.8345    110.4314  
  2066.0000    -57.7747      4.4040      6.1172      4.5831      2.4497      0.0261     10.9022    112.6207     40.5598    109.3788  
  2066.5000    -57.1617      4.3609      6.2833      4.5274      2.4467      0.0154     10.9767    114.7938     39.4322    108.5278  
  2067.0000    -56.7190      4.4010      6.3215      4.5794      2.4490      0.0124     11.2065    115.1692     38.9536    108.1606  
  2067.5000    -56.4687      4.4602      6.3517      4.6317      2.4545      0.0154     10.9829    112.9811     39.6097    108.2109  
  2068.0000    -56.3540      4.4914      6.4511      4.6641      2.4724      0.0254     10.7530    111.4950     40.4375    109.7097  
  2068.5000    -56.0692      4.5229      6.5607      4.6968      2.4653      0.0271     10.8362    111.4356     39.3239    111.8188  
  2069.0000    -55.9245      4.5546      6.6700      4.7297      2.4647      0.0296     11.0219    110.8740     37.6409    113.3972  
  2069.5000    -56.7265      4.5865      6.6975      4.7746      2.4971      0.0586     10.9139    109.8204     36.8849    113.8996  
  2070.0000    -57.3446      4.6984      6.7675      4.9067      2.4858      0.0401     10.8269    108.9235     37.8187    113.5412  
  2070.5000    -57.6706      4.8283      6.9468      5.0424      2.4752      0.0293     10.6915    108.0039     37.3063    113.2561  
