~VERSION INFORMATION
 VERS.                           2.00:        CWLS LOG ASCII STANDARD - VERSION 2.00
 WRAP.                             NO:        ONE LINE PER DEPTH STEP
~WELL INFORMATION
#MNEM.UNIT                   DATA             INFORMATION
#----------             --------------        ------------------------------
 STRT.F                       75.0000:        START DEPTH
 STOP.F                     2534.0000:        STOP DEPTH
 STEP.F                        0.5000:        STEP VALUE
 NULL.                      -999.2500:        NULL VALUE
 COMP.                      HUSKY OIL:        COMPANY  
 LOC .                   14  22N  18W:        LOCATION   
 DATE.                       12/20/76:        LOG DATE 
 WELL.               SOUTH BARROW #13:        WELL     
 UWI .                   500232000800:        UNIQUE WELL ID 
 API .                   500232000800:        UNIQUE WELL IDENTIFIER 
 FLD .                   SOUTH BARROW:        FIELD    
 CNTY.                    NORTH SLOPE:        COUNTY  
 STAT.                         ALASKA:        STATE   
 CTRY.                            USA:        COUNTRY 
 OPER.                      HUSKY OIL:        OPERATOR  
 SRVC.                   SCHLUMBERGER:        SERVICE COMPANY 
 LAT .                         0.0000:        LATITUDE
 LON .                         0.0000:        LONGITUDE
 DIGS.               CENTER LINE DATA:        DIGITIZING COMPANY 
~CURVE INFORMATION      
#MNEM        .UNIT         API CODE           CURVE DESCRIPTION
#-----------------      --------------        ------------------------------
 DEPT        .F                      :        1  DEPTH
 SP          .MV                     :        2  
 ILD         .OHMM                   :        3  
 LL8         .OHMM                   :        4  
 CILD        .MMHO                   :        5  
 ILM         .OHMM                   :        6  
 GR          .GAPI                   :        7  
 CALI        .IN                     :        8  
 DRHO        .G/C3                   :        9  
 RHOB        .G/C3                   :        10 
 NPHI        .%                      :        11 
 DPHI        .%                      :        12 
 DT          .US/F                   :        13 
~PARAMETER INFORMATION       
#MNEM.UNIT                  VALUE             DESCRIPTION OF MNEMONIC
#---------             ---------------        ------------------------------
 EKB .F                       40.0000:        KELLY BUSHING
 TD  .F                     1139.0000:        TOTAL DEPTH
 BHT .F                        0.0000:        BOTTOM HOLE TEMPERATURE
 BS  .                        14.7500:        BIT SIZE
 FD  .                        10.3000:        FLUID DENSITY
 CSIZ.                        20.0000:        CASING SIZE
 CBD .F                       65.0000:        CASING DRILLER 1
 CBL .F                       75.0000:        CASING LOGGER 1
 DFT .                  Miscellaneous:        TYPE FLUID IN HOLE
 DFV .                        34.0000:        VISCOSITY
 DFPH.                         8.5000:        PH
 DFL .                        10.2000:        FLUID LOSS
 RMS .                         5.3200:        RM
 MST .F                       55.0000:        RM MEAS. TEMP.
 RMF .                         3.8000:        RMF
 MFST.F                       55.0000:        RMF MEAS. TEMP.
 RMC .                         6.0000:        RMC
 MCST.F                       55.0000:        RMC MEAS. TEMP.
~OTHER INFORMATION
~A    DEPTH          SP         ILD         LL8        CILD         ILM          GR        CALI        DRHO        RHOB        NPHI        DPHI          DT  
# ...
  1324.5000    -28.5943      8.8438     11.0450   -999.2500      9.3350     49.4369     11.3679      0.0216      2.4299     39.2833     15.4299    119.2813  
  1325.0000    -29.7557      8.9986     10.8602   -999.2500      9.4187     49.3082     11.3529      0.0166      2.4237     40.3094     15.3441    120.4637  
  1325.5000    -31.3625      9.1561     10.7993   -999.2500      9.5031     48.6668     11.3455      0.0165      2.4083     41.5287     14.6749    120.9233  
  1326.0000    -32.6617      9.2554     11.2547   -999.2500      9.5883     48.3102     11.3607      0.0242      2.4091     41.9671     12.9490    121.4709  
  1326.5000    -32.5386      9.2826     11.4726   -999.2500      9.6743     48.6671     11.3813      0.0359      2.4322     42.0115     12.5591    121.8287  
  1327.0000    -31.7978      9.3055     11.0470   -999.2500      9.7610     48.7382     11.3700      0.0409      2.4502     40.8888     13.0493    120.8533  
  1327.5000    -32.7409      9.3283     10.9311   -999.2500      9.7846     48.5126     11.3512      0.0353      2.4491     39.3187     13.0731    119.2676  
  1328.0000    -33.1833      9.3513     11.4907   -999.2500      9.7989     48.0587     11.3441      0.0148      2.4404     38.0886     11.7770    117.7634  
  1328.5000    -34.2039      9.3743     12.1611   -999.2500      9.8133     47.0678     11.3307      0.0307      2.4573     37.1849     11.4724    115.1040  
  1329.0000    -34.1439      9.3973     12.9262   -999.2500      9.8277     45.9644     11.3300      0.0558      2.4732     36.5616     13.1612    111.9910  
  1329.5000    -32.5555      9.4196     13.1457   -999.2500      9.8449     45.2665     11.3368      0.0412      2.4563     36.4482     14.8213    111.1147  
  1330.0000    -32.0735      9.4341     12.0980   -999.2500      9.8689     45.4367     11.3687      0.0285      2.4150     36.6905     15.4684    113.9505  
  1330.5000    -32.1824      9.4487     11.0388   -999.2500      9.9315     46.0498     11.4224      0.0196      2.4089     37.1038     15.1752    118.4279  
  1331.0000    -33.5183      9.4633     10.6526   -999.2500     10.0111     46.2410     11.3349      0.0255      2.4028     36.8387     14.6230    121.6067  
  1331.5000    -34.9409      9.4779     10.7893   -999.2500     10.0913     46.3624     11.2827      0.0276      2.4089     36.3161     15.1182    123.2144  
  1332.0000    -35.1476      9.5970     11.1221   -999.2500     10.1721     46.7095     11.2463      0.0260      2.4180     34.8664     14.5998    121.1732  
  1332.5000    -34.4796      9.7450     11.2875   -999.2500     10.2536     47.0253     11.2345      0.0235      2.4208     33.4944     14.3910    117.1007  
  1333.0000    -33.5936      9.8953     11.7129   -999.2500     10.3358     46.6445     11.2429      0.0183      2.4226     33.6683     14.9252    114.7024  
  1333.5000    -32.5572     10.0480     12.0738   -999.2500     10.4186     45.6164     11.2394      0.0162      2.4210     34.1920     14.9414    113.0554  
  1334.0000    -32.4764     10.1509     12.1063   -999.2500     10.5020     44.5753     11.2209      0.0224      2.4103     34.5569     14.0938    113.3114  
  1334.5000    -34.6701     10.1987     11.9349   -999.2500     10.5861     44.4868     11.2169      0.0298      2.4220     35.3182     14.0361    114.7393  
  1335.0000    -34.7746     10.2467     11.3815   -999.2500     10.6709     44.9164     11.2789      0.0359      2.4282     36.1719     13.9234    115.3806  
  1335.5000    -32.9929     10.2950     11.1909   -999.2500     10.7564     45.6029     11.3382      0.0420      2.4303     35.9438     14.0363    114.3649  
  1336.0000    -30.4464     10.3435     11.6828   -999.2500     10.8426     46.7806     11.4064      0.0382      2.4318     35.4853     13.6834    112.2663  
  1336.5000    -30.2839     10.3922     12.2052   -999.2500     10.8493     47.4191     11.4552      0.0249      2.4343     35.2089     13.2647    109.7461  
  1337.0000    -30.9931     10.4457     12.7299   -999.2500     10.8426     47.1634     11.4587      0.0227      2.4399     34.6937     12.6393    107.7842  
  1337.5000    -32.7358     10.5058     12.9927   -999.2500     10.8358     46.7032     11.4652      0.0198      2.4503     34.1329     13.6345    107.4143  
  1338.0000    -32.8849     10.5662     12.7020   -999.2500     10.8290     46.5864     11.5077      0.0160      2.4419     33.7674     13.7368    108.4123  
  1338.5000    -32.7025     10.6270     12.1803   -999.2500     10.8928     47.2928     11.6052      0.0128      2.4353     33.4352     13.7256    109.0059  
  1339.0000    -34.2741     10.6881     12.4205   -999.2500     11.1023     47.1584     11.6582      0.0105      2.4352     33.5783     13.4796    109.6797  
  1339.5000    -34.9311     10.7496     12.9246   -999.2500     11.3158     47.0721     11.6539      0.0142      2.4369     33.6743     13.2771    109.0091  
  1340.0000    -34.0836     10.8433     12.9060   -999.2500     11.4551     47.1878     11.5995      0.0202      2.4414     33.7905     13.0556    108.3078  
  1340.5000    -33.8372     11.0280     12.8282   -999.2500     11.4569     47.4199     11.5774      0.0258      2.4453     34.4798     12.8012    108.0490  
  1341.0000    -33.7587     11.1903     12.9540   -999.2500     11.4587     47.4366     11.5691      0.0294      2.4488     35.3078     10.9546    107.7944  
  1341.5000    -34.2207     11.0895     13.0970   -999.2500     11.4606     47.2908     11.5344      0.0538      2.4585     36.3480     11.4825    107.4845  
  1342.0000    -33.7376     11.0424     13.0383   -999.2500     11.4624     46.9102     11.4636      0.0600      2.4759     37.0510     11.7211    108.0911  
  1342.5000    -32.8731     11.0188     12.7612   -999.2500     11.4642     46.5575     11.4309      0.0494      2.4705     36.2926     11.8213    108.6597  
  1343.0000    -31.2727     11.0492     12.5691   -999.2500     11.4692     46.3547     11.4358      0.0447      2.4650     35.2717     12.3820    108.7824  
  1343.5000    -30.8175     11.0732     12.8569   -999.2500     11.4887     46.3949     11.4285      0.0413      2.4650     35.0434     11.9224    108.8216  
  1344.0000    -29.8949     11.1054     13.1526   -999.2500     11.5082     46.4153     11.4020      0.0373      2.4660     35.6145     12.4671    108.3853  
  1344.5000    -29.7833     11.1447     13.2394   -999.2500     11.5278     46.1244     11.3921      0.0264      2.4617     35.9402     12.1597    107.9391  
  1345.0000    -34.3818     11.2289     13.1062   -999.2500     11.5474     45.6666     11.4286      0.0248      2.4551     35.6467     12.3750    107.6509  
  1345.5000    -34.7592     11.3391     13.3017   -999.2500     11.5671     45.4425     11.4764      0.0403      2.4531     35.1031     12.4100    107.3446  
  1346.0000    -33.1286     11.4144     13.7952   -999.2500     11.5867     45.6010     11.5057      0.0513      2.4565     35.1592     12.2622    107.4810  
  1346.5000    -30.6484     11.4208     14.0109   -999.2500     11.6064     45.6021     11.5065      0.0556      2.4574     35.5074     12.9032    106.8932  
  1347.0000    -28.2442     11.3891     13.7495   -999.2500     11.6262     45.4350     11.4671      0.0397      2.4517     34.8335     13.1328    106.7531  
  1347.5000    -28.0010     11.3575     13.2143   -999.2500     11.6449     45.2272     11.4550      0.0282      2.4464     34.4809     13.4208    107.4821  
  1348.0000    -29.5867     11.3259     12.4615   -999.2500     11.6158     44.9766     11.4657      0.0251      2.4419     34.6888     13.6226    107.9764  
  1348.5000    -30.0418     11.2945     12.8126   -999.2500     11.5869     44.9457     11.4821      0.0217      2.4382     34.8059     13.5288    108.3520  
  1349.0000    -30.0401     11.2631     13.2023   -999.2500     11.5580     45.3131     11.4829      0.0221      2.4404     34.7405     12.9439    108.4230  
  1349.5000    -29.5958     11.2627     13.4343   -999.2500     11.5292     45.5578     11.4541      0.0271      2.4457     34.6754     13.2012    108.1185  
