~VERSION INFORMATION
 VERS.                           2.00:        CWLS LOG ASCII STANDARD - VERSION 2.00
 WRAP.                             NO:        ONE LINE PER DEPTH STEP
~WELL INFORMATION
#MNEM.UNIT                   DATA             INFORMATION
#----------             --------------        ------------------------------
 STRT.F                     1260.0000:        START DEPTH
 STOP.F                     2340.0000:        STOP DEPTH
 STEP.F                        0.5000:        STEP VALUE
 NULL.                      -999.2500:        NULL VALUE
 COMP.        U.S.NAVY DEEPT NP & OSR:        COMPANY  
 LOC .                  144  22N 18W UPM:        LOCATION   
 DATE.                        2/24/74:        LOG DATE 
 WELL.               SOUTH BARROW #11:        WELL     
 UWI .                    50023200500:        UNIQUE WELL ID 
 API .                    50023200500:        UNIQUE WELL IDENTIFIER 
 FLD .                   SOUTH BARROW:        FIELD    
 CNTY.                          NPR-4:        COUNTY  
 STAT.                         ALASKA:        STATE   
 CTRY.                            USA:        COUNTRY 
 OPER.        U.S.NAVY DEEPT NP & OSR:        OPERATOR  
 SRVC.                   SCHLUMBERGER:        SERVICE COMPANY 
 LAT .                         0.0000:        LATITUDE
 LON .                         0.0000:        LONGITUDE
 DIGS.               CENTER LINE DATA:        DIGITIZING COMPANY 
~CURVE INFORMATION      
#MNEM        .UNIT         API CODE           CURVE DESCRIPTION
#-----------------      --------------        ------------------------------
 DEPT        .F                      :        1  DEPTH
 CALI        .IN                     :        2  
 GR          .GAPI                   :        3  
 RHOB        .G/C3                   :        4  
 NPHI        .%                      :        5  
 DPHI        .%                      :        6  
 SP          .MV                     :        7  
 LL8         .OHMM                   :        8  
 ILD         .OHMM                   :        9  
 CILD        .MMHO                   :        10 
 DT          .US/F                   :        11 
~PARAMETER INFORMATION       
#MNEM.UNIT                  VALUE             DESCRIPTION OF MNEMONIC
#---------             ---------------        ------------------------------
 EKB .F                       36.0000:        KELLY BUSHING
 TD  .F                     2350.0000:        TOTAL DEPTH
 BHT .F                       60.0000:        BOTTOM HOLE TEMPERATURE
 BS  .                         9.6250:        BIT SIZE
 FD  .                        10.8000:        FLUID DENSITY
 CSIZ.                        10.7500:        CASING SIZE
 CBD .F                     1267.0000:        CASING DRILLER 1
 CBL .F                     1267.0000:        CASING LOGGER 1
 DFT .      Salt Water-Lignosulfonate:        TYPE FLUID IN HOLE
 DFV .                        52.0000:        VISCOSITY
 DFPH.                         9.0000:        PH
 DFL .                         4.2000:        FLUID LOSS
 RMS .                         1.8800:        RM
 MST .F                       50.0000:        RM MEAS. TEMP.
 RMF .                         1.1500:        RMF
 MFST.F                       63.0000:        RMF MEAS. TEMP.
 RMC .                         1.5000:        RMC
 MCST.F                       50.0000:        RMC MEAS. TEMP.
~OTHER INFORMATION
~A    DEPTH        CALI          GR        RHOB        NPHI        DPHI          SP         LL8         ILD        CILD          DT  
  1260.0000   -999.2500     47.5286   -999.2500   -999.2500   -999.2500   -999.2500   -999.2500   -999.2500   -999.2500   -999.2500  
  1260.5000   -999.2500     47.7171   -999.2500   -999.2500   -999.2500   -999.2500   -999.2500   -999.2500   -999.2500   -999.2500  
  1261.0000   -999.2500     47.8198   -999.2500   -999.2500   -999.2500   -999.2500   -999.2500   -999.2500   -999.2500   -999.2500  
  1261.5000   -999.2500     47.6691   -999.2500   -999.2500   -999.2500   -999.2500   -999.2500   -999.2500   -999.2500   -999.2500  
  1262.0000   -999.2500     47.9667   -999.2500   -999.2500   -999.2500   -999.2500   -999.2500   -999.2500   -999.2500   -999.2500  
  1262.5000   -999.2500     48.4435   -999.2500   -999.2500   -999.2500   -999.2500   -999.2500   -999.2500   -999.2500   -999.2500  
  1263.0000   -999.2500     49.3064   -999.2500   -999.2500   -999.2500   -999.2500   -999.2500   -999.2500   -999.2500   -999.2500  
  1263.5000   -999.2500     50.2440   -999.2500   -999.2500   -999.2500   -999.2500   -999.2500   -999.2500   -999.2500   -999.2500  
  1264.0000   -999.2500     50.3634   -999.2500   -999.2500   -999.2500   -999.2500   -999.2500   -999.2500   -999.2500   -999.2500  
  1264.5000   -999.2500     50.7363   -999.2500   -999.2500   -999.2500   -999.2500   -999.2500   -999.2500   -999.2500   -999.2500  
  1265.0000   -999.2500     53.3857   -999.2500   -999.2500   -999.2500   -999.2500   -999.2500   -999.2500   -999.2500   -999.2500  
  1265.5000   -999.2500     57.4915   -999.2500   -999.2500   -999.2500   -999.2500   -999.2500   -999.2500   -999.2500   -999.2500  
  1266.0000   -999.2500     61.2476   -999.2500   -999.2500   -999.2500   -999.2500   -999.2500   -999.2500   -999.2500   -999.2500  
  1266.5000   -999.2500     61.1395   -999.2500   -999.2500   -999.2500   -999.2500   -999.2500   -999.2500   -999.2500   -999.2500  
  1267.0000     10.3854     59.8559      1.8830     59.7949     41.3317   -999.2500   -999.2500   -999.2500   -999.2500   -999.2500  
  1267.5000     10.3892     59.7733      1.8694     59.7910     41.7957   -999.2500   -999.2500   -999.2500   -999.2500    154.2795  
  1268.0000     10.5136     61.6657      1.8273     58.4780     43.9524    -59.9979      7.5509      4.6447    601.4708    143.6756  
  1268.5000     10.7095     64.2292      1.7620     59.2127     48.8259    -58.2083      8.8587     10.2542    395.8782    133.0717  
  1269.0000     11.0733     64.9464      1.7392     59.8660     50.3848    -54.6182      9.9650     30.0874    204.6456    119.9588  
  1269.5000     12.3102     64.5629      1.7727     59.8573     50.2029    -51.4263     10.4007     49.9206    119.1645    115.2573  
  1270.0000     13.9247     63.8467      1.8720     59.8486     47.6308    -48.2594     10.7133    355.8461     18.8707    117.9865  
  1270.5000     15.2830     63.4384      1.9303     59.8400     41.8766    -46.1801     10.7509     40.6542     29.8441    123.5967  
  1271.0000     15.8168     63.9754      2.0442     59.8313     38.3235    -45.1930     10.6233     10.5829     78.2860    127.1640  
  1271.5000     16.4930     64.3668      2.0552     58.7595     36.2835    -44.4299     10.4010      9.6731    103.2528    125.5043  
  1272.0000     16.5497     64.8287      2.0944     59.8783     35.6942    -43.6056     10.1787      9.1167    111.4943    121.0303  
  1272.5000     16.4341     65.3882      2.1513     59.8718     31.0982    -42.6633      9.9310      8.4265    116.1351    117.4655  
  1273.0000     16.8280     65.9502      2.1583     59.8653     29.3128    -41.8168      9.6320      8.1987    121.8831    116.3658  
  1273.5000     17.3458     67.1372      2.1161     59.8589     31.2719    -41.3542      9.3329      9.8241    107.5641    115.0276  
  1274.0000     17.5271     68.6051      2.0452     59.8524     40.1936    -41.3074      9.0339     12.8989     81.0522    112.3754  
  1274.5000     17.3550     70.4442      1.7914     59.8459     47.8614    -41.0654      8.8324     12.3279     83.2354    112.2053  
  1275.0000     16.9890     72.8215      1.6737     59.8001     55.3923    -40.7514      8.7049     10.1221     97.8123    113.2483  
  1275.5000     15.7695     75.6969      1.6253     58.7741     57.2691    -40.5626      8.5775      9.1731    106.8714    114.4443  
  1276.0000     13.1396     79.6330      1.7147     59.1591     55.2377    -40.4720      8.4535      8.2241    118.4065    115.8499  
  1276.5000     11.4561     83.8850      1.8176     60.0287     49.1089    -40.1767      8.3411      7.7231    127.9931    116.9852  
  1277.0000     10.9489     85.1209      1.8850     58.8642     45.0495    -39.9805      8.2286      7.8398    125.1496    118.4112  
  1277.5000     10.8234     84.3210      1.9088     56.6500     41.3819    -39.8048      8.1759      8.1079    120.7309    120.0885  
  1278.0000     10.7044     82.0633      1.8728     55.9872     41.8811    -39.3538      8.2984      8.2769    118.2431    124.0274  
  1278.5000     10.9089     79.6604      1.8117     53.6009     47.4439    -38.6696      8.4210      8.3751    116.6349    127.4804  
  1279.0000     11.8417     77.9523      1.7039     54.0921     53.8672    -37.9325      8.5771      8.5457    114.2796    125.8405  
  1279.5000     12.6314     76.5605      1.5964     55.0969     62.1909    -37.1044      8.8213      8.7349    111.6664    121.4326  
  1280.0000     13.4418     75.2091      1.5141     54.3239     64.1299    -36.2465      9.0655      9.1484    108.4672    115.7017  
  1280.5000     13.6855     78.3137      1.5582     53.5252     62.2302    -35.4913      9.3417      9.5158    103.8437    109.8192  
  1281.0000     13.1460     80.4106      1.6238     55.4267     57.6123    -34.9819      9.6343      9.7290    100.1569    105.1065  
  1281.5000     12.5388     82.1521      1.7330     56.7873     54.2851    -34.6703      9.8897      9.9395     97.4469    106.0394  
  1282.0000     12.4335     83.0078      1.8308     56.4687     49.0711    -34.4053      9.9605     10.2580     94.1403    107.0654  
  1282.5000     12.4380     83.8496      1.8386     56.0289     44.6450    -34.3202     10.0297     10.9582     91.9566    108.2970  
  1283.0000     12.0206     85.5367      1.8453     55.6921     44.1173    -34.5335     10.0990     11.1162     90.8061    109.2673  
  1283.5000     11.8301     86.4975      1.8570     55.1322     43.3616    -34.7824     10.1682     11.1503     89.9663    107.0504  
  1284.0000     11.9068     86.5643      1.8849     55.8400     42.2940    -34.9833     10.2268     10.9842     89.9607    105.5048  
  1284.5000     11.2038     86.0783      1.9040     57.1525     40.7778    -35.1903     10.1308     10.5523     91.9081    106.5791  
  1285.0000     10.4591     85.4232      1.9100     56.6609     39.9963    -35.4325     10.0349     10.1205     93.8555    105.7753  
  1285.5000     10.6388     85.1258      1.9320     54.2848     39.2218    -35.6748      9.9390     10.0386     94.6668    105.6649  
  1286.0000     10.7987     85.7953      1.9481     51.3541     37.9824    -36.1842      9.8881     10.0352     94.1242    108.1748  
  1286.5000     10.8564     86.6630      1.9384     50.4587     37.7654    -36.5778      9.8857     10.1072     94.6264    111.2403  
  1287.0000     10.8719     86.4026      1.9194     50.2168     38.6185    -36.6838      9.8832     10.1098     94.8251    115.5081  
  1287.5000     10.9791     85.9198      1.8999     49.8139     39.8737    -36.1847      9.8807     10.0504     95.0238    118.6178  
  1288.0000     10.9955     86.2454      1.8772     49.6667     41.0530    -35.0132      9.8333      9.9964     97.0323    117.2639  
  1288.5000     10.6736     87.2151      1.8882     49.4011     41.8932    -33.9030      9.7682      9.8923     99.2315    114.5788  
  1289.0000     10.4104     88.2343      1.9491     47.6946     41.6005    -33.5900      9.5736      9.7097    101.3254    109.9211  
  1289.5000     10.3152     88.5331      2.1442     45.5941     38.7865    -33.6488      9.3168      9.5242    103.0059    107.2328  
