~VERSION INFORMATION
 VERS.                           2.00:        CWLS LOG ASCII STANDARD - VERSION 2.00
 WRAP.                             NO:        ONE LINE PER DEPTH STEP
~WELL INFORMATION
#MNEM.UNIT                   DATA             INFORMATION
#----------             --------------        ------------------------------
 STRT.F                      884.0000:        START DEPTH
 STOP.F                     2365.0000:        STOP DEPTH
 STEP.F                        0.5000:        STEP VALUE
 NULL.                      -999.2500:        NULL VALUE
 COMP.                      U.S. NAVY:        COMPANY  
 LOC .                   14  22N  18W:        LOCATION   
 DATE.                        3/19/64:        LOG DATE 
 WELL.                SOUTH BARROW #6:        WELL     
 UWI .                   500231001500:        UNIQUE WELL ID 
 API .                   500231001500:        UNIQUE WELL IDENTIFIER 
 FLD .                   SOUTH BARROW:        FIELD    
 CNTY.                         NPR #4:        COUNTY  
 STAT.                         ALASKA:        STATE   
 CTRY.                            USA:        COUNTRY 
 OPER.                      U.S. NAVY:        OPERATOR  
 SRVC.                   SCHLUMBERGER:        SERVICE COMPANY 
 LAT .                         0.0000:        LATITUDE
 LON .                         0.0000:        LONGITUDE
 DIGS.               CENTER LINE DATA:        DIGITIZING COMPANY 
~CURVE INFORMATION      
#MNEM        .UNIT         API CODE           CURVE DESCRIPTION
#-----------------      --------------        ------------------------------
 DEPT        .F                      :        1  DEPTH
 SP          .MV                     :        2  
 SN          .OHMM                   :        3  
 ILD         .OHMM                   :        4  
 CILD        .OHMM                   :        5  
 DT          .US/F                   :        6  
~PARAMETER INFORMATION       
#MNEM.UNIT                  VALUE             DESCRIPTION OF MNEMONIC
#---------             ---------------        ------------------------------
 EKB .F                       40.0000:        KELLY BUSHING
 TD  .F                     2366.0000:        TOTAL DEPTH
 BHT .F                        0.0000:        BOTTOM HOLE TEMPERATURE
 BS  .                         9.6250:        BIT SIZE
 FD  .                        85.0000:        FLUID DENSITY
 CSIZ.                        11.7500:        CASING SIZE
 CBD .F                      884.0000:        CASING DRILLER 1
 CBL .F                      884.0000:        CASING LOGGER 1
 DFT .                  Miscellaneous:        TYPE FLUID IN HOLE
 DFV .                        45.0000:        VISCOSITY
 DFPH.                         0.0000:        PH
 DFL .                         2.8000:        FLUID LOSS
 RMS .                         5.3700:        RM
 MST .F                       33.0000:        RM MEAS. TEMP.
 RMF .                         2.9500:        RMF
 MFST.F                       45.0000:        RMF MEAS. TEMP.
 RMC .                         2.4800:        RMC
 MCST.F                       35.0000:        RMC MEAS. TEMP.
~OTHER INFORMATION
~A    DEPTH          SP          SN         ILD        CILD          DT  
# ...
  2137.5000    -21.8326     11.7725      9.7636    108.3512   -999.2500  
  2138.0000    -21.8064     11.6059      9.5760    108.6015   -999.2500  
  2138.5000    -21.7317     11.5755      9.4053    110.2871   -999.2500  
  2139.0000    -21.5990     11.5092      9.3158    112.4646   -999.2500  
  2139.5000    -21.6840     11.4021      9.1261    115.0051   -999.2500  
  2140.0000    -21.8164     11.2977      8.9582    117.3698   -999.2500  
  2140.5000    -21.8507     11.1963      8.8129    119.3554   -999.2500  
  2141.0000    -21.8944     11.1084      8.7268    120.6138   -999.2500  
  2141.5000    -21.9158     11.0009      8.7237    121.2886   -999.2500  
  2142.0000    -21.9826     10.9561      8.7514    121.3204   -999.2500  
  2142.5000    -22.1002     10.9845      8.7880    120.5842   -999.2500  
  2143.0000    -22.2087     11.0553      8.8261    119.9112   -999.2500  
  2143.5000    -22.3171     11.1217      8.8712    119.4768   -999.2500  
  2144.0000    -22.3453     11.1992      8.9465    118.8434   -999.2500  
  2144.5000    -22.3341     11.3002      9.0354    117.6759   -999.2500  
  2145.0000    -22.3118     11.4099      9.1930    115.9169   -999.2500  
  2145.5000    -22.3296     11.4113      9.3144    114.0243   -999.2500  
  2146.0000    -22.5011     11.3798      9.3958    112.7815   -999.2500  
  2146.5000    -22.7475     11.3422      9.4575    112.1291   -999.2500  
  2147.0000    -22.8546     11.4206      9.5586    111.9569   -999.2500  
  2147.5000    -22.9462     11.5120      9.4827    111.8948   -999.2500  
  2148.0000    -23.0949     11.5740      9.4811    111.7312   -999.2500  
  2148.5000    -23.2162     11.5858      9.4851    111.5712   -999.2500  
  2149.0000    -22.9286     11.5606      9.5339    111.2477   -999.2500  
  2149.5000    -22.5855     11.5767      9.5726    111.1945   -999.2500  
  2150.0000    -22.3767     11.5411      9.5364    111.3913   -999.2500  
  2150.5000    -22.2405     11.4490      9.4913    111.5890   -999.2500  
  2151.0000    -22.0710     11.3466      9.4600    111.9886   -999.2500  
  2151.5000    -21.9790     11.3285      9.4363    112.4339   -999.2500  
  2152.0000    -21.8542     11.3249      9.4281    112.6107   -999.2500  
  2152.5000    -21.5986     11.2869      9.4207    112.8233   -999.2500  
  2153.0000    -21.2910     11.3273      9.3974    113.1250   -999.2500  
  2153.5000    -21.1054     11.3831      9.3742    113.3136   -999.2500  
  2154.0000    -21.1833     11.3915      9.3509    113.4508   -999.2500  
  2154.5000    -21.2895     11.4117      9.3460    113.3689   -999.2500  
  2155.0000    -21.5646     11.5422      9.3833    113.0863   -999.2500  
  2155.5000    -21.8675     11.6703      9.3842    112.8385   -999.2500  
  2156.0000    -21.8638     11.7295      9.3795    112.8385   -999.2500  
  2156.5000    -21.7027     11.7846      9.3737    112.8385   -999.2500  
  2157.0000    -21.5248     11.8514      9.3971    112.7572   -999.2500  
  2157.5000    -21.4820     11.9557      9.4664    112.5018   -999.2500  
  2158.0000    -21.5151     12.0911      9.6858    111.1723   -999.2500  
  2158.5000    -21.5817     12.0623     10.0002    108.5483   -999.2500  
  2159.0000    -21.5346     12.2576     10.4003    104.0939   -999.2500  
  2159.5000    -21.4748     12.7439     10.9767     98.8563   -999.2500  
  2160.0000    -21.6142     13.4019     11.3149     95.0606   -999.2500  
  2160.5000    -22.0185     14.1522     11.3134     93.9701   -999.2500  
  2161.0000    -22.7829     14.6920     11.3175     94.4705   -999.2500  
  2161.5000    -23.8989     14.7987     11.3334     94.5192   -999.2500  
  2162.0000    -24.5208     14.6904     11.3525     94.3675   -999.2500  
  2162.5000    -24.1900     14.5435     11.2863     94.4403   -999.2500  
  2163.0000    -23.1616     13.7720     10.9540     96.7216   -999.2500  
  2163.5000    -22.6893     12.9358     10.1412    100.9613   -999.2500  
  2164.0000    -22.3208     12.4278      9.7570    105.4401   -999.2500  
  2164.5000    -21.8372     12.0805      9.4953    109.2250   -999.2500  
  2165.0000    -21.4402     11.8250      9.4635    111.2101   -999.2500  
  2165.5000    -21.0139     11.6727      9.4619    111.7870   -999.2500  
  2166.0000    -20.7486     11.5983      9.4797    111.4284   -999.2500  
  2166.5000    -20.6647     11.5575      9.5209    111.2365   -999.2500  
  2167.0000    -20.6475     11.5647      9.5621    110.9381   -999.2500  
  2167.5000    -20.6423     11.5395      9.6032    110.4049   -999.2500  
  2168.0000    -20.6192     11.5955      9.6513    109.8595   -999.2500  
  2168.5000    -20.6090     11.7072      9.8092    109.3782   -999.2500  
  2169.0000    -20.6373     11.6689      9.8217    109.0013   -999.2500  
  2169.5000    -20.6587     11.6766      9.8008    108.6245   -999.2500  
  2170.0000    -20.7962     11.8091      9.8070    108.3248   -999.2500  
  2170.5000    -21.0316     11.8970      9.8135    108.1630   -999.2500  
  2171.0000    -21.1017     11.9734      9.8045    108.3877   -999.2500  
  2171.5000    -21.1828     12.0251      9.7692    108.6649   -999.2500  
  2172.0000    -21.2842     11.9547      9.8175    108.4900   -999.2500  
  2172.5000    -21.3561     11.8388      9.8316    108.1232   -999.2500  
  2173.0000    -21.4221     11.7538      9.8769    107.5236   -999.2500  
  2173.5000    -21.4815     11.8036      9.8709    107.6786   -999.2500  
  2174.0000    -21.3506     11.8432      9.7200    108.3375   -999.2500  
  2174.5000    -21.1951     11.9008      9.6831    108.9015   -999.2500  
  2175.0000    -20.7559     11.9551      9.8912    108.0933   -999.2500  
  2175.5000    -20.6677     12.0642     10.1539    105.8951   -999.2500  
  2176.0000    -20.6386     12.1931     10.5411    101.9548   -999.2500  
  2176.5000    -20.6304     12.3832     11.0420     97.8981   -999.2500  
  2177.0000    -20.6824     12.8122     11.7472     92.7314   -999.2500  
  2177.5000    -21.2245     13.4343     11.9706     89.7475   -999.2500  
  2178.0000    -21.8590     14.2762     11.9221     89.3455   -999.2500  
  2178.5000    -22.7411     14.9733     11.8197     90.3601   -999.2500  
  2179.0000    -24.2960     15.1804     11.6939     91.4224   -999.2500  
  2179.5000    -25.5629     14.9070     11.5382     92.3380   -999.2500  
  2180.0000    -24.8154     14.3284     11.3647     93.6816   -999.2500  
  2180.5000    -22.6603     13.2197     10.9390     96.9613   -999.2500  
  2181.0000    -21.2188     12.2879     10.3461    101.7264   -999.2500  
  2181.5000    -20.7799     11.7867      9.8175    106.6530   -999.2500  
  2182.0000    -20.5997     11.5783      9.4060    111.2803   -999.2500  
  2182.5000    -20.5470     11.4797      9.1853    114.1951   -999.2500  
  2183.0000    -20.5946     11.3638      9.0859    115.9655   -999.2500  
  2183.5000    -20.8128     11.2774      9.0543    116.5707   -999.2500  
  2184.0000    -21.1284     11.2521      9.0010    117.1111   -999.2500  
  2184.5000    -21.4210     11.1657      8.9452    117.7890   -999.2500  
  2185.0000    -21.5680     11.0176      8.8810    118.7759   -999.2500  
  2185.5000    -21.6711     10.8887      8.7580    119.9242   -999.2500  
  2186.0000    -21.6850     10.8140      8.6709    121.0107   -999.2500  
  2186.5000    -21.5440     10.7772      8.5976    121.9973   -999.2500  
  2187.0000    -21.2580     10.8054      8.5210    122.9550   -999.2500  
  2187.5000    -21.1000     10.7934      8.4384    123.8751   -999.2500  
  2188.0000    -21.0716     10.7473      8.3814    124.7372   -999.2500  
  2188.5000    -21.1970     10.6969      8.3531    125.3710   -999.2500  
  2189.0000    -21.4389     10.6700      8.3782    125.4667   -999.2500  
  2189.5000    -21.6610     10.7133      8.4417    124.9724   -999.2500  
  2190.0000    -21.7837     10.7767      8.7289    122.7308   -999.2500  
  2190.5000    -21.7551     10.9111      9.0980    117.9434   -999.2500  
  2191.0000    -21.7578     11.3352      9.8815    109.8535   -999.2500  
  2191.5000    -21.9291     12.0451     10.6616    101.5384   -999.2500  
