~VERSION INFORMATION
 VERS.                           2.00:        CWLS LOG ASCII STANDARD - VERSION 2.00
 WRAP.                             NO:        ONE LINE PER DEPTH STEP
~WELL INFORMATION
#MNEM.UNIT                   DATA             INFORMATION
#----------             --------------        ------------------------------
 STRT.F                       68.0000:        START DEPTH
 STOP.F                     2380.0000:        STOP DEPTH
 STEP.F                        0.5000:        STEP VALUE
 NULL.                      -999.2500:        NULL VALUE
 COMP.                     USGS/NPR-A:        COMPANY  
 LOC .                   30  22N  16W:        LOCATION   
 DATE.                        3/18/78:        LOG DATE 
 WELL.               SOUTH BARROW #17:        WELL     
 UWI .                   500232001100:        UNIQUE WELL ID 
 API .                   500232001100:        UNIQUE WELL IDENTIFIER 
 FLD .                   SOUTH BARROW:        FIELD    
 CNTY.                     NOTH SLOPE:        COUNTY  
 STAT.                         ALASKA:        STATE   
 CTRY.                            USA:        COUNTRY 
 OPER.                     USGS/NPR-A:        OPERATOR  
 SRVC.                   SCHLUMBERGER:        SERVICE COMPANY 
 LAT .                         0.0000:        LATITUDE
 LON .                         0.0000:        LONGITUDE
 DIGS.               CENTER LINE DATA:        DIGITIZING COMPANY 
~CURVE INFORMATION      
#MNEM        .UNIT         API CODE           CURVE DESCRIPTION
#-----------------      --------------        ------------------------------
 DEPT        .F                      :        1  DEPTH
 CALI        .IN                     :        2  
 GR          .GAPI                   :        3  
 NPHI        .%                      :        4  
 RHOB        .G/C3                   :        5  
 DRHO        .G/C3                   :        6  
 DT          .US/F                   :        7  
 SP          .MV                     :        8  
 ILD         .OHMM                   :        9  
 ILM         .OHMM                   :        10 
 LL8         .OHMM                   :        11 
 LLD         .OHMM                   :        12 
 LLS         .OHMM                   :        13 
~PARAMETER INFORMATION       
#MNEM.UNIT                  VALUE             DESCRIPTION OF MNEMONIC
#---------             ---------------        ------------------------------
 EKB .F                       33.0000:        KELLY BUSHING
 TD  .F                     2382.0000:        TOTAL DEPTH
 BHT .F                        0.0000:        BOTTOM HOLE TEMPERATURE
 BS  .                         8.5000:        BIT SIZE
 FD  .                        10.8000:        FLUID DENSITY
 CSIZ.                         9.6250:        CASING SIZE
 CBD .F                     1512.0000:        CASING DRILLER 1
 CBL .F                     1512.0000:        CASING LOGGER 1
 DFT .                  Miscellaneous:        TYPE FLUID IN HOLE
 DFV .                        43.0000:        VISCOSITY
 DFPH.                         8.5000:        PH
 DFL .                         4.0000:        FLUID LOSS
 RMS .                         0.0760:        RM
 MST .F                       60.0000:        RM MEAS. TEMP.
 RMF .                         0.0000:        RMF
 MFST.F                        0.0000:        RMF MEAS. TEMP.
 RMC .                         0.1640:        RMC
 MCST.F                       55.0000:        RMC MEAS. TEMP.
~OTHER INFORMATION
~A    DEPTH        CALI          GR        NPHI        RHOB        DRHO          DT          SP         ILD         ILM         LL8         LLD         LLS  
# ...
  1445.0000     13.2059     85.3358   -999.2500   -999.2500   -999.2500    116.2623    -60.4643     10.3880      9.7509     11.3477   -999.2500   -999.2500  
  1445.5000     13.0028     81.7870   -999.2500   -999.2500   -999.2500    116.6674    -59.4777      9.9454      9.2566     11.1868   -999.2500   -999.2500  
  1446.0000     13.0437     79.2642   -999.2500   -999.2500   -999.2500    121.5867    -59.6178      9.5261      8.7874     11.0282   -999.2500   -999.2500  
  1446.5000     13.1461     80.6881   -999.2500   -999.2500   -999.2500    146.1101    -61.7982      9.1245      8.3420     10.7277   -999.2500   -999.2500  
  1447.0000     13.5898     83.4090   -999.2500   -999.2500   -999.2500    148.4242    -62.4775      8.7398      8.3209     10.7561   -999.2500   -999.2500  
  1447.5000     13.5127     87.9804   -999.2500   -999.2500   -999.2500    130.8185    -61.1432      8.3714      8.3047     11.0321   -999.2500   -999.2500  
  1448.0000     13.2845     93.7959   -999.2500   -999.2500   -999.2500    146.7145    -60.1723      8.2186      8.2885     10.8600   -999.2500   -999.2500  
  1448.5000     13.0918     98.1124   -999.2500   -999.2500   -999.2500    127.5720    -60.0125      8.2278      8.2724     10.5554   -999.2500   -999.2500  
  1449.0000     12.7587    100.1042   -999.2500   -999.2500   -999.2500    143.3111    -60.1766      8.2369      8.2463     10.3440   -999.2500   -999.2500  
  1449.5000     12.7139     99.5859   -999.2500   -999.2500   -999.2500    179.4757    -60.5169      8.2460      8.2150     10.2306   -999.2500   -999.2500  
  1450.0000     12.5802     99.3160   -999.2500   -999.2500   -999.2500    167.1924    -61.0917      8.2552      8.1838     10.0221   -999.2500   -999.2500  
  1450.5000     10.2691     99.1672   -999.2500   -999.2500   -999.2500    150.7318    -61.3085      8.2644      8.1528      9.8906   -999.2500   -999.2500  
  1451.0000      7.9581     98.5820   -999.2500   -999.2500   -999.2500    150.6439    -59.4990      8.2736      8.1219      9.8191   -999.2500   -999.2500  
  1451.5000      6.6335     96.5274   -999.2500   -999.2500   -999.2500    150.5560    -55.7263      8.2827      8.0910      9.9609   -999.2500   -999.2500  
  1452.0000      6.6288     95.3403   -999.2500   -999.2500   -999.2500    150.4680    -55.0665      8.2919      8.0837     10.0945   -999.2500   -999.2500  
  1452.5000      6.6353     93.5903   -999.2500   -999.2500   -999.2500    150.3801    -54.8982      8.3012      8.0848     10.0063   -999.2500   -999.2500  
  1453.0000      6.6886     89.7940   -999.2500   -999.2500   -999.2500    161.2685    -55.1660      8.3083      8.0858      9.9189   -999.2500   -999.2500  
  1453.5000      7.0282     87.5727   -999.2500   -999.2500   -999.2500    171.5126    -55.5950      8.3127      8.0869      9.8323   -999.2500   -999.2500  
  1454.0000      7.8006     87.3697   -999.2500   -999.2500   -999.2500    133.0010    -56.1494      8.3171      8.0880      9.8074   -999.2500   -999.2500  
  1454.5000      8.9042     85.9188   -999.2500   -999.2500   -999.2500     79.4753    -57.4155      8.3214      8.0890      9.8806   -999.2500   -999.2500  
  1455.0000     10.4833     82.9140   -999.2500   -999.2500   -999.2500    114.2206    -58.6348      8.3258      8.0901      9.9543   -999.2500   -999.2500  
  1455.5000     12.1635     79.8949   -999.2500   -999.2500   -999.2500    115.6941    -59.7145      8.3302      8.0912      9.9329   -999.2500   -999.2500  
  1456.0000     13.3952     78.5010   -999.2500   -999.2500   -999.2500    114.8622    -60.3917      8.3346      8.0923      9.7636   -999.2500   -999.2500  
  1456.5000     13.7898     78.5412   -999.2500   -999.2500   -999.2500    114.2446    -61.8780      8.3390      8.0933      9.8710   -999.2500   -999.2500  
  1457.0000     13.8162     78.4426   -999.2500   -999.2500   -999.2500    114.6275    -62.8167      8.3434      8.0944     10.0893   -999.2500   -999.2500  
  1457.5000     13.8142     77.4503   -999.2500   -999.2500   -999.2500    114.8856    -62.4662      8.3478      8.0955     10.2104   -999.2500   -999.2500  
  1458.0000     14.0067     76.4581   -999.2500   -999.2500   -999.2500    115.6422    -60.9622      8.3522      8.0965      9.8640   -999.2500   -999.2500  
  1458.5000     14.0517     77.0007   -999.2500   -999.2500   -999.2500    119.4462    -59.0219      8.3566      8.1234      9.9618   -999.2500   -999.2500  
  1459.0000     13.9468     79.0677   -999.2500   -999.2500   -999.2500    121.0764    -56.8882      8.3833      8.1576     10.1479   -999.2500   -999.2500  
  1459.5000     14.1246     81.1347   -999.2500   -999.2500   -999.2500    114.7379    -56.6054      8.4239      8.1919     10.2292   -999.2500   -999.2500  
  1460.0000     14.2925     82.3801   -999.2500   -999.2500   -999.2500    111.4120    -56.5622      8.4647      8.2263     10.3605   -999.2500   -999.2500  
  1460.5000     14.2643     81.2929   -999.2500   -999.2500   -999.2500    109.4373    -55.2340      8.5057      8.2609     10.4542   -999.2500   -999.2500  
  1461.0000     14.2284     79.9673   -999.2500   -999.2500   -999.2500    106.2803    -54.4075      8.5469      8.2957     10.4198   -999.2500   -999.2500  
  1461.5000     14.1361     77.8549   -999.2500   -999.2500   -999.2500    100.5412    -53.7499      8.5883      8.3305     10.3855   -999.2500   -999.2500  
  1462.0000     14.0123     74.6476   -999.2500   -999.2500   -999.2500     95.3992    -52.5766      8.6299      8.3656     10.2890   -999.2500   -999.2500  
  1462.5000     14.0591     72.9169   -999.2500   -999.2500   -999.2500     93.5674    -52.8003      8.6536      8.4007     10.1638   -999.2500   -999.2500  
  1463.0000     15.1497     72.9122   -999.2500   -999.2500   -999.2500     94.3753    -54.1936      8.6668      8.4361     10.0402   -999.2500   -999.2500  
  1463.5000     14.8198     73.8252   -999.2500   -999.2500   -999.2500     99.0756    -56.6527      8.6800      8.4715     10.1513   -999.2500   -999.2500  
  1464.0000     13.9502     74.1692   -999.2500   -999.2500   -999.2500     95.8653    -59.2845      8.6933      8.5563     10.3696   -999.2500   -999.2500  
  1464.5000     13.3768     74.4383   -999.2500   -999.2500   -999.2500     93.2110    -57.9240      9.0580      8.7210     10.6442   -999.2500   -999.2500  
  1465.0000     13.6964     76.7643   -999.2500   -999.2500   -999.2500     99.6184    -55.5806      9.4565      8.9046     10.9351   -999.2500   -999.2500  
  1465.5000     14.0334     79.3589   -999.2500   -999.2500   -999.2500    103.3909    -55.0481      9.8726      9.1986     11.5814   -999.2500   -999.2500  
  1466.0000     13.9171     82.9064   -999.2500   -999.2500   -999.2500    108.9249    -55.1124     10.3069      9.5023     12.0471   -999.2500   -999.2500  
  1466.5000     13.5860     85.6483   -999.2500   -999.2500   -999.2500    112.0791    -54.2456     10.6811      9.8596     12.4656   -999.2500   -999.2500  
  1467.0000     13.7771     86.2877   -999.2500   -999.2500   -999.2500    112.2852    -52.2058     10.6811     10.0687     12.5654   -999.2500   -999.2500  
  1467.5000     14.0427     85.6194   -999.2500   -999.2500   -999.2500    111.6255    -51.3751     10.6263      9.9082     12.6660   -999.2500   -999.2500  
  1468.0000     13.8584     83.3827   -999.2500   -999.2500   -999.2500    111.8565    -51.3579     10.3673      9.7503     12.2571   -999.2500   -999.2500  
  1468.5000     14.0181     81.7099   -999.2500   -999.2500   -999.2500    112.8273    -50.9620     10.1145      9.5949     12.2427   -999.2500   -999.2500  
  1469.0000     14.0117     80.8346   -999.2500   -999.2500   -999.2500    113.8590    -49.8017      9.8679      9.4419     11.8791   -999.2500   -999.2500  
  1469.5000     14.0054     81.3388   -999.2500   -999.2500   -999.2500    114.7361    -48.4503      9.6274      9.2487     11.0283   -999.2500   -999.2500  
  1470.0000     14.1474     82.0906   -999.2500   -999.2500   -999.2500    114.6624    -47.3000      9.3927      9.0008     10.7669   -999.2500   -999.2500  
