~VERSION INFORMATION
 VERS.                           2.00:        CWLS LOG ASCII STANDARD - VERSION 2.00
 WRAP.                             NO:        ONE LINE PER DEPTH STEP
~WELL INFORMATION
#MNEM.UNIT                   DATA             INFORMATION
#----------             --------------        ------------------------------
 STRT.F                       25.0000:        START DEPTH
 STOP.F                     2347.0000:        STOP DEPTH
 STEP.F                        0.5000:        STEP VALUE
 NULL.                      -999.2500:        NULL VALUE
 COMP.        HUSKY OIL COMPANY/NPR-A:        COMPANY
 LOC .                     26 22N 17W:        LOCATION
 DATE.                        4/14/80:        LOG DATE
 WELL.                     BARROW #20:        WELL
 UWI .                   500232001500:        UNIQUE WELL ID
 API .                   500232001500:        UNIQUE WELL IDENTIFIER
 FLD .                   SOUTH BARROW:        FIELD
 CNTY.                    NORTH SLOPE:        COUNTY
 STAT.                        ALAASKA:        STATE
 CTRY.                            USA:        COUNTRY
 OPER.        HUSKY OIL COMPANY/NPR-A:        OPERATOR
 SRVC.                   SCHLUMBERGER:        SERVICE COMPANY
 LAT .                         0.0000:        LATITUDE
 LON .                         0.0000:        LONGITUDE
 DIGS.               CENTER LINE DATA:        DIGITIZING COMPANY
~CURVE INFORMATION      
#MNEM        .UNIT         API CODE           CURVE DESCRIPTION
#-----------------      --------------        ------------------------------
 DEPT        .F                      :        1  DEPTH
 CALI        .IN                     :        2  
 GR          .GAPI                   :        3  
 DRHO        .G/C3                   :        4  
 RHOB        .G/C3                   :        5  
 NPHI        .%                      :        6  
 SP          .MV                     :        7  
 ILD         .OHMM                   :        8  
 ILM         .OHMM                   :        9  
 SFL         .OHMM                   :        10 
 LLD         .OHMM                   :        11 
 LLS         .OHMM                   :        12 
 MSFL        .OHMM                   :        13 
 DT          .US/F                   :        14 
~PARAMETER INFORMATION
#MNEM.UNIT                  VALUE             DESCRIPTION OF MNEMONIC
#---------             ---------------        ------------------------------
 EKB .F                       30.0000:        KELLY BUSHING
 TD  .F                     2356.0000:        TOTAL DEPTH
 BHT .F                        0.0000:        BOTTOM HOLE TEMPERATURE
 BS  .                         8.5000:        BIT SIZE
 FD  .                        10.8000:        FLUID DENSITY
 CSIZ.                         9.6250:        CASING SIZE
 CBD .F                     1500.0000:        CASING DRILLER 1
 CBL .F                     1485.0000:        CASING LOGGER 1
 DFT .                            GEL:        TYPE FLUID IN HOLE
 DFV .                        10.0000:        VISCOSITY
 DFPH.                         9.0000:        PH
 DFL .                        10.0000:        FLUID LOSS
 RMS .                         0.1840:        RM
 MST .F                       61.0000:        RM MEAS. TEMP.
 RMF .                         0.1270:        RMF
 MFST.F                       61.0000:        RMF MEAS. TEMP.
 RMC .                         0.2660:        RMC
 MCST.F                       61.0000:        RMC MEAS. TEMP.
~OTHER INFORMATION
~A    DEPTH        CALI          GR        DRHO        RHOB        NPHI          SP         ILD         ILM         SFL         LLD         LLS        MSFL          DT 
# ...
  1633.0000      8.9344     32.2343      0.0163      2.2906     24.0177    -53.6918   -999.2500   -999.2500   -999.2500    216.3239    151.5599     19.0103     98.1080 
  1633.5000      8.9217     32.0783      0.0050      2.2825     24.1839    -53.9361   -999.2500   -999.2500   -999.2500    206.5942    147.2340     18.7030    100.2091 
  1634.0000      8.9091     32.4118      0.0024      2.2842     24.1645    -54.1804   -999.2500   -999.2500   -999.2500    192.5912    140.4252     20.5296    101.9578 
  1634.5000      8.8862     34.4818      0.0039      2.2895     23.5139    -54.4246   -999.2500   -999.2500   -999.2500    146.0302    128.8578     21.9377    105.6590 
  1635.0000      8.8641     36.3969      0.0052      2.3023     22.9727    -54.6689   -999.2500   -999.2500   -999.2500     80.9759     65.8490     18.8788    106.9438 
  1635.5000      8.8516     39.8730     -0.0034      2.3033     22.8079    -54.9066   -999.2500   -999.2500   -999.2500     37.4678     31.2074     11.3131    107.4311 
  1636.0000      8.8391     44.9229     -0.0043      2.3029     22.9159    -55.1133   -999.2500   -999.2500   -999.2500     18.6446     17.6894      4.8336    108.6129 
  1636.5000      8.8266     51.2650     -0.0017      2.3405     23.0966    -55.3201   -999.2500   -999.2500   -999.2500     13.7403     13.1913      3.6314    112.2263 
  1637.0000      8.8187     58.6484     -0.0001      2.3808     24.0176    -55.5269   -999.2500   -999.2500   -999.2500     12.2039     11.4051      4.1280    113.4741 
  1637.5000      8.8116     66.2090     -0.0001      2.4294     27.2525    -55.7336   -999.2500   -999.2500   -999.2500     11.7856     10.6751      4.0952    112.8645 
  1638.0000      8.8033     73.8631     -0.0016      2.4878     31.4363    -55.9404   -999.2500   -999.2500   -999.2500     11.4215     10.5507      2.9561    112.8206 
  1638.5000      8.8001     75.9083      0.0210      2.5411     35.0013    -56.1798   -999.2500   -999.2500   -999.2500     11.2251     10.4894      2.1284    112.9298 
  1639.0000      8.8058     76.6884      0.0458      2.5392     38.9111    -56.2316   -999.2500   -999.2500   -999.2500     11.1031     10.4424      2.3417    111.3692 
  1639.5000      8.8116     77.0925      0.0392      2.5217     41.5128    -56.3320   -999.2500   -999.2500   -999.2500     11.0646     10.3956      3.5742    109.1429 
  1640.0000      8.8243     77.4298      0.0481      2.5062     41.7316    -56.8769   -999.2500   -999.2500   -999.2500     11.2783     10.4322      5.4657    107.6601 
  1640.5000      8.8700     78.6117      0.0422      2.4858     42.0156    -56.3104   -999.2500   -999.2500   -999.2500     11.4961     10.4895      6.4353    109.1309 
  1641.0000      8.9158     78.6372      0.0285      2.4702     42.9332    -56.2172   -999.2500   -999.2500   -999.2500     11.7181     10.4291      4.5111    110.5985 
  1641.5000      8.9401     76.6139      0.0260      2.4835     44.7408    -56.3471   -999.2500   -999.2500   -999.2500     11.5718      9.7981      1.8998    111.0892 
  1642.0000      8.9567     73.8108      0.0314      2.5124     44.0590    -56.4565   -999.2500   -999.2500   -999.2500     11.1348      9.1068      1.4850    110.5910 
  1642.5000      8.9408     72.0984      0.0449      2.5189     41.5975    -56.5386   -999.2500   -999.2500   -999.2500     10.7655      9.4625      2.4354    109.8796 
  1643.0000      8.8964     69.8224      0.0735      2.5347     40.1390    -56.6030   -999.2500   -999.2500   -999.2500     11.5174      9.9400      3.9418    109.5609 
  1643.5000      8.8521     68.3359      0.0885      2.5263     39.9376    -56.6125   -999.2500   -999.2500   -999.2500     12.1791      9.9370      5.4952    109.9514 
  1644.0000      8.8078     68.4117      0.0816      2.4937     40.6356    -56.6627   -999.2500   -999.2500   -999.2500     12.1515     10.0045      4.8531    110.2289 
  1644.5000      8.7628     69.7385      0.0745      2.4801     41.3135    -56.7309   -999.2500   -999.2500   -999.2500     11.8617      9.9217      4.5370    108.6382 
  1645.0000      8.9982     70.6492      0.0483      2.4958     42.3995    -56.7981   -999.2500   -999.2500   -999.2500     11.6658      9.9718      4.7649    107.4554 
  1645.5000      8.8711     72.6320      0.0236      2.4958     42.2471    -56.7215   -999.2500   -999.2500   -999.2500     12.0655     10.2438      5.9056    106.9019 
  1646.0000      8.6115     74.9117      0.0188      2.5081     41.9945    -56.7137   -999.2500   -999.2500   -999.2500     12.6400     10.5757      7.7228    106.8360 
  1646.5000      8.7818     76.7055      0.0233      2.5072     41.7624    -56.7226   -999.2500   -999.2500   -999.2500     13.1296     10.4328      5.2127    108.1038 
  1647.0000      8.8037     75.0017      0.0300      2.5047     42.2310    -56.6489   -999.2500   -999.2500   -999.2500     12.7418     10.1649      3.9878    108.6938 
  1647.5000      8.7953     73.1367      0.0256      2.5042     44.9117    -56.5315   -999.2500   -999.2500   -999.2500     12.3282      9.8916      5.4846    108.6083 
  1648.0000      8.7994     73.2091      0.0121      2.5038     44.1031    -56.4419   -999.2500   -999.2500   -999.2500     12.1213      9.6818      6.9031    108.5881 
  1648.5000      8.8081     74.6998      0.0224      2.5284     42.7186    -56.0830   -999.2500   -999.2500   -999.2500     12.3575      9.9304      6.5207    108.7414 
  1649.0000      8.8168     76.0365      0.0406      2.5453     41.9811    -56.2715   -999.2500   -999.2500   -999.2500     12.2089     10.1865      6.1914    108.3165 
  1649.5000      8.8371     76.7869      0.0136      2.5193     41.8880    -56.1522   -999.2500   -999.2500   -999.2500     12.5958     10.3247      5.2089    107.6579 
  1650.0000      8.8584     75.8553      0.0162      2.5094     41.4375    -56.2129   -999.2500   -999.2500   -999.2500     13.0179     10.2711      5.1797    107.8083 
  1650.5000      8.8798     74.9493      0.0361      2.5154     38.2822    -56.2582   -999.2500   -999.2500   -999.2500     12.6149     10.2600      6.1064    107.9835 
  1651.0000      8.9200     75.1380      0.0450      2.5180     38.1142    -56.1199   -999.2500   -999.2500   -999.2500     12.5830     10.3668      6.3238    107.9603 
  1651.5000      8.9329     75.5890      0.0497      2.5162     38.9194    -56.2897   -999.2500   -999.2500   -999.2500     13.1182     10.4747      4.8092    108.4629 
  1652.0000      8.9065     74.6210      0.0553      2.5213     40.0399    -56.4557   -999.2500   -999.2500   -999.2500     13.1892     10.6156      5.1431    108.8213 
  1652.5000      8.8681     73.7213      0.0469      2.5121     40.5065    -56.6039   -999.2500   -999.2500   -999.2500     13.1465     10.7963      7.8279    108.8974 
  1653.0000      8.8298     74.0724      0.0346      2.5029     39.8486    -56.6822   -999.2500   -999.2500   -999.2500     13.0781     11.0609      7.1042    109.1214 
  1653.5000      8.7914     75.8698      0.0600      2.5465     39.5838    -56.5771   -999.2500   -999.2500   -999.2500     12.9865     11.2791      6.1514    109.5287 
  1654.0000      8.7800     77.0642      0.0359      2.5226     40.6656    -56.4064   -999.2500   -999.2500   -999.2500     12.9486     11.3319      6.4204    109.2548 
  1654.5000      8.7883     75.3267      0.0328      2.5185     41.3407    -56.1122   -999.2500   -999.2500   -999.2500     13.0211     11.3677      6.9253    108.4801 
  1655.0000      8.7965     72.9741      0.0390      2.5406     40.9494    -55.8378   -999.2500   -999.2500   -999.2500     13.2274     11.5622      6.9737    107.7778 
  1655.5000      8.8062     71.8899      0.0305      2.5137     40.2307    -55.7119   -999.2500   -999.2500   -999.2500     13.6343     11.6585      7.0927    107.3085 
  1656.0000      8.8178     70.8210      0.0239      2.4805     40.7779    -55.5935   -999.2500   -999.2500   -999.2500     14.3432     12.3903      7.7969    107.0790 
  1656.5000      8.8260     69.2002      0.0180      2.4824     40.3999    -55.5560   -999.2500   -999.2500   -999.2500     16.0695     13.7466      9.3976    107.3345 
