~VERSION INFORMATION
 VERS.                           2.00:        CWLS LOG ASCII STANDARD - VERSION 2.00
 WRAP.                             NO:        ONE LINE PER DEPTH STEP
~WELL INFORMATION
#MNEM.UNIT                   DATA             INFORMATION
#----------             --------------        ------------------------------
 STRT.F                      101.0000:        START DEPTH
 STOP.F                     3666.0000:        STOP DEPTH
 STEP.F                        0.5000:        STEP VALUE
 NULL.                      -999.2500:        NULL VALUE
 COMP.     USGS/NPR HUSKY OIL COMPANY:        COMPANY
 LOC .                      9 20N 19W:        LOCATION
 DATE.                       12/30/79:        LOG DATE
 WELL.           WALAKPA TEST WELL #1:        WELL
 UWI .                   500232001300:        UNIQUE WELL ID
 API .                   500232001300:        UNIQUE WELL IDENTIFIER
 FLD .                        WILDCAT:        FIELD
 CNTY.                    NORTH SLOPE:        COUNTY
 STAT.                         ALASKA:        STATE
 CTRY.                            USA:        COUNTRY
 OPER.     USGS/NPR HUSKY OIL COMPANY:        OPERATOR
 SRVC.                   SCHLUMBERGER:        SERVICE COMPANY
 LAT .                         0.0000:        LATITUDE
 LON .                         0.0000:        LONGITUDE
 DIGS.               CENTER LINE DATA:        DIGITIZING COMPANY
~CURVE INFORMATION      
#MNEM        .UNIT         API CODE           CURVE DESCRIPTION
#-----------------      --------------        ------------------------------
 DEPT        .F                      :        1  DEPTH
 GR          .GAPI                   :        2  
 CALI        .IN                     :        3  
 RHOB        .G/C3                   :        4  
 DRHO        .G/C3                   :        5  
 NPHI        .%                      :        6  
 DT          .US/F                   :        7  
 SP          .MV                     :        8  
 ILD         .OHMM                   :        9  
 ILM         .OHMM                   :        10 
 LL8         .OHMM                   :        11 
 SFL         .OHMM                   :        12 
~PARAMETER INFORMATION
#MNEM.UNIT                  VALUE             DESCRIPTION OF MNEMONIC
#---------             ---------------        ------------------------------
 EKB .F                       50.0000:        KELLY BUSHING
 TD  .F                     3672.0000:        TOTAL DEPTH
 BHT .F                       80.0000:        BOTTOM HOLE TEMPERATURE
 BS  .                        12.2500:        BIT SIZE
 FD  .                         9.9000:        FLUID DENSITY
 CSIZ.                        13.3750:        CASING SIZE
 CBD .F                      100.0000:        CASING DRILLER 1
 CBL .F                      106.0000:        CASING LOGGER 1
 DFT .                             99:        TYPE FLUID IN HOLE
 DFV .                        45.0000:        VISCOSITY
 DFPH.                         8.0000:        PH
 DFL .                        23.0000:        FLUID LOSS
 RMS .                         5.9200:        RM
 MST .F                       58.0000:        RM MEAS. TEMP.
 RMF .                         6.2200:        RMF
 MFST.F                       57.0000:        RMF MEAS. TEMP.
 RMC .                         7.0500:        RMC
 MCST.F                       57.0000:        RMC MEAS. TEMP.
~OTHER INFORMATION
~A    DEPTH          GR        CALI        RHOB        DRHO        NPHI          DT          SP         ILD         ILM         LL8         SFL 
# ...
  2677.0000     98.0461      8.8103      2.3403      0.1596     30.9718     88.0700    -19.4943      8.7585      8.3614   -999.2500      9.7242 
  2677.5000    101.2759      8.8135      2.3143      0.1628     32.1534     88.3483    -19.7401      8.7422      8.3459   -999.2500      9.6093 
  2678.0000    103.7120      8.8059      2.3307      0.2025     32.9442     89.3450    -19.9104      8.7259      8.3303   -999.2500      9.4380 
  2678.5000    103.4546      8.7978      2.3468      0.1811     33.4374     89.5473    -20.0576      8.7097      8.3148   -999.2500      9.2697 
  2679.0000    102.1141      8.7879      2.3436      0.1563     33.6762     89.6686    -20.3270      8.6935      8.2994   -999.2500      9.3051 
  2679.5000    101.5631      8.7870      2.4070      0.1769     33.5894     89.7330    -20.5963      8.6773      8.2839   -999.2500      9.4395 
  2680.0000    100.6062      8.7860      2.4378      0.1338     32.6464     89.4989    -21.3340      8.7361      8.3257   -999.2500      9.6028 
  2680.5000     98.7704      8.7828      2.4408      0.0772     31.9163     89.2721    -20.3585      8.8510      8.4353   -999.2500      9.8575 
  2681.0000     98.1736      8.7722      2.4535      0.0316     31.4414     88.4131    -20.1484      8.9675      8.5463   -999.2500     10.1220 
  2681.5000     97.6722      8.7721      2.4837      0.0156     30.0910     86.9457    -20.4093      9.2998      8.7534   -999.2500     10.4568 
  2682.0000     96.3839      8.7801      2.5226      0.0318     28.9650     85.9033    -20.6701      9.5197      9.0876   -999.2500     10.9869 
  2682.5000     97.9647      8.7848      2.5286      0.0288     29.3798     85.1278    -20.9310      9.5500      9.1165   -999.2500     11.6925 
  2683.0000    100.5774      8.7847      2.4951      0.0087     29.7580     85.8039    -20.2388      9.5804      9.1456   -999.2500     12.4435 
  2683.5000    103.2319      8.7859      2.4619      0.0621     29.8507     87.1035    -19.5224      9.6109      9.1747   -999.2500     11.6990 
  2684.0000    103.9447      8.8060      2.4378      0.1203     30.3693     88.1788    -19.2658      9.5739      9.0987   -999.2500     10.9477 
  2684.5000    105.7023      8.8202      2.4082      0.1785     31.4177     90.2834    -19.1114      9.3757      8.9104   -999.2500     10.3284 
  2685.0000    106.9293      8.8093      2.3605      0.1677     33.0896     90.9242    -19.4508      9.1816      8.7261   -999.2500      9.8020 
  2685.5000    105.4403      8.7949      2.3328      0.1010     34.0470     92.1471    -19.7211      8.9916      8.5455   -999.2500      9.5071 
  2686.0000    102.9544      8.7870      2.3520      0.0601     32.7947     91.3370    -19.7199      8.8054      8.3686   -999.2500      9.3734 
  2686.5000    100.6743      8.7830      2.4000      0.0090     31.1173     89.8279    -19.7510      8.6231      8.2185   -999.2500      9.5198 
  2687.0000     99.9261      8.7791      2.4502      0.0170     30.0346     88.7209    -19.7006      8.5976      8.2076   -999.2500      9.6685 
  2687.5000    100.1681      8.7701      2.4648      0.0241     30.7542     88.0712    -19.5289      8.5863      8.1968   -999.2500      9.8194 
  2688.0000     99.5408      8.7567      2.4415      0.0300     31.2146     88.9793    -18.9412      8.5749      8.1860   -999.2500     10.1273 
  2688.5000     98.4558      8.7465      2.4279      0.0701     30.5879     89.9499    -18.7938      8.5636      8.1752   -999.2500      9.8844 
  2689.0000     97.4602      8.7692      2.4126      0.1396     30.4810     90.3004    -18.6964      8.5523      8.1644   -999.2500      9.6294 
  2689.5000     96.4463      8.7819      2.3883      0.1582     31.2208     90.6446    -18.3347      8.5410      8.1536   -999.2500      9.4481 
  2690.0000     96.7917      8.7865      2.2892      0.1161     32.5035     90.5855    -18.7468      8.5297      8.1428   -999.2500      9.2702 
  2690.5000     98.3902      8.7766      2.2822      0.0514     33.1681     89.9286    -19.6387      8.5185      8.1321   -999.2500      9.0956 
  2691.0000     99.8374      8.7433      2.3165      0.0570     32.4821     89.5768    -20.1305      8.5022      8.1160   -999.2500      9.1575 
  2691.5000    101.0581      8.7598      2.3611      0.1192     30.4006     89.6893    -20.2417      8.4776      8.0925   -999.2500      9.5184 
  2692.0000    102.5526      8.7763      2.3594      0.1676     29.5216     90.3147    -19.9534      8.4532      8.0692   -999.2500      9.4793 
  2692.5000    103.6110      8.7561      2.3386      0.1429     30.0883     89.7815    -19.5833      8.4288      8.0459   -999.2500      9.4356 
  2693.0000    103.6945      8.7266      2.3905      0.0851     30.1190     88.5744    -19.3295      8.4044      8.0227   -999.2500      9.5666 
  2693.5000    102.2327      8.6954      2.4052      0.0356     30.0658     88.1962    -19.2799      8.3802      7.9995   -999.2500      9.8478 
  2694.0000     99.5288      8.6968      2.4094      0.0556     29.3406     87.8057    -19.5486      8.3560      7.9765   -999.2500      9.9631 
  2694.5000     97.6989      8.7040      2.3954      0.1120     28.4229     89.5619    -19.8121      8.3318      7.9534   -999.2500      9.9648 
  2695.0000     96.9976      8.7334      2.3765      0.1696     29.2169     90.7399    -19.9115      8.3078      7.9305   -999.2500      9.6813 
  2695.5000     97.8420      8.7524      2.3108      0.1977     31.1168     92.2793    -20.0271      8.2838      7.9076   -999.2500      9.3173 
  2696.0000     98.2438      8.7593      2.2582      0.1694     33.0650     91.3340    -20.5169      8.2599      7.8848   -999.2500      8.9670 
  2696.5000     95.7164      8.7518      2.2842      0.1314     34.4734     90.3052    -20.9365      8.2360      7.8620   -999.2500      8.6660 
  2697.0000     91.9083      8.7227      2.3274      0.0634     34.3820     88.5047    -20.6197      8.2123      7.8394   -999.2500      8.7865 
  2697.5000     91.3553      8.6961      2.3707      0.0266     33.1466     87.3076    -20.4434      8.1885      7.8167   -999.2500      8.9984 
  2698.0000     95.5431      8.7066      2.4053      0.0253     31.9074     86.7113    -20.2671      8.1649      7.7942   -999.2500      9.9026 
  2698.5000    100.7173      8.7252      2.3877      0.1087     31.3669     88.7738    -20.0977      8.1413      7.7717   -999.2500     10.7062 
  2699.0000    103.2327      8.7751      2.3397      0.1999     32.2904     89.9850    -19.9414      8.1178      7.7493   -999.2500     10.0796 
  2699.5000    103.3743      8.7977      2.2252      0.1889     33.5023     92.3808    -19.8014      8.0944      7.7269   -999.2500      9.4897 
  2700.0000    103.2067      8.7942      2.2152      0.1740     34.2853     92.9478    -20.3074      8.0928      7.7260   -999.2500      8.9396 
  2700.5000    103.0950      8.7853      2.3073      0.1731     34.7174     91.3570    -20.3564      8.1015      7.7343   -999.2500      8.6160 
  2701.0000    103.4610      8.7836      2.3506      0.1615     33.9997     91.1727    -20.5088      8.1103      7.7427   -999.2500      8.4748 
  2701.5000    104.2839      8.7713      2.3770      0.1433     34.4337     90.8777    -20.9951      8.1190      7.7510   -999.2500      8.3776 
  2702.0000    105.8326      8.7570      2.3958      0.1163     35.3999     90.1476    -21.1513      8.1278      7.7594   -999.2500      8.5713 
  2702.5000    107.1322      8.7633      2.4010      0.0934     35.1157     89.7216    -20.5236      8.1366      7.7678   -999.2500      8.8229 
  2703.0000    106.9486      8.7608      2.4132      0.0781     34.6115     89.3341    -20.2897      8.1453      7.7762   -999.2500      9.1614 
  2703.5000    106.6723      8.7468      2.3966      0.0636     33.6932     89.1461    -20.0171      8.1541      7.7846   -999.2500      9.5056 
  2704.0000    106.8869      8.7531      2.3977      0.0691     32.3477     90.2444    -19.6200      8.1629      7.7930   -999.2500      9.5638 
  2704.5000    106.8632      8.7621      2.4029      0.1573     32.1856     91.4395    -19.4844      8.1717      7.8014   -999.2500      9.3159 
