~VERSION INFORMATION
 VERS.                           2.00:        CWLS LOG ASCII STANDARD - VERSION 2.00
 WRAP.                             NO:        ONE LINE PER DEPTH STEP
~WELL INFORMATION
#MNEM.UNIT                   DATA             INFORMATION
#----------             --------------        ------------------------------
 STRT.F                       68.0000:        START DEPTH
 STOP.F                     2380.0000:        STOP DEPTH
 STEP.F                        0.5000:        STEP VALUE
 NULL.                      -999.2500:        NULL VALUE
 COMP.                     USGS/NPR-A:        COMPANY  
 LOC .                   30  22N  16W:        LOCATION   
 DATE.                        3/18/78:        LOG DATE 
 WELL.               SOUTH BARROW #17:        WELL     
 UWI .                   500232001100:        UNIQUE WELL ID 
 API .                   500232001100:        UNIQUE WELL IDENTIFIER 
 FLD .                   SOUTH BARROW:        FIELD    
 CNTY.                     NOTH SLOPE:        COUNTY  
 STAT.                         ALASKA:        STATE   
 CTRY.                            USA:        COUNTRY 
 OPER.                     USGS/NPR-A:        OPERATOR  
 SRVC.                   SCHLUMBERGER:        SERVICE COMPANY 
 LAT .                         0.0000:        LATITUDE
 LON .                         0.0000:        LONGITUDE
 DIGS.               CENTER LINE DATA:        DIGITIZING COMPANY 
~CURVE INFORMATION      
#MNEM        .UNIT         API CODE           CURVE DESCRIPTION
#-----------------      --------------        ------------------------------
 DEPT        .F                      :        1  DEPTH
 CALI        .IN                     :        2  
 GR          .GAPI                   :        3  
 NPHI        .%                      :        4  
 RHOB        .G/C3                   :        5  
 DRHO        .G/C3                   :        6  
 DT          .US/F                   :        7  
 SP          .MV                     :        8  
 ILD         .OHMM                   :        9  
 ILM         .OHMM                   :        10 
 LL8         .OHMM                   :        11 
 LLD         .OHMM                   :        12 
 LLS         .OHMM                   :        13 
~PARAMETER INFORMATION       
#MNEM.UNIT                  VALUE             DESCRIPTION OF MNEMONIC
#---------             ---------------        ------------------------------
 EKB .F                       33.0000:        KELLY BUSHING
 TD  .F                     2382.0000:        TOTAL DEPTH
 BHT .F                        0.0000:        BOTTOM HOLE TEMPERATURE
 BS  .                         8.5000:        BIT SIZE
 FD  .                        10.8000:        FLUID DENSITY
 CSIZ.                         9.6250:        CASING SIZE
 CBD .F                     1512.0000:        CASING DRILLER 1
 CBL .F                     1512.0000:        CASING LOGGER 1
 DFT .                  Miscellaneous:        TYPE FLUID IN HOLE
 DFV .                        43.0000:        VISCOSITY
 DFPH.                         8.5000:        PH
 DFL .                         4.0000:        FLUID LOSS
 RMS .                         0.0760:        RM
 MST .F                       60.0000:        RM MEAS. TEMP.
 RMF .                         0.0000:        RMF
 MFST.F                        0.0000:        RMF MEAS. TEMP.
 RMC .                         0.1640:        RMC
 MCST.F                       55.0000:        RMC MEAS. TEMP.
~OTHER INFORMATION
~A    DEPTH        CALI          GR        NPHI        RHOB        DRHO          DT          SP         ILD         ILM         LL8         LLD         LLS  
# ...
   858.5000     14.1242     86.6719   -999.2500   -999.2500   -999.2500    129.5438    -53.8230      8.6522      8.3630     10.4351   -999.2500   -999.2500  
   859.0000     14.0731     87.2723   -999.2500   -999.2500   -999.2500    128.9328    -53.8452      8.6640      8.3858     10.5346   -999.2500   -999.2500  
   859.5000     14.0898     88.0052   -999.2500   -999.2500   -999.2500    128.3358    -55.8366      8.7153      8.4087     10.7048   -999.2500   -999.2500  
   860.0000     14.1252     85.8806   -999.2500   -999.2500   -999.2500    127.8343    -57.6548      8.8146      8.4317     10.8278   -999.2500   -999.2500  
   860.5000     14.1634     82.2906   -999.2500   -999.2500   -999.2500    127.3328    -58.9132      8.9150      8.4548     10.8450   -999.2500   -999.2500  
   861.0000     14.2016     80.4843   -999.2500   -999.2500   -999.2500    126.9317    -59.5827      9.0166      8.6169     10.8187   -999.2500   -999.2500  
   861.5000     14.2211     80.4116   -999.2500   -999.2500   -999.2500    127.2411    -59.2654      9.1193      8.7927     10.7510   -999.2500   -999.2500  
   862.0000     14.1452     80.6637   -999.2500   -999.2500   -999.2500    128.0621    -58.3784      9.2233      8.9721     10.8695   -999.2500   -999.2500  
   862.5000     14.1546     79.9681   -999.2500   -999.2500   -999.2500    128.6842    -58.4908      9.2906      8.9875     11.1747   -999.2500   -999.2500  
   863.0000     14.1943     78.4769   -999.2500   -999.2500   -999.2500    129.0527    -59.0651      9.2443      8.9333     11.3872   -999.2500   -999.2500  
   863.5000     14.1809     77.6780   -999.2500   -999.2500   -999.2500    129.2517    -60.0697      9.1983      8.8794     11.2022   -999.2500   -999.2500  
   864.0000     14.2295     78.3464   -999.2500   -999.2500   -999.2500    128.8946    -60.9987      9.1526      8.8259     11.1323   -999.2500   -999.2500  
   864.5000     14.2759     79.3459   -999.2500   -999.2500   -999.2500    129.0024    -60.4625      9.1070      8.7726     11.0973   -999.2500   -999.2500  
   865.0000     14.1619     80.8432   -999.2500   -999.2500   -999.2500    130.0462    -58.3878      9.0617      8.7197     10.8753   -999.2500   -999.2500  
   865.5000     14.1109     81.3950   -999.2500   -999.2500   -999.2500    130.9213    -56.7575      9.0166      8.6671     10.7202   -999.2500   -999.2500  
   866.0000     14.0855     81.8647   -999.2500   -999.2500   -999.2500    131.7965    -56.7309      8.9730      8.6149     10.7772   -999.2500   -999.2500  
   866.5000     14.1155     79.1485   -999.2500   -999.2500   -999.2500    131.6783    -58.1930      8.9470      8.5934     10.8441   -999.2500   -999.2500  
   867.0000     14.3160     75.8854   -999.2500   -999.2500   -999.2500    130.9067    -59.9179      8.9211      8.5858     10.8145   -999.2500   -999.2500  
   867.5000     14.4768     73.3484   -999.2500   -999.2500   -999.2500    130.4133    -60.8767      8.8953      8.5524     10.5953   -999.2500   -999.2500  
   868.0000     14.3809     72.7430   -999.2500   -999.2500   -999.2500    130.2453    -60.7641      8.8696      8.5190     10.4496   -999.2500   -999.2500  
   868.5000     14.2866     73.6577   -999.2500   -999.2500   -999.2500    130.1281    -60.5173      8.8440      8.4858     10.3365   -999.2500   -999.2500  
   869.0000     14.3073     75.0881   -999.2500   -999.2500   -999.2500    129.8877    -61.3090      8.8184      8.4528     10.4529   -999.2500   -999.2500  
   869.5000     14.2841     76.3464   -999.2500   -999.2500   -999.2500    129.4578    -63.2605      8.7929      8.4198     10.6749   -999.2500   -999.2500  
   870.0000     14.2240     76.8278   -999.2500   -999.2500   -999.2500    129.3495    -64.7065      8.7674      8.3870     10.6229   -999.2500   -999.2500  
   870.5000     14.2054     77.1643   -999.2500   -999.2500   -999.2500    129.4663    -64.8033      8.7421      8.3543     10.3640   -999.2500   -999.2500  
   871.0000     14.0511     78.8943   -999.2500   -999.2500   -999.2500    129.4646    -62.9031      8.7168      8.3218     10.3295   -999.2500   -999.2500  
   871.5000     14.1571     81.0004   -999.2500   -999.2500   -999.2500    129.3348    -61.3940      8.6916      8.2893     10.3333   -999.2500   -999.2500  
   872.0000     14.2113     83.6821   -999.2500   -999.2500   -999.2500    128.5298    -61.9618      8.6664      8.2570     10.3725   -999.2500   -999.2500  
   872.5000     14.1366     84.4514   -999.2500   -999.2500   -999.2500    127.6303    -62.0850      8.6552      8.2249     10.4070   -999.2500   -999.2500  
   873.0000     14.0620     83.9041   -999.2500   -999.2500   -999.2500    129.0023    -61.9944      8.6642      8.2067     10.4385   -999.2500   -999.2500  
   873.5000     14.1090     82.5933   -999.2500   -999.2500   -999.2500    129.9474    -61.7572      8.6732      8.2218     10.5768   -999.2500   -999.2500  
   874.0000     14.1730     81.2722   -999.2500   -999.2500   -999.2500    130.0775    -60.6484      8.6823      8.2369     10.7342   -999.2500   -999.2500  
   874.5000     14.2428     82.2305   -999.2500   -999.2500   -999.2500    129.2637    -60.5570      8.6913      8.2520     10.7266   -999.2500   -999.2500  
   875.0000     14.3363     83.3019   -999.2500   -999.2500   -999.2500    127.6633    -59.8839      8.7004      8.2671     10.6366   -999.2500   -999.2500  
   875.5000     14.4298     84.4383   -999.2500   -999.2500   -999.2500    127.1819    -60.1780      8.7094      8.2823     10.5964   -999.2500   -999.2500  
   876.0000     14.5233     85.2343   -999.2500   -999.2500   -999.2500    127.6165    -62.1385      8.7185      8.2975     10.6230   -999.2500   -999.2500  
   876.5000     14.4774     84.7496   -999.2500   -999.2500   -999.2500    128.2344    -63.4275      8.7276      8.3127     10.5052   -999.2500   -999.2500  
   877.0000     14.3603     83.2938   -999.2500   -999.2500   -999.2500    128.0614    -62.6466      8.7366      8.3793     10.5940   -999.2500   -999.2500  
   877.5000     14.2431     82.2920   -999.2500   -999.2500   -999.2500    128.2539    -62.0541      8.7457      8.4512     10.7308   -999.2500   -999.2500  
   878.0000     14.1853     81.6902   -999.2500   -999.2500   -999.2500    128.7322    -62.9613      8.7548      8.5237     10.8575   -999.2500   -999.2500  
   878.5000     14.1709     80.4338   -999.2500   -999.2500   -999.2500    128.9042    -63.6891      8.7640      8.5968     10.9536   -999.2500   -999.2500  
   879.0000     14.1565     78.1653   -999.2500   -999.2500   -999.2500    128.5666    -62.5748      8.7731      8.6302     10.9489   -999.2500   -999.2500  
   879.5000     14.1781     75.8402   -999.2500   -999.2500   -999.2500    127.9181    -61.3323      8.7822      8.6596     10.7884   -999.2500   -999.2500  
   880.0000     14.2723     75.2605   -999.2500   -999.2500   -999.2500    126.5029    -61.1880      8.7914      8.6891     10.6365   -999.2500   -999.2500  
   880.5000     14.3915     75.8116   -999.2500   -999.2500   -999.2500    126.0177    -61.2296      8.8005      8.7188     10.5824   -999.2500   -999.2500  
   881.0000     14.4199     77.1152   -999.2500   -999.2500   -999.2500    127.7875    -61.2489      8.8097      8.7485     10.6089   -999.2500   -999.2500  
   881.5000     14.4070     78.6947   -999.2500   -999.2500   -999.2500    129.2306    -62.4540      8.8215      8.7783     10.6343   -999.2500   -999.2500  
   882.0000     14.3511     79.6117   -999.2500   -999.2500   -999.2500    130.5004    -61.9068      8.9065      8.8082     10.7364   -999.2500   -999.2500  
   882.5000     14.4052     79.1057   -999.2500   -999.2500   -999.2500    131.4477    -61.4772      8.9923      8.8382     10.9041   -999.2500   -999.2500  
   883.0000     14.6270     77.1920   -999.2500   -999.2500   -999.2500    132.5375    -61.7234      9.0789      8.8684     10.9717   -999.2500   -999.2500  
   883.5000     14.7891     75.9286   -999.2500   -999.2500   -999.2500    131.9250    -62.7592      9.1664      8.9255     10.9560   -999.2500   -999.2500  
