~VERSION INFORMATION
 VERS.                           2.00:        CWLS LOG ASCII STANDARD - VERSION 2.00
 WRAP.                             NO:        ONE LINE PER DEPTH STEP
~WELL INFORMATION
#MNEM.UNIT                   DATA             INFORMATION
#----------             --------------        ------------------------------
 STRT.F                       25.0000:        START DEPTH
 STOP.F                     2347.0000:        STOP DEPTH
 STEP.F                        0.5000:        STEP VALUE
 NULL.                      -999.2500:        NULL VALUE
 COMP.        HUSKY OIL COMPANY/NPR-A:        COMPANY
 LOC .                     26 22N 17W:        LOCATION
 DATE.                        4/14/80:        LOG DATE
 WELL.                     BARROW #20:        WELL
 UWI .                   500232001500:        UNIQUE WELL ID
 API .                   500232001500:        UNIQUE WELL IDENTIFIER
 FLD .                   SOUTH BARROW:        FIELD
 CNTY.                    NORTH SLOPE:        COUNTY
 STAT.                        ALAASKA:        STATE
 CTRY.                            USA:        COUNTRY
 OPER.        HUSKY OIL COMPANY/NPR-A:        OPERATOR
 SRVC.                   SCHLUMBERGER:        SERVICE COMPANY
 LAT .                         0.0000:        LATITUDE
 LON .                         0.0000:        LONGITUDE
 DIGS.               CENTER LINE DATA:        DIGITIZING COMPANY
~CURVE INFORMATION      
#MNEM        .UNIT         API CODE           CURVE DESCRIPTION
#-----------------      --------------        ------------------------------
 DEPT        .F                      :        1  DEPTH
 CALI        .IN                     :        2  
 GR          .GAPI                   :        3  
 DRHO        .G/C3                   :        4  
 RHOB        .G/C3                   :        5  
 NPHI        .%                      :        6  
 SP          .MV                     :        7  
 ILD         .OHMM                   :        8  
 ILM         .OHMM                   :        9  
 SFL         .OHMM                   :        10 
 LLD         .OHMM                   :        11 
 LLS         .OHMM                   :        12 
 MSFL        .OHMM                   :        13 
 DT          .US/F                   :        14 
~PARAMETER INFORMATION
#MNEM.UNIT                  VALUE             DESCRIPTION OF MNEMONIC
#---------             ---------------        ------------------------------
 EKB .F                       30.0000:        KELLY BUSHING
 TD  .F                     2356.0000:        TOTAL DEPTH
 BHT .F                        0.0000:        BOTTOM HOLE TEMPERATURE
 BS  .                         8.5000:        BIT SIZE
 FD  .                        10.8000:        FLUID DENSITY
 CSIZ.                         9.6250:        CASING SIZE
 CBD .F                     1500.0000:        CASING DRILLER 1
 CBL .F                     1485.0000:        CASING LOGGER 1
 DFT .                            GEL:        TYPE FLUID IN HOLE
 DFV .                        10.0000:        VISCOSITY
 DFPH.                         9.0000:        PH
 DFL .                        10.0000:        FLUID LOSS
 RMS .                         0.1840:        RM
 MST .F                       61.0000:        RM MEAS. TEMP.
 RMF .                         0.1270:        RMF
 MFST.F                       61.0000:        RMF MEAS. TEMP.
 RMC .                         0.2660:        RMC
 MCST.F                       61.0000:        RMC MEAS. TEMP.
~OTHER INFORMATION
~A    DEPTH        CALI          GR        DRHO        RHOB        NPHI          SP         ILD         ILM         SFL         LLD         LLS        MSFL          DT 
# ...
  1513.0000      9.1026     75.8258      0.0043      2.4734     41.9922    -59.5248   -999.2500   -999.2500   -999.2500     13.5644      9.5748      3.9436    108.5207 
  1513.5000      8.9639     73.8825      0.0073      2.4985     42.1655    -59.4393   -999.2500   -999.2500   -999.2500     25.4771      9.6749      4.1603    108.5604 
  1514.0000      8.9271     74.9010      0.0088      2.4879     42.4452    -59.4840   -999.2500   -999.2500   -999.2500     10.4939      9.3469      4.7812    108.6667 
  1514.5000      8.8961     75.3824      0.0065      2.4777     42.2210    -59.4888   -999.2500   -999.2500   -999.2500     10.4014      9.0654      5.3167    109.0080 
  1515.0000      8.8837     74.3811      0.0085      2.4768     41.8352    -59.3452   -999.2500   -999.2500   -999.2500     12.1685      8.7924      3.8642    109.3987 
  1515.5000      8.8902     73.9132      0.0138      2.4800     41.4639    -59.2983   -999.2500   -999.2500   -999.2500     11.9872      8.5276      2.8061    109.4545 
  1516.0000      8.8981     74.0087      0.0106      2.4846     41.4667    -59.5018   -999.2500   -999.2500   -999.2500      9.7124      8.2798      2.6492    110.0472 
  1516.5000      8.9061     74.1807      0.0070      2.4793     41.7318    -59.7053   -999.2500   -999.2500   -999.2500      9.9862      8.6421      3.2484    111.3915 
  1517.0000      8.9140     74.1655      0.0048      2.4754     41.4544    -59.6446   -999.2500   -999.2500   -999.2500     10.4139      9.2206      4.2725    112.8910 
  1517.5000      8.9147     74.4175      0.0076      2.4792     41.0018    -59.6052   -999.2500   -999.2500   -999.2500     10.8600      9.3168      4.7107    113.7680 
  1518.0000      8.8886     74.8640      0.0108      2.4781     40.0471    -59.5651   -999.2500   -999.2500   -999.2500     10.9819      8.9381      4.4757    113.4105 
  1518.5000      8.8620     74.8518      0.0016      2.4750     39.4461    -59.4385   -999.2500   -999.2500   -999.2500     10.6276      8.5912      4.9046    111.6322 
  1519.0000      8.8370     74.7091     -0.0006      2.4799     39.2466    -59.3120   -999.2500   -999.2500   -999.2500     10.2190      8.6697      5.4033    112.1408 
  1519.5000      8.8233     74.7337      0.0002      2.5016     38.7014    -59.1854   -999.2500   -999.2500   -999.2500      9.9518      8.8739      5.9526    120.2740 
  1520.0000      8.8136     75.5039      0.0140      2.5136     36.9460    -59.0589   -999.2500   -999.2500   -999.2500     10.0144      8.9828      6.3361    125.7564 
  1520.5000      8.8320     76.2081      0.0099      2.5011     37.1124    -58.9323   -999.2500   -999.2500   -999.2500     10.1797      8.9527      6.4819    119.8941 
  1521.0000      8.9772     75.8847      0.0079      2.4942     38.8764    -58.8058   -999.2500   -999.2500   -999.2500     10.3478      8.9013      6.7019    116.2117 
  1521.5000      8.8822     75.0312      0.0015      2.4891     40.3361    -58.6792   -999.2500   -999.2500   -999.2500     10.2574      9.2115      7.1857    110.7684 
  1522.0000      8.7873     74.4613     -0.0010      2.4868     40.2388    -58.5452   -999.2500   -999.2500   -999.2500     10.1494      9.4703      7.7044    111.4239 
  1522.5000      8.8864     74.5075      0.0018      2.5013     39.5443    -58.4032   -999.2500   -999.2500   -999.2500     10.4112      9.6568      8.0697    112.2687 
  1523.0000      8.9273     75.3170      0.0087      2.4912     39.4129    -58.2611   -999.2500   -999.2500   -999.2500     11.0850      9.6334      8.3357    112.4466 
  1523.5000      8.7327     76.2626      0.0111      2.4804     39.4632    -58.1190   -999.2500   -999.2500   -999.2500     11.4495      9.6073      8.0946    112.0378 
  1524.0000      8.8688     75.7048      0.0069      2.4590     40.2574    -57.9769   -999.2500   -999.2500   -999.2500     10.9176      9.5839      7.2715    111.4939 
  1524.5000      8.7934     73.6549      0.0072      2.4794     41.0762    -57.8348   -999.2500   -999.2500   -999.2500     10.9754      9.5608      7.4909    111.1125 
  1525.0000      8.9376     71.4508      0.0064      2.4957     41.2970    -57.6358   -999.2500   -999.2500   -999.2500     11.0927      9.5378      7.5875    111.1587 
  1525.5000      8.8770     70.0944      0.0029      2.4990     41.3635    -57.4944   -999.2500   -999.2500   -999.2500     10.9593      9.5567      6.5671    110.4788 
  1526.0000      8.9561     71.3333      0.0016      2.4904     41.1155    -57.3367   -999.2500   -999.2500   -999.2500     11.0754      9.6100      1.8998    109.5387 
  1526.5000      8.9685     72.5967      0.0040      2.4857     40.4435    -57.1761   -999.2500   -999.2500   -999.2500     11.4409      9.6636      0.9032    109.5166 
  1527.0000      8.9218     72.0085      0.0091      2.4845     39.9626    -56.8267   -999.2500   -999.2500   -999.2500     12.6209     10.3263      0.7502    108.1879 
  1527.5000      8.8897     69.6420      0.0202      2.4814     39.8320    -56.7358   -999.2500   -999.2500   -999.2500     13.8644     11.0778      1.2702    107.7012 
  1528.0000      8.8925     67.6241      0.0262      2.4743     39.7888    -56.9294   -999.2500   -999.2500   -999.2500     14.5757     11.4698      4.6604    113.6974 
  1528.5000      8.8868     66.3390      0.0251      2.4632     39.9123    -57.0492   -999.2500   -999.2500   -999.2500     14.1365     11.5389      5.5359    122.6670 
  1529.0000      8.8742     64.9909      0.0220      2.4489     40.2863    -57.3898   -999.2500   -999.2500   -999.2500     13.2276     10.9148      5.2100    124.5282 
  1529.5000      8.8617     65.6827      0.0437      2.4292     40.2806    -57.6621   -999.2500   -999.2500   -999.2500     12.7426     10.4341      6.6133    123.4116 
  1530.0000      8.9154     68.4658      0.0221      2.3933     40.5897    -57.8926   -999.2500   -999.2500   -999.2500     11.5167     10.0831      7.7251    118.5474 
  1530.5000      8.9004     71.8392      0.0007      2.4045     41.1788    -57.9425   -999.2500   -999.2500   -999.2500     11.5075      9.9552      6.3026    106.8007 
  1531.0000      8.8112     72.2018      0.0062      2.4742     41.8660    -57.8895   -999.2500   -999.2500   -999.2500     12.0375     10.1057      4.4901    106.5115 
  1531.5000      8.8766     70.8691      0.0121      2.5055     40.7180    -57.9115   -999.2500   -999.2500   -999.2500     12.5919     10.2974      3.1702    106.5252 
  1532.0000      8.9289     70.8110      0.0058      2.4950     39.5282    -57.9325   -999.2500   -999.2500   -999.2500     12.4392     10.4951      3.1474    107.5325 
  1532.5000      8.7833     70.9958      0.0037      2.4865     38.9125    -57.9580   -999.2500   -999.2500   -999.2500     12.0039     10.0165      3.2130    110.2746 
  1533.0000      8.8462     71.4336      0.0036      2.4861     38.8472    -57.9834   -999.2500   -999.2500   -999.2500     11.4018      9.3428      3.1678    112.1259 
  1533.5000      8.9496     72.1713      0.0026      2.4967     38.2705    -58.0089   -999.2500   -999.2500   -999.2500     10.8892      8.7411      3.1573    113.2673 
  1534.0000      8.8682     71.9510      0.0055      2.5028     37.3990    -58.0344   -999.2500   -999.2500   -999.2500     10.3995      8.3121      3.6795    114.4648 
  1534.5000      8.7581     71.5591      0.0192      2.5015     37.1407    -58.0599   -999.2500   -999.2500   -999.2500     10.1763      8.4138      4.7362    112.5752 
  1535.0000      8.8313     71.2924      0.0344      2.4990     37.0861    -58.0854   -999.2500   -999.2500   -999.2500     10.3619      8.8090      6.2227    111.3026 
  1535.5000      8.8841     71.0455      0.0359      2.4919     38.7423    -58.1113   -999.2500   -999.2500   -999.2500     10.7455      8.9269      7.0819    109.9910 
  1536.0000      8.9177     71.3873      0.0428      2.4984     40.3200    -58.1502   -999.2500   -999.2500   -999.2500     11.1298      9.3330      7.3140    108.6678 
  1536.5000      8.9513     73.3361      0.0432      2.5128     41.0856    -58.2346   -999.2500   -999.2500   -999.2500     11.8311      9.6496      7.7569    107.7308 
