~VERSION INFORMATION
 VERS.                           2.00:        CWLS LOG ASCII STANDARD - VERSION 2.00
 WRAP.                             NO:        ONE LINE PER DEPTH STEP
~WELL INFORMATION
#MNEM.UNIT                   DATA             INFORMATION
#----------             --------------        ------------------------------
 STRT.F                       98.0000:        START DEPTH
 STOP.F                     2124.0000:        STOP DEPTH
 STEP.F                        0.5000:        STEP VALUE
 NULL.                      -999.2500:        NULL VALUE
 COMP.          USGS/NPR-A OPERATIONS:        COMPANY  
 LOC .                   24  22N  17W:        LOCATION   
 DATE.                        10/5/80:        LOG DATE 
 WELL.               SOUTH BARROW #18:        WELL     
 UWI .                   500232001700:        UNIQUE WELL ID 
 API .                   500232001700:        UNIQUE WELL IDENTIFIER 
 FLD .                   SOUTH BARROW:        FIELD    
 CNTY.                    NORTH SLOPE:        COUNTY  
 STAT.                         ALASKA:        STATE   
 CTRY.                            USA:        COUNTRY 
 OPER.          USGS/NPR-A OPERATIONS:        OPERATOR  
 SRVC.                   SCHLUMBERGER:        SERVICE COMPANY 
 LAT .                         0.0000:        LATITUDE
 LON .                         0.0000:        LONGITUDE
 DIGS.               CENTER LINE DATA:        DIGITIZING COMPANY 
~CURVE INFORMATION      
#MNEM        .UNIT         API CODE           CURVE DESCRIPTION
#-----------------      --------------        ------------------------------
 DEPT        .F                      :        1  DEPTH
 CALI        .IN                     :        2  
 GR          .GAPI                   :        3  
 NPHI        .%                      :        4  
 RHOB        .G/C3                   :        5  
 DRHO        .G/C3                   :        6  
 DT          .US/F                   :        7  
 SP          .MV                     :        8  
 ILD         .OHMM                   :        9  
 ILM         .OHMM                   :        10 
 SFL         .OHMM                   :        11 
 LLD         .OHMM                   :        12 
 LLS         .OHMM                   :        13 
 MSFL        .OHMM                   :        14 
~PARAMETER INFORMATION       
#MNEM.UNIT                  VALUE             DESCRIPTION OF MNEMONIC
#---------             ---------------        ------------------------------
 EKB .F                       30.0000:        KELLY BUSHING
 TD  .F                     2125.0000:        TOTAL DEPTH
 BHT .F                        0.0000:        BOTTOM HOLE TEMPERATURE
 BS  .                         8.5000:        BIT SIZE
 FD  .                        10.3000:        FLUID DENSITY
 CSIZ.                         9.6250:        CASING SIZE
 CBD .F                     1519.0000:        CASING DRILLER 1
 CBL .F                     1520.0000:        CASING LOGGER 1
 DFT .                  Miscellaneous:        TYPE FLUID IN HOLE
 DFV .                        47.0000:        VISCOSITY
 DFPH.                         8.5000:        PH
 DFL .                        14.0000:        FLUID LOSS
 RMS .                         0.1600:        RM
 MST .F                       43.0000:        RM MEAS. TEMP.
 RMF .                         0.1100:        RMF
 MFST.F                       43.0000:        RMF MEAS. TEMP.
 RMC .                         0.1200:        RMC
 MCST.F                       43.0000:        RMC MEAS. TEMP.
~OTHER INFORMATION
~A    DEPTH        CALI          GR        NPHI        RHOB        DRHO          DT          SP         ILD         ILM         SFL         LLD         LLS        MSFL  
# ...
  1706.0000      9.3233     93.0072     32.7267      2.4996      0.0052     93.7552   -999.2500   -999.2500   -999.2500   -999.2500     17.3847     15.2250     14.7459  
  1706.5000      9.3031     92.4525     32.0737      2.4929      0.0124     93.0352   -999.2500   -999.2500   -999.2500   -999.2500     18.1769     15.3149     14.8396  
  1707.0000      9.3047     92.0403     32.5270      2.4901      0.0148     92.4618   -999.2500   -999.2500   -999.2500   -999.2500     18.7055     15.6813     15.3077  
  1707.5000      9.3128     91.7902     33.0624      2.4855      0.0152     90.7551   -999.2500   -999.2500   -999.2500   -999.2500     18.7745     16.3753     15.9429  
  1708.0000      9.3131     90.9336     32.8368      2.4933      0.0146     89.4818   -999.2500   -999.2500   -999.2500   -999.2500     20.1098     17.1001     16.6044  
  1708.5000      9.3023     89.4937     32.4117      2.5000      0.0099     90.5176   -999.2500   -999.2500   -999.2500   -999.2500     21.5604     17.8569     17.2876  
  1709.0000      9.2958     88.6290     32.5802      2.5146      0.0189     91.0439   -999.2500   -999.2500   -999.2500   -999.2500     21.7236     18.1384     17.3769  
  1709.5000      9.2621     87.4799     33.1557      2.5310      0.0289     91.5481   -999.2500   -999.2500   -999.2500   -999.2500     21.7209     18.1381     17.0145  
  1710.0000      9.2168     87.0589     33.3261      2.5284      0.0366     92.7926   -999.2500   -999.2500   -999.2500   -999.2500     20.9251     17.8918     16.9722  
  1710.5000      9.1952     89.4322     32.0906      2.5169      0.0203     92.3339   -999.2500   -999.2500   -999.2500   -999.2500     20.9316     18.4422     17.8256  
  1711.0000      9.1943     90.1033     30.7972      2.5063      0.0070     91.8372   -999.2500   -999.2500   -999.2500   -999.2500     22.4997     22.1650     20.6481  
  1711.5000      9.1911     88.0335     30.3176      2.4984      0.0089     91.9416   -999.2500   -999.2500   -999.2500   -999.2500     29.2692     26.5522     24.3245  
  1712.0000      9.1859     83.0794     29.7771      2.4850      0.0099     93.8130   -999.2500   -999.2500   -999.2500   -999.2500     32.4357     27.9519     25.1893  
  1712.5000      9.1740     76.7511     29.0513      2.4738      0.0206    168.4165   -999.2500   -999.2500   -999.2500   -999.2500     31.7489     26.8479     19.8956  
  1713.0000      9.1938     72.2854     27.8876      2.4626      0.0273     89.0681   -999.2500   -999.2500   -999.2500   -999.2500     29.0154     24.4957     18.6480  
  1713.5000      9.1893     74.5010     26.4020      2.4514      0.0209     81.3162   -999.2500   -999.2500   -999.2500   -999.2500     24.3824     20.6615     18.5660  
  1714.0000      9.1867     81.0140     25.4976      2.4816      0.0097     86.6962   -999.2500   -999.2500   -999.2500   -999.2500     22.7813     19.7280     18.2252  
  1714.5000      9.1922     86.8225     25.6832      2.5262      0.0233     89.8908   -999.2500   -999.2500   -999.2500   -999.2500     21.7522     18.8368     17.6570  
  1715.0000      9.1871     87.3626     27.2389      2.5369      0.0271     51.9637   -999.2500   -999.2500   -999.2500   -999.2500     20.7695     18.5607     16.8743  
  1715.5000      9.1877     87.2695     28.3950      2.5364      0.0272     91.9781   -999.2500   -999.2500   -999.2500   -999.2500     20.2020     18.0395     16.5395  
  1716.0000      9.1883     87.6871     28.7925      2.5332      0.0288     92.2506   -999.2500   -999.2500   -999.2500   -999.2500     19.9330     17.1428     16.2114  
  1716.5000      9.1870     88.2416     29.3118      2.5239      0.0306     91.8275   -999.2500   -999.2500   -999.2500   -999.2500     19.4354     16.2908     15.9313  
  1717.0000      9.1840     87.4112     30.0831      2.5144      0.0225     91.5896   -999.2500   -999.2500   -999.2500   -999.2500     19.4125     16.4712     15.9518  
  1717.5000      9.1885     86.8904     30.6417      2.5073      0.0161     90.4885   -999.2500   -999.2500   -999.2500   -999.2500     19.5364     16.6543     15.9722  
  1718.0000      9.1831     86.5216     31.0546      2.4974      0.0144     70.7906   -999.2500   -999.2500   -999.2500   -999.2500     19.2486     16.8395     15.9029  
  1718.5000      9.1849     87.1667     31.5426      2.4884      0.0094     91.5683   -999.2500   -999.2500   -999.2500   -999.2500     18.9981     16.9813     15.0392  
  1719.0000      9.1886     87.9094     32.3917      2.4918      0.0050     91.5669   -999.2500   -999.2500   -999.2500   -999.2500     19.1308     16.7732     14.5591  
  1719.5000      9.1919     88.8249     31.9048      2.5066      0.0233     83.4860   -999.2500   -999.2500   -999.2500   -999.2500     19.2645     16.6290     14.3954  
  1720.0000      9.1854     90.0039     31.2332      2.5315      0.0457     69.0693   -999.2500   -999.2500   -999.2500   -999.2500     18.7461     16.4208     13.8210  
  1720.5000      9.1816     90.5511     31.4687      2.5450      0.0470     93.5901   -999.2500   -999.2500   -999.2500   -999.2500     18.4490     16.1899     11.6297  
  1721.0000      9.1822     90.2318     31.5933      2.5276      0.0338     92.4246   -999.2500   -999.2500   -999.2500   -999.2500     18.4758     16.1153     10.3741  
  1721.5000      9.1838     89.5923     31.4240      2.5232      0.0394     90.9729   -999.2500   -999.2500   -999.2500   -999.2500     18.5623     16.2223     11.2108  
  1722.0000      9.1816     89.1328     30.9340      2.5204      0.0327     91.8606   -999.2500   -999.2500   -999.2500   -999.2500     18.9803     16.5921     13.6798  
  1722.5000      9.1920     88.5747     30.6383      2.5191      0.0265     93.1713   -999.2500   -999.2500   -999.2500   -999.2500     19.3732     17.6056     14.7717  
  1723.0000      9.1844     87.7406     30.7447      2.5224      0.0198     94.0246   -999.2500   -999.2500   -999.2500   -999.2500     19.7742     17.1651     11.8946  
  1723.5000      9.1847     87.1777     30.7542      2.5321      0.0363     94.1812   -999.2500   -999.2500   -999.2500   -999.2500     18.0752     15.9715      8.5376  
  1724.0000      9.1869     84.7859     30.2897      2.5376      0.0479     96.6672   -999.2500   -999.2500   -999.2500   -999.2500     17.7958     15.2545      9.2082  
  1724.5000      9.1868     86.1950     29.3725      2.5112      0.0245    107.5657   -999.2500   -999.2500   -999.2500   -999.2500     17.9939     16.0553     13.9980  
  1725.0000      9.1923     87.8338     29.8726      2.4957      0.0171    118.4642   -999.2500   -999.2500   -999.2500   -999.2500     18.9180     17.8025     16.6186  
  1725.5000      9.1993     87.3924     31.8515      2.5065      0.0359     88.2994   -999.2500   -999.2500   -999.2500   -999.2500     21.1716     18.4324     18.8550  
  1726.0000      9.1933     85.9493     32.3871      2.5168      0.0402     87.3209   -999.2500   -999.2500   -999.2500   -999.2500     22.8182     19.1400     19.4203  
  1726.5000      9.1874     84.6509     31.3613      2.5271      0.0348     86.4830   -999.2500   -999.2500   -999.2500   -999.2500     24.3961     20.3113     20.4602  
  1727.0000      9.1841     83.2998     30.8103      2.5305      0.0293     85.4525   -999.2500   -999.2500   -999.2500   -999.2500     25.4447     21.5542     22.0630  
  1727.5000      9.1870     81.3944     30.1790      2.5297      0.0165     85.0955   -999.2500   -999.2500   -999.2500   -999.2500     26.7194     22.8732     22.8962  
  1728.0000      9.1838     80.7639     29.3146      2.5282      0.0201     78.1059   -999.2500   -999.2500   -999.2500   -999.2500     28.3547     23.2995     23.3809  
  1728.5000      9.1790     79.8605     28.3778      2.5277      0.0187     70.0098   -999.2500   -999.2500   -999.2500   -999.2500     29.7264     23.3372     23.0815  
  1729.0000      9.1925     78.7650     27.3653      2.5221      0.0184     88.4474   -999.2500   -999.2500   -999.2500   -999.2500     29.1300     23.0590     21.4655  
  1729.5000      9.1851     77.5586     26.4663      2.5142      0.0098     91.2607   -999.2500   -999.2500   -999.2500   -999.2500     27.2936     22.2797     19.2549  
