~VERSION INFORMATION
 VERS.                           2.00:        CWLS LOG ASCII STANDARD - VERSION 2.00
 WRAP.                             NO:        ONE LINE PER DEPTH STEP
~WELL INFORMATION
#MNEM.UNIT                   DATA             INFORMATION
#----------             --------------        ------------------------------
 STRT.F                       68.0000:        START DEPTH
 STOP.F                     2380.0000:        STOP DEPTH
 STEP.F                        0.5000:        STEP VALUE
 NULL.                      -999.2500:        NULL VALUE
 COMP.                     USGS/NPR-A:        COMPANY  
 LOC .                   30  22N  16W:        LOCATION   
 DATE.                        3/18/78:        LOG DATE 
 WELL.               SOUTH BARROW #17:        WELL     
 UWI .                   500232001100:        UNIQUE WELL ID 
 API .                   500232001100:        UNIQUE WELL IDENTIFIER 
 FLD .                   SOUTH BARROW:        FIELD    
 CNTY.                     NOTH SLOPE:        COUNTY  
 STAT.                         ALASKA:        STATE   
 CTRY.                            USA:        COUNTRY 
 OPER.                     USGS/NPR-A:        OPERATOR  
 SRVC.                   SCHLUMBERGER:        SERVICE COMPANY 
 LAT .                         0.0000:        LATITUDE
 LON .                         0.0000:        LONGITUDE
 DIGS.               CENTER LINE DATA:        DIGITIZING COMPANY 
~CURVE INFORMATION      
#MNEM        .UNIT         API CODE           CURVE DESCRIPTION
#-----------------      --------------        ------------------------------
 DEPT        .F                      :        1  DEPTH
 CALI        .IN                     :        2  
 GR          .GAPI                   :        3  
 NPHI        .%                      :        4  
 RHOB        .G/C3                   :        5  
 DRHO        .G/C3                   :        6  
 DT          .US/F                   :        7  
 SP          .MV                     :        8  
 ILD         .OHMM                   :        9  
 ILM         .OHMM                   :        10 
 LL8         .OHMM                   :        11 
 LLD         .OHMM                   :        12 
 LLS         .OHMM                   :        13 
~PARAMETER INFORMATION       
#MNEM.UNIT                  VALUE             DESCRIPTION OF MNEMONIC
#---------             ---------------        ------------------------------
 EKB .F                       33.0000:        KELLY BUSHING
 TD  .F                     2382.0000:        TOTAL DEPTH
 BHT .F                        0.0000:        BOTTOM HOLE TEMPERATURE
 BS  .                         8.5000:        BIT SIZE
 FD  .                        10.8000:        FLUID DENSITY
 CSIZ.                         9.6250:        CASING SIZE
 CBD .F                     1512.0000:        CASING DRILLER 1
 CBL .F                     1512.0000:        CASING LOGGER 1
 DFT .                  Miscellaneous:        TYPE FLUID IN HOLE
 DFV .                        43.0000:        VISCOSITY
 DFPH.                         8.5000:        PH
 DFL .                         4.0000:        FLUID LOSS
 RMS .                         0.0760:        RM
 MST .F                       60.0000:        RM MEAS. TEMP.
 RMF .                         0.0000:        RMF
 MFST.F                        0.0000:        RMF MEAS. TEMP.
 RMC .                         0.1640:        RMC
 MCST.F                       55.0000:        RMC MEAS. TEMP.
~OTHER INFORMATION
~A    DEPTH        CALI          GR        NPHI        RHOB        DRHO          DT          SP         ILD         ILM         LL8         LLD         LLS  
# ...
   425.0000     15.0017     91.1314   -999.2500   -999.2500   -999.2500    162.4306    -41.9797     15.6427     11.5293     41.8271   -999.2500   -999.2500  
   425.5000     14.9552     90.5698   -999.2500   -999.2500   -999.2500    156.4999    -40.3677     15.5955     11.4727     41.9961   -999.2500   -999.2500  
   426.0000     14.9462     89.9410   -999.2500   -999.2500   -999.2500    150.3097    -40.6981     15.5788     11.4588     42.6749   -999.2500   -999.2500  
   426.5000     15.1143     89.6679   -999.2500   -999.2500   -999.2500    150.3279    -45.1889     15.5797     11.4594     43.8692   -999.2500   -999.2500  
   427.0000     15.0788     89.8270   -999.2500   -999.2500   -999.2500    150.3460    -52.9671     15.5969     11.4333     44.1485   -999.2500   -999.2500  
   427.5000     15.0102     89.5977   -999.2500   -999.2500   -999.2500    150.3642    -58.4231     15.6142     11.4050     43.2383   -999.2500   -999.2500  
   428.0000     14.8778     88.2933   -999.2500   -999.2500   -999.2500    150.3824    -59.7671     15.8023     11.5497     41.8979   -999.2500   -999.2500  
   428.5000     14.8956     84.1901   -999.2500   -999.2500   -999.2500    150.4005    -57.1642     16.0478     11.8020     41.2449   -999.2500   -999.2500  
   429.0000     14.9134     81.8812   -999.2500   -999.2500   -999.2500    150.4187    -52.4930     16.3199     12.2036     41.6875   -999.2500   -999.2500  
   429.5000     15.0150     81.9665   -999.2500   -999.2500   -999.2500    150.4369    -47.8958     16.6441     12.4266     41.3489   -999.2500   -999.2500  
   430.0000     14.9853     83.7194   -999.2500   -999.2500   -999.2500    151.6052    -46.6573     17.0175     12.7867     41.1236   -999.2500   -999.2500  
   430.5000     14.8978     86.4382   -999.2500   -999.2500   -999.2500    154.6407    -48.5140     17.2719     13.0010     41.3633   -999.2500   -999.2500  
   431.0000     14.9536     88.8626   -999.2500   -999.2500   -999.2500    156.3077    -50.1959     17.0738     12.9343     41.6043   -999.2500   -999.2500  
   431.5000     15.1855     88.8575   -999.2500   -999.2500   -999.2500    156.0246    -50.5282     17.0068     12.6861     42.2246   -999.2500   -999.2500  
   432.0000     15.2252     88.0371   -999.2500   -999.2500   -999.2500    152.9021    -48.3071     16.9622     12.4699     41.4883   -999.2500   -999.2500  
   432.5000     15.1464     86.9630   -999.2500   -999.2500   -999.2500    150.4025    -47.6316     16.9177     12.3080     39.3981   -999.2500   -999.2500  
   433.0000     15.2164     87.0081   -999.2500   -999.2500   -999.2500    150.3813    -49.0599     16.7614     12.2624     38.7580   -999.2500   -999.2500  
   433.5000     15.4593     88.5530   -999.2500   -999.2500   -999.2500    150.3601    -51.7830     16.2164     12.1668     39.4402   -999.2500   -999.2500  
   434.0000     15.5160     90.4633   -999.2500   -999.2500   -999.2500    150.3388    -58.5058     16.1028     12.0308     39.6087   -999.2500   -999.2500  
   434.5000     15.5440     91.6885   -999.2500   -999.2500   -999.2500    150.3176    -60.9658     15.9393     12.0524     39.2241   -999.2500   -999.2500  
   435.0000     15.4889     92.4047   -999.2500   -999.2500   -999.2500    150.2963    -58.6017     15.9544     12.2067     38.2903   -999.2500   -999.2500  
   435.5000     15.4298     92.5490   -999.2500   -999.2500   -999.2500    150.7164    -52.8936     15.9872     12.3502     37.4680   -999.2500   -999.2500  
   436.0000     15.3376     91.9851   -999.2500   -999.2500   -999.2500    156.0156    -48.4361     16.1464     12.4536     37.5644   -999.2500   -999.2500  
   436.5000     15.0027     90.0939   -999.2500   -999.2500   -999.2500    153.7672    -48.8654     16.3871     12.5380     37.7826   -999.2500   -999.2500  
   437.0000     14.8253     89.0887   -999.2500   -999.2500   -999.2500    150.2357    -49.8796     16.6314     12.5945     36.6734   -999.2500   -999.2500  
   437.5000     14.7684     88.0659   -999.2500   -999.2500   -999.2500    150.1901    -50.5345     16.8793     12.6488     35.2413   -999.2500   -999.2500  
   438.0000     14.5505     86.9409   -999.2500   -999.2500   -999.2500    152.8010    -51.8455     17.1309     12.6992     34.9757   -999.2500   -999.2500  
   438.5000     14.4906     87.2992   -999.2500   -999.2500   -999.2500    156.6071    -53.3122     17.1333     12.5648     35.4593   -999.2500   -999.2500  
   439.0000     14.4644     87.3595   -999.2500   -999.2500   -999.2500    161.1440    -53.7424     17.0087     12.4319     35.4787   -999.2500   -999.2500  
   439.5000     14.6140     86.3702   -999.2500   -999.2500   -999.2500    158.2420    -55.5593     16.9206     12.3003     34.9450   -999.2500   -999.2500  
   440.0000     14.7267     85.5841   -999.2500   -999.2500   -999.2500    150.2645    -57.0708     16.9046     12.1755     34.1751   -999.2500   -999.2500  
   440.5000     14.7742     85.0795   -999.2500   -999.2500   -999.2500    150.2972    -57.8485     16.9131     12.0539     33.9213   -999.2500   -999.2500  
   441.0000     14.7808     85.9042   -999.2500   -999.2500   -999.2500    150.4851    -57.7770     16.6458     11.9148     34.2979   -999.2500   -999.2500  
   441.5000     14.7866     87.1694   -999.2500   -999.2500   -999.2500    150.6312    -56.5211     16.3828     11.9421     34.9495   -999.2500   -999.2500  
   442.0000     14.7924     87.6747   -999.2500   -999.2500   -999.2500    150.2551    -52.6072     16.1903     12.0244     35.9689   -999.2500   -999.2500  
   442.5000     14.7983     88.2732   -999.2500   -999.2500   -999.2500    150.2272    -46.6816     16.3558     12.1538     36.4784   -999.2500   -999.2500  
   443.0000     14.8651     88.8571   -999.2500   -999.2500   -999.2500    150.1993    -46.5049     16.5392     12.2410     35.6034   -999.2500   -999.2500  
   443.5000     14.9752     89.4462   -999.2500   -999.2500   -999.2500    150.1714    -47.5361     17.0145     12.4669     33.8071   -999.2500   -999.2500  
   444.0000     15.0820     88.0554   -999.2500   -999.2500   -999.2500    150.1435    -47.5653     17.1044     12.7539     32.8880   -999.2500   -999.2500  
   444.5000     15.1607     86.0786   -999.2500   -999.2500   -999.2500    150.1155    -45.3061     17.1824     12.9392     33.2551   -999.2500   -999.2500  
   445.0000     15.0942     83.9889   -999.2500   -999.2500   -999.2500    150.0876    -46.8311     17.1018     12.8498     34.0610   -999.2500   -999.2500  
   445.5000     15.2611     81.3623   -999.2500   -999.2500   -999.2500    150.0597    -49.7707     16.9229     12.7244     33.5733   -999.2500   -999.2500  
   446.0000     15.3612     80.5101   -999.2500   -999.2500   -999.2500    150.0318    -53.0928     16.7972     12.6186     31.9173   -999.2500   -999.2500  
   446.5000     15.2776     83.4915   -999.2500   -999.2500   -999.2500    177.8516    -55.3374     16.6814     12.5175     31.3722   -999.2500   -999.2500  
   447.0000     14.8514     86.1883   -999.2500   -999.2500   -999.2500    199.1012    -57.7253     16.4903     12.4172     31.7129   -999.2500   -999.2500  
   447.5000     14.4993     87.6043   -999.2500   -999.2500   -999.2500    171.5712    -58.4326     16.3014     12.1219     32.1500   -999.2500   -999.2500  
   448.0000     14.4056     89.0073   -999.2500   -999.2500   -999.2500    154.1456    -58.0699     16.0618     11.9825     32.6948   -999.2500   -999.2500  
   448.5000     14.4087     89.6656   -999.2500   -999.2500   -999.2500    150.1744    -54.7975     15.8509     11.8818     33.4252   -999.2500   -999.2500  
   449.0000     14.6408     89.8462   -999.2500   -999.2500   -999.2500    150.1143    -51.0853     15.6978     11.7873     33.8193   -999.2500   -999.2500  
   449.5000     14.9889     90.3332   -999.2500   -999.2500   -999.2500    150.0541    -49.3099     15.7430     11.7091     33.8425   -999.2500   -999.2500  
   450.0000     15.1287     91.2909   -999.2500   -999.2500   -999.2500    154.4968    -50.1496     15.6920     11.5914     34.0352   -999.2500   -999.2500  
