~VERSION INFORMATION
 VERS.                           2.00:        CWLS LOG ASCII STANDARD - VERSION 2.00
 WRAP.                             NO:        ONE LINE PER DEPTH STEP
~WELL INFORMATION
#MNEM.UNIT                   DATA             INFORMATION
#----------             --------------        ------------------------------
 STRT.F                       68.0000:        START DEPTH
 STOP.F                     2380.0000:        STOP DEPTH
 STEP.F                        0.5000:        STEP VALUE
 NULL.                      -999.2500:        NULL VALUE
 COMP.                     USGS/NPR-A:        COMPANY  
 LOC .                   30  22N  16W:        LOCATION   
 DATE.                        3/18/78:        LOG DATE 
 WELL.               SOUTH BARROW #17:        WELL     
 UWI .                   500232001100:        UNIQUE WELL ID 
 API .                   500232001100:        UNIQUE WELL IDENTIFIER 
 FLD .                   SOUTH BARROW:        FIELD    
 CNTY.                     NOTH SLOPE:        COUNTY  
 STAT.                         ALASKA:        STATE   
 CTRY.                            USA:        COUNTRY 
 OPER.                     USGS/NPR-A:        OPERATOR  
 SRVC.                   SCHLUMBERGER:        SERVICE COMPANY 
 LAT .                         0.0000:        LATITUDE
 LON .                         0.0000:        LONGITUDE
 DIGS.               CENTER LINE DATA:        DIGITIZING COMPANY 
~CURVE INFORMATION      
#MNEM        .UNIT         API CODE           CURVE DESCRIPTION
#-----------------      --------------        ------------------------------
 DEPT        .F                      :        1  DEPTH
 CALI        .IN                     :        2  
 GR          .GAPI                   :        3  
 NPHI        .%                      :        4  
 RHOB        .G/C3                   :        5  
 DRHO        .G/C3                   :        6  
 DT          .US/F                   :        7  
 SP          .MV                     :        8  
 ILD         .OHMM                   :        9  
 ILM         .OHMM                   :        10 
 LL8         .OHMM                   :        11 
 LLD         .OHMM                   :        12 
 LLS         .OHMM                   :        13 
~PARAMETER INFORMATION       
#MNEM.UNIT                  VALUE             DESCRIPTION OF MNEMONIC
#---------             ---------------        ------------------------------
 EKB .F                       33.0000:        KELLY BUSHING
 TD  .F                     2382.0000:        TOTAL DEPTH
 BHT .F                        0.0000:        BOTTOM HOLE TEMPERATURE
 BS  .                         8.5000:        BIT SIZE
 FD  .                        10.8000:        FLUID DENSITY
 CSIZ.                         9.6250:        CASING SIZE
 CBD .F                     1512.0000:        CASING DRILLER 1
 CBL .F                     1512.0000:        CASING LOGGER 1
 DFT .                  Miscellaneous:        TYPE FLUID IN HOLE
 DFV .                        43.0000:        VISCOSITY
 DFPH.                         8.5000:        PH
 DFL .                         4.0000:        FLUID LOSS
 RMS .                         0.0760:        RM
 MST .F                       60.0000:        RM MEAS. TEMP.
 RMF .                         0.0000:        RMF
 MFST.F                        0.0000:        RMF MEAS. TEMP.
 RMC .                         0.1640:        RMC
 MCST.F                       55.0000:        RMC MEAS. TEMP.
~OTHER INFORMATION
~A    DEPTH        CALI          GR        NPHI        RHOB        DRHO          DT          SP         ILD         ILM         LL8         LLD         LLS  
# ...
   119.0000     14.7925     74.1817   -999.2500   -999.2500   -999.2500    150.3386    -44.2554      7.7575      4.5233     12.6228   -999.2500   -999.2500  
   119.5000     14.5416     76.2196   -999.2500   -999.2500   -999.2500    150.3338    -44.4785      7.6892      4.3722     12.7680   -999.2500   -999.2500  
   120.0000     14.4462     76.4479   -999.2500   -999.2500   -999.2500    150.3289    -45.2116      7.6819      4.3443     12.8985   -999.2500   -999.2500  
   120.5000     14.2930     75.5195   -999.2500   -999.2500   -999.2500    150.3241    -46.1260      7.6745      4.3165     13.1430   -999.2500   -999.2500  
   121.0000     13.8260     73.9414   -999.2500   -999.2500   -999.2500    150.3192    -46.9645      7.6672      4.2890     13.9689   -999.2500   -999.2500  
   121.5000     13.6760     73.1357   -999.2500   -999.2500   -999.2500    150.3144    -47.2857      7.6339      4.1529     15.1160   -999.2500   -999.2500  
   122.0000     13.6951     72.7446   -999.2500   -999.2500   -999.2500    150.3095    -47.7081      7.5807      4.0822     15.6048   -999.2500   -999.2500  
   122.5000     13.9847     71.5103   -999.2500   -999.2500   -999.2500    150.3047    -48.2207      7.5725      4.0631     15.6597   -999.2500   -999.2500  
   123.0000     15.0080     70.6948   -999.2500   -999.2500   -999.2500    150.2998    -48.0481      7.6404      4.0891     15.7152   -999.2500   -999.2500  
   123.5000     15.0859     70.2177   -999.2500   -999.2500   -999.2500    150.2949    -47.0364      7.6090      4.0798     15.9872   -999.2500   -999.2500  
   124.0000     14.5941     72.3278   -999.2500   -999.2500   -999.2500    150.2901    -46.2351      7.6480      4.0332     16.0216   -999.2500   -999.2500  
   124.5000     14.1130     75.5112   -999.2500   -999.2500   -999.2500    150.2852    -45.7045      7.6997      3.9912     15.9038   -999.2500   -999.2500  
   125.0000     14.1533     76.9577   -999.2500   -999.2500   -999.2500    150.2804    -46.0731      7.7518      4.0430     16.0779   -999.2500   -999.2500  
   125.5000     14.2052     77.5748   -999.2500   -999.2500   -999.2500    150.2755    -47.3311      7.8043      4.1265     17.1754   -999.2500   -999.2500  
   126.0000     14.1950     77.1776   -999.2500   -999.2500   -999.2500    150.2707    -48.4071      7.8571      4.2116     17.9761   -999.2500   -999.2500  
   126.5000     14.3182     75.8602   -999.2500   -999.2500   -999.2500    150.2658    -49.6027      7.9103      4.2986     18.3908   -999.2500   -999.2500  
   127.0000     14.4302     74.3366   -999.2500   -999.2500   -999.2500    150.2610    -49.7046      7.9846      4.3575     18.6058   -999.2500   -999.2500  
   127.5000     14.6372     74.0100   -999.2500   -999.2500   -999.2500    150.2561    -49.3940      8.0018      4.3788     18.7357   -999.2500   -999.2500  
   128.0000     14.9347     74.4484   -999.2500   -999.2500   -999.2500    150.2513    -48.9275      8.1530      4.3972     18.6433   -999.2500   -999.2500  
   128.5000     15.2168     76.3083   -999.2500   -999.2500   -999.2500    150.2464    -48.5983      8.3718      4.4114     18.7504   -999.2500   -999.2500  
   129.0000     15.1639     78.1572   -999.2500   -999.2500   -999.2500    150.2415    -48.5300      8.5964      4.4276     19.3896   -999.2500   -999.2500  
   129.5000     14.9781     79.4938   -999.2500   -999.2500   -999.2500    150.2367    -48.4577      8.8597      4.4730     20.0321   -999.2500   -999.2500  
   130.0000     15.0104     79.3064   -999.2500   -999.2500   -999.2500    150.2318    -48.9751      9.1916      4.5783     20.7076   -999.2500   -999.2500  
   130.5000     14.8030     76.0689   -999.2500   -999.2500   -999.2500    150.2270    -49.9844      9.5310      4.7099     21.5687   -999.2500   -999.2500  
   131.0000     15.4613     74.1119   -999.2500   -999.2500   -999.2500    150.2221    -50.6167     10.1396      4.8541     23.3885   -999.2500   -999.2500  
   131.5000     15.4584     74.1224   -999.2500   -999.2500   -999.2500    150.2173    -50.3986     10.7674      5.0134     25.9528   -999.2500   -999.2500  
   132.0000     15.1309     74.8734   -999.2500   -999.2500   -999.2500    150.2124    -49.3185     11.4340      5.1780     28.0761   -999.2500   -999.2500  
   132.5000     14.6272     75.8880   -999.2500   -999.2500   -999.2500    150.2076    -49.2825     12.1419      5.3480     29.7472   -999.2500   -999.2500  
   133.0000     14.4420     76.3284   -999.2500   -999.2500   -999.2500    150.2027    -49.9752     13.3427      5.5235     30.6475   -999.2500   -999.2500  
   133.5000     14.5663     75.6245   -999.2500   -999.2500   -999.2500    150.1978    -50.5798     14.7774      5.7765     30.8181   -999.2500   -999.2500  
   134.0000     14.6906     74.5605   -999.2500   -999.2500   -999.2500    150.1930    -50.7646     16.1587      6.0598     31.8289   -999.2500   -999.2500  
   134.5000     14.8715     73.9873   -999.2500   -999.2500   -999.2500    150.1881    -50.2285     16.9916      6.3564     33.5683   -999.2500   -999.2500  
   135.0000     15.3225     73.6628   -999.2500   -999.2500   -999.2500    150.1833    -50.0534     17.1750      6.5778     34.1469   -999.2500   -999.2500  
   135.5000     16.3730     73.2516   -999.2500   -999.2500   -999.2500    150.1784    -49.9034     17.3603      6.5688     34.1967   -999.2500   -999.2500  
   136.0000     16.9949     72.5790   -999.2500   -999.2500   -999.2500    150.1736    -49.4757     17.5476      6.5597     34.1676   -999.2500   -999.2500  
   136.5000     16.9856     72.3679   -999.2500   -999.2500   -999.2500    150.1687    -49.4067     17.9430      6.5507     34.0279   -999.2500   -999.2500  
   137.0000     16.9762     73.6349   -999.2500   -999.2500   -999.2500    150.1638    -50.5503     18.4952      6.6202     33.3215   -999.2500   -999.2500  
   137.5000     16.9669     74.8657   -999.2500   -999.2500   -999.2500    150.1590    -52.1439     19.0643      6.8970     31.9892   -999.2500   -999.2500  
   138.0000     16.1923     75.8267   -999.2500   -999.2500   -999.2500    150.1541    -51.8256     17.9391      7.2681     30.0365   -999.2500   -999.2500  
   138.5000     16.1820     76.0122   -999.2500   -999.2500   -999.2500    150.1493    -50.4047     16.5443      7.4991     29.1700   -999.2500   -999.2500  
   139.0000     16.7420     76.3367   -999.2500   -999.2500   -999.2500    150.1444    -49.4226     14.2405      7.1969     29.0241   -999.2500   -999.2500  
   139.5000     16.2571     77.6889   -999.2500   -999.2500   -999.2500    150.1396    -49.1469     12.7608      6.6724     27.6197   -999.2500   -999.2500  
   140.0000     15.0799     79.0284   -999.2500   -999.2500   -999.2500    150.1347    -49.8585     11.7455      6.2203     24.8407   -999.2500   -999.2500  
   140.5000     13.8966     80.1345   -999.2500   -999.2500   -999.2500    150.1299    -50.5558     11.3637      5.9534     21.9215   -999.2500   -999.2500  
   141.0000     13.6374     80.7198   -999.2500   -999.2500   -999.2500    150.1250    -50.7218     10.4704      5.6518     20.4027   -999.2500   -999.2500  
   141.5000     13.6208     79.9596   -999.2500   -999.2500   -999.2500    150.1201    -49.1758      9.5852      5.4443     19.1313   -999.2500   -999.2500  
   142.0000     13.8565     79.2238   -999.2500   -999.2500   -999.2500    150.1153    -46.5588      8.8245      5.2200     17.9794   -999.2500   -999.2500  
   142.5000     13.7303     79.5894   -999.2500   -999.2500   -999.2500    150.1104    -45.5449      8.2600      5.0495     17.3610   -999.2500   -999.2500  
   143.0000     13.6949     80.6162   -999.2500   -999.2500   -999.2500    150.1056    -46.9386      8.1198      5.0522     17.3036   -999.2500   -999.2500  
   143.5000     14.0742     83.3347   -999.2500   -999.2500   -999.2500    150.1007    -48.3767      8.1982      5.1469     18.0035   -999.2500   -999.2500  
   144.0000     14.2018     84.2748   -999.2500   -999.2500   -999.2500    150.0959    -48.8958      8.3495      5.3617     19.8670   -999.2500   -999.2500  
