~VERSION INFORMATION
 VERS.                           2.00:        CWLS LOG ASCII STANDARD - VERSION 2.00
 WRAP.                             NO:        ONE LINE PER DEPTH STEP
~WELL INFORMATION
#MNEM.UNIT                   DATA             INFORMATION
#----------             --------------        ------------------------------
 STRT.F                      884.0000:        START DEPTH
 STOP.F                     2365.0000:        STOP DEPTH
 STEP.F                        0.5000:        STEP VALUE
 NULL.                      -999.2500:        NULL VALUE
 COMP.                      U.S. NAVY:        COMPANY  
 LOC .                   14  22N  18W:        LOCATION   
 DATE.                        3/19/64:        LOG DATE 
 WELL.                SOUTH BARROW #6:        WELL     
 UWI .                   500231001500:        UNIQUE WELL ID 
 API .                   500231001500:        UNIQUE WELL IDENTIFIER 
 FLD .                   SOUTH BARROW:        FIELD    
 CNTY.                         NPR #4:        COUNTY  
 STAT.                         ALASKA:        STATE   
 CTRY.                            USA:        COUNTRY 
 OPER.                      U.S. NAVY:        OPERATOR  
 SRVC.                   SCHLUMBERGER:        SERVICE COMPANY 
 LAT .                         0.0000:        LATITUDE
 LON .                         0.0000:        LONGITUDE
 DIGS.               CENTER LINE DATA:        DIGITIZING COMPANY 
~CURVE INFORMATION      
#MNEM        .UNIT         API CODE           CURVE DESCRIPTION
#-----------------      --------------        ------------------------------
 DEPT        .F                      :        1  DEPTH
 SP          .MV                     :        2  
 SN          .OHMM                   :        3  
 ILD         .OHMM                   :        4  
 CILD        .OHMM                   :        5  
 DT          .US/F                   :        6  
~PARAMETER INFORMATION       
#MNEM.UNIT                  VALUE             DESCRIPTION OF MNEMONIC
#---------             ---------------        ------------------------------
 EKB .F                       40.0000:        KELLY BUSHING
 TD  .F                     2366.0000:        TOTAL DEPTH
 BHT .F                        0.0000:        BOTTOM HOLE TEMPERATURE
 BS  .                         9.6250:        BIT SIZE
 FD  .                        85.0000:        FLUID DENSITY
 CSIZ.                        11.7500:        CASING SIZE
 CBD .F                      884.0000:        CASING DRILLER 1
 CBL .F                      884.0000:        CASING LOGGER 1
 DFT .                  Miscellaneous:        TYPE FLUID IN HOLE
 DFV .                        45.0000:        VISCOSITY
 DFPH.                         0.0000:        PH
 DFL .                         2.8000:        FLUID LOSS
 RMS .                         5.3700:        RM
 MST .F                       33.0000:        RM MEAS. TEMP.
 RMF .                         2.9500:        RMF
 MFST.F                       45.0000:        RMF MEAS. TEMP.
 RMC .                         2.4800:        RMC
 MCST.F                       35.0000:        RMC MEAS. TEMP.
~OTHER INFORMATION
~A    DEPTH          SP          SN         ILD        CILD          DT  
   884.0000   -101.5905      0.9567      0.8139    -11.7056   -999.2500  
   884.5000   -101.6107      1.7501      0.0820    -11.2831   -999.2500  
   885.0000   -101.6310      3.0647      0.4380    -10.8606   -999.2500  
   885.5000   -101.4151      4.4502      3.2964    -10.4381   -999.2500  
   886.0000    -97.6247      6.7808     10.8958    -10.0156   -999.2500  
   886.5000    -93.5314      7.9905     27.8396     -9.5930   -999.2500  
   887.0000    -89.3969      8.6287     25.3610     -9.1705   -999.2500  
   887.5000    -84.2517      9.0426     16.7584     -8.7480   -999.2500  
   888.0000    -77.9398      9.2605     22.6409     -8.3255   -999.2500  
   888.5000    -70.3420      9.5286     33.8372     -7.9030   -999.2500  
   889.0000    -62.3542      9.7359     18.4482     53.0228   -999.2500  
   889.5000    -57.0680      9.8069     12.2676     98.9367   -999.2500  
   890.0000    -54.1432      9.8780     19.6292     96.2183   -999.2500  
   890.5000    -52.3335      9.9490     18.8796     80.9793   -999.2500  
   891.0000    -51.2760     10.0160     12.7372     50.8453   -999.2500  
   891.5000    -50.5909     10.0774     15.6476     12.7262   -999.2500  
   892.0000    -49.9868     10.1388      9.9241     10.2590   -999.2500  
   892.5000    -49.4186     10.2002     17.3132     51.4258   -999.2500  
   893.0000    -48.9570     10.2616      9.4688    100.0785   -999.2500  
   893.5000    -48.4898     10.2933      6.8782    131.0955   -999.2500  
   894.0000    -48.0843     10.3086      6.5025    147.7200   -999.2500  
   894.5000    -47.7742     10.2886      7.1798    142.0608   -999.2500  
   895.0000    -47.3273     10.2658      8.1456    126.1547   -999.2500  
   895.5000    -46.5723     10.2430      8.8405    113.0988   -999.2500  
   896.0000    -46.0885     10.2203      9.0805    108.9175   -999.2500  
   896.5000    -45.8852     10.1975      9.1814    107.6049   -999.2500  
   897.0000    -45.9749     10.1747      9.1470    107.1136   -999.2500  
   897.5000    -45.9587     10.1890      9.2208    106.6222   -999.2500  
   898.0000    -45.5940     10.2906      9.3216    105.8833   -999.2500  
   898.5000    -45.0946     10.3921      9.4427    104.7997   -999.2500  
   899.0000    -44.6853     10.5036      9.5483    103.6770   -999.2500  
   899.5000    -44.7258     10.7275      9.6247    102.7989   -999.2500  
   900.0000    -45.1128     10.8414      9.6676    102.2008   -999.2500  
   900.5000    -45.5861     10.8929      9.7099    101.2992   -999.2500  
   901.0000    -45.8293     10.8230      9.7523    100.7463   -999.2500  
   901.5000    -45.8149     10.7475      9.7946    100.4105   -999.2500  
   902.0000    -45.6602     10.7516      9.8370     99.8196   -999.2500  
   902.5000    -45.5836     10.8060      9.8793     99.6255   -999.2500  
   903.0000    -45.5536     10.8679      9.9217     99.4265   -999.2500  
   903.5000    -45.5449     10.9264      9.9640     98.7429   -999.2500  
   904.0000    -45.5854     10.9820     10.0074     97.4477   -999.2500  
   904.5000    -45.4535     11.0946     10.0760     97.4956   -999.2500  
   905.0000    -45.2829     11.2011     10.1446     97.0304   -999.2500  
   905.5000    -45.0455     11.2378     10.2047     96.8178   -999.2500  
   906.0000    -44.6597     11.2388     10.2549     96.8651   -999.2500  
   906.5000    -44.3580     11.2848     10.3052     96.7474   -999.2500  
   907.0000    -44.1146     11.3394     10.3555     96.4576   -999.2500  
   907.5000    -43.7792     11.3458     10.3909     96.2907   -999.2500  
   908.0000    -43.0861     11.3120     10.3721     96.2223   -999.2500  
   908.5000    -42.3775     11.3152     10.3293     96.4175   -999.2500  
   909.0000    -42.1043     11.3441     10.2847     96.6684   -999.2500  
   909.5000    -41.6183     11.3760     10.1999     96.9031   -999.2500  
   910.0000    -40.8617     11.4400     10.1276     96.9303   -999.2500  
   910.5000    -40.5975     11.4785     10.1212     97.1874   -999.2500  
   911.0000    -40.4395     11.3794     10.1167     97.4480   -999.2500  
   911.5000    -40.4002     11.2699     10.1053     97.6491   -999.2500  
   912.0000    -40.5020     11.2106     10.0932     97.8636   -999.2500  
   912.5000    -40.8661     11.1947     10.0811     98.2639   -999.2500  
   913.0000    -41.3412     11.1668     10.0690     98.2550   -999.2500  
   913.5000    -41.4983     11.1349     10.0569     98.2460   -999.2500  
   914.0000    -41.3735     11.1535     10.0448     98.2371   -999.2500  
   914.5000    -41.3560     11.1820     10.0327     97.9625   -999.2500  
   915.0000    -41.3699     11.2313     10.0504     97.6587   -999.2500  
   915.5000    -41.2064     11.2676     10.0846     97.4718   -999.2500  
   916.0000    -41.1055     11.2730     10.1188     97.3675   -999.2500  
   916.5000    -41.0681     11.2567     10.1174     97.1731   -999.2500  
   917.0000    -41.0030     11.2271     10.1294     97.0788   -999.2500  
   917.5000    -40.7022     11.1923     10.2296     96.9062   -999.2500  
   918.0000    -40.3343     11.1939     10.2398     96.8489   -999.2500  
   918.5000    -40.1216     11.2002     10.2061     96.9930   -999.2500  
   919.0000    -39.9683     11.1837     10.1344     97.1372   -999.2500  
   919.5000    -39.8668     11.1839     10.1549     97.2000   -999.2500  
   920.0000    -40.0265     11.1671     10.0927     97.2854   -999.2500  
   920.5000    -40.1526     11.1130     10.0304     97.7020   -999.2500  
   921.0000    -40.0189     10.9676      9.9681     98.2730   -999.2500  
   921.5000    -39.6973     10.7793      9.9059     98.9742   -999.2500  
   922.0000    -39.7509     10.5816      9.8274     99.7402   -999.2500  
   922.5000    -40.1006     10.4823      9.6919    100.3580   -999.2500  
   923.0000    -40.4162     10.3940      9.5564    101.5635   -999.2500  
   923.5000    -40.5668     10.3057      9.4031    102.9590   -999.2500  
   924.0000    -40.4631     10.2170      9.3129    104.3197   -999.2500  
   924.5000    -40.3865     10.1281      9.2400    105.3219   -999.2500  
   925.0000    -40.3254     10.0392      9.1788    106.1105   -999.2500  
   925.5000    -40.2477      9.9504      9.1289    106.6492   -999.2500  
   926.0000    -39.9222      9.8527      9.1315    106.8000   -999.2500  
   926.5000    -39.6252      9.7903      9.0480    106.9955   -999.2500  
   927.0000    -39.3584      9.7459      8.9569    107.8930   -999.2500  
   927.5000    -39.1314      9.7216      8.8655    109.1264   -999.2500  
   928.0000    -39.3149      9.8065      8.7815    110.0196   -999.2500  
   928.5000    -39.5082      9.8960      8.7326    110.3808   -999.2500  
   929.0000    -39.7715      9.8162      8.7261    110.6659   -999.2500  
   929.5000    -39.8696      9.6500      8.6478    111.0487   -999.2500  
   930.0000    -39.4184      9.4303      8.5560    112.1270   -999.2500  
   930.5000    -38.8619      9.3187      8.4715    113.5270   -999.2500  
   931.0000    -38.4025      9.2776      8.3878    114.5344   -999.2500  
   931.5000    -38.0758      9.3166      8.3874    115.0913   -999.2500  
   932.0000    -37.7409      9.3793      8.4514    114.4288   -999.2500  
   932.5000    -37.3928      9.4372      8.5134    113.4578   -999.2500  
   933.0000    -37.2459      9.5337      8.5849    112.6572   -999.2500  
   933.5000    -37.3699      9.6598      8.6205    112.0650   -999.2500  
   934.0000    -37.5968      9.6843      8.6157    111.7186   -999.2500  
   934.5000    -37.6033      9.7088      8.6128    111.7900   -999.2500  
   935.0000    -37.2954      9.6621      8.6102    111.8036   -999.2500  
   935.5000    -36.6470      9.5828      8.6155    111.7341   -999.2500  
   936.0000    -36.1772      9.4837      8.5991    111.8735   -999.2500  
   936.5000    -36.1210      9.4538      8.5623    112.1551   -999.2500  
   937.0000    -35.9418      9.4690      8.5209    112.4057   -999.2500  
   937.5000    -35.3954      9.4960      8.4951    112.6563   -999.2500  
   938.0000    -35.0335      9.5515      8.4827    112.5890   -999.2500  
