~VERSION INFORMATION
 VERS.                           2.00:        CWLS LOG ASCII STANDARD - VERSION 2.00
 WRAP.                             NO:        ONE LINE PER DEPTH STEP
~WELL INFORMATION
#MNEM.UNIT                   DATA             INFORMATION
#----------             --------------        ------------------------------
 STRT.F                       52.0000:        START DEPTH
 STOP.F                     2296.0000:        STOP DEPTH
 STEP.F                        0.5000:        STEP VALUE
 NULL.                      -999.2500:        NULL VALUE
 COMP.                     USGS/NPR-A:        COMPANY  
 LOC .                   23  22N  17W:        LOCATION   
 DATE.                        4/30/78:        LOG DATE 
 WELL.               SOUTH BARROW #19:        WELL     
 UWI .                   500232001200:        UNIQUE WELL ID 
 API .                   500232001200:        UNIQUE WELL IDENTIFIER 
 FLD .                   SOUTH BARROW:        FIELD    
 CNTY.                    NORTH SLOPE:        COUNTY  
 STAT.                         ALASKA:        STATE   
 CTRY.                            USA:        COUNTRY 
 OPER.                     USGS/NPR-A:        OPERATOR  
 SRVC.                   SCHLUMBERGER:        SERVICE COMPANY 
 LAT .                         0.0000:        LATITUDE
 LON .                         0.0000:        LONGITUDE
 DIGS.               CENTER LINE DATA:        DIGITIZING COMPANY 
~CURVE INFORMATION      
#MNEM        .UNIT         API CODE           CURVE DESCRIPTION
#-----------------      --------------        ------------------------------
 DEPT        .F                      :        1  DEPTH
 GR          .GAPI                   :        2  
 CALI        .IN                     :        3  
 RHOB        .G/C3                   :        4  
 DRHO        .G/C3                   :        5  
 NPHI        .%                      :        6  
 DT          .US/F                   :        7  
 SP          .MV                     :        8  
 ILD         .OHMM                   :        9  
 ILM         .OHMM                   :        10 
 LL8         .OHMM                   :        11 
 LLD         .OHMM                   :        12 
 LLS         .OHMM                   :        13 
 MSFL        .OHMM                   :        14 
~PARAMETER INFORMATION       
#MNEM.UNIT                  VALUE             DESCRIPTION OF MNEMONIC
#---------             ---------------        ------------------------------
 EKB .F                       30.0000:        KELLY BUSHING
 TD  .F                     2300.0000:        TOTAL DEPTH
 BHT .F                      173.0000:        BOTTOM HOLE TEMPERATURE
 BS  .                         8.5000:        BIT SIZE
 FD  .                        11.6000:        FLUID DENSITY
 CSIZ.                         9.6250:        CASING SIZE
 CBD .F                     1491.0000:        CASING DRILLER 1
 CBL .F                     1490.0000:        CASING LOGGER 1
 DFT .                  Miscellaneous:        TYPE FLUID IN HOLE
 DFV .                        46.0000:        VISCOSITY
 DFPH.                         8.5000:        PH
 DFL .                         6.0000:        FLUID LOSS
 RMS .                         0.1090:        RM
 MST .F                       58.0000:        RM MEAS. TEMP.
 RMF .                         0.0720:        RMF
 MFST.F                       61.0000:        RMF MEAS. TEMP.
 RMC .                         0.3000:        RMC
 MCST.F                       70.0000:        RMC MEAS. TEMP.
~OTHER INFORMATION
~A    DEPTH          GR        CALI        RHOB        DRHO        NPHI          DT          SP         ILD         ILM         LL8         LLD         LLS        MSFL  
# ...
   532.0000     75.4579     12.1306   -999.2500   -999.2500   -999.2500    155.3190    -72.5316     21.7858     13.3555     13.5671   -999.2500   -999.2500   -999.2500  
   532.5000     76.3510     12.2175   -999.2500   -999.2500   -999.2500    152.8247    -72.5887     21.1355     13.2950     14.1340   -999.2500   -999.2500   -999.2500  
   533.0000     77.8792     12.3466   -999.2500   -999.2500   -999.2500    150.1002    -72.5518     20.8407     13.1618     15.0331   -999.2500   -999.2500   -999.2500  
   533.5000     80.0858     12.3144   -999.2500   -999.2500   -999.2500    147.9435    -72.0249     20.6895     13.0299     14.6795   -999.2500   -999.2500   -999.2500  
   534.0000     82.3888     12.3621   -999.2500   -999.2500   -999.2500    149.0139    -71.4364     20.4787     12.8994     13.9429   -999.2500   -999.2500   -999.2500  
   534.5000     84.6604     12.4371   -999.2500   -999.2500   -999.2500    151.5039    -71.1214     20.0918     12.4243     13.4443   -999.2500   -999.2500   -999.2500  
   535.0000     84.7383     12.5047   -999.2500   -999.2500   -999.2500    151.5591    -71.2633     19.3172     11.8973     13.7380   -999.2500   -999.2500   -999.2500  
   535.5000     83.8649     12.5506   -999.2500   -999.2500   -999.2500    152.0731    -71.3304     18.5011     11.8317     14.0382   -999.2500   -999.2500   -999.2500  
   536.0000     82.7371     12.5778   -999.2500   -999.2500   -999.2500    152.7404    -71.4592     18.0897     11.3890     13.6396   -999.2500   -999.2500   -999.2500  
   536.5000     81.1053     12.6086   -999.2500   -999.2500   -999.2500    153.5955    -71.6676     17.7619     11.0007     12.9586   -999.2500   -999.2500   -999.2500  
   537.0000     79.6785     12.5649   -999.2500   -999.2500   -999.2500    154.8038    -72.0707     17.6943     10.8550     12.6911   -999.2500   -999.2500   -999.2500  
   537.5000     79.0444     12.3988   -999.2500   -999.2500   -999.2500    155.2541    -73.0286     17.6439     11.0063     13.3095   -999.2500   -999.2500   -999.2500  
   538.0000     79.2721     12.3504   -999.2500   -999.2500   -999.2500    155.6908    -74.3365     16.8468     10.9814     14.6240   -999.2500   -999.2500   -999.2500  
   538.5000     79.6922     12.3197   -999.2500   -999.2500   -999.2500    155.1429    -74.6754     15.9418     10.5452     14.1658   -999.2500   -999.2500   -999.2500  
   539.0000     79.0619     12.3160   -999.2500   -999.2500   -999.2500    153.9405    -74.6985     15.0855     10.2165     12.9826   -999.2500   -999.2500   -999.2500  
   539.5000     78.2640     12.3625   -999.2500   -999.2500   -999.2500    152.3874    -74.6865     14.2055      9.6352     12.4417   -999.2500   -999.2500   -999.2500  
   540.0000     78.8095     12.4150   -999.2500   -999.2500   -999.2500    153.6902    -74.2551     13.2210      9.0996     12.8226   -999.2500   -999.2500   -999.2500  
   540.5000     80.6331     12.4828   -999.2500   -999.2500   -999.2500    154.7402    -72.8475     12.3006      8.7721     13.7568   -999.2500   -999.2500   -999.2500  
   541.0000     81.6272     12.5977   -999.2500   -999.2500   -999.2500    154.2078    -71.9398     11.3738      8.5309     13.6313   -999.2500   -999.2500   -999.2500  
   541.5000     81.0867     12.6707   -999.2500   -999.2500   -999.2500    153.6514    -72.1059     11.2298      8.6401     13.4451   -999.2500   -999.2500   -999.2500  
   542.0000     79.6050     12.8223   -999.2500   -999.2500   -999.2500    153.0741    -72.8467     12.9652      8.7507     13.2231   -999.2500   -999.2500   -999.2500  
   542.5000     78.0770     12.9740   -999.2500   -999.2500   -999.2500    153.1754    -73.1136     15.0441      8.8627     13.1909   -999.2500   -999.2500   -999.2500  
   543.0000     78.3296     13.0583   -999.2500   -999.2500   -999.2500    155.1972    -72.7738     14.6148      9.1193     13.7007   -999.2500   -999.2500   -999.2500  
   543.5000     80.4506     13.1294   -999.2500   -999.2500   -999.2500    155.9826    -72.3738     13.9157      9.4935     14.4274   -999.2500   -999.2500   -999.2500  
   544.0000     83.0822     12.9145   -999.2500   -999.2500   -999.2500    156.1405    -71.8802     14.2595      9.8830     15.7016   -999.2500   -999.2500   -999.2500  
   544.5000     85.8352     12.6221   -999.2500   -999.2500   -999.2500    156.4418    -71.3649     15.1834     10.2886     17.5134   -999.2500   -999.2500   -999.2500  
   545.0000     87.9862     12.6098   -999.2500   -999.2500   -999.2500    156.4489    -71.2062     15.4397     10.2785     16.8949   -999.2500   -999.2500   -999.2500  
   545.5000     88.7853     12.5867   -999.2500   -999.2500   -999.2500    156.3278    -71.0943     15.3930     10.2698     16.2983   -999.2500   -999.2500   -999.2500  
   546.0000     89.3498     12.6264   -999.2500   -999.2500   -999.2500    154.2004    -71.1715     15.1700     10.3308     15.8641   -999.2500   -999.2500   -999.2500  
   546.5000     90.4366     12.7046   -999.2500   -999.2500   -999.2500    150.2300    -71.3619     14.9149     10.0473     15.4585   -999.2500   -999.2500   -999.2500  
   547.0000     92.0969     12.8560   -999.2500   -999.2500   -999.2500    145.8408    -71.8947     14.6640      9.7715     15.0407   -999.2500   -999.2500   -999.2500  
   547.5000     94.2775     12.9304   -999.2500   -999.2500   -999.2500    141.3018    -72.0941     14.4174      9.5772     14.8439   -999.2500   -999.2500   -999.2500  
   548.0000     91.9127     12.9916   -999.2500   -999.2500   -999.2500    138.6068    -72.3400     14.1750      9.3204     14.8625   -999.2500   -999.2500   -999.2500  
   548.5000     88.2798     13.2612   -999.2500   -999.2500   -999.2500    135.9117    -72.8087     13.9366      9.0866     15.0734   -999.2500   -999.2500   -999.2500  
   549.0000     85.5177     13.2839   -999.2500   -999.2500   -999.2500    135.7010    -73.2576     13.7022      9.0397     15.2872   -999.2500   -999.2500   -999.2500  
   549.5000     83.3983     13.1536   -999.2500   -999.2500   -999.2500    135.5822    -73.5924     13.5078      9.0238     15.5041   -999.2500   -999.2500   -999.2500  
   550.0000     82.2326     13.2720   -999.2500   -999.2500   -999.2500    134.8630    -73.9986     13.5008      9.0219     15.7240   -999.2500   -999.2500   -999.2500  
   550.5000     82.3644     13.3904   -999.2500   -999.2500   -999.2500    134.1009    -74.3854     13.4938      9.0200     16.2608   -999.2500   -999.2500   -999.2500  
   551.0000     82.4243     13.3519   -999.2500   -999.2500   -999.2500    133.8174    -74.2313     13.8413      9.1727     15.9479   -999.2500   -999.2500   -999.2500  
   551.5000     81.5452     13.3750   -999.2500   -999.2500   -999.2500    142.6914    -73.9027     14.3053      9.3526     16.0262   -999.2500   -999.2500   -999.2500  
   552.0000     80.9260     13.4722   -999.2500   -999.2500   -999.2500    152.3550    -74.0785     14.8550      9.6521     16.9033   -999.2500   -999.2500   -999.2500  
   552.5000     80.4737     13.5351   -999.2500   -999.2500   -999.2500    163.7188    -74.3256     15.6026     10.1489     17.9464   -999.2500   -999.2500   -999.2500  
   553.0000     82.5204     13.5496   -999.2500   -999.2500   -999.2500    146.9234    -74.2084     16.3879     10.4678     17.5579   -999.2500   -999.2500   -999.2500  
   553.5000     85.0139     13.2391   -999.2500   -999.2500   -999.2500    144.1231    -74.1171     17.2127     11.0787     16.8870   -999.2500   -999.2500   -999.2500  
   554.0000     86.6157     13.0467   -999.2500   -999.2500   -999.2500    148.2745    -73.9995     18.0477     11.5497     16.3349   -999.2500   -999.2500   -999.2500  
   554.5000     87.5057     12.9726   -999.2500   -999.2500   -999.2500    150.4864    -73.9528     18.8832     11.9967     16.6121   -999.2500   -999.2500   -999.2500  
   555.0000     88.2807     12.9635   -999.2500   -999.2500   -999.2500    153.3853    -73.9831     19.7575     12.2744     16.7440   -999.2500   -999.2500   -999.2500  
   555.5000     88.5564     12.9527   -999.2500   -999.2500   -999.2500    156.0492    -74.2319     20.6722     12.5094     16.6757   -999.2500   -999.2500   -999.2500  
