~VERSION INFORMATION
 VERS.                           2.00:        CWLS LOG ASCII STANDARD - VERSION 2.00
 WRAP.                             NO:        ONE LINE PER DEPTH STEP
~WELL INFORMATION
#MNEM.UNIT                   DATA             INFORMATION
#----------             --------------        ------------------------------
 STRT.F                      101.0000:        START DEPTH
 STOP.F                     3666.0000:        STOP DEPTH
 STEP.F                        0.5000:        STEP VALUE
 NULL.                      -999.2500:        NULL VALUE
 COMP.     USGS/NPR HUSKY OIL COMPANY:        COMPANY
 LOC .                      9 20N 19W:        LOCATION
 DATE.                       12/30/79:        LOG DATE
 WELL.           WALAKPA TEST WELL #1:        WELL
 UWI .                   500232001300:        UNIQUE WELL ID
 API .                   500232001300:        UNIQUE WELL IDENTIFIER
 FLD .                        WILDCAT:        FIELD
 CNTY.                    NORTH SLOPE:        COUNTY
 STAT.                         ALASKA:        STATE
 CTRY.                            USA:        COUNTRY
 OPER.     USGS/NPR HUSKY OIL COMPANY:        OPERATOR
 SRVC.                   SCHLUMBERGER:        SERVICE COMPANY
 LAT .                         0.0000:        LATITUDE
 LON .                         0.0000:        LONGITUDE
 DIGS.               CENTER LINE DATA:        DIGITIZING COMPANY
~CURVE INFORMATION      
#MNEM        .UNIT         API CODE           CURVE DESCRIPTION
#-----------------      --------------        ------------------------------
 DEPT        .F                      :        1  DEPTH
 GR          .GAPI                   :        2  
 CALI        .IN                     :        3  
 RHOB        .G/C3                   :        4  
 DRHO        .G/C3                   :        5  
 NPHI        .%                      :        6  
 DT          .US/F                   :        7  
 SP          .MV                     :        8  
 ILD         .OHMM                   :        9  
 ILM         .OHMM                   :        10 
 LL8         .OHMM                   :        11 
 SFL         .OHMM                   :        12 
~PARAMETER INFORMATION
#MNEM.UNIT                  VALUE             DESCRIPTION OF MNEMONIC
#---------             ---------------        ------------------------------
 EKB .F                       50.0000:        KELLY BUSHING
 TD  .F                     3672.0000:        TOTAL DEPTH
 BHT .F                       80.0000:        BOTTOM HOLE TEMPERATURE
 BS  .                        12.2500:        BIT SIZE
 FD  .                         9.9000:        FLUID DENSITY
 CSIZ.                        13.3750:        CASING SIZE
 CBD .F                      100.0000:        CASING DRILLER 1
 CBL .F                      106.0000:        CASING LOGGER 1
 DFT .                             99:        TYPE FLUID IN HOLE
 DFV .                        45.0000:        VISCOSITY
 DFPH.                         8.0000:        PH
 DFL .                        23.0000:        FLUID LOSS
 RMS .                         5.9200:        RM
 MST .F                       58.0000:        RM MEAS. TEMP.
 RMF .                         6.2200:        RMF
 MFST.F                       57.0000:        RMF MEAS. TEMP.
 RMC .                         7.0500:        RMC
 MCST.F                       57.0000:        RMC MEAS. TEMP.
~OTHER INFORMATION
~A    DEPTH          GR        CALI        RHOB        DRHO        NPHI          DT          SP         ILD         ILM         LL8         SFL 
# ...
  2229.0000     95.8278      8.8156      2.3024      0.0790     44.8547    108.3945    -26.1452      5.3495      4.6897   -999.2500      5.8587 
  2229.5000     95.9492      8.8194      2.2773      0.0780     44.7848    108.5523    -25.6345      5.3813      4.7192   -999.2500      6.0969 
  2230.0000     96.2796      8.8115      2.2524      0.0914     45.8107    109.0427    -25.3013      5.4133      4.7488   -999.2500      6.3447 
  2230.5000     96.6874      8.8050      2.2362      0.1021     48.3269    109.5970    -24.1246      5.4455      4.7786   -999.2500      6.6026 
  2231.0000     97.8058      8.7955      2.2447      0.1046     49.6843    109.2865    -22.9479      5.4779      4.8087   -999.2500      6.6825 
  2231.5000     98.9717      8.8024      2.2602      0.1067     50.2875    108.4252    -23.2049      5.5427      4.8388   -999.2500      6.6471 
  2232.0000    100.0950      8.8093      2.2923      0.1159     50.8339    107.6560    -24.0321      5.6604      4.8692   -999.2500      6.5922 
  2232.5000    101.0757      8.8161      2.3119      0.1203     49.5856    107.0290    -25.1518      5.7650      4.9039   -999.2500      6.5279 
  2233.0000    101.7798      8.8091      2.2905      0.0995     47.5674    106.9815    -25.5088      5.8059      4.9684   -999.2500      6.4779 
  2233.5000    102.5974      8.8078      2.2843      0.0999     45.7849    107.7172    -25.6575      5.8438      5.0037   -999.2500      6.4435 
  2234.0000    103.0238      8.7968      2.2924      0.0888     44.6730    108.0375    -25.7035      5.8786      4.9778   -999.2500      6.4094 
  2234.5000    103.5779      8.7873      2.2997      0.0700     43.3967    107.0736    -25.6828      5.9135      4.9521   -999.2500      6.3755 
  2235.0000    104.4023      8.7918      2.2815      0.0549     43.2179    106.9109    -25.6621      5.9487      4.9266   -999.2500      6.4460 
  2235.5000    105.0838      8.7895      2.2793      0.0427     42.5425    106.7196    -25.6414      5.9841      4.9011   -999.2500      6.5998 
  2236.0000    107.2941      8.7776      2.2895      0.0509     42.5515    106.5833    -25.4953      6.0196      4.8758   -999.2500      7.0530 
  2236.5000    109.2986      8.7844      2.2974      0.0528     43.9480    106.7197    -25.3349      6.0543      4.8718   -999.2500      7.4740 
  2237.0000    110.5637      8.7872      2.2997      0.0454     45.5902    106.5978    -25.1745      5.9876      4.9133   -999.2500      6.5577 
  2237.5000    111.8988      8.7807      2.3251      0.0448     47.1980    106.8324    -25.0142      5.9216      4.9553   -999.2500      6.1210 
  2238.0000    112.6414      8.7790      2.3135      0.0470     47.4713    107.9978    -24.8200      5.8563      4.9976   -999.2500      6.2224 
  2238.5000    111.1111      8.7792      2.3256      0.0493     47.7331    107.0754    -24.6227      5.7918      5.0402   -999.2500      6.4771 
  2239.0000    110.0970      8.7785      2.3450      0.0536     47.8709    106.2091    -24.5543      5.7280      5.0832   -999.2500      6.6583 
  2239.5000    109.6552      8.7796      2.3524      0.0619     47.5943    106.0932    -24.7105      5.6725      5.0962   -999.2500      6.7812 
  2240.0000    108.2599      8.7827      2.3748      0.0704     46.5870    105.7647    -24.8667      5.6589      5.0968   -999.2500      6.6613 
  2240.5000    106.2476      8.7827      2.3917      0.0789     46.0148    105.2493    -25.0229      5.6453      5.0974   -999.2500      6.3622 
  2241.0000    104.0322      8.7787      2.4005      0.0866     46.0625    106.4058    -25.2927      5.6318      5.0979   -999.2500      6.0757 
  2241.5000     98.8595      8.7807      2.3995      0.0884     46.6614    108.1258    -25.6620      5.6183      5.0985   -999.2500      6.0033 
  2242.0000     95.2582      8.7816      2.4133      0.0789     47.5270    102.3290    -26.0314      5.6048      5.0991   -999.2500      6.1220 
  2242.5000     96.4428      8.7692      2.4503      0.0616     48.1913     98.3773    -26.3341      5.5914      5.0996   -999.2500      7.3259 
  2243.0000    103.7072      8.7486      2.4640      0.0253     48.6668     97.8982    -26.3242      5.5780      5.0841   -999.2500      9.9784 
  2243.5000    108.4631      8.7588      2.5097      0.0708     47.5995     98.7664    -26.2374      5.5646      5.0595   -999.2500     10.1513 
  2244.0000    110.8293      8.7914      2.4297      0.1639     44.7932    104.3070    -25.4754      5.5513      5.0350   -999.2500      7.1523 
  2244.5000    110.5782      8.8194      2.2850      0.1203     45.6555    110.9147    -24.9605      5.5380      5.0106   -999.2500      5.7885 
  2245.0000    111.2801      8.8216      2.2722      0.0800     46.4405    107.9516    -24.5891      5.5247      4.9863   -999.2500      5.4488 
  2245.5000    111.8366      8.8186      2.2834      0.0750     46.4866    106.2116    -25.2571      5.5115      4.9621   -999.2500      5.7445 
  2246.0000    112.2985      8.8207      2.3009      0.0976     46.2628    106.0609    -25.9043      5.5030      4.9381   -999.2500      5.8482 
  2246.5000    112.5862      8.8164      2.3355      0.1275     45.9636    106.0204    -26.2748      5.5165      4.9142   -999.2500      5.8155 
  2247.0000    112.1800      8.8117      2.3283      0.1239     45.6029    105.7605    -26.4460      5.5300      4.8923   -999.2500      5.8181 
  2247.5000    111.8014      8.8055      2.3253      0.1125     45.4360    104.7884    -26.3907      5.5436      4.9457   -999.2500      5.8991 
  2248.0000    111.8098      8.8053      2.3248      0.1015     45.1093    101.5707    -26.1608      5.5572      4.9997   -999.2500      6.1506 
  2248.5000    112.9680      8.7878      2.3240      0.1002     44.8917     99.7322    -25.9649      5.5708      5.0542   -999.2500      6.6053 
  2249.0000    114.6301      8.7665      2.3219      0.1022     44.8468     99.3743    -25.5993      5.5962      5.1094   -999.2500      7.7659 
  2249.5000    115.8841      8.7912      2.3316      0.1548     44.5001     99.4801    -25.3900      5.6330      5.1651   -999.2500      7.2956 
  2250.0000    115.2227      8.8183      2.3693      0.1533     44.1041    103.2841    -25.5784      5.6701      5.1835   -999.2500      6.7161 
  2250.5000    114.3830      8.8438      2.3211      0.1447     44.6688    105.7788    -25.6339      5.7074      5.1778   -999.2500      6.1827 
  2251.0000    113.4602      8.8770      2.3365      0.1444     45.3564    105.9330    -24.8291      5.7641      5.1720   -999.2500      6.3986 
  2251.5000    112.3731      8.8614      2.3369      0.1418     45.9253    105.8103    -24.0244      5.8256      5.1662   -999.2500      8.1820 
  2252.0000    111.4450      8.8546      2.3299      0.1336     46.3953    105.7017    -23.2197      5.8634      5.1605   -999.2500      7.7206 
  2252.5000    110.7102      8.8414      2.3464      0.1331     45.9285    105.5440    -22.4149      5.8853      5.1548   -999.2500      6.6432 
  2253.0000    110.4725      8.8327      2.3616      0.1452     44.2261    105.2024    -21.8552      5.9072      5.1490   -999.2500      6.2968 
  2253.5000    110.8303      8.8251      2.3603      0.1337     42.4470    104.4356    -21.7561      5.9200      5.1383   -999.2500      6.5091 
  2254.0000    110.8246      8.8393      2.3603      0.1168     43.2735    103.5086    -22.0419      5.8820      5.1218   -999.2500      6.5245 
  2254.5000    110.5136      8.8511      2.3402      0.0717     44.1161    104.2035    -22.4652      5.8826      5.1054   -999.2500      6.4917 
  2255.0000    110.5650      8.8488      2.3081      0.0597     44.8293    103.8079    -23.1551      5.9083      5.0891   -999.2500      6.3000 
  2255.5000    110.8387      8.8497      2.3324      0.1052     45.2638    103.1389    -24.1390      5.8890      5.0728   -999.2500      6.3531 
  2256.0000    110.2756      8.8457      2.3268      0.1094     45.9128    103.9516    -24.6514      5.8697      5.0565   -999.2500      6.6156 
  2256.5000    109.6200      8.8455      2.3136      0.0998     46.0421    104.4168    -25.0834      5.8506      5.0403   -999.2500      6.7368 
