~VERSION INFORMATION
 VERS.                           2.00:        CWLS LOG ASCII STANDARD - VERSION 2.00
 WRAP.                             NO:        ONE LINE PER DEPTH STEP
~WELL INFORMATION
#MNEM.UNIT                   DATA             INFORMATION
#----------             --------------        ------------------------------
 STRT.F                      990.0000:        START DEPTH
 STOP.F                     2362.0000:        STOP DEPTH
 STEP.F                        0.5000:        STEP VALUE
 NULL.                      -999.2500:        NULL VALUE
 COMP.                 U.S. AIR FORCE:        COMPANY  
 LOC .                   14  22N  18W:        LOCATION   
 DATE.                        4/21/69:        LOG DATE 
 WELL.       SOUTH BARROW GAS WELL #8:        WELL     
 UWI .                   500232000200:        UNIQUE WELL ID 
 API .                   500232000200:        UNIQUE WELL IDENTIFIER 
 FLD .                S. B. GAS FIELD:        FIELD    
 CNTY.                   POINT BARROW:        COUNTY  
 STAT.                         ALASKA:        STATE   
 CTRY.                            USA:        COUNTRY 
 OPER.                 U.S. AIR FORCE:        OPERATOR  
 SRVC.                   SCHLUMBERGER:        SERVICE COMPANY 
 LAT .                         0.0000:        LATITUDE
 LON .                         0.0000:        LONGITUDE
 DIGS.               CENTER LINE DATA:        DIGITIZING COMPANY 
~CURVE INFORMATION      
#MNEM        .UNIT         API CODE           CURVE DESCRIPTION
#-----------------      --------------        ------------------------------
 DEPT        .F                      :        1  DEPTH
 SP          .MV                     :        2  
 ASN         .OHMM                   :        3  
 ILD         .OHMM                   :        4  
 CILD        .MMHO                   :        5  
 CALI        .IN                     :        6  
 DT          .US/F                   :        7  
~PARAMETER INFORMATION       
#MNEM.UNIT                  VALUE             DESCRIPTION OF MNEMONIC
#---------             ---------------        ------------------------------
 EKB .F                       31.0000:        KELLY BUSHING
 TD  .F                     2363.0000:        TOTAL DEPTH
 BHT .F                       74.0000:        BOTTOM HOLE TEMPERATURE
 BS  .                         8.6250:        BIT SIZE
 FD  .                        10.6000:        FLUID DENSITY
 CSIZ.                         9.6250:        CASING SIZE
 CBD .F                      992.0000:        CASING DRILLER 1
 CBL .F                      990.0000:        CASING LOGGER 1
 DFT .                            Gel:        TYPE FLUID IN HOLE
 DFV .                        54.0000:        VISCOSITY
 DFPH.                        10.0000:        PH
 DFL .                         4.8000:        FLUID LOSS
 RMS .                         2.0000:        RM
 MST .F                       82.0000:        RM MEAS. TEMP.
 RMF .                         2.1800:        RMF
 MFST.F                       61.0000:        RMF MEAS. TEMP.
 RMC .                         4.1900:        RMC
 MCST.F                       53.0000:        RMC MEAS. TEMP.
~OTHER INFORMATION
~A    DEPTH          SP         ASN         ILD        CILD        CALI          DT  
# ...
  1272.0000    -49.2610      6.5431      6.8116    136.7871   -999.2500   -999.2500  
  1272.5000    -49.8337      6.6081      6.9745    135.5082   -999.2500   -999.2500  
  1273.0000    -49.8070      6.5887      7.1374    134.3592   -999.2500   -999.2500  
  1273.5000    -49.7673      6.5099      7.3003    133.3507   -999.2500   -999.2500  
  1274.0000    -49.2921      6.4639      7.3684    133.2322   -999.2500   -999.2500  
  1274.5000    -49.8956      6.5194      7.3107    134.1153   -999.2500   -999.2500  
  1275.0000    -50.9852      6.6623      7.2530    135.2122   -999.2500   -999.2500  
  1275.5000    -52.7677      6.7843      7.1954    136.4111   -999.2500   -999.2500  
  1276.0000    -54.8649      6.8236      7.1418    137.4334   -999.2500   -999.2500  
  1276.5000    -55.8131      6.6408      7.1067    138.0830   -999.2500   -999.2500  
  1277.0000    -54.5783      6.4295      7.0716    138.2133   -999.2500   -999.2500  
  1277.5000    -52.4916      6.2353      7.0773    137.9261   -999.2500   -999.2500  
  1278.0000    -50.3688      6.1778      7.1053    137.7245   -999.2500   -999.2500  
  1278.5000    -48.9086      6.2701      7.1333    137.5733   -999.2500   -999.2500  
  1279.0000    -48.6349      6.3909      7.1614    136.8492   -999.2500   -999.2500  
  1279.5000    -48.7718      6.5089      7.1894    135.4997   -999.2500   -999.2500  
  1280.0000    -48.8386      6.6430      7.3000    132.8231   -999.2500   -999.2500  
  1280.5000    -49.0868      6.8184      7.5383    129.3301   -999.2500   -999.2500  
  1281.0000    -49.3117      6.9784      7.8020    125.9561   -999.2500   -999.2500  
  1281.5000    -49.7050      7.1947      8.1363    121.7164   -999.2500   -999.2500  
  1282.0000    -49.9767      7.3927      8.3803    118.2401   -999.2500   -999.2500  
  1282.5000    -50.0132      7.5116      8.6191    114.4022   -999.2500   -999.2500  
  1283.0000    -49.6137      7.6782      8.8427    111.1693   -999.2500   -999.2500  
  1283.5000    -48.9071      7.9676      9.0543    108.9098   -999.2500   -999.2500  
  1284.0000    -48.2587      8.2919      9.2166    105.3759   -999.2500   -999.2500  
  1284.5000    -47.2244      8.4788      9.3585    102.6251   -999.2500   -999.2500  
  1285.0000    -47.4075      8.5202      9.5003    101.9880   -999.2500   -999.2500  
  1285.5000    -47.0670      8.4812      9.6121    101.7938   -999.2500   -999.2500  
  1286.0000    -46.1447      8.4194      9.4689    101.8164   -999.2500   -999.2500  
  1286.5000    -45.6592      8.3656      9.4971    101.7717   -999.2500   -999.2500  
  1287.0000    -45.8988      8.3355      9.4107    102.2860   -999.2500   -999.2500  
  1287.5000    -45.9449      8.3293      9.3458    102.6086   -999.2500   -999.2500  
  1288.0000    -45.6170      8.3494      9.3193    102.9188   -999.2500   -999.2500  
  1288.5000    -45.1197      8.3874      9.3512    103.0000   -999.2500   -999.2500  
  1289.0000    -45.6567      8.4574      9.4010    102.7063   -999.2500   -999.2500  
  1289.5000    -45.8964      8.5230      9.4175    102.1372   -999.2500   -999.2500  
  1290.0000    -45.9824      8.5847      9.4657    102.0767   -999.2500   -999.2500  
  1290.5000    -45.9346      8.6443      9.6552    101.7203   -999.2500   -999.2500  
  1291.0000    -46.1292      8.7025      9.6658    101.2217   -999.2500   -999.2500  
  1291.5000    -46.3238      8.7440      9.7303    101.0000   -999.2500   -999.2500  
  1292.0000    -46.4605      8.7805      9.6572    101.1895   -999.2500   -999.2500  
  1292.5000    -46.4430      8.8048      9.7007    101.1279   -999.2500   -999.2500  
  1293.0000    -45.8380      8.8239      9.7841    100.6100   -999.2500   -999.2500  
  1293.5000    -46.4538      8.8098      9.7698    100.7070   -999.2500   -999.2500  
  1294.0000    -47.0436      8.8265      9.8112    100.5477   -999.2500   -999.2500  
  1294.5000    -47.6229      8.8803      9.8404    100.5747   -999.2500   -999.2500  
  1295.0000    -48.2943      8.9210      9.7829    100.1527   -999.2500   -999.2500  
  1295.5000    -48.5132      8.9420      9.8627     99.5742   -999.2500   -999.2500  
  1296.0000    -48.1924      8.9982      9.9626     98.2222   -999.2500   -999.2500  
  1296.5000    -47.9247      9.0920     10.1977     96.2294   -999.2500   -999.2500  
  1297.0000    -47.9082      9.2542     10.3427     94.8165   -999.2500   -999.2500  
  1297.5000    -47.1749      9.4426     10.6137     92.5434   -999.2500   -999.2500  
  1298.0000    -47.7558      9.6052     10.7558     90.9351   -999.2500   -999.2500  
  1298.5000    -47.1812      9.7079     10.9387     89.8029   -999.2500   -999.2500  
  1299.0000    -46.5747      9.4904     11.0499     89.1510   -999.2500   -999.2500  
  1299.5000    -46.2084      9.2926     11.1314     88.1153   -999.2500   -999.2500  
  1300.0000    -45.6668      9.7302     11.2632     87.4193   -999.2500   -999.2500  
  1300.5000    -45.6531     10.0127     11.3375     87.0376   -999.2500   -999.2500  
  1301.0000    -45.5006     10.2460     11.2922     87.5012   -999.2500   -999.2500  
  1301.5000    -45.7169     10.1225     11.1478     88.2392   -999.2500   -999.2500  
  1302.0000    -45.8705      9.9565     10.9198     89.7076   -999.2500   -999.2500  
  1302.5000    -45.8656      9.7994     10.7881     91.0776   -999.2500   -999.2500  
  1303.0000    -46.1858      9.6704     10.6961     91.8260   -999.2500   -999.2500  
  1303.5000    -46.4030      9.5631     10.6088     92.5041   -999.2500   -999.2500  
  1304.0000    -46.7685      9.4784     10.5938     92.5390   -999.2500   -999.2500  
  1304.5000    -47.1166      9.4072     10.6441     92.4451   -999.2500   -999.2500  
  1305.0000    -47.0522      9.4014     10.6525     92.3057   -999.2500   -999.2500  
  1305.5000    -47.2477      9.4408     10.6817     92.1663   -999.2500   -999.2500  
  1306.0000    -47.4845      9.4930     10.6594     92.0978   -999.2500   -999.2500  
  1306.5000    -47.5940      9.5228     10.6992     92.2253   -999.2500   -999.2500  
  1307.0000    -47.3275      9.5400     10.7045     91.9165   -999.2500   -999.2500  
  1307.5000    -47.7209      9.5932     10.7427     91.3027   -999.2500   -999.2500  
  1308.0000    -47.3749      9.6068     10.7589     91.1132   -999.2500   -999.2500  
  1308.5000    -47.0680      9.5780     10.7225     91.3459   -999.2500   -999.2500  
  1309.0000    -46.8818      9.4894     10.6764     91.9294   -999.2500   -999.2500  
  1309.5000    -46.7887      9.4243     10.5718     92.4404   -999.2500   -999.2500  
  1310.0000    -46.5531      9.3468     10.4785     93.3639   -999.2500   -999.2500  
  1310.5000    -46.3140      9.2063     10.3466     94.6065   -999.2500   -999.2500  
  1311.0000    -46.1266      9.0609     10.1398     96.5855   -999.2500   -999.2500  
  1311.5000    -45.6576      8.9145      9.7891     98.6018   -999.2500   -999.2500  
  1312.0000    -45.7819      8.7717      9.4684    101.8002   -999.2500   -999.2500  
  1312.5000    -45.8109      8.5833      9.2293    104.9414   -999.2500   -999.2500  
  1313.0000    -46.0335      8.2815      9.0318    107.9894   -999.2500   -999.2500  
  1313.5000    -46.1588      7.9989      8.8734    109.8868   -999.2500   -999.2500  
  1314.0000    -46.2294      7.7360      8.8076    111.2850   -999.2500   -999.2500  
  1314.5000    -46.5468      7.6265      8.7324    112.5314   -999.2500   -999.2500  
  1315.0000    -46.7856      7.6526      8.6327    112.8260   -999.2500   -999.2500  
  1315.5000    -47.1436      7.7341      8.6327    112.9567   -999.2500   -999.2500  
  1316.0000    -47.2955      7.7903      8.6625    112.6697   -999.2500   -999.2500  
  1316.5000    -47.7154      7.8242      8.6788    112.5835   -999.2500   -999.2500  
  1317.0000    -47.8821      7.8142      8.7731    111.3195   -999.2500   -999.2500  
  1317.5000    -47.5879      7.7832      8.8672    110.2331   -999.2500   -999.2500  
  1318.0000    -47.9409      7.6857      8.9074    109.5639   -999.2500   -999.2500  
  1318.5000    -48.3214      7.5544      8.9486    108.9851   -999.2500   -999.2500  
