~VERSION INFORMATION
 VERS.                           2.00:        CWLS LOG ASCII STANDARD - VERSION 2.00
 WRAP.                             NO:        ONE LINE PER DEPTH STEP
~WELL INFORMATION
#MNEM.UNIT                   DATA             INFORMATION
#----------             --------------        ------------------------------
 STRT.F                       52.0000:        START DEPTH
 STOP.F                     2296.0000:        STOP DEPTH
 STEP.F                        0.5000:        STEP VALUE
 NULL.                      -999.2500:        NULL VALUE
 COMP.                     USGS/NPR-A:        COMPANY  
 LOC .                   23  22N  17W:        LOCATION   
 DATE.                        4/30/78:        LOG DATE 
 WELL.               SOUTH BARROW #19:        WELL     
 UWI .                   500232001200:        UNIQUE WELL ID 
 API .                   500232001200:        UNIQUE WELL IDENTIFIER 
 FLD .                   SOUTH BARROW:        FIELD    
 CNTY.                    NORTH SLOPE:        COUNTY  
 STAT.                         ALASKA:        STATE   
 CTRY.                            USA:        COUNTRY 
 OPER.                     USGS/NPR-A:        OPERATOR  
 SRVC.                   SCHLUMBERGER:        SERVICE COMPANY 
 LAT .                         0.0000:        LATITUDE
 LON .                         0.0000:        LONGITUDE
 DIGS.               CENTER LINE DATA:        DIGITIZING COMPANY 
~CURVE INFORMATION      
#MNEM        .UNIT         API CODE           CURVE DESCRIPTION
#-----------------      --------------        ------------------------------
 DEPT        .F                      :        1  DEPTH
 GR          .GAPI                   :        2  
 CALI        .IN                     :        3  
 RHOB        .G/C3                   :        4  
 DRHO        .G/C3                   :        5  
 NPHI        .%                      :        6  
 DT          .US/F                   :        7  
 SP          .MV                     :        8  
 ILD         .OHMM                   :        9  
 ILM         .OHMM                   :        10 
 LL8         .OHMM                   :        11 
 LLD         .OHMM                   :        12 
 LLS         .OHMM                   :        13 
 MSFL        .OHMM                   :        14 
~PARAMETER INFORMATION       
#MNEM.UNIT                  VALUE             DESCRIPTION OF MNEMONIC
#---------             ---------------        ------------------------------
 EKB .F                       30.0000:        KELLY BUSHING
 TD  .F                     2300.0000:        TOTAL DEPTH
 BHT .F                      173.0000:        BOTTOM HOLE TEMPERATURE
 BS  .                         8.5000:        BIT SIZE
 FD  .                        11.6000:        FLUID DENSITY
 CSIZ.                         9.6250:        CASING SIZE
 CBD .F                     1491.0000:        CASING DRILLER 1
 CBL .F                     1490.0000:        CASING LOGGER 1
 DFT .                  Miscellaneous:        TYPE FLUID IN HOLE
 DFV .                        46.0000:        VISCOSITY
 DFPH.                         8.5000:        PH
 DFL .                         6.0000:        FLUID LOSS
 RMS .                         0.1090:        RM
 MST .F                       58.0000:        RM MEAS. TEMP.
 RMF .                         0.0720:        RMF
 MFST.F                       61.0000:        RMF MEAS. TEMP.
 RMC .                         0.3000:        RMC
 MCST.F                       70.0000:        RMC MEAS. TEMP.
~OTHER INFORMATION
~A    DEPTH          GR        CALI        RHOB        DRHO        NPHI          DT          SP         ILD         ILM         LL8         LLD         LLS        MSFL  
# ...
   964.0000     77.2767     12.8971   -999.2500   -999.2500   -999.2500    118.7218    -51.3281      9.4018      8.4814      9.8273   -999.2500   -999.2500   -999.2500  
   964.5000     76.9341     12.8920   -999.2500   -999.2500   -999.2500    120.6736    -50.6842      9.3766      8.4974      9.7901   -999.2500   -999.2500   -999.2500  
   965.0000     78.8387     13.0361   -999.2500   -999.2500   -999.2500    121.8525    -49.9259      9.3514      8.5135      9.7530   -999.2500   -999.2500   -999.2500  
   965.5000     81.1346     13.1511   -999.2500   -999.2500   -999.2500    122.5984    -49.3714      9.3263      8.5296      9.7472   -999.2500   -999.2500   -999.2500  
   966.0000     82.9004     13.1916   -999.2500   -999.2500   -999.2500    123.4020    -49.0715      9.3013      8.5457      9.7494   -999.2500   -999.2500   -999.2500  
   966.5000     83.3513     12.9427   -999.2500   -999.2500   -999.2500    124.9234    -48.5376      9.2763      8.5618      9.7517   -999.2500   -999.2500   -999.2500  
   967.0000     83.0700     12.6304   -999.2500   -999.2500   -999.2500    127.8324    -47.8718      9.2514      8.5780      9.7539   -999.2500   -999.2500   -999.2500  
   967.5000     82.5468     12.6323   -999.2500   -999.2500   -999.2500    128.7590    -47.8056      9.2265      8.5806      9.7562   -999.2500   -999.2500   -999.2500  
   968.0000     81.4045     12.6066   -999.2500   -999.2500   -999.2500    129.6932    -47.8338      9.2018      8.5826      9.7377   -999.2500   -999.2500   -999.2500  
   968.5000     81.7499     12.5132   -999.2500   -999.2500   -999.2500    128.2995    -47.7596      9.1771      8.5846      9.7164   -999.2500   -999.2500   -999.2500  
   969.0000     83.3770     12.4861   -999.2500   -999.2500   -999.2500    126.2952    -47.4208      9.1524      8.5866      9.6950   -999.2500   -999.2500   -999.2500  
   969.5000     85.1753     12.5220   -999.2500   -999.2500   -999.2500    125.5429    -46.8648      9.1674      8.5885      9.9375   -999.2500   -999.2500   -999.2500  
   970.0000     86.1694     12.5367   -999.2500   -999.2500   -999.2500    124.7579    -46.6293      9.3258      8.5905     10.2326   -999.2500   -999.2500   -999.2500  
   970.5000     84.8012     12.5509   -999.2500   -999.2500   -999.2500    123.2436    -46.7595      9.4870      8.6868     10.5364   -999.2500   -999.2500   -999.2500  
   971.0000     82.8235     12.6603   -999.2500   -999.2500   -999.2500    121.6844    -47.3675      9.9249      9.0138     10.8492   -999.2500   -999.2500   -999.2500  
   971.5000     80.9594     12.7403   -999.2500   -999.2500   -999.2500    123.4919    -47.7257     10.3716      9.3530     11.1714   -999.2500   -999.2500   -999.2500  
   972.0000     79.6601     12.5866   -999.2500   -999.2500   -999.2500    125.0504    -48.3472     10.6581      9.7051     11.5031   -999.2500   -999.2500   -999.2500  
   972.5000     79.4798     12.4292   -999.2500   -999.2500   -999.2500    123.7912    -48.8306     10.9192     10.0703     11.6000   -999.2500   -999.2500   -999.2500  
   973.0000     79.7648     12.6714   -999.2500   -999.2500   -999.2500    121.8359    -49.0007     10.8947     10.3278     11.6358   -999.2500   -999.2500   -999.2500  
   973.5000     79.8637     12.5799   -999.2500   -999.2500   -999.2500    118.1243    -49.0409     10.8616     10.4288     11.6371   -999.2500   -999.2500   -999.2500  
   974.0000     80.7645     12.5474   -999.2500   -999.2500   -999.2500    115.0100    -48.7411     10.8414     10.5309     11.5245   -999.2500   -999.2500   -999.2500  
   974.5000     81.2213     12.6024   -999.2500   -999.2500   -999.2500    113.3365    -48.9336     10.8081     10.6340     11.4130   -999.2500   -999.2500   -999.2500  
   975.0000     80.5413     12.6959   -999.2500   -999.2500   -999.2500    113.3817    -49.2931     10.7748     10.5582     11.3025   -999.2500   -999.2500   -999.2500  
   975.5000     79.6579     12.8166   -999.2500   -999.2500   -999.2500    114.1888    -49.5276     10.7417     10.4359     11.1931   -999.2500   -999.2500   -999.2500  
   976.0000     79.1639     12.8012   -999.2500   -999.2500   -999.2500    114.8504    -49.6178     10.7087     10.3150     11.0903   -999.2500   -999.2500   -999.2500  
   976.5000     78.4446     12.7447   -999.2500   -999.2500   -999.2500    115.4897    -49.6747     10.6757     10.1955     11.0509   -999.2500   -999.2500   -999.2500  
   977.0000     77.7688     12.4939   -999.2500   -999.2500   -999.2500    115.9432    -49.4036     10.6429     10.0773     11.0116   -999.2500   -999.2500   -999.2500  
   977.5000     77.9164     12.4449   -999.2500   -999.2500   -999.2500    116.5784    -49.0145     10.6102      9.9606     10.9725   -999.2500   -999.2500   -999.2500  
   978.0000     77.8990     12.5116   -999.2500   -999.2500   -999.2500    117.9787    -48.6976     10.5776      9.8452     10.9336   -999.2500   -999.2500   -999.2500  
   978.5000     77.7407     12.7415   -999.2500   -999.2500   -999.2500    118.9233    -48.7225     10.5450      9.7311     10.8947   -999.2500   -999.2500   -999.2500  
   979.0000     77.8394     12.8368   -999.2500   -999.2500   -999.2500    119.1811    -48.4075     10.5257      9.6183     10.9515   -999.2500   -999.2500   -999.2500  
   979.5000     79.3659     12.5025   -999.2500   -999.2500   -999.2500    119.0060    -47.9785     10.8591      9.5069     11.2658   -999.2500   -999.2500   -999.2500  
   980.0000     82.0151     12.3193   -999.2500   -999.2500   -999.2500    117.3879    -47.8730     11.2031     11.1036     11.5368   -999.2500   -999.2500   -999.2500  
   980.5000     82.0740     12.2756   -999.2500   -999.2500   -999.2500    114.9330    -47.8364     11.5269     14.1640     11.5826   -999.2500   -999.2500   -999.2500  
   981.0000     80.3741     12.3512   -999.2500   -999.2500   -999.2500    114.0214    -47.7509     11.4269     18.1154     11.5880   -999.2500   -999.2500   -999.2500  
   981.5000     78.0875     12.3888   -999.2500   -999.2500   -999.2500    113.2214    -47.7644     11.3277     13.8728     11.2712   -999.2500   -999.2500   -999.2500  
   982.0000     78.0282     12.4146   -999.2500   -999.2500   -999.2500    112.2093    -48.1054     11.2294      9.5400     10.9676   -999.2500   -999.2500   -999.2500  
   982.5000     79.2311     12.4236   -999.2500   -999.2500   -999.2500    111.5662    -48.3199     11.1320      8.3667     10.8138   -999.2500   -999.2500   -999.2500  
   983.0000     79.8186     12.3791   -999.2500   -999.2500   -999.2500    110.8895    -47.8688     11.0354      9.2340     10.6621   -999.2500   -999.2500   -999.2500  
   983.5000     80.0533     12.3981   -999.2500   -999.2500   -999.2500    110.2656    -47.2065     10.9969     12.2223     10.5125   -999.2500   -999.2500   -999.2500  
   984.0000     80.6399     12.4642   -999.2500   -999.2500   -999.2500    110.4054    -46.6697     11.0216     12.0842     10.3206   -999.2500   -999.2500   -999.2500  
   984.5000     80.8184     12.5559   -999.2500   -999.2500   -999.2500    111.1905    -46.5727     11.0463     10.5425     10.1583   -999.2500   -999.2500   -999.2500  
   985.0000     80.6231     12.6548   -999.2500   -999.2500   -999.2500    112.9659    -47.4786     11.0711      9.2832     10.2153   -999.2500   -999.2500   -999.2500  
   985.5000     79.9036     12.6585   -999.2500   -999.2500   -999.2500    116.3000    -48.6216     11.0959      8.4910     10.2725   -999.2500   -999.2500   -999.2500  
   986.0000     78.1015     12.7327   -999.2500   -999.2500   -999.2500    118.7200    -48.5867     11.1258      8.6399     10.3553   -999.2500   -999.2500   -999.2500  
   986.5000     75.3189     12.8156   -999.2500   -999.2500   -999.2500    119.0538    -48.0369     11.1594      9.1406     10.4804   -999.2500   -999.2500   -999.2500  
   987.0000     72.8039     13.2062   -999.2500   -999.2500   -999.2500    118.4061    -47.6058     11.1600      9.5523     10.6070   -999.2500   -999.2500   -999.2500  
   987.5000     71.7769     13.2470   -999.2500   -999.2500   -999.2500    116.2332    -47.5357     11.0686      9.9825     10.7352   -999.2500   -999.2500   -999.2500  
