~VERSION INFORMATION
 VERS.                           2.00:        CWLS LOG ASCII STANDARD - VERSION 2.00
 WRAP.                             NO:        ONE LINE PER DEPTH STEP
~WELL INFORMATION
#MNEM.UNIT                   DATA             INFORMATION
#----------             --------------        ------------------------------
 STRT.F                     1244.0000:        START DEPTH
 STOP.F                     2340.0000:        STOP DEPTH
 STEP.F                        0.5000:        STEP VALUE
 NULL.                      -999.2500:        NULL VALUE
 COMP.        U.S. NAVY DEPT NP & OSR:        COMPANY  
 LOC .                   14  22N  18W:        LOCATION   
 DATE.                        3/16/73:        LOG DATE 
 WELL.               SOUTH BARROW #10:        WELL     
 UWI .                   500232000400:        UNIQUE WELL ID 
 API .                   500232000400:        UNIQUE WELL IDENTIFIER 
 FLD .                   SOUTH BARROW:        FIELD    
 CNTY.                         NPR #4:        COUNTY  
 STAT.                         ALASKA:        STATE   
 CTRY.                            USA:        COUNTRY 
 OPER.        U.S. NAVY DEPT NP & OSR:        OPERATOR  
 SRVC.                   SCHLUMBERGER:        SERVICE COMPANY 
 LAT .                         0.0000:        LATITUDE
 LON .                         0.0000:        LONGITUDE
 DIGS.               CENTER LINE DATA:        DIGITIZING COMPANY 
~CURVE INFORMATION      
#MNEM        .UNIT         API CODE           CURVE DESCRIPTION
#-----------------      --------------        ------------------------------
 DEPT        .F                      :        1  DEPTH
 SP          .MV                     :        2  
 LL8         .OHMM                   :        3  
 ILD         .OHMM                   :        4  
 CILD        .MMHO                   :        5  
 DT          .US/F                   :        6  
~PARAMETER INFORMATION       
#MNEM.UNIT                  VALUE             DESCRIPTION OF MNEMONIC
#---------             ---------------        ------------------------------
 EKB .F                       38.0000:        KELLY BUSHING
 TD  .F                     2349.0000:        TOTAL DEPTH
 BHT .F                       60.0000:        BOTTOM HOLE TEMPERATURE
 BS  .                         9.6250:        BIT SIZE
 FD  .                        10.6000:        FLUID DENSITY
 CSIZ.                        10.7500:        CASING SIZE
 CBD .F                     1240.0000:        CASING DRILLER 1
 CBL .F                     1244.0000:        CASING LOGGER 1
 DFT .                  Miscellaneous:        TYPE FLUID IN HOLE
 DFV .                        15.0000:        VISCOSITY
 DFPH.                        11.0000:        PH
 DFL .                         1.8000:        FLUID LOSS
 RMS .                         1.1900:        RM
 MST .F                       55.0000:        RM MEAS. TEMP.
 RMF .                         0.8500:        RMF
 MFST.F                       55.0000:        RMF MEAS. TEMP.
 RMC .                         1.2000:        RMC
 MCST.F                       55.0000:        RMC MEAS. TEMP.
~OTHER INFORMATION
~A    DEPTH          SP         LL8         ILD        CILD          DT  
# ...
  2061.5000    -19.9262     10.1623      8.0243    122.1775    112.1109  
  2062.0000    -20.0773     10.1935      8.0949    120.8082    110.4799  
  2062.5000    -20.1916     10.2247      8.1313    120.8077    109.1470  
  2063.0000    -20.2437     10.1458      8.0144    121.9784    108.1933  
  2063.5000    -20.2957     10.0436      7.9234    123.3917    106.9323  
  2064.0000    -20.3478      9.9413      7.8488    124.8270    105.1162  
  2064.5000    -20.3405      9.9386      7.7602    125.7249    105.1495  
  2065.0000    -20.1862      9.8489      7.7478    126.2467    105.8707  
  2065.5000    -19.9685      9.7415      7.7093    126.6950    107.1810  
  2066.0000    -19.6479      9.6897      7.5849    127.7943    108.5423  
  2066.5000    -19.5927      9.9279      7.5672    130.5438    109.5350  
  2067.0000    -19.8895     10.0958      7.5582    128.8864    109.6836  
  2067.5000    -20.0601     10.2521      7.6169    127.6146    109.7742  
  2068.0000    -20.2956     10.2322      7.7284    125.8165    109.8831  
  2068.5000    -19.7358     10.1283      7.8518    124.6916    109.9020  
  2069.0000    -19.2751     10.0567      7.8588    124.7568    109.3492  
  2069.5000    -19.0501     10.0012      7.8232    124.9534    108.6450  
  2070.0000    -18.9254     10.0126      7.7861    125.4473    108.6513  
  2070.5000    -18.7907     10.0269      7.7452    126.1355    109.0434  
  2071.0000    -18.7535     10.0829      7.7146    126.4424    109.6752  
  2071.5000    -18.9328     10.1656      7.7390    126.2909    110.3736  
  2072.0000    -18.6942     10.2815      7.7618    126.0691    110.5597  
  2072.5000    -18.3685     10.4000      7.7683    125.7641    110.7410  
  2073.0000    -18.5104     10.4919      7.7875    125.3494    110.8699  
  2073.5000    -18.4770     10.7213      7.8583    124.2661    111.4031  
  2074.0000    -18.7726     11.1371      8.0111    122.0656    112.3607  
  2074.5000    -19.1219     11.6670      8.2868    119.0044    111.7021  
  2075.0000    -19.4009     12.3248      8.5624    115.1851    111.9188  
  2075.5000    -19.4423     12.6657      8.8381    112.0329    111.9523  
  2076.0000    -19.5049     12.7186      8.9505    110.8988    110.9666  
  2076.5000    -19.5352     12.5733      8.9671    111.2771    107.1853  
  2077.0000    -19.3994     12.3750      8.8826    112.2991    100.5058  
  2077.5000    -19.1172     12.1321      8.7342    113.1132     92.5630  
  2078.0000    -18.9390     11.7767      8.5857    113.7282     90.4535  
  2078.5000    -19.0050     11.2440      8.4371    114.8491     92.6782  
  2079.0000    -18.9198     10.6828      8.2866    117.9436     98.9970  
  2079.5000    -18.6761     10.5708      8.0745    121.6971    104.7242  
  2080.0000    -18.8958     10.5917      7.8654    124.5298    108.2556  
  2080.5000    -19.3487     10.6126      7.7542    125.7249    108.7826  
  2081.0000    -19.5729     10.7200      7.8188    124.8646    109.4371  
  2081.5000    -19.5063     10.7944      7.9123    123.0603    108.9826  
  2082.0000    -19.5689     10.8099      8.0034    121.3700    108.4920  
  2082.5000    -19.8569     10.8549      8.0946    120.1258    108.0014  
  2083.0000    -20.1417     10.8838      8.1858    119.0132    107.9436  
  2083.5000    -20.3092     10.8903      8.2738    118.0045    108.3449  
  2084.0000    -20.3056     10.7986      8.2935    117.9801    108.5584  
  2084.5000    -20.2956     10.6849      8.2914    117.9146    108.9170  
  2085.0000    -20.2855     10.5692      8.2910    118.1397    109.6367  
  2085.5000    -20.2754     10.5730      8.3048    118.1821    110.8765  
  2086.0000    -20.2896     10.5767      8.2962    118.2493    110.6074  
  2086.5000    -20.2910     10.5805      8.3007    118.3914    110.4713  
  2087.0000    -19.8655     10.5843      8.2436    118.8109    110.4703  
  2087.5000    -19.8946     10.5399      8.1543    119.8406    109.6526  
  2088.0000    -20.5351     10.4660      8.0848    121.0580    108.3258  
  2088.5000    -20.6750     10.3922      8.0411    121.3714    106.8356  
  2089.0000    -20.8387     10.3918      8.0005    121.9417    106.7596  
  2089.5000    -20.9372     10.4147      7.9264    122.7656    107.4850  
  2090.0000    -20.9732     10.5014      7.8711    123.6922    108.6771  
  2090.5000    -20.9650     10.6434      7.8536    123.9934    108.6311  
  2091.0000    -20.9985     10.8227      7.8846    123.5984    108.1902  
  2091.5000    -21.2149     10.9577      7.9512    122.6272    107.6852  
  2092.0000    -21.2884     11.0769      8.0203    120.8131    106.4390  
  2092.5000    -21.2287     11.3158      8.2533    118.2596    107.3008  
  2093.0000    -21.1773     11.7825      8.6186    114.8687    107.0120  
  2093.5000    -21.1231     12.4929      8.9154    110.3185    106.2336  
  2094.0000    -21.0713     13.1602      9.3868    104.3654    106.3924  
  2094.5000    -21.1803     13.5245      9.8783    100.3075    106.6510  
  2095.0000    -21.4449     13.7666     10.2817     97.3712    105.1605  
  2095.5000    -21.4819     13.9327     10.5127     95.2582    102.9921  
  2096.0000    -21.2171     14.0327     10.6528     94.2822    101.5276  
  2096.5000    -21.0818     14.0759     10.5527     95.1537    100.5437  
  2097.0000    -21.3754     13.8449     10.4526     94.1175     99.3251  
  2097.5000    -21.5795     13.1995     10.1224     97.3393     99.3644  
  2098.0000    -22.0882     12.6540      9.7649    100.1658    101.5948  
  2098.5000    -22.4826     12.3401      9.4074    103.6366    103.1939  
  2099.0000    -22.5443     12.1797      9.1117    107.9875    101.5047  
  2099.5000    -21.8384     12.0134      8.8644    111.4678     99.0332  
  2100.0000    -21.0981     11.7915      8.6767    113.5017     97.8787  
  2100.5000    -20.5887     11.5727      8.4832    115.0564     97.7504  
  2101.0000    -20.3809     11.6501      8.4859    115.0767     98.2821  
  2101.5000    -20.2487     11.8665      8.5561    114.2199    100.2435  
  2102.0000    -20.5271     12.1327      8.7566    111.6673    102.6478  
  2102.5000    -20.6350     12.5758      9.0903    108.1869    105.2628  
  2103.0000    -21.1366     13.0188      9.4321    104.0845    105.1075  
  2103.5000    -21.5347     13.4063      9.6489    101.3996    104.9447  
  2104.0000    -21.8186     13.6830      9.9029     99.5985    104.8604  
  2104.5000    -21.9453     13.8556     10.0061     98.7750    103.3046  
  2105.0000    -21.7913     13.5482     10.0627     98.8764     98.8750  
  2105.5000    -21.3801     13.2195     10.0036     99.1174     96.3962  
  2106.0000    -21.1903     12.5442      9.8976    100.2994     95.5672  
  2106.5000    -21.1791     11.8862      9.7157    102.3818     97.3254  
  2107.0000    -21.1325     11.6030      9.3360    105.8912    100.7324  
  2107.5000    -21.1471     11.4538      9.0447    109.2568    103.8124  
  2108.0000    -21.2124     11.3704      8.7528    112.0325    105.9707  
  2108.5000    -21.3548     11.3065      8.5790    114.3002    107.3487  
  2109.0000    -21.5011     11.3137      8.4665    115.6587    105.3801  
  2109.5000    -21.5944     11.3192      8.3753    116.1151    104.2336  
  2110.0000    -22.1100     11.3607      8.4382    115.5316    103.2188  
  2110.5000    -22.5149     11.4860      8.5142    113.6282    103.9100  
  2111.0000    -22.1993     12.0223      8.8800    110.2635    105.1763  
  2111.5000    -21.6983     13.0729      9.2166    105.7503    106.3826  
  2112.0000    -21.6293     13.8357      9.7375    100.9334    106.9454  
  2112.5000    -21.7411     14.1103     10.2540     97.5891    106.8439  
  2113.0000    -21.9243     14.3023     10.3816     96.1179    106.7981  
  2113.5000    -22.1125     14.6823     10.5692     95.0759    105.6798  
  2114.0000    -22.0408     15.0586     10.6913     92.8872    102.0952  
  2114.5000    -21.8461     14.9631     10.8537     90.6985     99.2736  
  2115.0000    -21.7385     14.0076     10.8502     91.4814     99.4834  
  2115.5000    -21.6832     12.8380     10.4271     95.3128    102.4366  
