~VERSION INFORMATION
 VERS.                           2.00:        CWLS LOG ASCII STANDARD - VERSION 2.00
 WRAP.                             NO:        ONE LINE PER DEPTH STEP
~WELL INFORMATION
#MNEM.UNIT                   DATA             INFORMATION
#----------             --------------        ------------------------------
 STRT.F                       25.0000:        START DEPTH
 STOP.F                     2347.0000:        STOP DEPTH
 STEP.F                        0.5000:        STEP VALUE
 NULL.                      -999.2500:        NULL VALUE
 COMP.        HUSKY OIL COMPANY/NPR-A:        COMPANY
 LOC .                     26 22N 17W:        LOCATION
 DATE.                        4/14/80:        LOG DATE
 WELL.                     BARROW #20:        WELL
 UWI .                   500232001500:        UNIQUE WELL ID
 API .                   500232001500:        UNIQUE WELL IDENTIFIER
 FLD .                   SOUTH BARROW:        FIELD
 CNTY.                    NORTH SLOPE:        COUNTY
 STAT.                        ALAASKA:        STATE
 CTRY.                            USA:        COUNTRY
 OPER.        HUSKY OIL COMPANY/NPR-A:        OPERATOR
 SRVC.                   SCHLUMBERGER:        SERVICE COMPANY
 LAT .                         0.0000:        LATITUDE
 LON .                         0.0000:        LONGITUDE
 DIGS.               CENTER LINE DATA:        DIGITIZING COMPANY
~CURVE INFORMATION      
#MNEM        .UNIT         API CODE           CURVE DESCRIPTION
#-----------------      --------------        ------------------------------
 DEPT        .F                      :        1  DEPTH
 CALI        .IN                     :        2  
 GR          .GAPI                   :        3  
 DRHO        .G/C3                   :        4  
 RHOB        .G/C3                   :        5  
 NPHI        .%                      :        6  
 SP          .MV                     :        7  
 ILD         .OHMM                   :        8  
 ILM         .OHMM                   :        9  
 SFL         .OHMM                   :        10 
 LLD         .OHMM                   :        11 
 LLS         .OHMM                   :        12 
 MSFL        .OHMM                   :        13 
 DT          .US/F                   :        14 
~PARAMETER INFORMATION
#MNEM.UNIT                  VALUE             DESCRIPTION OF MNEMONIC
#---------             ---------------        ------------------------------
 EKB .F                       30.0000:        KELLY BUSHING
 TD  .F                     2356.0000:        TOTAL DEPTH
 BHT .F                        0.0000:        BOTTOM HOLE TEMPERATURE
 BS  .                         8.5000:        BIT SIZE
 FD  .                        10.8000:        FLUID DENSITY
 CSIZ.                         9.6250:        CASING SIZE
 CBD .F                     1500.0000:        CASING DRILLER 1
 CBL .F                     1485.0000:        CASING LOGGER 1
 DFT .                            GEL:        TYPE FLUID IN HOLE
 DFV .                        10.0000:        VISCOSITY
 DFPH.                         9.0000:        PH
 DFL .                        10.0000:        FLUID LOSS
 RMS .                         0.1840:        RM
 MST .F                       61.0000:        RM MEAS. TEMP.
 RMF .                         0.1270:        RMF
 MFST.F                       61.0000:        RMF MEAS. TEMP.
 RMC .                         0.2660:        RMC
 MCST.F                       61.0000:        RMC MEAS. TEMP.
~OTHER INFORMATION
~A    DEPTH        CALI          GR        DRHO        RHOB        NPHI          SP         ILD         ILM         SFL         LLD         LLS        MSFL          DT 
# ...
  1753.0000      8.6863     80.0952      0.0212      2.4793     45.0705    -55.4056   -999.2500   -999.2500   -999.2500      8.0502      7.4079      4.2908    122.0951 
  1753.5000      8.7044     80.0569      0.0129      2.4668     44.7235    -55.3151   -999.2500   -999.2500   -999.2500      7.9182      7.3440      3.9363    122.6079 
  1754.0000      8.7461     80.0901      0.0185      2.4614     44.2415    -55.3683   -999.2500   -999.2500   -999.2500      7.8393      7.2665      2.9694    121.9819 
  1754.5000      8.7811     79.2120      0.0158      2.4540     44.5136    -55.4090   -999.2500   -999.2500   -999.2500      7.7612      7.0797      2.3571    119.3296 
  1755.0000      8.7992     78.6939      0.0182      2.4519     44.5744    -55.5637   -999.2500   -999.2500   -999.2500      7.7299      6.9370      2.2938    117.8321 
  1755.5000      8.7698     78.6497      0.0414      2.4544     44.3655    -55.7610   -999.2500   -999.2500   -999.2500      7.7203      6.9941      2.8570    117.6818 
  1756.0000      8.7898     78.6732      0.0370      2.4625     44.1069    -56.2024   -999.2500   -999.2500   -999.2500      7.7108      7.1247      3.7308    117.8059 
  1756.5000      8.7966     78.8395      0.0272      2.4558     45.1612    -56.6610   -999.2500   -999.2500   -999.2500      7.7029      7.2321      3.5669    119.1094 
  1757.0000      8.7883     79.4012      0.0432      2.4744     46.5156    -56.7115   -999.2500   -999.2500   -999.2500      7.6980      7.3370      3.4528    121.0615 
  1757.5000      8.7719     79.7708      0.0600      2.5241     46.5359    -56.8268   -999.2500   -999.2500   -999.2500      7.6932      7.4038      3.6532    121.5464 
  1758.0000      8.7603     79.8815      0.0521      2.5426     44.3632    -56.9074   -999.2500   -999.2500   -999.2500      7.6767      7.4640      4.0135    121.4063 
  1758.5000      8.7814     80.1949      0.0443      2.5335     43.2120    -56.8506   -999.2500   -999.2500   -999.2500      7.7642      7.4416      4.2910    121.4952 
  1759.0000      8.8075     82.1051      0.0365      2.5008     44.0012    -56.8663   -999.2500   -999.2500   -999.2500      7.8527      7.3928      4.2458    122.0014 
  1759.5000      8.8090     82.0739      0.0422      2.4875     44.3972    -56.7558   -999.2500   -999.2500   -999.2500      7.8319      7.3443      4.2585    122.3809 
  1760.0000      8.7867     82.2871      0.0432      2.4918     44.6273    -56.8720   -999.2500   -999.2500   -999.2500      7.7640      7.3115      3.9475    122.6563 
  1760.5000      8.8116     82.4027      0.0350      2.4853     45.0178    -56.9353   -999.2500   -999.2500   -999.2500      7.7726      7.3211      3.1047    123.0375 
  1761.0000      8.7795     82.1038      0.0307      2.4781     45.1917    -56.8247   -999.2500   -999.2500   -999.2500      7.7961      7.3306      2.3443    123.1440 
  1761.5000      8.7743     81.8050      0.0349      2.4689     44.9559    -56.6549   -999.2500   -999.2500   -999.2500      7.8203      7.4713      2.4544    122.1679 
  1762.0000      8.7727     81.3502      0.0396      2.4667     44.3654    -56.4421   -999.2500   -999.2500   -999.2500      8.0082      7.7722      4.2290    120.4870 
  1762.5000      8.7651     80.6174      0.0450      2.4674     43.8185    -56.3336   -999.2500   -999.2500   -999.2500      8.2863      8.0694      5.5253    118.3559 
  1763.0000      8.7298     79.8864      0.0340      2.4651     44.1291    -56.2380   -999.2500   -999.2500   -999.2500      8.7493      8.3779      5.9432    116.5564 
  1763.5000      8.8039     79.4910      0.0256      2.4597     44.4869    -56.2666   -999.2500   -999.2500   -999.2500      9.2381      9.0369      6.5479    115.1454 
  1764.0000      8.7552     79.1291      0.0208      2.4671     44.6353    -56.1656   -999.2500   -999.2500   -999.2500      9.7543      9.1903      6.4766    114.3496 
  1764.5000      8.8297     79.0742      0.0313      2.4856     45.1071    -56.0616   -999.2500   -999.2500   -999.2500      9.9111      9.2947      5.6452    113.8875 
  1765.0000      8.7858     78.8556      0.0420      2.5103     45.6991    -56.0477   -999.2500   -999.2500   -999.2500      9.9079      9.3443      4.9853    114.1465 
  1765.5000      8.7378     78.7880      0.0361      2.5227     45.6616    -55.9752   -999.2500   -999.2500   -999.2500      9.8391      9.0656      5.2792    114.7071 
  1766.0000      8.7533     78.7698      0.0303      2.5232     45.1255    -55.6766   -999.2500   -999.2500   -999.2500      9.7687      8.7222      5.5212    115.0793 
  1766.5000      8.7838     78.7638      0.0385      2.5153     44.5895    -55.4246   -999.2500   -999.2500   -999.2500      9.6910      8.5782      5.4431    114.3431 
  1767.0000      8.7497     78.7262      0.0437      2.5033     44.2214    -55.3361   -999.2500   -999.2500   -999.2500      9.6105      8.5759      5.3315    113.3742 
  1767.5000      8.8859     78.7211      0.0422      2.4979     43.7375    -55.2168   -999.2500   -999.2500   -999.2500      9.6461      8.7448      5.1013    112.2981 
  1768.0000      8.8154     78.5179      0.0492      2.5004     43.7855    -55.1789   -999.2500   -999.2500   -999.2500      9.7109      8.9020      4.6914    110.3850 
  1768.5000      8.7405     78.5279      0.0434      2.4983     44.0225    -55.3106   -999.2500   -999.2500   -999.2500      9.7676      8.9275      4.4708    108.6916 
  1769.0000      8.7564     78.5305      0.0196      2.4836     43.8587    -55.2224   -999.2500   -999.2500   -999.2500      9.7879      8.9530      4.5996    107.8557 
  1769.5000      8.7847     78.1350      0.0156      2.4646     42.9704    -55.1399   -999.2500   -999.2500   -999.2500      9.6335      8.9161      4.8113    107.0937 
  1770.0000      8.8102     77.5033      0.0189      2.4852     40.2005    -55.1212   -999.2500   -999.2500   -999.2500      9.4862      8.8749      5.1522    106.8373 
  1770.5000      8.8356     77.0819      0.0258      2.5004     36.8824    -55.1828   -999.2500   -999.2500   -999.2500      9.4125      8.8339      5.4485    106.6983 
  1771.0000      8.8311     76.6342      0.0372      2.5170     35.8387    -55.2519   -999.2500   -999.2500   -999.2500      9.4185      8.8817      5.6690    106.8941 
  1771.5000      8.8050     75.8669      0.0468      2.5150     34.9740    -55.2544   -999.2500   -999.2500   -999.2500      9.5803      9.0578      5.8984    106.9723 
  1772.0000      8.7585     75.1975      0.0412      2.5082     34.3302    -55.4745   -999.2500   -999.2500   -999.2500      9.8913      9.3645      6.0285    106.4959 
  1772.5000      8.7304     74.7385      0.0349      2.4979     33.8274    -55.7368   -999.2500   -999.2500   -999.2500     10.3034      9.7004      6.1016    105.6961 
  1773.0000      8.7068     74.7928      0.0304      2.4891     33.8534    -55.9040   -999.2500   -999.2500   -999.2500     10.5418     10.0762      6.1756    104.5756 
  1773.5000      8.7907     74.7617      0.0309      2.5008     34.1097    -56.0713   -999.2500   -999.2500   -999.2500     10.7367     10.2716      6.4756    103.3006 
  1774.0000      8.7494     74.4710      0.0366      2.5214     34.1690    -56.2386   -999.2500   -999.2500   -999.2500     10.8372     10.2934      6.8868    102.8149 
  1774.5000      8.7484     74.3609      0.0366      2.5398     34.5400    -56.4058   -999.2500   -999.2500   -999.2500     10.7987      9.9706      7.3816    102.4670 
  1775.0000      8.8040     74.5187      0.0298      2.5391     36.3101    -56.5731   -999.2500   -999.2500   -999.2500     10.3614      9.6014      7.6745    102.1942 
  1775.5000      8.7776     74.8501      0.0198      2.5327     37.4805    -56.7024   -999.2500   -999.2500   -999.2500      9.9459      9.3055      7.1299    102.5316 
  1776.0000      8.7786     75.1309      0.0294      2.5419     37.6886    -56.9273   -999.2500   -999.2500   -999.2500      9.5493      9.0187      5.8280    103.7025 
  1776.5000      8.8111     75.2328      0.0471      2.5322     37.8967    -56.9657   -999.2500   -999.2500   -999.2500      9.2955      8.7408      5.2141    105.4084 
