~VERSION INFORMATION
 VERS.                           2.00:        CWLS LOG ASCII STANDARD - VERSION 2.00
 WRAP.                             NO:        ONE LINE PER DEPTH STEP
~WELL INFORMATION
#MNEM.UNIT                   DATA             INFORMATION
#----------             --------------        ------------------------------
 STRT.F                       52.0000:        START DEPTH
 STOP.F                     2296.0000:        STOP DEPTH
 STEP.F                        0.5000:        STEP VALUE
 NULL.                      -999.2500:        NULL VALUE
 COMP.                     USGS/NPR-A:        COMPANY  
 LOC .                   23  22N  17W:        LOCATION   
 DATE.                        4/30/78:        LOG DATE 
 WELL.               SOUTH BARROW #19:        WELL     
 UWI .                   500232001200:        UNIQUE WELL ID 
 API .                   500232001200:        UNIQUE WELL IDENTIFIER 
 FLD .                   SOUTH BARROW:        FIELD    
 CNTY.                    NORTH SLOPE:        COUNTY  
 STAT.                         ALASKA:        STATE   
 CTRY.                            USA:        COUNTRY 
 OPER.                     USGS/NPR-A:        OPERATOR  
 SRVC.                   SCHLUMBERGER:        SERVICE COMPANY 
 LAT .                         0.0000:        LATITUDE
 LON .                         0.0000:        LONGITUDE
 DIGS.               CENTER LINE DATA:        DIGITIZING COMPANY 
~CURVE INFORMATION      
#MNEM        .UNIT         API CODE           CURVE DESCRIPTION
#-----------------      --------------        ------------------------------
 DEPT        .F                      :        1  DEPTH
 GR          .GAPI                   :        2  
 CALI        .IN                     :        3  
 RHOB        .G/C3                   :        4  
 DRHO        .G/C3                   :        5  
 NPHI        .%                      :        6  
 DT          .US/F                   :        7  
 SP          .MV                     :        8  
 ILD         .OHMM                   :        9  
 ILM         .OHMM                   :        10 
 LL8         .OHMM                   :        11 
 LLD         .OHMM                   :        12 
 LLS         .OHMM                   :        13 
 MSFL        .OHMM                   :        14 
~PARAMETER INFORMATION       
#MNEM.UNIT                  VALUE             DESCRIPTION OF MNEMONIC
#---------             ---------------        ------------------------------
 EKB .F                       30.0000:        KELLY BUSHING
 TD  .F                     2300.0000:        TOTAL DEPTH
 BHT .F                      173.0000:        BOTTOM HOLE TEMPERATURE
 BS  .                         8.5000:        BIT SIZE
 FD  .                        11.6000:        FLUID DENSITY
 CSIZ.                         9.6250:        CASING SIZE
 CBD .F                     1491.0000:        CASING DRILLER 1
 CBL .F                     1490.0000:        CASING LOGGER 1
 DFT .                  Miscellaneous:        TYPE FLUID IN HOLE
 DFV .                        46.0000:        VISCOSITY
 DFPH.                         8.5000:        PH
 DFL .                         6.0000:        FLUID LOSS
 RMS .                         0.1090:        RM
 MST .F                       58.0000:        RM MEAS. TEMP.
 RMF .                         0.0720:        RMF
 MFST.F                       61.0000:        RMF MEAS. TEMP.
 RMC .                         0.3000:        RMC
 MCST.F                       70.0000:        RMC MEAS. TEMP.
~OTHER INFORMATION
~A    DEPTH          GR        CALI        RHOB        DRHO        NPHI          DT          SP         ILD         ILM         LL8         LLD         LLS        MSFL  
# ...
   820.0000     81.6607     13.0845   -999.2500   -999.2500   -999.2500    129.3286    -50.7600      9.7346      8.3579      9.8148   -999.2500   -999.2500   -999.2500  
   820.5000     81.4519     13.2690   -999.2500   -999.2500   -999.2500    128.5659    -50.4235      9.7346      8.3579      9.4263   -999.2500   -999.2500   -999.2500  
   821.0000     80.3418     13.3448   -999.2500   -999.2500   -999.2500    127.6747    -50.0241      9.7346      8.3579      9.1201   -999.2500   -999.2500   -999.2500  
   821.5000     79.3269     13.3802   -999.2500   -999.2500   -999.2500    127.3517    -49.8222      9.7346      8.3579      9.0318   -999.2500   -999.2500   -999.2500  
   822.0000     79.9045     13.3523   -999.2500   -999.2500   -999.2500    127.5512    -49.8506      9.7346      8.3579      9.2771   -999.2500   -999.2500   -999.2500  
   822.5000     81.1986     13.3078   -999.2500   -999.2500   -999.2500    127.6870    -49.7126      9.7346      8.3579      9.5290   -999.2500   -999.2500   -999.2500  
   823.0000     81.2137     13.2482   -999.2500   -999.2500   -999.2500    128.0204    -49.8291      9.8216      8.4497      9.8410   -999.2500   -999.2500   -999.2500  
   823.5000     80.3863     13.1886   -999.2500   -999.2500   -999.2500    128.7827    -50.1842      9.9415      8.5622     10.0411   -999.2500   -999.2500   -999.2500  
   824.0000     79.2490     13.1328   -999.2500   -999.2500   -999.2500    129.3919    -50.5463     10.0629      8.6763     10.0792   -999.2500   -999.2500   -999.2500  
   824.5000     78.2506     13.0941   -999.2500   -999.2500   -999.2500    129.1471    -50.3868     10.1858      8.7918     10.1174   -999.2500   -999.2500   -999.2500  
   825.0000     78.3420     13.0584   -999.2500   -999.2500   -999.2500    128.6119    -50.1761     10.3065      8.9089     10.1559   -999.2500   -999.2500   -999.2500  
   825.5000     78.9685     13.0497   -999.2500   -999.2500   -999.2500    127.9658    -50.1559     10.3330      9.0276     10.1722   -999.2500   -999.2500   -999.2500  
   826.0000     79.7949     13.0229   -999.2500   -999.2500   -999.2500    127.5268    -50.1449     10.3325      9.1478     10.1029   -999.2500   -999.2500   -999.2500  
   826.5000     80.5620     13.0186   -999.2500   -999.2500   -999.2500    127.4826    -50.0121     10.5125      9.3281     10.0342   -999.2500   -999.2500   -999.2500  
   827.0000     81.0273     13.0489   -999.2500   -999.2500   -999.2500    128.2262    -49.6016     10.7276      9.5282     10.0200   -999.2500   -999.2500   -999.2500  
   827.5000     81.4858     13.1895   -999.2500   -999.2500   -999.2500    128.5024    -49.2087     10.9470      9.7325     10.3362   -999.2500   -999.2500   -999.2500  
   828.0000     81.6126     13.2217   -999.2500   -999.2500   -999.2500    128.9095    -48.7981     11.1709      9.9413     10.6624   -999.2500   -999.2500   -999.2500  
   828.5000     80.6834     13.0773   -999.2500   -999.2500   -999.2500    129.6496    -48.9508     11.3994     10.0944     10.9989   -999.2500   -999.2500   -999.2500  
   829.0000     79.2230     13.0115   -999.2500   -999.2500   -999.2500    130.5716    -49.2827     11.6325      9.9942     11.3459   -999.2500   -999.2500   -999.2500  
   829.5000     77.7160     13.0514   -999.2500   -999.2500   -999.2500    130.9231    -49.7065     11.8705      9.8950     11.6257   -999.2500   -999.2500   -999.2500  
   830.0000     76.8845     13.0914   -999.2500   -999.2500   -999.2500    131.7807    -49.8853     12.1133      9.7968     11.3320   -999.2500   -999.2500   -999.2500  
   830.5000     77.4059     13.1215   -999.2500   -999.2500   -999.2500    133.6480    -49.9115     11.9439      9.6996     11.0456   -999.2500   -999.2500   -999.2500  
   831.0000     77.7225     13.1723   -999.2500   -999.2500   -999.2500    133.1799    -49.8349     11.6834      9.6033     10.7665   -999.2500   -999.2500   -999.2500  
   831.5000     77.5499     13.2233   -999.2500   -999.2500   -999.2500    132.4277    -49.8806     11.4265      9.5080     10.5264   -999.2500   -999.2500   -999.2500  
   832.0000     77.4276     13.2284   -999.2500   -999.2500   -999.2500    131.7801    -49.9499     11.1752      9.4136     10.3036   -999.2500   -999.2500   -999.2500  
   832.5000     77.4685     13.3122   -999.2500   -999.2500   -999.2500    131.6782    -49.8203     10.9294      9.3202     10.0855   -999.2500   -999.2500   -999.2500  
   833.0000     77.8625     13.5701   -999.2500   -999.2500   -999.2500    132.7595    -49.7830     10.6890      9.2277      9.8720   -999.2500   -999.2500   -999.2500  
   833.5000     77.9707     13.6318   -999.2500   -999.2500   -999.2500    133.1990    -49.7691     10.4539      9.1361      9.6630   -999.2500   -999.2500   -999.2500  
   834.0000     77.4915     13.5293   -999.2500   -999.2500   -999.2500    132.5809    -49.6108     10.3093      9.0454      9.4585   -999.2500   -999.2500   -999.2500  
   834.5000     77.1216     13.4258   -999.2500   -999.2500   -999.2500    131.8381    -49.2027     10.2856      8.9750      9.2786   -999.2500   -999.2500   -999.2500  
   835.0000     77.1486     13.3096   -999.2500   -999.2500   -999.2500    130.8268    -48.9484     10.2619      8.9309      9.1521   -999.2500   -999.2500   -999.2500  
   835.5000     76.6251     13.1441   -999.2500   -999.2500   -999.2500    130.2152    -48.8480     10.2384      8.8871      9.0273   -999.2500   -999.2500   -999.2500  
   836.0000     75.8027     13.2158   -999.2500   -999.2500   -999.2500    130.5962    -48.6360     10.2148      8.8434      8.9188   -999.2500   -999.2500   -999.2500  
   836.5000     77.8413     13.3634   -999.2500   -999.2500   -999.2500    131.4396    -48.7277     10.1914      8.7999      8.9703   -999.2500   -999.2500   -999.2500  
   837.0000     79.8696     13.6864   -999.2500   -999.2500   -999.2500    131.5055    -48.9681     10.1682      8.7567      9.0220   -999.2500   -999.2500   -999.2500  
   837.5000     79.8497     13.7269   -999.2500   -999.2500   -999.2500    131.3525    -49.2180     10.1722      8.7137      9.0741   -999.2500   -999.2500   -999.2500  
   838.0000     79.3213     13.8364   -999.2500   -999.2500   -999.2500    130.2374    -49.5202     10.1762      8.6709      9.1265   -999.2500   -999.2500   -999.2500  
   838.5000     78.9842     13.7261   -999.2500   -999.2500   -999.2500    128.5468    -50.0657     10.1802      8.6282      9.1791   -999.2500   -999.2500   -999.2500  
   839.0000     79.2959     13.5918   -999.2500   -999.2500   -999.2500    128.5295    -50.3921     10.1842      8.5859      9.2321   -999.2500   -999.2500   -999.2500  
   839.5000     79.2901     13.6362   -999.2500   -999.2500   -999.2500    129.7016    -50.2851     10.1208      8.5715      9.2854   -999.2500   -999.2500   -999.2500  
   840.0000     79.7763     13.6806   -999.2500   -999.2500   -999.2500    128.7670    -49.6386      9.9904      8.6035      9.2366   -999.2500   -999.2500   -999.2500  
   840.5000     79.9142     13.7250   -999.2500   -999.2500   -999.2500    127.9421    -48.8314      9.8616      8.6357      9.2596   -999.2500   -999.2500   -999.2500  
   841.0000     78.6861     13.5065   -999.2500   -999.2500   -999.2500    127.1608    -48.6675      9.7346      8.6681      9.3797   -999.2500   -999.2500   -999.2500  
   841.5000     77.6016     13.2719   -999.2500   -999.2500   -999.2500    127.2404    -48.8836      9.6091      8.7005      9.5014   -999.2500   -999.2500   -999.2500  
   842.0000     77.4531     13.4806   -999.2500   -999.2500   -999.2500    129.3562    -48.6796      9.8522      8.7331      9.6247   -999.2500   -999.2500   -999.2500  
   842.5000     78.8226     13.3389   -999.2500   -999.2500   -999.2500    131.8810    -48.1779     10.4568      8.7658      9.7496   -999.2500   -999.2500   -999.2500  
   843.0000     80.9683     13.2650   -999.2500   -999.2500   -999.2500    132.7034    -47.7431     10.6373      8.8188      9.8761   -999.2500   -999.2500   -999.2500  
   843.5000     81.3470     13.4716   -999.2500   -999.2500   -999.2500    131.4393    -47.6994     10.7600      8.9020     10.0042   -999.2500   -999.2500   -999.2500  
