~VERSION INFORMATION
 VERS.                           2.00:        CWLS LOG ASCII STANDARD - VERSION 2.00
 WRAP.                             NO:        ONE LINE PER DEPTH STEP
~WELL INFORMATION
#MNEM.UNIT                   DATA             INFORMATION
#----------             --------------        ------------------------------
 STRT.F                      152.0000:        START DEPTH
 STOP.F                     2285.0000:        STOP DEPTH
 STEP.F                        0.5000:        STEP VALUE
 NULL.                      -999.2500:        NULL VALUE
 COMP.                      U.S. NAVY:        COMPANY  
 LOC .                   26  22N  17W:        LOCATION   
 DATE.                         4/1/74:        LOG DATE 
 WELL.            SOUTH BARROW NO. 12:        WELL     
 UWI .                   500232000600:        UNIQUE WELL ID 
 API .                   500232000600:        UNIQUE WELL IDENTIFIER 
 FLD .                   SOUTH BARROW:        FIELD    
 CNTY.                         NPPR-4:        COUNTY  
 STAT.                         ALASKA:        STATE   
 CTRY.                            USA:        COUNTRY 
 OPER.                      U.S. NAVY:        OPERATOR  
 SRVC.                   SCHLUMBERGER:        SERVICE COMPANY 
 LAT .                         0.0000:        LATITUDE
 LON .                         0.0000:        LONGITUDE
 DIGS.               CENTER LINE DATA:        DIGITIZING COMPANY 
~CURVE INFORMATION      
#MNEM        .UNIT         API CODE           CURVE DESCRIPTION
#-----------------      --------------        ------------------------------
 DEPT        .F                      :        1  DEPTH
 RHOB        .G/C3                   :        2  
 DRHO        .G/C3                   :        3  
 GR          .GAPI                   :        4  
 CALI        .IN                     :        5  
 DPHI        .%                      :        6  
 NPHI        .%                      :        7  
 SP          .MV                     :        8  
 ALL8        .OHMM                   :        9  
 ILD         .OHMM                   :        10 
 CILD        .MMHO                   :        11 
 DT          .US/F                   :        12 
~PARAMETER INFORMATION       
#MNEM.UNIT                  VALUE             DESCRIPTION OF MNEMONIC
#---------             ---------------        ------------------------------
 EKB .F                       26.0000:        KELLY BUSHING
 TD  .F                     2285.0000:        TOTAL DEPTH
~OTHER INFORMATION
~A    DEPTH        RHOB        DRHO          GR        CALI        DPHI        NPHI          SP        ALL8         ILD        CILD          DT  
# ...
  1224.5000      2.4769      0.0417     92.1531     10.8415     11.1840     37.0231    -38.8653     11.3997     12.8339     73.3790    107.3075  
  1225.0000      2.4890      0.0444     91.4652     10.9076     10.6718     36.2570    -38.8436     11.5437     13.1162     71.5974    106.6685  
  1225.5000      2.4783      0.0370     92.6024     10.9911      9.8093     36.4213    -38.1542     11.6878     13.2431     70.8161    105.8798  
  1226.0000      2.4697      0.0269     93.0816     11.0098     10.5410     37.0538    -37.1803     11.8318     13.2376     70.4036    105.0457  
  1226.5000      2.4694      0.0288     92.5750     10.9004     11.0220     37.5279    -36.6915     11.9100     13.2322     70.4717    103.9859  
  1227.0000      2.4932      0.0317     92.3751     10.9733     11.2351     36.3389    -37.1455     11.7586     13.2328     70.8999    102.9531  
  1227.5000      2.4900      0.0318     93.0604     11.0899      9.8362     35.5877    -37.9766     11.5539     13.2105     71.0903    101.7814  
  1228.0000      2.4995      0.0389     93.8520     11.1477      9.6312     35.3801    -38.5167     11.3838     13.1878     72.1321    102.4921  
  1228.5000      2.4999      0.0615     96.0838     10.9214      9.4545     35.4741    -38.7961     11.2383     13.1379     73.1739    103.9830  
  1229.0000      2.4910      0.0562     98.3624     11.0062      9.2885     35.5640    -39.1944     11.0657     12.9530     74.2156    105.9126  
  1229.5000      2.4810      0.0464    100.7753     10.8611      9.7194     35.9051    -39.3159     10.9318     12.7128     75.2574    107.5634  
  1230.0000      2.4650      0.0365    103.0174     10.7661     10.3801     36.1227    -39.3520     10.8596     12.5179     76.2991    108.6125  
  1230.5000      2.4516      0.0267    102.2660     10.7112     11.3851     35.8714    -39.3290     10.7904     12.3112     77.3409    108.6065  
  1231.0000      2.4486      0.0192    102.0170     10.6714     12.1199     35.6604    -39.2026     10.6937     12.0860     78.3827    108.8080  
  1231.5000      2.4509      0.0175    103.3143     10.7356     12.5030     35.9690    -38.6139     10.5750     11.9135     79.4244    108.8616  
  1232.0000      2.4685      0.0261    103.9799     10.7862     11.9683     36.4407    -38.5151     10.4618     11.7967     80.2019    108.8321  
  1232.5000      2.4861      0.0357    103.6344     10.8201     11.2195     37.0348    -38.7061     10.4165     11.7147     80.4714    109.2057  
  1233.0000      2.4836      0.0482    103.1598     10.8037     10.2177     37.8952    -39.2787     10.4861     11.7760     80.5117    110.2634  
  1233.5000      2.4776      0.0512    101.0863     10.7892     10.1190     39.0984    -39.4361     10.5799     11.8857     80.2730    111.6037  
  1234.0000      2.4681      0.0471    100.2563     10.7444     10.5467     38.9364    -39.4305     10.5296     11.9953     79.7396    112.1866  
  1234.5000      2.4664      0.0442     99.8587     10.6362     10.9761     38.0902    -39.3496     10.8002     12.1050     79.0813    111.3777  
  1235.0000      2.4664      0.0443     98.7459     10.7016     11.2373     37.4517    -39.2732     11.0438     12.2147     78.5630    110.4763  
  1235.5000      2.4605      0.0314     97.2534     10.7326     11.4985     35.9310    -39.3190     11.2874     12.3243     78.3100    108.3493  
  1236.0000      2.4730      0.0379     97.6831     10.8149     11.3341     34.7876    -39.3924     11.3837     12.3687     78.0569    106.9948  
  1236.5000      2.4830      0.0520     99.3431     10.6476     10.8609     34.7822    -39.3474     11.3308     12.4097     77.8038    105.7421  
  1237.0000      2.4730      0.0467    100.1884     10.5256     10.4089     35.6694    -39.3174     11.2992     12.2687     77.5507    105.2890  
  1237.5000      2.4572      0.0416     99.3827     10.5126     10.6711     36.6823    -39.2874     11.3044     12.1947     77.3112    105.6827  
  1238.0000      2.4500      0.0326     98.4275     10.5397     11.6488     37.2444    -39.1389     11.2405     12.2263     77.1760    106.2245  
  1238.5000      2.4518      0.0252     98.6865     10.5668     12.3326     37.7481    -38.8173     11.1728     12.1980     77.2583    106.3313  
  1239.0000      2.4651      0.0255     97.3687     10.5940     12.1210     37.9117    -38.5078     11.1717     12.1572     77.6792    106.1203  
  1239.5000      2.4813      0.0301     94.5828     10.5982     11.4819     37.1271    -38.3660     11.1589     12.2122     77.5264    105.9562  
  1240.0000      2.4718      0.0159     92.2783     10.6069     10.6007     36.3104    -38.4803     11.2114     12.4300     76.1494    105.9935  
  1240.5000      2.4865      0.0335     90.8960     10.6177     10.9265     35.3317    -38.5473     11.3733     12.6605     74.1454    106.1544  
  1241.0000      2.4892      0.0420     89.1920     10.6156     10.2425     35.7716    -38.3269     11.7449     13.0684     72.2008    106.5408  
  1241.5000      2.4806      0.0503     87.3182     10.6379      9.8725     36.5921    -37.8205     12.1245     13.2352     70.9471    106.8298  
  1242.0000      2.4739      0.0566     86.6359     10.6723     10.3610     35.6457    -37.1587     12.4321     13.5163     69.4100    106.3295  
  1242.5000      2.4810      0.0579     86.1052     10.6930     10.6679     34.1766    -36.9975     12.5806     13.8117     67.9268    103.8532  
  1243.0000      2.4937      0.0625     85.3166     10.6870     10.4154     32.9800    -37.3215     12.7067     14.2002     66.0637    101.2828  
  1243.5000      2.4957      0.0757     84.9411     11.0446      9.7624     33.2491    -37.5121     12.7362     14.5242     64.3735     99.5092  
  1244.0000      2.4824      0.0976     85.8941     11.7261      9.3832     34.0259    -37.5474     12.4801     14.5623     64.1741     98.5548  
  1244.5000      2.4963      0.1295     86.8305     12.0958     10.2869     34.9549    -37.4219     12.1847     14.1113     65.7613     98.9948  
  1245.0000      2.4830      0.1233     89.1152     12.0697      9.3289     35.0092    -37.2448     11.9484     13.4737     68.5596     99.3920  
  1245.5000      2.4584      0.0907     92.8457     11.8629     10.1919     33.8106    -37.2068     11.6237     12.8559     71.6796     99.8742  
  1246.0000      2.4433      0.0400     96.6970     11.5706     11.7242     33.3235    -37.6876     11.2647     12.4697     74.1666    100.4010  
  1246.5000      2.4471      0.0329     99.9484     10.9468     12.5766     33.7941    -38.2587     10.9057     12.1771     76.7126    101.0724  
  1247.0000      2.4809      0.0607    103.5704     10.7301     12.3106     34.4158    -38.5786     10.6089     11.9232     78.5900    103.3951  
  1247.5000      2.4886      0.0663    106.2005     10.5788     10.6782     35.2040    -38.4674     10.5397     11.6602     80.4139    106.7118  
  1248.0000      2.4860      0.0639    107.3755     10.5561      9.7218     35.4984    -38.2331     10.4705     11.2988     82.6727    108.8884  
  1248.5000      2.4724      0.0555    106.3200     10.5340     10.1966     35.8752    -38.2989     10.4338     11.1572     84.8265    109.7172  
  1249.0000      2.4665      0.0460    104.7437     10.5134     10.8593     36.6741    -38.5488     10.4487     11.0705     85.6582    109.2027  
  1249.5000      2.4534      0.0388    101.8628     10.5119     11.3705     37.4414    -38.3256     10.4392     10.9838     86.7607    109.1132  
  1250.0000      2.4404      0.0306     99.1002     10.5104     12.0810     37.7712    -36.9234     10.4037     10.8971     87.8925    109.3216  
  1250.5000      2.4347      0.0288     97.2313     10.5187     12.9411     37.6231    -37.1342     10.3672     11.0074     88.3611    109.4657  
  1251.0000      2.4494      0.0412     95.5869     10.5774     13.1207     37.9704    -37.2371     10.4217     11.1252     87.4596    108.4667  
  1251.5000      2.4525      0.0472     94.8655     10.6405     12.3666     38.6721    -37.3297     10.5477     11.2431     86.4458    108.2981  
