~VERSION INFORMATION
 VERS.                           2.00:        CWLS LOG ASCII STANDARD - VERSION 2.00
 WRAP.                             NO:        ONE LINE PER DEPTH STEP
~WELL INFORMATION
#MNEM.UNIT                   DATA             INFORMATION
#----------             --------------        ------------------------------
 STRT.F                       68.0000:        START DEPTH
 STOP.F                     2380.0000:        STOP DEPTH
 STEP.F                        0.5000:        STEP VALUE
 NULL.                      -999.2500:        NULL VALUE
 COMP.                     USGS/NPR-A:        COMPANY  
 LOC .                   30  22N  16W:        LOCATION   
 DATE.                        3/18/78:        LOG DATE 
 WELL.               SOUTH BARROW #17:        WELL     
 UWI .                   500232001100:        UNIQUE WELL ID 
 API .                   500232001100:        UNIQUE WELL IDENTIFIER 
 FLD .                   SOUTH BARROW:        FIELD    
 CNTY.                     NOTH SLOPE:        COUNTY  
 STAT.                         ALASKA:        STATE   
 CTRY.                            USA:        COUNTRY 
 OPER.                     USGS/NPR-A:        OPERATOR  
 SRVC.                   SCHLUMBERGER:        SERVICE COMPANY 
 LAT .                         0.0000:        LATITUDE
 LON .                         0.0000:        LONGITUDE
 DIGS.               CENTER LINE DATA:        DIGITIZING COMPANY 
~CURVE INFORMATION      
#MNEM        .UNIT         API CODE           CURVE DESCRIPTION
#-----------------      --------------        ------------------------------
 DEPT        .F                      :        1  DEPTH
 CALI        .IN                     :        2  
 GR          .GAPI                   :        3  
 NPHI        .%                      :        4  
 RHOB        .G/C3                   :        5  
 DRHO        .G/C3                   :        6  
 DT          .US/F                   :        7  
 SP          .MV                     :        8  
 ILD         .OHMM                   :        9  
 ILM         .OHMM                   :        10 
 LL8         .OHMM                   :        11 
 LLD         .OHMM                   :        12 
 LLS         .OHMM                   :        13 
~PARAMETER INFORMATION       
#MNEM.UNIT                  VALUE             DESCRIPTION OF MNEMONIC
#---------             ---------------        ------------------------------
 EKB .F                       33.0000:        KELLY BUSHING
 TD  .F                     2382.0000:        TOTAL DEPTH
 BHT .F                        0.0000:        BOTTOM HOLE TEMPERATURE
 BS  .                         8.5000:        BIT SIZE
 FD  .                        10.8000:        FLUID DENSITY
 CSIZ.                         9.6250:        CASING SIZE
 CBD .F                     1512.0000:        CASING DRILLER 1
 CBL .F                     1512.0000:        CASING LOGGER 1
 DFT .                  Miscellaneous:        TYPE FLUID IN HOLE
 DFV .                        43.0000:        VISCOSITY
 DFPH.                         8.5000:        PH
 DFL .                         4.0000:        FLUID LOSS
 RMS .                         0.0760:        RM
 MST .F                       60.0000:        RM MEAS. TEMP.
 RMF .                         0.0000:        RMF
 MFST.F                        0.0000:        RMF MEAS. TEMP.
 RMC .                         0.1640:        RMC
 MCST.F                       55.0000:        RMC MEAS. TEMP.
~OTHER INFORMATION
~A    DEPTH        CALI          GR        NPHI        RHOB        DRHO          DT          SP         ILD         ILM         LL8         LLD         LLS  
# ...
  1011.5000     14.1450     87.8290   -999.2500   -999.2500   -999.2500    156.3736    -33.9484      7.6969      7.2772      9.8332   -999.2500   -999.2500  
  1012.0000     14.0422     85.0814   -999.2500   -999.2500   -999.2500    150.3243    -34.3092      7.5931      7.1376      9.3929   -999.2500   -999.2500  
  1012.5000     13.9450     84.3341   -999.2500   -999.2500   -999.2500    150.2943    -33.5844      7.4906      7.1235      9.3177   -999.2500   -999.2500  
  1013.0000     13.8200     84.7779   -999.2500   -999.2500   -999.2500    150.2643    -32.7500      7.3896      7.1095      9.4809   -999.2500   -999.2500  
  1013.5000     13.6145     86.8616   -999.2500   -999.2500   -999.2500    150.2344    -32.2484      7.2899      7.0979      9.6414   -999.2500   -999.2500  
  1014.0000     13.4495     90.2499   -999.2500   -999.2500   -999.2500    150.2044    -33.2706      7.3111      7.1460      9.8045   -999.2500   -999.2500  
  1014.5000     13.3728     92.1875   -999.2500   -999.2500   -999.2500    150.6252    -34.5316      7.4088      7.1944      9.8968   -999.2500   -999.2500  
  1015.0000     13.6143     90.8093   -999.2500   -999.2500   -999.2500    154.7678    -35.4288      7.5077      7.2432      9.9036   -999.2500   -999.2500  
  1015.5000     14.0594     87.4558   -999.2500   -999.2500   -999.2500    155.1354    -37.2549      7.6079      7.2923      9.8767   -999.2500   -999.2500  
  1016.0000     14.4482     83.8896   -999.2500   -999.2500   -999.2500    153.0544    -38.2622      7.7095      7.4931      9.6996   -999.2500   -999.2500  
  1016.5000     14.8234     82.7113   -999.2500   -999.2500   -999.2500    150.0625    -40.1705      7.8524      7.7168      9.6669   -999.2500   -999.2500  
  1017.0000     15.2177     81.8049   -999.2500   -999.2500   -999.2500    153.4665    -40.7637      8.0852      7.9472      9.8548   -999.2500   -999.2500  
  1017.5000     15.3391     81.4677   -999.2500   -999.2500   -999.2500    128.6271    -39.1603      8.3250      8.1845     10.0849   -999.2500   -999.2500  
  1018.0000     14.8854     81.7568   -999.2500   -999.2500   -999.2500    119.7296    -38.5433      8.5719      8.4289     10.5116   -999.2500   -999.2500  
  1018.5000     15.2008     81.4517   -999.2500   -999.2500   -999.2500    120.5457    -37.7690      8.8261      8.6806     11.0575   -999.2500   -999.2500  
  1019.0000     15.5931     80.1486   -999.2500   -999.2500   -999.2500    119.6304    -36.6673      9.0878      8.9398     11.3901   -999.2500   -999.2500  
  1019.5000     15.3446     80.2052   -999.2500   -999.2500   -999.2500    116.8068    -35.5462      9.3573      9.2067     11.7464   -999.2500   -999.2500  
  1020.0000     15.2704     81.9127   -999.2500   -999.2500   -999.2500    115.2327    -36.1155      9.6343      9.4816     11.7564   -999.2500   -999.2500  
  1020.5000     15.2293     82.1641   -999.2500   -999.2500   -999.2500    115.4902    -38.1362      9.8146      9.6369     11.5675   -999.2500   -999.2500  
  1021.0000     15.0366     80.6972   -999.2500   -999.2500   -999.2500    115.8641    -40.3259      9.9982      9.7609     11.4354   -999.2500   -999.2500  
  1021.5000     15.4066     79.2779   -999.2500   -999.2500   -999.2500    116.3793    -40.6082     10.1853      9.8865     11.4607   -999.2500   -999.2500  
  1022.0000     15.5784     78.5756   -999.2500   -999.2500   -999.2500    115.0686    -39.0005     10.3759     10.0137     11.5392   -999.2500   -999.2500  
  1022.5000     15.3108     79.3964   -999.2500   -999.2500   -999.2500    114.4116    -38.5478     10.5701     10.1425     11.5298   -999.2500   -999.2500  
  1023.0000     15.0588     79.9046   -999.2500   -999.2500   -999.2500    115.3918    -38.7212     10.7658     10.2730     11.5728   -999.2500   -999.2500  
  1023.5000     15.0244     80.1493   -999.2500   -999.2500   -999.2500    117.2626    -39.1883     10.7787     10.4052     11.7698   -999.2500   -999.2500  
  1024.0000     15.0613     80.5906   -999.2500   -999.2500   -999.2500    119.9188    -40.2893     10.7916     10.4106     11.9104   -999.2500   -999.2500  
  1024.5000     14.6021     81.4923   -999.2500   -999.2500   -999.2500    122.5673    -42.6344     10.8045     10.3978     11.9244   -999.2500   -999.2500  
  1025.0000     14.8192     82.8347   -999.2500   -999.2500   -999.2500    123.3050    -45.7189     10.8174     10.3851     11.8488   -999.2500   -999.2500  
  1025.5000     14.8563     83.5153   -999.2500   -999.2500   -999.2500    122.8860    -48.0361     10.8304     10.3724     11.8176   -999.2500   -999.2500  
  1026.0000     14.6277     83.0090   -999.2500   -999.2500   -999.2500    126.5227    -50.2613     10.8433     10.3597     11.7758   -999.2500   -999.2500  
  1026.5000     14.9398     81.3174   -999.2500   -999.2500   -999.2500    130.7124    -51.6640     10.8563     10.3515     11.7341   -999.2500   -999.2500  
  1027.0000     15.5262     79.7814   -999.2500   -999.2500   -999.2500    112.0467    -50.8830     10.8693     10.3586     11.6926   -999.2500   -999.2500  
  1027.5000     15.6566     77.4614   -999.2500   -999.2500   -999.2500    115.1445    -48.8899     10.8823     10.3657     11.4994   -999.2500   -999.2500  
  1028.0000     15.4254     75.5543   -999.2500   -999.2500   -999.2500    119.6607    -46.0448     10.8953     10.3604     11.3143   -999.2500   -999.2500  
  1028.5000     15.7847     76.6367   -999.2500   -999.2500   -999.2500    129.7490    -44.4082     10.8840     10.2885     11.1766   -999.2500   -999.2500  
  1029.0000     16.0744     79.0770   -999.2500   -999.2500   -999.2500    155.5135    -42.4435     10.8144     10.2172     11.2244   -999.2500   -999.2500  
  1029.5000     16.0783     82.1310   -999.2500   -999.2500   -999.2500    161.3293    -39.5897     10.7452     10.1463     11.2944   -999.2500   -999.2500  
  1030.0000     16.0512     85.3971   -999.2500   -999.2500   -999.2500    148.5072    -34.9331     10.6764     10.0760     11.3649   -999.2500   -999.2500  
  1030.5000     15.6355     85.8015   -999.2500   -999.2500   -999.2500    130.5229    -32.7128     10.6081     10.0061     11.4358   -999.2500   -999.2500  
  1031.0000     15.4424     85.2790   -999.2500   -999.2500   -999.2500    123.0843    -33.7361     10.5402      9.9367     11.4946   -999.2500   -999.2500  
  1031.5000     14.9533     84.0068   -999.2500   -999.2500   -999.2500    120.4615    -34.8356     10.4727      9.8678     11.4723   -999.2500   -999.2500  
  1032.0000     14.9652     82.1660   -999.2500   -999.2500   -999.2500    119.2412    -36.3715     10.4057      9.7994     11.5903   -999.2500   -999.2500  
  1032.5000     15.1976     81.4344   -999.2500   -999.2500   -999.2500    118.7760    -38.2389     10.3602      9.7314     11.6066   -999.2500   -999.2500  
  1033.0000     15.4299     81.4789   -999.2500   -999.2500   -999.2500    118.7096    -39.3478     10.3308      9.6639     11.4417   -999.2500   -999.2500  
  1033.5000     15.3543     81.3347   -999.2500   -999.2500   -999.2500    118.8115    -37.8727     10.3015      9.5969     11.0145   -999.2500   -999.2500  
  1034.0000     15.6558     80.5030   -999.2500   -999.2500   -999.2500    119.2252    -36.8947     10.2722      9.5304     10.7847   -999.2500   -999.2500  
  1034.5000     15.9010     79.9054   -999.2500   -999.2500   -999.2500    118.9985    -38.7490     10.2430      9.4917     10.5836   -999.2500   -999.2500  
  1035.0000     15.5231     81.2304   -999.2500   -999.2500   -999.2500    117.7322    -39.2473     10.2140      9.5403     10.9250   -999.2500   -999.2500  
  1035.5000     15.5068     82.3749   -999.2500   -999.2500   -999.2500    116.4366    -37.7580     10.1805      9.5893     11.3457   -999.2500   -999.2500  
  1036.0000     15.8084     82.2572   -999.2500   -999.2500   -999.2500    119.2029    -38.1432     10.1371      9.6384     11.4923   -999.2500   -999.2500  
  1036.5000     15.4623     82.2793   -999.2500   -999.2500   -999.2500    137.2831    -39.1296     10.0938      9.6878     11.4784   -999.2500   -999.2500  
