~VERSION INFORMATION
 VERS.                           2.00:        CWLS LOG ASCII STANDARD - VERSION 2.00
 WRAP.                             NO:        ONE LINE PER DEPTH STEP
~WELL INFORMATION
#MNEM.UNIT                   DATA             INFORMATION
#----------             --------------        ------------------------------
 STRT.F                      999.0000:        START DEPTH
 STOP.F                     2350.0000:        STOP DEPTH
 STEP.F                        0.5000:        STEP VALUE
 NULL.                      -999.2500:        NULL VALUE
 COMP.             UNITED STATES NAVY:        COMPANY  
 LOC .                   14  22N  18W:        LOCATION   
 DATE.                        3/19/68:        LOG DATE 
 WELL.                SOUTH BARROW #7:        WELL     
 UWI .                   500232000100:        UNIQUE WELL ID 
 API .                   500232000100:        UNIQUE WELL IDENTIFIER 
 FLD .                   SOUTH BARROW:        FIELD    
 CNTY.                         NPR #4:        COUNTY  
 STAT.                         ALASKA:        STATE   
 CTRY.                            USA:        COUNTRY 
 OPER.             UNITED STATES NAVY:        OPERATOR  
 SRVC.                   SCHLUMBERGER:        SERVICE COMPANY 
 LAT .                         0.0000:        LATITUDE
 LON .                         0.0000:        LONGITUDE
 DIGS.               CENTER LINE DATA:        DIGITIZING COMPANY 
~CURVE INFORMATION      
#MNEM        .UNIT         API CODE           CURVE DESCRIPTION
#-----------------      --------------        ------------------------------
 DEPT        .F                      :        1  DEPTH
 SP          .MV                     :        2  
 ILD         .OHMM                   :        3  
 ASN         .OHMM                   :        4  
 CILD        .OHMM                   :        5  
 CALI        .IN                     :        6  
 DT          .US/F                   :        7  
~PARAMETER INFORMATION       
#MNEM.UNIT                  VALUE             DESCRIPTION OF MNEMONIC
#---------             ---------------        ------------------------------
 EKB .F                       36.0000:        KELLY BUSHING
 TD  .F                     2351.0000:        TOTAL DEPTH
 BHT .F                        0.0000:        BOTTOM HOLE TEMPERATURE
 BS  .                         9.6250:        BIT SIZE
 FD  .                        76.5000:        FLUID DENSITY
 CSIZ.                        10.7500:        CASING SIZE
 CBD .F                      998.0000:        CASING DRILLER 1
 CBL .F                      999.0000:        CASING LOGGER 1
 DFT .                            Gel:        TYPE FLUID IN HOLE
 DFV .                        45.0000:        VISCOSITY
 DFPH.                         9.5000:        PH
 DFL .                         7.0000:        FLUID LOSS
 RMS .                         5.4300:        RM
 MST .F                       42.0000:        RM MEAS. TEMP.
 RMF .                         5.1700:        RMF
 MFST.F                       59.0000:        RMF MEAS. TEMP.
 RMC .                         5.0900:        RMC
 MCST.F                       56.0000:        RMC MEAS. TEMP.
~OTHER INFORMATION
~A    DEPTH          SP         ILD         ASN        CILD        CALI          DT  
# ...
  2315.0000    -57.8525     15.0525   -999.2500     64.0307   -999.2500     90.8016  
  2315.5000    -58.0082     15.1111   -999.2500     63.8045   -999.2500     90.1685  
  2316.0000    -58.1197     15.1687   -999.2500     62.7678   -999.2500     88.4076  
  2316.5000    -58.0564     15.2242   -999.2500     61.9500   -999.2500     87.5990  
  2317.0000    -57.9409     15.2797   -999.2500     61.1302   -999.2500     90.5047  
  2317.5000    -57.9275     15.3352   -999.2500     59.7379   -999.2500     90.6341  
  2318.0000    -58.1722     15.3906   -999.2500     59.5299   -999.2500     89.2990  
  2318.5000    -58.4887     15.4461   -999.2500     59.9941   -999.2500     90.2994  
  2319.0000    -59.0885     15.5016   -999.2500     60.3922   -999.2500     90.6811  
  2319.5000    -60.1289     15.5570   -999.2500     61.1440   -999.2500     97.7154  
  2320.0000    -61.2213     15.4479   -999.2500     61.9556   -999.2500     96.1773  
  2320.5000    -62.2553     15.3281   -999.2500     62.4475   -999.2500     99.6672  
  2321.0000    -63.2953     15.2084   -999.2500     62.7653   -999.2500    101.6087  
  2321.5000    -65.0805     15.0886   -999.2500     63.0830   -999.2500     96.6571  
  2322.0000    -66.9989     14.9689   -999.2500     63.5867   -999.2500     93.7545  
  2322.5000    -67.4367     14.8491   -999.2500     64.4657   -999.2500     94.4349  
  2323.0000    -67.8347     14.7294   -999.2500     65.5561   -999.2500     94.9462  
  2323.5000    -68.0880     14.6096   -999.2500     65.8909   -999.2500     95.8508  
  2324.0000    -68.3461     14.4898   -999.2500     65.8659   -999.2500     94.4139  
  2324.5000    -68.7505     14.4450   -999.2500     65.9344   -999.2500     93.0952  
  2325.0000    -68.8173     14.4096   -999.2500     66.8094   -999.2500     91.9770  
  2325.5000    -67.9613     14.0584   -999.2500     68.4129   -999.2500     92.8599  
  2326.0000    -67.0028     13.6556   -999.2500     70.3236   -999.2500     94.0023  
  2326.5000    -67.7908     13.3534   -999.2500     71.5146   -999.2500     94.8637  
  2327.0000    -69.2991     13.3582   -999.2500     71.2204   -999.2500     95.3256  
  2327.5000    -70.5727     13.7337   -999.2500     69.6592   -999.2500     93.2337  
  2328.0000    -71.3943     14.2325   -999.2500     67.2730   -999.2500     90.4074  
  2328.5000    -70.5895     14.7579   -999.2500     64.9308   -999.2500     86.5374  
  2329.0000    -68.4527     15.1823   -999.2500     62.6101   -999.2500     84.6007  
  2329.5000    -64.5741     15.7114   -999.2500     60.5488   -999.2500     85.6035  
  2330.0000    -61.1081     16.3687   -999.2500     57.8832   -999.2500     88.7464  
  2330.5000    -59.6744     17.0260   -999.2500     55.1195   -999.2500     93.3733  
  2331.0000    -59.4852     17.6833   -999.2500     52.9501   -999.2500     95.9639  
  2331.5000    -60.4384     18.3406   -999.2500     51.3752   -999.2500     93.6172  
  2332.0000    -63.3169     18.9979   -999.2500     50.1935   -999.2500     91.3299  
  2332.5000    -67.1833     19.0005   -999.2500     49.8214   -999.2500     91.7415  
  2333.0000    -68.3810     18.6779   -999.2500     50.3680   -999.2500     91.4896  
  2333.5000    -67.8203     18.1831   -999.2500     51.4132   -999.2500     94.7458  
  2334.0000    -67.2536     18.0455   -999.2500     52.4292   -999.2500     96.9531  
  2334.5000    -68.2844     17.9528   -999.2500     51.9230   -999.2500     96.5776  
  2335.0000    -69.3707     18.2297   -999.2500     51.2183   -999.2500     95.1651  
  2335.5000    -70.1088     18.4513   -999.2500     50.6283   -999.2500     92.4090  
  2336.0000    -69.8338     18.7219   -999.2500     50.4498   -999.2500     87.2840  
  2336.5000    -67.8677     18.4312   -999.2500     50.7416   -999.2500     86.2553  
  2337.0000    -66.0172     18.2666   -999.2500     51.1567   -999.2500     86.4179  
  2337.5000    -63.5412     18.0284   -999.2500     51.6695   -999.2500     88.7756  
  2338.0000    -62.1438     17.9917   -999.2500     51.5801   -999.2500     92.8319  
  2338.5000    -62.5599     18.0628   -999.2500     51.5234   -999.2500     96.5127  
  2339.0000    -64.5206     18.2502   -999.2500     51.2337   -999.2500     97.9310  
  2339.5000    -67.5162     18.2581   -999.2500     51.0877   -999.2500     97.0014  
  2340.0000    -69.9991     18.3209   -999.2500     51.4626   -999.2500     96.2155  
  2340.5000    -71.2609     17.8360   -999.2500     52.3854   -999.2500     98.7860  
  2341.0000    -71.3376     17.4658   -999.2500     53.6018   -999.2500     93.5501  
  2341.5000    -70.2793     17.1593   -999.2500     55.1043   -999.2500     96.7243  
  2342.0000    -68.8247     16.8528   -999.2500     55.3245   -999.2500    102.1080  
  2342.5000    -66.7044     16.8861   -999.2500     54.6707   -999.2500     94.9692  
  2343.0000    -65.5527     17.2666   -999.2500     52.5476   -999.2500     92.8565  
  2343.5000    -65.6217     17.6472   -999.2500     52.1050   -999.2500     89.5269  
  2344.0000    -65.4757     17.8601   -999.2500     52.0352   -999.2500     95.5941  
  2344.5000    -64.7718     17.8823   -999.2500     52.1720   -999.2500   -999.2500  
  2345.0000    -64.5306     17.8679   -999.2500     52.2660   -999.2500   -999.2500  
  2345.5000    -63.6263     17.7969   -999.2500     52.2272   -999.2500   -999.2500  
  2346.0000    -62.9067     17.7259   -999.2500     52.1522   -999.2500   -999.2500  
  2346.5000    -62.3945     17.6549   -999.2500     52.0859   -999.2500   -999.2500  
  2347.0000    -62.5540     17.5902   -999.2500     51.9763   -999.2500   -999.2500  
  2347.5000    -63.1185     17.5750   -999.2500     51.8412   -999.2500   -999.2500  
  2348.0000    -62.4607     17.5211   -999.2500     51.7062   -999.2500   -999.2500  
  2348.5000    -63.0505     17.4558   -999.2500     51.5711   -999.2500   -999.2500  
  2349.0000    -62.1736     17.3904   -999.2500     51.4360   -999.2500   -999.2500  
  2349.5000    -61.6017     17.4770   -999.2500     51.3009   -999.2500   -999.2500  
  2350.0000    -62.0231     17.5934   -999.2500     51.1658   -999.2500   -999.2500  
