~VERSION INFORMATION
 VERS.                           2.00:        CWLS LOG ASCII STANDARD - VERSION 2.00
 WRAP.                             NO:        ONE LINE PER DEPTH STEP
~WELL INFORMATION
#MNEM.UNIT                   DATA             INFORMATION
#----------             --------------        ------------------------------
 STRT.F                       25.0000:        START DEPTH
 STOP.F                     2347.0000:        STOP DEPTH
 STEP.F                        0.5000:        STEP VALUE
 NULL.                      -999.2500:        NULL VALUE
 COMP.        HUSKY OIL COMPANY/NPR-A:        COMPANY
 LOC .                     26 22N 17W:        LOCATION
 DATE.                        4/14/80:        LOG DATE
 WELL.                     BARROW #20:        WELL
 UWI .                   500232001500:        UNIQUE WELL ID
 API .                   500232001500:        UNIQUE WELL IDENTIFIER
 FLD .                   SOUTH BARROW:        FIELD
 CNTY.                    NORTH SLOPE:        COUNTY
 STAT.                        ALAASKA:        STATE
 CTRY.                            USA:        COUNTRY
 OPER.        HUSKY OIL COMPANY/NPR-A:        OPERATOR
 SRVC.                   SCHLUMBERGER:        SERVICE COMPANY
 LAT .                         0.0000:        LATITUDE
 LON .                         0.0000:        LONGITUDE
 DIGS.               CENTER LINE DATA:        DIGITIZING COMPANY
~CURVE INFORMATION      
#MNEM        .UNIT         API CODE           CURVE DESCRIPTION
#-----------------      --------------        ------------------------------
 DEPT        .F                      :        1  DEPTH
 CALI        .IN                     :        2  
 GR          .GAPI                   :        3  
 DRHO        .G/C3                   :        4  
 RHOB        .G/C3                   :        5  
 NPHI        .%                      :        6  
 SP          .MV                     :        7  
 ILD         .OHMM                   :        8  
 ILM         .OHMM                   :        9  
 SFL         .OHMM                   :        10 
 LLD         .OHMM                   :        11 
 LLS         .OHMM                   :        12 
 MSFL        .OHMM                   :        13 
 DT          .US/F                   :        14 
~PARAMETER INFORMATION
#MNEM.UNIT                  VALUE             DESCRIPTION OF MNEMONIC
#---------             ---------------        ------------------------------
 EKB .F                       30.0000:        KELLY BUSHING
 TD  .F                     2356.0000:        TOTAL DEPTH
 BHT .F                        0.0000:        BOTTOM HOLE TEMPERATURE
 BS  .                         8.5000:        BIT SIZE
 FD  .                        10.8000:        FLUID DENSITY
 CSIZ.                         9.6250:        CASING SIZE
 CBD .F                     1500.0000:        CASING DRILLER 1
 CBL .F                     1485.0000:        CASING LOGGER 1
 DFT .                            GEL:        TYPE FLUID IN HOLE
 DFV .                        10.0000:        VISCOSITY
 DFPH.                         9.0000:        PH
 DFL .                        10.0000:        FLUID LOSS
 RMS .                         0.1840:        RM
 MST .F                       61.0000:        RM MEAS. TEMP.
 RMF .                         0.1270:        RMF
 MFST.F                       61.0000:        RMF MEAS. TEMP.
 RMC .                         0.2660:        RMC
 MCST.F                       61.0000:        RMC MEAS. TEMP.
~OTHER INFORMATION
~A    DEPTH        CALI          GR        DRHO        RHOB        NPHI          SP         ILD         ILM         SFL         LLD         LLS        MSFL          DT 
# ...
  2137.0000      6.1376     63.3410      0.0311      2.5398     26.5173    -57.7726   -999.2500   -999.2500   -999.2500     18.4188     15.2212   -999.2500     88.1300 
  2137.5000      6.1866     63.2514      0.0225      2.5270     26.4333    -58.2163   -999.2500   -999.2500   -999.2500     20.4830     15.8820   -999.2500     87.8000 
  2138.0000      6.2507     62.9558      0.0320      2.5340     26.1126    -58.2936   -999.2500   -999.2500   -999.2500     21.1371     16.0027   -999.2500     87.2270 
  2138.5000      6.3131     62.5900      0.0480      2.5419     25.8348    -55.7401   -999.2500   -999.2500   -999.2500     25.7294     16.2247   -999.2500     86.6540 
  2139.0000      6.3222     62.9803      0.0346      2.5464     25.4506    -58.0278   -999.2500   -999.2500   -999.2500     22.3075     18.0056   -999.2500     86.2404 
  2139.5000      6.3313     63.7400      0.0240      2.5428     25.9472    -60.4007   -999.2500   -999.2500   -999.2500     18.6663     16.1422   -999.2500     86.6720 
  2140.0000      6.3212     64.6309      0.0150      2.5345     26.4141    -61.1198   -999.2500   -999.2500   -999.2500     16.9787     15.8828   -999.2500     87.1208 
  2140.5000      6.2909     64.4448      0.0284      2.5254     26.7472    -62.0709   -999.2500   -999.2500   -999.2500     21.9610     16.5747   -999.2500     87.5696 
  2141.0000      6.2606     63.5753      0.0468      2.5420     26.3295    -61.0150   -999.2500   -999.2500   -999.2500     28.9573     17.4697   -999.2500     88.0185 
  2141.5000      6.2304     61.8322      0.0760      2.5685     25.9119    -63.3666   -999.2500   -999.2500   -999.2500     16.6369     15.9550   -999.2500     88.1518 
  2142.0000      6.2144     63.0010      0.0559      2.5555     25.5924    -63.0647   -999.2500   -999.2500   -999.2500     21.5412     14.3857   -999.2500     88.4211 
  2142.5000      6.2004     64.3006      0.0394      2.5458     25.3681    -64.9487   -999.2500   -999.2500   -999.2500     20.0760     13.7883   -999.2500     88.1852 
  2143.0000      6.1863     64.7730      0.0370      2.5373     25.6785    -66.8454   -999.2500   -999.2500   -999.2500     27.8510     11.5308   -999.2500     87.8872 
  2143.5000      6.1664     64.7201      0.0476      2.5519     26.6873    -66.7951   -999.2500   -999.2500   -999.2500     19.8845     13.6754   -999.2500     86.8011 
  2144.0000      6.1484     64.5691      0.0613      2.5519     28.3502    -68.7704   -999.2500   -999.2500   -999.2500     20.4903     14.2299   -999.2500     88.0798 
  2144.5000      6.1356     66.0028      0.0500      2.5419     30.1412    -72.6853   -999.2500   -999.2500   -999.2500     23.2483     14.7664   -999.2500     88.7602 
  2145.0000      6.1348     66.7250      0.1000      2.5692     28.9425    -63.3420   -999.2500   -999.2500   -999.2500     22.5360     14.2909   -999.2500     88.7785 
  2145.5000      6.1552     66.5288      0.1568      2.6039     27.5098    -69.0186   -999.2500   -999.2500   -999.2500     14.3810     13.6179   -999.2500     88.3379 
  2146.0000      6.0554     64.8416      0.0770      2.5254     27.0062    -66.9073   -999.2500   -999.2500   -999.2500     17.9018     15.2769   -999.2500     87.1075 
  2146.5000      6.0764     63.0361      0.0380      2.5275     27.0240    -69.8972   -999.2500   -999.2500   -999.2500     20.4197     15.4936   -999.2500     85.5603 
  2147.0000      6.1639     63.0544      0.0409      2.5524     27.4165    -71.2530   -999.2500   -999.2500   -999.2500     24.8230     15.9833   -999.2500     86.8101 
  2147.5000      5.9476     63.5769      0.0600      2.5588     27.4824    -72.9609   -999.2500   -999.2500   -999.2500     17.6059     17.1559   -999.2500     87.7670 
  2148.0000      5.8372     63.3616      0.0902      2.5807     26.8401    -74.4565   -999.2500   -999.2500   -999.2500     20.4014     17.1895   -999.2500     86.9094 
  2148.5000      6.1325     62.9495      0.0925      2.5899     25.4843    -75.8558   -999.2500   -999.2500   -999.2500     20.2660     17.5163   -999.2500     85.2380 
  2149.0000      6.1056     62.5653      0.0374      2.5540     23.2392    -79.6734   -999.2500   -999.2500   -999.2500     21.3917     17.1642   -999.2500     84.5895 
  2149.5000      5.9519     62.4316      0.0098      2.5175     24.1448    -83.1431   -999.2500   -999.2500   -999.2500     27.2670     18.1809   -999.2500     84.3262 
  2150.0000      5.8253     62.8374      0.0502      2.5282     26.7550    -80.7992   -999.2500   -999.2500   -999.2500     18.1767     17.8624   -999.2500     84.4122 
  2150.5000      6.0962     63.5167      0.0929      2.5366     27.0972    -80.5546   -999.2500   -999.2500   -999.2500     16.2176     16.2121   -999.2500     87.5637 
  2151.0000      6.2110     64.1961      0.1348      2.5269     27.2716    -81.7463   -999.2500   -999.2500   -999.2500     19.2109     17.8331   -999.2500     88.6958 
  2151.5000      5.9581     64.2685      0.1875      2.5359     27.7890    -82.2913   -999.2500   -999.2500   -999.2500     21.0858     14.2200   -999.2500     89.2058 
  2152.0000      5.9218     63.7148      0.1485      2.4977     29.4495    -83.4322   -999.2500   -999.2500   -999.2500     16.8953     12.6769   -999.2500     88.9257 
  2152.5000      5.9778     63.2623      0.1846      2.4919     29.7857    -84.1320   -999.2500   -999.2500   -999.2500     15.2577     12.0175   -999.2500     90.1311 
  2153.0000      6.1944     63.7849      0.1337      2.4165     31.4767    -85.1076   -999.2500   -999.2500   -999.2500     19.4611     11.4859   -999.2500     91.3364 
  2153.5000      6.3913     65.8598      0.1459      2.3547     31.9311    -85.6260   -999.2500   -999.2500   -999.2500     19.3846     12.7642   -999.2500     91.6262 
  2154.0000      6.0096     72.7338      0.1444      2.3291     29.0818    -84.6129   -999.2500   -999.2500   -999.2500     18.0903     16.4100   -999.2500     89.9431 
  2154.5000      6.2143     79.9829      0.1351      2.3339     26.2256    -81.2814   -999.2500   -999.2500   -999.2500     20.7542     15.7037   -999.2500     82.8394 
  2155.0000      6.6046     83.7657      0.0522      2.3586     25.7527    -81.5262   -999.2500   -999.2500   -999.2500     18.4145     14.4531   -999.2500     81.6051 
  2155.5000      6.1632     80.3661     -0.0158      2.3348     29.8362    -82.1289   -999.2500   -999.2500   -999.2500     15.0247     13.7925   -999.2500     82.6043 
  2156.0000      6.1038     70.7880      0.0971      2.3356     30.8473    -80.9059   -999.2500   -999.2500   -999.2500     15.6429     13.0601   -999.2500     85.4031 
  2156.5000      6.3563     65.1992      0.2076      2.3085     30.0541    -79.0653   -999.2500   -999.2500   -999.2500     17.1100     13.1718   -999.2500     90.3079 
  2157.0000      7.0775     65.9569      0.1632      2.2913     28.8764    -78.0385   -999.2500   -999.2500   -999.2500     19.0077     14.5445   -999.2500     90.2443 
  2157.5000      6.4507     68.1645      0.1103      2.3577     27.7232    -78.7494   -999.2500   -999.2500   -999.2500     21.9161     16.6592   -999.2500     88.1105 
  2158.0000      5.9986     70.9902      0.1127      2.5231     26.7331    -79.0339   -999.2500   -999.2500   -999.2500     24.1328     18.0426   -999.2500     84.9949 
  2158.5000      5.9453     74.7583      0.1229      2.5926     26.0822    -76.5692   -999.2500   -999.2500   -999.2500     23.2776     19.3580   -999.2500     83.1509 
  2159.0000      5.9718     79.0406      0.0897      2.5856     25.1937    -76.0702   -999.2500   -999.2500   -999.2500     22.8403     20.3129   -999.2500     82.9669 
  2159.5000      5.9320     77.1212      0.0331      2.5767     25.3279    -73.4412   -999.2500   -999.2500   -999.2500     20.5895     16.5158   -999.2500     83.0667 
  2160.0000      5.9571     72.1031      0.0438      2.5730     26.1918    -70.0780   -999.2500   -999.2500   -999.2500     18.4737     14.6861   -999.2500     84.6380 
  2160.5000      6.0252     68.7341      0.0660      2.5290     28.9715    -66.3772   -999.2500   -999.2500   -999.2500     16.3572     12.9843   -999.2500     89.1710 
