~VERSION INFORMATION
 VERS.                           2.00:        CWLS LOG ASCII STANDARD - VERSION 2.00
 WRAP.                             NO:        ONE LINE PER DEPTH STEP
~WELL INFORMATION
#MNEM.UNIT                   DATA             INFORMATION
#----------             --------------        ------------------------------
 STRT.F                      990.0000:        START DEPTH
 STOP.F                     2362.0000:        STOP DEPTH
 STEP.F                        0.5000:        STEP VALUE
 NULL.                      -999.2500:        NULL VALUE
 COMP.                 U.S. AIR FORCE:        COMPANY  
 LOC .                   14  22N  18W:        LOCATION   
 DATE.                        4/21/69:        LOG DATE 
 WELL.       SOUTH BARROW GAS WELL #8:        WELL     
 UWI .                   500232000200:        UNIQUE WELL ID 
 API .                   500232000200:        UNIQUE WELL IDENTIFIER 
 FLD .                S. B. GAS FIELD:        FIELD    
 CNTY.                   POINT BARROW:        COUNTY  
 STAT.                         ALASKA:        STATE   
 CTRY.                            USA:        COUNTRY 
 OPER.                 U.S. AIR FORCE:        OPERATOR  
 SRVC.                   SCHLUMBERGER:        SERVICE COMPANY 
 LAT .                         0.0000:        LATITUDE
 LON .                         0.0000:        LONGITUDE
 DIGS.               CENTER LINE DATA:        DIGITIZING COMPANY 
~CURVE INFORMATION      
#MNEM        .UNIT         API CODE           CURVE DESCRIPTION
#-----------------      --------------        ------------------------------
 DEPT        .F                      :        1  DEPTH
 SP          .MV                     :        2  
 ASN         .OHMM                   :        3  
 ILD         .OHMM                   :        4  
 CILD        .MMHO                   :        5  
 CALI        .IN                     :        6  
 DT          .US/F                   :        7  
~PARAMETER INFORMATION       
#MNEM.UNIT                  VALUE             DESCRIPTION OF MNEMONIC
#---------             ---------------        ------------------------------
 EKB .F                       31.0000:        KELLY BUSHING
 TD  .F                     2363.0000:        TOTAL DEPTH
 BHT .F                       74.0000:        BOTTOM HOLE TEMPERATURE
 BS  .                         8.6250:        BIT SIZE
 FD  .                        10.6000:        FLUID DENSITY
 CSIZ.                         9.6250:        CASING SIZE
 CBD .F                      992.0000:        CASING DRILLER 1
 CBL .F                      990.0000:        CASING LOGGER 1
 DFT .                            Gel:        TYPE FLUID IN HOLE
 DFV .                        54.0000:        VISCOSITY
 DFPH.                        10.0000:        PH
 DFL .                         4.8000:        FLUID LOSS
 RMS .                         2.0000:        RM
 MST .F                       82.0000:        RM MEAS. TEMP.
 RMF .                         2.1800:        RMF
 MFST.F                       61.0000:        RMF MEAS. TEMP.
 RMC .                         4.1900:        RMC
 MCST.F                       53.0000:        RMC MEAS. TEMP.
~OTHER INFORMATION
~A    DEPTH          SP         ASN         ILD        CILD        CALI          DT  
# ...
  2306.0000    -28.8335     13.5820     12.8881     77.8993      8.1385     89.0305  
  2306.5000    -29.1567     13.4762     13.2579     76.1944      8.2768     89.1634  
  2307.0000    -29.5933     13.6244     13.6179     73.8468      8.5281     88.3925  
  2307.5000    -30.0881     13.7561     13.7923     72.2550      8.7970     87.1134  
  2308.0000    -30.3249     13.9230     13.9667     71.9298      8.9580     85.8471  
  2308.5000    -30.4198     14.2181     14.1410     72.0060      8.9921     85.8417  
  2309.0000    -30.5139     14.6639     14.4150     71.5645      9.0860     86.3167  
  2309.5000    -30.4921     15.0355     14.8143     70.0133      9.1029     87.2509  
  2310.0000    -30.3354     15.4582     15.2136     67.4376      9.1343     87.9561  
  2310.5000    -30.0743     15.8226     15.6128     65.2456      9.1205     87.3030  
  2311.0000    -29.8657     16.0671     16.0121     63.5529      9.1212     85.9955  
  2311.5000    -29.9160     16.2123     16.2256     62.3765      9.0453     84.7898  
  2312.0000    -29.7310     16.3738     16.3847     61.6759      9.0305     84.2172  
  2312.5000    -29.5582     16.5738     16.5438     61.0570      9.0621     83.6447  
  2313.0000    -29.7382     16.7909     16.7029     60.2732      9.0143     83.3212  
  2313.5000    -30.3023     17.0235     16.8620     59.4895      8.9352     83.1858  
  2314.0000    -30.9084     17.1074     17.0210     59.1881      8.9280     83.3063  
  2314.5000    -30.9467     17.1868     17.1223     58.6755      9.0016     84.3964  
  2315.0000    -31.0294     17.2122     17.0827     58.4667      8.9990     85.6753  
  2315.5000    -30.9529     17.1782     17.0432     58.2579      9.0417     86.1400  
  2316.0000    -31.5298     17.0794     17.0036     58.4433      9.0744     85.4148  
  2316.5000    -32.5121     16.9142     16.9133     59.0238      9.0375     84.6653  
  2317.0000    -33.7456     16.7196     16.7539     59.7028      8.9992     84.5341  
  2317.5000    -34.7750     16.5864     16.5945     60.3818      9.0144     85.0343  
  2318.0000    -35.2469     16.4533     16.4350     60.3493      8.9901     86.1277  
  2318.5000    -35.8897     16.3442     16.2756     60.5049      8.9763     86.7173  
  2319.0000    -36.8251     16.2440     16.1830     61.0608      8.9897     86.8084  
  2319.5000    -36.0261     16.1718     16.1309     61.6167      9.0333     87.1257  
  2320.0000    -34.8957     16.1104     16.0788     60.7845      8.9975     88.4398  
  2320.5000    -33.9888     16.0155     16.0268     61.5994      8.8069     89.4280  
  2321.0000    -33.6362     15.9329     15.9747     62.4144      8.8204     90.0521  
  2321.5000    -33.7989     15.8931     15.9226     63.2294      8.9543     89.0012  
  2322.0000    -34.0692     15.8361     15.8705     64.0444      9.0130     87.2193  
  2322.5000    -34.4830     15.7525     15.8184     64.8593      8.9966     86.1126  
  2323.0000    -34.6007     15.7269     15.8562     65.0569      8.9426     86.1395  
  2323.5000    -34.4851     15.7774     15.8992     64.1350      8.7805     86.7621  
  2324.0000    -34.4519     15.8420     15.9422     63.2132      8.8718     87.5516  
  2324.5000    -34.5700     15.9230     15.9852     62.2913      8.9313     87.7235  
  2325.0000    -35.0561     16.0618     16.0715     61.3799      8.8985     87.7102  
  2325.5000    -35.3358     16.1100     16.2657     60.8367      8.9537     87.5891  
  2326.0000    -35.7789     16.0379     16.4582     60.9206      8.9388     88.4199  
  2326.5000    -36.3138     15.8505     16.5913     60.6743      8.9022     89.1892  
  2327.0000    -36.6768     15.6531     16.7244     61.1730      8.8804     90.0102  
  2327.5000    -37.3001     15.5844     16.9141     61.0798      8.8552     90.5630  
  2328.0000    -37.7343     15.7712     17.0256     59.9917      8.7926     89.5734  
  2328.5000    -37.9002     15.9313     17.1562     59.1915      8.7494     88.5096  
  2329.0000    -37.6308     16.3857     17.3671     58.7284      8.5832     88.7947  
  2329.5000    -37.1616     16.7025     17.5780     58.2252      8.5589     89.3124  
  2330.0000    -37.7133     16.9884     17.7889     57.7220      8.6417     89.8465  
  2330.5000    -39.1232     17.1894     17.9998     57.2187      8.7478     90.1325  
  2331.0000    -39.7110     17.3675     18.2331     56.7155      8.7922     90.0068  
  2331.5000    -39.7541     17.5546     18.4771     56.2123      8.7822     91.3159  
  2332.0000    -39.8681     17.8492     18.5617     55.7090      8.7042     93.1867  
  2332.5000    -41.2179     18.0618     18.6742     55.2058      8.6177     89.9426  
  2333.0000    -42.6656     18.0239     18.8774     54.5941      8.5855     89.0598  
  2333.5000    -43.7653     18.1705     19.2038     53.9153      8.4620     89.0308  
  2334.0000    -45.1630     18.3449     19.5029     53.9241      8.5143     89.4877  
  2334.5000    -45.6086     18.5226     19.8429     52.7508      8.6123     90.8444  
  2335.0000    -45.8477     18.7250     20.1652     49.0122      8.5961     91.2508  
  2335.5000    -46.4305     18.9739     20.3106     48.9878      8.5567     91.3730  
  2336.0000    -46.8228     19.3210     20.6298     49.2917      8.5364     91.5206  
  2336.5000    -47.0697     19.6562     20.6794     49.0949      8.5488     91.6421  
  2337.0000    -47.4376     19.8036     20.8401     48.3906      8.5668     91.6565  
  2337.5000    -48.0307     19.7383     20.9382     48.3807      8.5590     91.6852  
  2338.0000    -47.2843     19.6335     21.0032     48.4203      8.4498     91.7104  
  2338.5000    -46.3912     19.6750     21.1090     47.9338      8.4834     91.6717  
  2339.0000    -45.8907     19.7856     21.2509     47.5124      8.5072     91.6166  
  2339.5000    -46.5294     19.9986     21.5686     47.3406      8.4007     91.5657  
  2340.0000    -47.8204     20.3398     21.8414     47.1387      8.2211     91.5448  
  2340.5000    -48.6721     20.6810     22.1061     46.8259      7.9829     91.5051  
  2341.0000    -48.5217     20.9911     22.2416     46.4937      7.8862     91.5550  
  2341.5000    -47.7636     21.1327     22.3475     46.1616      7.8551     91.6213  
  2342.0000    -45.2764     21.1953     22.2849     45.8294      7.8433     91.6070  
  2342.5000    -41.7646     21.1401     22.1869     45.6500      7.7383     91.5699  
  2343.0000    -38.7008     20.9703     22.0748     45.9256      7.6810     91.6199  
  2343.5000    -37.1274     20.8294     21.9903     46.3953      7.6861     91.5294  
  2344.0000    -36.8867     20.8366     22.0875     47.2275      7.6089     91.4965  
  2344.5000    -37.6320     20.9692     22.2913     47.3844      7.5306     91.5558  
  2345.0000    -40.7488     21.1844     22.5198     46.3952      7.4954     91.5166  
  2345.5000    -44.4221     21.4661     22.6742     44.8012      7.4900     91.4741  
  2346.0000    -45.8965     21.4982     22.7835     45.1285      7.4929     91.4864  
  2346.5000    -45.8856     21.4866     22.8753     45.9620      7.4906     91.5024  
  2347.0000    -45.6372     21.6136     22.9336     46.4244      7.4920     91.4779  
  2347.5000    -46.2803     21.5815     22.9119     46.8867      7.4986     91.4391  
  2348.0000    -47.0151     21.2752     22.5915     47.3491      7.4999     91.4178  
  2348.5000    -47.0885     20.8476     21.8615     47.8114   -999.2500   -999.2500  
  2349.0000    -46.5364     20.4950     21.0877     48.2738   -999.2500   -999.2500  
  2349.5000    -44.4892     20.1424     20.4899     48.7361   -999.2500   -999.2500  
  2350.0000    -42.1931     19.7899     20.0177     49.1985   -999.2500   -999.2500  
  2350.5000    -41.2307     19.4360     19.8191     49.6608   -999.2500   -999.2500  
  2351.0000    -43.1512     18.9669     19.6205     50.1232   -999.2500   -999.2500  
  2351.5000    -46.1972     18.6941     19.4220     50.9196   -999.2500   -999.2500  
  2352.0000    -47.3735     18.7563     19.1626     52.4360   -999.2500   -999.2500  
  2352.5000    -47.2969     18.7792     18.8319     53.9524   -999.2500   -999.2500  
