~VERSION INFORMATION
 VERS.                           2.00:        CWLS LOG ASCII STANDARD - VERSION 2.00
 WRAP.                             NO:        ONE LINE PER DEPTH STEP
~WELL INFORMATION
#MNEM.UNIT                   DATA             INFORMATION
#----------             --------------        ------------------------------
 STRT.F                       78.0000:        START DEPTH
 STOP.F                     2392.0000:        STOP DEPTH
 STEP.F                        0.5000:        STEP VALUE
 NULL.                      -999.2500:        NULL VALUE
 COMP.              U.S.G.S./NPR -  A:        COMPANY  
 LOC .                    1  22N  18W:        LOCATION   
 DATE.                        2/14/78:        LOG DATE 
 WELL.               SOUTH BARROW #16:        WELL     
 UWI .                   500232001000:        UNIQUE WELL ID 
 API .                   500232001000:        UNIQUE WELL IDENTIFIER 
 FLD .                   SOUTH BARROW:        FIELD    
 CNTY.                    NORTH SLOPE:        COUNTY  
 STAT.                         ALASKA:        STATE   
 CTRY.                            USA:        COUNTRY 
 OPER.              U.S.G.S./NPR -  A:        OPERATOR  
 SRVC.                   SCHLUMBERGER:        SERVICE COMPANY 
 LAT .                         0.0000:        LATITUDE
 LON .                         0.0000:        LONGITUDE
 DIGS.               CENTER LINE DATA:        DIGITIZING COMPANY 
~CURVE INFORMATION      
#MNEM        .UNIT         API CODE           CURVE DESCRIPTION
#-----------------      --------------        ------------------------------
 DEPT        .F                      :        1  DEPTH
 CALI        .IN                     :        2  
 GR          .GAPI                   :        3  
 RHOB        .G/C3                   :        4  
 DRHO        .G/C3                   :        5  
 NPHI        .%                      :        6  
 DT          .US/F                   :        7  
 SP          .MV                     :        8  
 ILD         .OHMM                   :        9  
 ILM         .OHMM                   :        10 
 LL8         .OHMM                   :        11 
 LLD         .OHMM                   :        12 
 LLS         .OHMM                   :        13 
~PARAMETER INFORMATION       
#MNEM.UNIT                  VALUE             DESCRIPTION OF MNEMONIC
#---------             ---------------        ------------------------------
 EKB .F                       30.0000:        KELLY BUSHING
 TD  .F                     2399.0000:        TOTAL DEPTH
 BHT .F                       73.0000:        BOTTOM HOLE TEMPERATURE
 BS  .                         8.5000:        BIT SIZE
 FD  .                        11.0000:        FLUID DENSITY
 CSIZ.                         8.5000:        CASING SIZE
 CBD .F                     1489.0000:        CASING DRILLER 1
 CBL .F                     1487.0000:        CASING LOGGER 1
 DFT .                  Miscellaneous:        TYPE FLUID IN HOLE
 DFV .                        52.0000:        VISCOSITY
 DFPH.                         8.5000:        PH
 DFL .                         8.0000:        FLUID LOSS
 RMS .                         0.0210:        RM
 MST .F                       58.0000:        RM MEAS. TEMP.
 RMF .                         0.0130:        RMF
 MFST.F                       52.0000:        RMF MEAS. TEMP.
 RMC .                         0.0170:        RMC
 MCST.F                       56.0000:        RMC MEAS. TEMP.
~OTHER INFORMATION
~A    DEPTH        CALI          GR        RHOB        DRHO        NPHI          DT          SP         ILD         ILM         LL8         LLD         LLS  
# ...
  2067.0000      8.3334     82.8574      2.4769      0.0011     37.7484     99.3172    -77.8978   -999.2500   -999.2500   -999.2500      8.6256     10.0286  
  2067.5000      8.3414     83.0462      2.4780      0.0006     36.9863     99.6681    -77.8703   -999.2500   -999.2500   -999.2500      8.8778     10.2119  
  2068.0000      8.3511     83.6479      2.4919      0.0080     36.5102     99.6381    -77.8627   -999.2500   -999.2500   -999.2500      9.1373     10.3986  
  2068.5000      8.3901     83.7581      2.4996      0.0121     36.6566     99.1386    -77.8703   -999.2500   -999.2500   -999.2500      9.2531     10.5887  
  2069.0000      8.4571     83.2321      2.4997      0.0084     37.5889     98.2456    -77.8593   -999.2500   -999.2500   -999.2500      9.3214     10.6279  
  2069.5000      8.4645     83.2715      2.4957      0.0113     37.9858     98.0437    -77.8579   -999.2500   -999.2500   -999.2500      9.3293     10.5565  
  2070.0000      8.2930     83.3151      2.4883      0.0086     38.3175     99.5816    -77.7701   -999.2500   -999.2500   -999.2500      9.1190     10.4582  
  2070.5000      8.3110     82.7438      2.4740      0.0041     38.6271    101.3854    -77.6330   -999.2500   -999.2500   -999.2500      8.9134     10.2086  
  2071.0000      8.3260     81.1383      2.4631      0.0013     39.9164    102.9021    -77.4210   -999.2500   -999.2500   -999.2500      8.7124      9.9778  
  2071.5000      8.3353     79.6917      2.4554      0.0034     41.0852    103.3258    -77.2868   -999.2500   -999.2500   -999.2500      8.8918     10.1374  
  2072.0000      8.3423     78.8602      2.4516     -0.0029     41.4876    102.2709    -77.1783   -999.2500   -999.2500   -999.2500      9.1337     10.4943  
  2072.5000      8.3314     79.6162      2.4669     -0.0014     41.3309    101.8782    -77.0982   -999.2500   -999.2500   -999.2500      9.1192     10.4256  
  2073.0000      8.3299     81.1763      2.4819      0.0069     41.3616    101.9543    -77.0484   -999.2500   -999.2500   -999.2500      8.8038     10.2071  
  2073.5000      8.3378     84.1051      2.4914      0.0143     41.2278    101.8960    -77.1100   -999.2500   -999.2500   -999.2500      8.6219      9.9526  
  2074.0000      8.3408     86.1609      2.4909      0.0296     40.9640    101.5388    -77.2438   -999.2500   -999.2500   -999.2500      8.4436      9.8931  
  2074.5000      8.3569     85.4937      2.4649      0.0128     39.8869    101.3306    -77.3885   -999.2500   -999.2500   -999.2500      8.3298      9.9355  
  2075.0000      8.3632     84.1489      2.4640      0.0075     39.2361    101.4770    -77.4617   -999.2500   -999.2500   -999.2500      8.3801      9.9781  
  2075.5000      8.3610     84.3300      2.4750      0.0010     39.2989    101.4750    -77.3628   -999.2500   -999.2500   -999.2500      8.4286     10.0209  
  2076.0000      8.3551     85.3390      2.4746     -0.0021     39.9397    101.3286    -77.1951   -999.2500   -999.2500   -999.2500      8.4669     10.0493  
  2076.5000      8.3474     84.8312      2.4680      0.0011     40.4859    101.0984    -76.9566   -999.2500   -999.2500   -999.2500      8.4603     10.0617  
  2077.0000      8.3353     83.1846      2.4607     -0.0049     40.9393    100.6555    -76.7238   -999.2500   -999.2500   -999.2500      8.5602     10.0871  
  2077.5000      8.3654     81.3878      2.4587      0.0009     40.9235    100.7944    -76.6673   -999.2500   -999.2500   -999.2500      8.6197     10.1133  
  2078.0000      8.3984     80.1699      2.4629      0.0127     40.8552    101.7321    -76.7427   -999.2500   -999.2500   -999.2500      8.5849     10.1395  
  2078.5000      8.3759     80.1325      2.4780      0.0305     40.8413    102.9925    -76.9021   -999.2500   -999.2500   -999.2500      8.5502     10.1659  
  2079.0000      8.3255     81.6564      2.4987      0.0526     40.7232    103.4037    -77.0868   -999.2500   -999.2500   -999.2500      8.5157     10.1922  
  2079.5000      8.3280     82.7327      2.4738      0.0345     40.5489    103.4771    -77.2485   -999.2500   -999.2500   -999.2500      8.4813     10.2324  
  2080.0000      8.3258     82.7497      2.4557      0.0091     40.8222    103.6181    -77.3619   -999.2500   -999.2500   -999.2500      8.4471     10.2746  
  2080.5000      8.3210     82.8120      2.4584     -0.0045     41.1489    103.8343    -77.4406   -999.2500   -999.2500   -999.2500      8.4339     10.3170  
  2081.0000      8.3217     83.0530      2.4596     -0.0129     41.8044    104.0405    -77.4869   -999.2500   -999.2500   -999.2500      8.4355     10.1112  
  2081.5000      8.3362     83.3102      2.4628     -0.0062     42.6132    103.5315    -77.4154   -999.2500   -999.2500   -999.2500      8.3175     10.0054  
  2082.0000      8.3324     83.3645      2.4585      0.0047     43.5110    102.5208    -77.2783   -999.2500   -999.2500   -999.2500      8.1002      9.6412  
  2082.5000      8.3298     84.0600      2.4457      0.0014     44.1246    101.6631    -77.2371   -999.2500   -999.2500   -999.2500      7.8880      9.2902  
  2083.0000      8.3207     85.4882      2.4377      0.0019     44.1779    101.2983    -77.1018   -999.2500   -999.2500   -999.2500      7.6978      8.9520  
  2083.5000      8.3365     86.1246      2.4350      0.0053     43.4837    102.0371    -77.0570   -999.2500   -999.2500   -999.2500      7.5020      8.9404  
  2084.0000      8.3616     87.0114      2.4382      0.0085     42.7589    103.8511    -77.0620   -999.2500   -999.2500   -999.2500      7.5233      8.9779  
  2084.5000      8.4396     87.7978      2.4471      0.0114     41.5977    105.2626    -77.1068   -999.2500   -999.2500   -999.2500      7.5447      9.0156  
  2085.0000      8.4801     86.5536      2.4627      0.0158     40.6156    105.8205    -77.2852   -999.2500   -999.2500   -999.2500      7.6087      9.2154  
  2085.5000      8.3884     84.7280      2.4704      0.0023     40.1724    105.4935    -77.4778   -999.2500   -999.2500   -999.2500      7.7439      9.5816  
  2086.0000      8.3848     83.6096      2.4771     -0.0037     40.4976    104.2451    -77.7944   -999.2500   -999.2500   -999.2500      7.9615      9.7390  
  2086.5000      8.3787     82.4878      2.4839      0.0063     41.1836    103.2285    -78.2585   -999.2500   -999.2500   -999.2500      7.8872      9.2960  
  2087.0000      8.3798     81.0492      2.4576      0.0192     42.2278    102.7966    -78.6375   -999.2500   -999.2500   -999.2500      7.5740      8.8730  
  2087.5000      8.3881     80.8924      2.4408      0.0385     42.9695    102.6784    -78.8765   -999.2500   -999.2500   -999.2500      7.2733      8.5655  
  2088.0000      8.4405     81.4111      2.4260      0.0577     42.4162    102.4045    -78.9604   -999.2500   -999.2500   -999.2500      6.9845      8.3790  
  2088.5000      8.4966     82.0314      2.4072      0.0458     41.2115    102.0565    -79.0780   -999.2500   -999.2500   -999.2500      6.8948      8.3848  
  2089.0000      8.4934     82.4355      2.4069      0.0307     39.3460    102.0991    -79.2143   -999.2500   -999.2500   -999.2500      7.0916      8.6448  
  2089.5000      8.4862     82.1241      2.4257      0.0182     38.5874    102.5371    -79.1472   -999.2500   -999.2500   -999.2500      7.2939      8.8822  
  2090.0000      8.4601     81.4103      2.4409      0.0077     38.6998    102.8221    -78.9406   -999.2500   -999.2500   -999.2500      7.5021      9.0291  
  2090.5000      8.4268     80.4372      2.4420     -0.0014     39.1424    102.9556    -78.7952   -999.2500   -999.2500   -999.2500      7.6656      9.1785  
  2091.0000      8.4286     79.4938      2.4520     -0.0007     39.2524    103.0814    -78.4533   -999.2500   -999.2500   -999.2500      7.7677      9.3303  
  2091.5000      8.4272     79.0674      2.4591      0.0005     39.0737    103.4565    -78.2277   -999.2500   -999.2500   -999.2500      7.8468      9.4846  
  2092.0000      8.4107     79.1506      2.4583      0.0011     38.5888    104.8103    -78.0297   -999.2500   -999.2500   -999.2500      7.7779      9.5361  
