~VERSION INFORMATION
 VERS.                           2.00:        CWLS LOG ASCII STANDARD - VERSION 2.00
 WRAP.                             NO:        ONE LINE PER DEPTH STEP
~WELL INFORMATION
#MNEM.UNIT                   DATA             INFORMATION
#----------             --------------        ------------------------------
 STRT.F                      152.0000:        START DEPTH
 STOP.F                     2285.0000:        STOP DEPTH
 STEP.F                        0.5000:        STEP VALUE
 NULL.                      -999.2500:        NULL VALUE
 COMP.                      U.S. NAVY:        COMPANY  
 LOC .                   26  22N  17W:        LOCATION   
 DATE.                         4/1/74:        LOG DATE 
 WELL.            SOUTH BARROW NO. 12:        WELL     
 UWI .                   500232000600:        UNIQUE WELL ID 
 API .                   500232000600:        UNIQUE WELL IDENTIFIER 
 FLD .                   SOUTH BARROW:        FIELD    
 CNTY.                         NPPR-4:        COUNTY  
 STAT.                         ALASKA:        STATE   
 CTRY.                            USA:        COUNTRY 
 OPER.                      U.S. NAVY:        OPERATOR  
 SRVC.                   SCHLUMBERGER:        SERVICE COMPANY 
 LAT .                         0.0000:        LATITUDE
 LON .                         0.0000:        LONGITUDE
 DIGS.               CENTER LINE DATA:        DIGITIZING COMPANY 
~CURVE INFORMATION      
#MNEM        .UNIT         API CODE           CURVE DESCRIPTION
#-----------------      --------------        ------------------------------
 DEPT        .F                      :        1  DEPTH
 RHOB        .G/C3                   :        2  
 DRHO        .G/C3                   :        3  
 GR          .GAPI                   :        4  
 CALI        .IN                     :        5  
 DPHI        .%                      :        6  
 NPHI        .%                      :        7  
 SP          .MV                     :        8  
 ALL8        .OHMM                   :        9  
 ILD         .OHMM                   :        10 
 CILD        .MMHO                   :        11 
 DT          .US/F                   :        12 
~PARAMETER INFORMATION       
#MNEM.UNIT                  VALUE             DESCRIPTION OF MNEMONIC
#---------             ---------------        ------------------------------
 EKB .F                       26.0000:        KELLY BUSHING
 TD  .F                     2285.0000:        TOTAL DEPTH
~OTHER INFORMATION
~A    DEPTH        RHOB        DRHO          GR        CALI        DPHI        NPHI          SP        ALL8         ILD        CILD          DT  
# ...
  1059.5000   -999.2500   -999.2500   -999.2500   -999.2500   -999.2500   -999.2500    -70.5156      9.8129     11.6554     81.8015   -999.2500  
  1060.0000   -999.2500   -999.2500   -999.2500   -999.2500   -999.2500   -999.2500    -70.6175      9.8281     11.6398     82.0388   -999.2500  
  1060.5000   -999.2500   -999.2500   -999.2500   -999.2500   -999.2500   -999.2500    -70.6465      9.8767     11.6242     82.3229   -999.2500  
  1061.0000   -999.2500   -999.2500   -999.2500   -999.2500   -999.2500   -999.2500    -70.8274      9.8841     11.6087     82.3424   -999.2500  
  1061.5000   -999.2500   -999.2500   -999.2500   -999.2500   -999.2500   -999.2500    -71.0789      9.8858     11.5931     82.3661   -999.2500  
  1062.0000   -999.2500   -999.2500   -999.2500   -999.2500   -999.2500   -999.2500    -70.8984      9.8875     11.5775     82.0715   -999.2500  
  1062.5000   -999.2500   -999.2500   -999.2500   -999.2500   -999.2500   -999.2500    -70.7224      9.8892     11.5620     81.9043   -999.2500  
  1063.0000   -999.2500   -999.2500   -999.2500   -999.2500   -999.2500   -999.2500    -71.0275      9.8908     11.5464     81.8931   -999.2500  
  1063.5000   -999.2500   -999.2500   -999.2500   -999.2500   -999.2500   -999.2500    -71.3675      9.8904     11.5308     81.8633   -999.2500  
  1064.0000   -999.2500   -999.2500   -999.2500   -999.2500   -999.2500   -999.2500    -71.5840      9.8918     11.5153     81.8335   -999.2500  
  1064.5000   -999.2500   -999.2500   -999.2500   -999.2500   -999.2500   -999.2500    -71.8953      9.8963     11.4997     81.8036   -999.2500  
  1065.0000   -999.2500   -999.2500   -999.2500   -999.2500   -999.2500   -999.2500    -72.0666      9.8982     11.4841     81.7738   -999.2500  
  1065.5000   -999.2500   -999.2500   -999.2500   -999.2500   -999.2500   -999.2500    -71.7504      9.8953     11.4686     81.7440   -999.2500  
  1066.0000   -999.2500   -999.2500   -999.2500   -999.2500   -999.2500   -999.2500    -71.4197      9.8758     11.4530     81.7141   -999.2500  
  1066.5000   -999.2500   -999.2500   -999.2500   -999.2500   -999.2500   -999.2500    -71.2444      9.8615     11.4374     81.6843   -999.2500  
  1067.0000      2.2340      0.0708     67.2564     11.0378     25.2312     59.8454    -70.9619      9.8446     11.4219     81.6545    134.3724  
  1067.5000      2.1001      0.0484     68.8148     10.9896     25.0980     59.8424    -65.5478      9.7038     11.4063     81.6246    126.1865  
  1068.0000      2.0518      0.0427     74.2733     10.4993     33.0358     59.8394    -43.3879      9.6218     11.3907     81.5948    121.4020  
  1068.5000      2.1084      0.0432     80.4976     10.4440     34.4884     57.4441    -21.2279      9.6210     11.3752     81.5650    118.8640  
  1069.0000      2.2128      0.0309     86.7219     10.5337     30.8952     51.9021      0.3478      9.6203     11.3596     81.5351    117.9398  
  1069.5000      2.3243      0.0222     91.2945     10.7317     25.9163     45.4793      0.3478      9.6196     11.3440     81.5053    117.9115  
  1070.0000      2.4229      0.0336     94.7881     10.8773     18.3314     38.6481      0.3478      9.6188     11.3285     81.4755    118.0419  
  1070.5000      2.4409      0.0375     96.8695     10.8896     13.4620     38.7920   -999.2500   -999.2500   -999.2500   -999.2500    118.1724  
  1071.0000      2.4384      0.0322    100.0091     10.8844     12.4262     39.7382   -999.2500   -999.2500   -999.2500   -999.2500    118.3029  
  1071.5000      2.4443      0.0375    103.1640     10.8629     13.3277     39.7193   -999.2500   -999.2500   -999.2500   -999.2500    118.4334  
  1072.0000      2.4502      0.0471    104.9545     10.8375     12.6878     38.7615   -999.2500   -999.2500   -999.2500   -999.2500    118.5312  
  1072.5000      2.4543      0.0568    106.4922     10.8102     12.1202     38.1593   -999.2500   -999.2500   -999.2500   -999.2500    118.5069  
  1073.0000      2.4671      0.0664    105.6855     10.7707     11.9474     38.6221   -999.2500   -999.2500   -999.2500   -999.2500    118.7274  
  1073.5000      2.4678      0.0693    105.1318     10.7500     11.3936     39.1805   -999.2500   -999.2500   -999.2500   -999.2500    119.7489  
  1074.0000      2.4563      0.0650    106.2893     10.7475     10.6731     39.9082   -999.2500   -999.2500   -999.2500   -999.2500    120.8048  
  1074.5000      2.4619      0.0606    107.4468     10.7482     11.7442     39.9408   -999.2500   -999.2500   -999.2500   -999.2500    121.6603  
  1075.0000      2.4645      0.0563    108.6362     10.7491     11.5808     39.1682   -999.2500   -999.2500   -999.2500   -999.2500    121.7692  
  1075.5000      2.4587      0.0519    107.4709     10.7520     11.1282     38.7423   -999.2500   -999.2500   -999.2500   -999.2500    121.2398  
  1076.0000      2.4496      0.0470    105.9074     10.7465     11.5903     38.7811    -41.3530      9.8403      9.0924    106.2146    120.5744  
  1076.5000      2.4475      0.0428    106.3662     10.7399     12.0754     39.2153    -41.3637      9.7686      8.6045    114.4745    120.5867  
  1077.0000      2.4572      0.0558    107.5984     10.7379     12.6510     38.7230    -41.3259      9.6401      8.4923    117.9212    121.3755  
  1077.5000      2.4623      0.0527    107.0237     10.7383     11.9494     38.9089    -40.6940      9.4787      8.4822    112.4151    122.2921  
  1078.0000      2.4523      0.0485    106.6927     10.7444     11.3196     40.0649    -39.9660      9.3217      8.4047    110.6920    123.2086  
  1078.5000      2.4451      0.0524    107.0353     10.7505     12.0993     41.2058    -39.4041      9.2155      8.3231    111.3956    123.6867  
  1079.0000      2.4520      0.0574    108.0701     10.7566     12.3233     42.1633    -38.8423      9.1194      8.2660    112.1086    123.7688  
  1079.5000      2.4585      0.0646    107.5281     10.7627     11.9670     43.2847    -38.7061      9.0886      8.1849    112.5839    123.3198  
  1080.0000      2.4605      0.0719    105.3551     10.7688     12.2342     44.4061    -38.6154      9.1363      8.2374    112.6059    122.7633  
  1080.5000      2.4766      0.0894    103.7405     10.7749     11.6779     44.1328    -38.3709      9.2007      8.2674    112.3900    121.9913  
  1081.0000      2.4819      0.0811    103.1767     10.7762     10.8292     43.6185    -37.9443      9.2954      8.3353    111.6668    121.1453  
  1081.5000      2.4657      0.0672    101.7452     10.7675     10.2489     43.6938    -37.5278      9.4057      8.4083    110.6814    120.3542  
  1082.0000      2.4548      0.0573     98.9201     10.7543     11.2289     43.1005    -37.3096      9.5371      8.6504    109.1202    118.7281  
  1082.5000      2.4436      0.0483     98.5019     10.7692     12.0765     41.8994    -37.2201      9.7057      8.8944    106.9442    118.1518  
  1083.0000      2.4449      0.0474     99.5733     10.7378     12.6573     40.7746    -37.2947      9.8315      9.1384    104.3550    118.0350  
  1083.5000      2.4522      0.0553    101.6972     10.7231     12.6005     39.5656    -37.4812      9.9572      9.3824    101.9610    117.7742  
  1084.0000      2.4655      0.0520    103.5031     10.7027     12.0519     38.0428    -37.6171      9.9982      9.6263     99.5686    116.9395  
  1084.5000      2.4503      0.0438    103.7290     10.7056     11.1423     37.0319    -37.6881     10.0004      9.8703     97.2047    116.3530  
  1085.0000      2.4540      0.0429    102.4860     10.7729     12.2446     36.2507    -37.5747     10.0026     10.1143     95.0107    116.1311  
  1085.5000      2.4596      0.0417    100.9344     10.8719     11.9648     36.0867    -37.4612     10.0048     10.1844     94.6659    116.0394  
  1086.0000      2.4611      0.0373     99.1546     10.9523     12.0119     35.8361    -37.4277     10.0070     10.1838     94.9265    116.1364  
  1086.5000      2.4606      0.0397     97.3305     11.0435     12.1744     35.5854    -37.5367     10.0092     10.1833     95.1871    116.3251  
