~VERSION INFORMATION
 VERS.                           2.00:        CWLS LOG ASCII STANDARD - VERSION 2.00
 WRAP.                             NO:        ONE LINE PER DEPTH STEP
~WELL INFORMATION
#MNEM.UNIT                   DATA             INFORMATION
#----------             --------------        ------------------------------
 STRT.F                       75.0000:        START DEPTH
 STOP.F                     2534.0000:        STOP DEPTH
 STEP.F                        0.5000:        STEP VALUE
 NULL.                      -999.2500:        NULL VALUE
 COMP.                      HUSKY OIL:        COMPANY  
 LOC .                   14  22N  18W:        LOCATION   
 DATE.                       12/20/76:        LOG DATE 
 WELL.               SOUTH BARROW #13:        WELL     
 UWI .                   500232000800:        UNIQUE WELL ID 
 API .                   500232000800:        UNIQUE WELL IDENTIFIER 
 FLD .                   SOUTH BARROW:        FIELD    
 CNTY.                    NORTH SLOPE:        COUNTY  
 STAT.                         ALASKA:        STATE   
 CTRY.                            USA:        COUNTRY 
 OPER.                      HUSKY OIL:        OPERATOR  
 SRVC.                   SCHLUMBERGER:        SERVICE COMPANY 
 LAT .                         0.0000:        LATITUDE
 LON .                         0.0000:        LONGITUDE
 DIGS.               CENTER LINE DATA:        DIGITIZING COMPANY 
~CURVE INFORMATION      
#MNEM        .UNIT         API CODE           CURVE DESCRIPTION
#-----------------      --------------        ------------------------------
 DEPT        .F                      :        1  DEPTH
 SP          .MV                     :        2  
 ILD         .OHMM                   :        3  
 LL8         .OHMM                   :        4  
 CILD        .MMHO                   :        5  
 ILM         .OHMM                   :        6  
 GR          .GAPI                   :        7  
 CALI        .IN                     :        8  
 DRHO        .G/C3                   :        9  
 RHOB        .G/C3                   :        10 
 NPHI        .%                      :        11 
 DPHI        .%                      :        12 
 DT          .US/F                   :        13 
~PARAMETER INFORMATION       
#MNEM.UNIT                  VALUE             DESCRIPTION OF MNEMONIC
#---------             ---------------        ------------------------------
 EKB .F                       40.0000:        KELLY BUSHING
 TD  .F                     1139.0000:        TOTAL DEPTH
 BHT .F                        0.0000:        BOTTOM HOLE TEMPERATURE
 BS  .                        14.7500:        BIT SIZE
 FD  .                        10.3000:        FLUID DENSITY
 CSIZ.                        20.0000:        CASING SIZE
 CBD .F                       65.0000:        CASING DRILLER 1
 CBL .F                       75.0000:        CASING LOGGER 1
 DFT .                  Miscellaneous:        TYPE FLUID IN HOLE
 DFV .                        34.0000:        VISCOSITY
 DFPH.                         8.5000:        PH
 DFL .                        10.2000:        FLUID LOSS
 RMS .                         5.3200:        RM
 MST .F                       55.0000:        RM MEAS. TEMP.
 RMF .                         3.8000:        RMF
 MFST.F                       55.0000:        RMF MEAS. TEMP.
 RMC .                         6.0000:        RMC
 MCST.F                       55.0000:        RMC MEAS. TEMP.
~OTHER INFORMATION
~A    DEPTH          SP         ILD         LL8        CILD         ILM          GR        CALI        DRHO        RHOB        NPHI        DPHI          DT  
# ...
  1146.0000   -999.2500   -999.2500   -999.2500   -999.2500   -999.2500   -999.2500   -999.2500   -999.2500   -999.2500   -999.2500   -999.2500   -999.2500  
  1146.5000   -999.2500   -999.2500   -999.2500   -999.2500   -999.2500   -999.2500   -999.2500   -999.2500   -999.2500   -999.2500   -999.2500   -999.2500  
  1147.0000   -999.2500   -999.2500   -999.2500   -999.2500   -999.2500   -999.2500   -999.2500   -999.2500   -999.2500   -999.2500   -999.2500   -999.2500  
  1147.5000   -999.2500   -999.2500   -999.2500   -999.2500   -999.2500   -999.2500   -999.2500   -999.2500   -999.2500   -999.2500   -999.2500   -999.2500  
  1148.0000   -999.2500   -999.2500   -999.2500   -999.2500   -999.2500   -999.2500   -999.2500   -999.2500   -999.2500   -999.2500   -999.2500   -999.2500  
  1148.5000   -999.2500   -999.2500   -999.2500   -999.2500   -999.2500   -999.2500   -999.2500   -999.2500   -999.2500   -999.2500   -999.2500   -999.2500  
  1149.0000   -999.2500   -999.2500   -999.2500   -999.2500   -999.2500   -999.2500   -999.2500   -999.2500   -999.2500   -999.2500   -999.2500   -999.2500  
  1149.5000   -999.2500   -999.2500   -999.2500   -999.2500   -999.2500   -999.2500   -999.2500   -999.2500   -999.2500   -999.2500   -999.2500   -999.2500  
  1150.0000   -999.2500   -999.2500   -999.2500   -999.2500   -999.2500   -999.2500   -999.2500   -999.2500   -999.2500   -999.2500   -999.2500   -999.2500  
  1150.5000   -999.2500   -999.2500   -999.2500   -999.2500   -999.2500   -999.2500   -999.2500   -999.2500   -999.2500   -999.2500   -999.2500   -999.2500  
  1151.0000   -999.2500   -999.2500   -999.2500   -999.2500   -999.2500   -999.2500   -999.2500   -999.2500   -999.2500   -999.2500   -999.2500   -999.2500  
  1151.5000   -999.2500   -999.2500   -999.2500   -999.2500   -999.2500   -999.2500   -999.2500   -999.2500   -999.2500   -999.2500   -999.2500   -999.2500  
  1152.0000   -999.2500   -999.2500   -999.2500   -999.2500   -999.2500   -999.2500   -999.2500   -999.2500   -999.2500   -999.2500   -999.2500   -999.2500  
  1152.5000   -999.2500   -999.2500   -999.2500   -999.2500   -999.2500   -999.2500   -999.2500   -999.2500   -999.2500   -999.2500   -999.2500   -999.2500  
  1153.0000   -999.2500   -999.2500   -999.2500   -999.2500   -999.2500   -999.2500   -999.2500   -999.2500   -999.2500   -999.2500   -999.2500   -999.2500  
  1153.5000   -999.2500   -999.2500   -999.2500   -999.2500   -999.2500   -999.2500   -999.2500   -999.2500   -999.2500   -999.2500   -999.2500   -999.2500  
  1154.0000   -999.2500   -999.2500   -999.2500   -999.2500   -999.2500   -999.2500   -999.2500   -999.2500   -999.2500   -999.2500   -999.2500   -999.2500  
  1154.5000   -999.2500   -999.2500   -999.2500   -999.2500   -999.2500   -999.2500   -999.2500   -999.2500   -999.2500   -999.2500   -999.2500   -999.2500  
  1155.0000   -999.2500   -999.2500   -999.2500   -999.2500   -999.2500   -999.2500   -999.2500   -999.2500   -999.2500   -999.2500   -999.2500   -999.2500  
  1155.5000   -999.2500   -999.2500   -999.2500   -999.2500   -999.2500   -999.2500   -999.2500   -999.2500   -999.2500   -999.2500   -999.2500   -999.2500  
  1156.0000   -999.2500   -999.2500   -999.2500   -999.2500   -999.2500   -999.2500   -999.2500   -999.2500   -999.2500   -999.2500   -999.2500   -999.2500  
  1156.5000   -999.2500   -999.2500   -999.2500   -999.2500   -999.2500   -999.2500   -999.2500   -999.2500   -999.2500   -999.2500   -999.2500   -999.2500  
  1157.0000    -50.9673      4.1667     11.9760   -999.2500      6.8546     42.7660     13.7439      0.0471      2.3306     41.4507     17.3574    127.0467  
  1157.5000    -50.9071      9.7975     12.7931   -999.2500     11.9619     43.0443     10.9015      0.0306      2.3431     39.5544     16.5948    119.5266  
  1158.0000    -50.9737     20.2028     13.0658   -999.2500     14.4972     43.3370     10.1320      0.0426      2.3847     38.5800     17.1826    117.0887  
  1158.5000    -50.4370     30.3687     13.2839   -999.2500     21.1801     43.2104     10.1045      0.0152      2.3858     37.7738     16.1851    115.1875  
  1159.0000    -50.1160     17.7479     14.1479   -999.2500     14.3989     42.7218     10.4590      0.0037      2.3836     37.0982     14.9639    114.1479  
  1159.5000    -49.8481     12.7972     14.9366   -999.2500     10.4075     41.8818     11.2881      0.0139      2.3985     37.2445     12.2801    114.2470  
  1160.0000    -49.7762     11.1223     14.3450   -999.2500     10.1222     41.3898     13.0260      0.0327      2.4237     36.9531     11.8852    115.1660  
  1160.5000    -49.8138      6.1028     13.3361   -999.2500      9.8447     41.3661     15.2268      0.0522      2.4587     36.3635     12.5319    117.0329  
  1161.0000    -49.8868      8.0410     12.9098   -999.2500      9.6172     41.7589     16.1923      0.0547      2.4572     35.6431     13.5056    117.3070  
  1161.5000    -49.6520     13.2086     12.8325   -999.2500     11.2125     42.3539     16.2973      0.0368      2.4520     35.3395     14.3086    115.8734  
  1162.0000    -49.3454    198.4609     12.9295   -999.2500     13.0193     43.0201     16.2625      0.0215      2.4285     35.1833     13.0219    114.2894  
  1162.5000    -49.2282     34.1583     13.3674   -999.2500     12.7351     43.9875     16.3656      0.0194      2.4337     34.9884     12.4432    112.3359  
  1163.0000    -49.1550     10.6099     13.8969   -999.2500     11.9061     44.7766     16.5529      0.0295      2.4502     35.1783     12.8135    111.9061  
  1163.5000    -49.6918     10.2403     13.6921   -999.2500     11.1310     45.3100     15.0843      0.0369      2.4536     37.0590     13.1093    112.1591  
  1164.0000    -50.2674      9.8835     12.8587   -999.2500     10.4064     45.5326     12.3371      0.0273      2.4481     39.4248     13.8847    113.2530  
  1164.5000    -49.5216      9.5392     12.2780   -999.2500     10.0545     45.8969     10.9003      0.0294      2.4417     40.2029     15.0284    114.8190  
  1165.0000    -48.4533      9.2147     11.7682   -999.2500      9.8869     46.2613     10.7347      0.0288      2.4281     40.1822     14.2062    115.8644  
  1165.5000    -47.6631      9.6389     11.6280   -999.2500     10.0019     46.6256     10.5692      0.0282      2.4196     39.4577     13.6854    117.8009  
  1166.0000    -46.9964      9.9625     11.5022   -999.2500     10.0234     46.9900     10.4343      0.0237      2.4300     39.6769     13.3516    119.6501  
  1166.5000    -46.7516     10.0062     11.2680   -999.2500      9.9916     47.3543     10.4074      0.0170      2.4367     41.8724     13.8896    120.1722  
  1167.0000    -46.9101      9.9177     11.3346   -999.2500      9.9248     47.6405     10.3842      0.0161      2.4382     40.2786     14.2687    119.7320  
  1167.5000    -47.5160     10.0434     11.9102   -999.2500      9.8584     47.5197     10.4362      0.0164      2.4309     38.4975     14.1713    118.8170  
  1168.0000    -47.8582      9.9693     12.0747   -999.2500      9.7924     46.7887     10.5114      0.0111      2.4301     38.1211     14.5515    116.4811  
  1168.5000    -46.9768      9.8856     12.0395   -999.2500      9.7350     46.3057     10.5865      0.0088      2.4253     38.2219     15.1801    116.0164  
  1169.0000    -44.8967      9.8576     12.1557   -999.2500      9.7373     45.9122     10.6564      0.0076      2.4197     38.2644     15.7641    116.1856  
  1169.5000    -43.7888      9.8145     11.9487   -999.2500      9.7379     45.5187     10.6834      0.0071      2.4078     37.7225     15.5709    116.4696  
  1170.0000    -43.4992      9.8235     11.6349   -999.2500      9.7297     45.3456     10.6422      0.0101      2.3982     37.7120     14.8557    116.9498  
  1170.5000    -43.3435      9.8345     11.6056   -999.2500      9.7215     45.7704     10.5787      0.0231      2.4104     38.1457     13.3541    116.0333  
  1171.0000    -43.9101      9.8869     11.9335   -999.2500      9.8138     46.1744     10.5633      0.0373      2.4227     38.0566     13.8197    115.1871  
