~VERSION INFORMATION
 VERS.                           2.00:        CWLS LOG ASCII STANDARD - VERSION 2.00
 WRAP.                             NO:        ONE LINE PER DEPTH STEP
~WELL INFORMATION
#MNEM.UNIT                   DATA             INFORMATION
#----------             --------------        ------------------------------
 STRT.F                      999.0000:        START DEPTH
 STOP.F                     2350.0000:        STOP DEPTH
 STEP.F                        0.5000:        STEP VALUE
 NULL.                      -999.2500:        NULL VALUE
 COMP.             UNITED STATES NAVY:        COMPANY  
 LOC .                   14  22N  18W:        LOCATION   
 DATE.                        3/19/68:        LOG DATE 
 WELL.                SOUTH BARROW #7:        WELL     
 UWI .                   500232000100:        UNIQUE WELL ID 
 API .                   500232000100:        UNIQUE WELL IDENTIFIER 
 FLD .                   SOUTH BARROW:        FIELD    
 CNTY.                         NPR #4:        COUNTY  
 STAT.                         ALASKA:        STATE   
 CTRY.                            USA:        COUNTRY 
 OPER.             UNITED STATES NAVY:        OPERATOR  
 SRVC.                   SCHLUMBERGER:        SERVICE COMPANY 
 LAT .                         0.0000:        LATITUDE
 LON .                         0.0000:        LONGITUDE
 DIGS.               CENTER LINE DATA:        DIGITIZING COMPANY 
~CURVE INFORMATION      
#MNEM        .UNIT         API CODE           CURVE DESCRIPTION
#-----------------      --------------        ------------------------------
 DEPT        .F                      :        1  DEPTH
 SP          .MV                     :        2  
 ILD         .OHMM                   :        3  
 ASN         .OHMM                   :        4  
 CILD        .OHMM                   :        5  
 CALI        .IN                     :        6  
 DT          .US/F                   :        7  
~PARAMETER INFORMATION       
#MNEM.UNIT                  VALUE             DESCRIPTION OF MNEMONIC
#---------             ---------------        ------------------------------
 EKB .F                       36.0000:        KELLY BUSHING
 TD  .F                     2351.0000:        TOTAL DEPTH
 BHT .F                        0.0000:        BOTTOM HOLE TEMPERATURE
 BS  .                         9.6250:        BIT SIZE
 FD  .                        76.5000:        FLUID DENSITY
 CSIZ.                        10.7500:        CASING SIZE
 CBD .F                      998.0000:        CASING DRILLER 1
 CBL .F                      999.0000:        CASING LOGGER 1
 DFT .                            Gel:        TYPE FLUID IN HOLE
 DFV .                        45.0000:        VISCOSITY
 DFPH.                         9.5000:        PH
 DFL .                         7.0000:        FLUID LOSS
 RMS .                         5.4300:        RM
 MST .F                       42.0000:        RM MEAS. TEMP.
 RMF .                         5.1700:        RMF
 MFST.F                       59.0000:        RMF MEAS. TEMP.
 RMC .                         5.0900:        RMC
 MCST.F                       56.0000:        RMC MEAS. TEMP.
~OTHER INFORMATION
~A    DEPTH          SP         ILD         ASN        CILD        CALI          DT  
# ...
  1892.0000    -21.4444     13.0166     13.4210     80.9066      9.7303     98.4567  
  1892.5000    -21.2027     12.9403     13.2592     81.0146      9.7242     98.4547  
  1893.0000    -20.5344     12.8640     13.1766     81.3301      9.7004     98.5265  
  1893.5000    -20.2278     12.7878     13.0864     81.9317      9.6840     98.2746  
  1894.0000    -20.3256     12.7115     12.9357     83.0630      9.6596     97.8978  
  1894.5000    -20.4830     12.6353     12.8192     83.8549      9.6257     98.7310  
  1895.0000    -20.7117     12.4895     12.6536     84.5955      9.5918     99.6990  
  1895.5000    -20.7550     12.3117     12.5181     85.2410      9.5579    100.6001  
  1896.0000    -20.5823     12.1340     12.3571     86.2645      9.5306    101.2030  
  1896.5000    -20.0395     11.9562     12.1797     87.7281      9.5204    101.4636  
  1897.0000    -19.7979     11.7785     12.0008     89.7037      9.5247    101.9662  
  1897.5000    -19.8014     11.6007     11.7891     91.3354      9.5290    102.5600  
  1898.0000    -19.7705     11.4229     11.5965     93.2503      9.5332    103.4540  
  1898.5000    -19.7379     11.2452     11.3916     94.5134      9.5375    104.7563  
  1899.0000    -19.7053     11.0674     11.3617     94.9146      9.5440    105.4643  
  1899.5000    -19.6728     10.8897     11.3448     94.8071      9.5608    106.0048  
  1900.0000    -19.6402     10.7119     11.3279     94.3845      9.6218    105.1872  
  1900.5000    -19.6077     10.7363     11.3110     96.3712      9.6828    104.2627  
  1901.0000    -19.5751     10.8033     11.2942     96.6887      9.7098    104.2272  
  1901.5000    -19.5425     10.8703     11.2773     96.6455      9.6806    104.6252  
  1902.0000    -19.5930     10.9372     11.3016     95.4253      9.6822    104.7209  
  1902.5000    -19.6110     11.0042     11.3291     95.0951      9.7018    104.7730  
  1903.0000    -19.5879     11.0712     11.3897     95.2259      9.7103    104.7807  
  1903.5000    -19.5095     10.9790     11.3596     95.8232      9.7136    104.6048  
  1904.0000    -19.1189     10.8545     11.2757     96.1590      9.7203    104.4921  
  1904.5000    -18.4468     10.7299     11.1656     97.0201      9.7295    105.2711  
  1905.0000    -18.1803     10.6054     10.9857     97.9074      9.7438    106.4769  
  1905.5000    -18.1366     10.4809     10.7938     98.6212      9.7324    107.6344  
  1906.0000    -18.2384     10.3563     10.6369     99.1519      9.7379    108.5705  
  1906.5000    -18.5655     10.2318     10.6009     99.9930      9.7327    108.9084  
  1907.0000    -19.1061     10.1118     10.5784    101.0439      9.7209    108.4228  
  1907.5000    -19.2999     10.0859     10.6118    102.2069      9.7151    108.0102  
  1908.0000    -19.1395     10.0600     10.5679    103.2858      9.7247    107.8263  
  1908.5000    -18.8207     10.0341     10.4723    103.5027      9.7552    107.8748  
  1909.0000    -18.5783     10.0082     10.4282    103.8501      9.7813    108.1099  
  1909.5000    -18.4470      9.9823     10.3865    104.2192      9.8075    108.1373  
  1910.0000    -18.4456      9.9564     10.3175    105.7533      9.8336    108.4373  
  1910.5000    -18.5053      9.9305     10.2474    105.6660      9.8556    108.8391  
  1911.0000    -18.5205      9.9045     10.2233    106.3962      9.8290    108.9053  
  1911.5000    -18.7239      9.8786     10.2556    106.8604      9.8102    108.7853  
  1912.0000    -18.8917      9.8527     10.2036    107.0076      9.8050    109.2028  
  1912.5000    -19.0745      9.8268     10.1309    106.9263      9.8073    109.8831  
  1913.0000    -19.4654      9.8009     10.1731    106.5899      9.7837    110.0245  
  1913.5000    -19.5993      9.7750     10.2377    106.3873      9.7752    110.0397  
  1914.0000    -19.1412      9.7491     10.5102    105.9152      9.7830    110.2302  
  1914.5000    -19.0333      9.9063     10.8920    105.1193      9.7839    108.9566  
  1915.0000    -19.1619     10.0937     11.0703    103.4811      9.7383    107.8412  
  1915.5000    -19.8746     10.2811     11.2497    101.8875      9.7023    108.1707  
  1916.0000    -19.9350     10.3998     11.4292    100.5720      9.7338    111.6217  
  1916.5000    -19.9071     10.4351     11.6086     99.2660      9.7719    121.9691  
  1917.0000    -19.6842     10.4516     11.5399     97.9599      9.7553    107.2393  
  1917.5000    -19.9749     10.3575     11.2395     98.2215      9.7008    107.1621  
  1918.0000    -20.7341     10.2634     10.9880     99.1654      9.6785    106.8178  
  1918.5000    -21.3605     10.1694     11.2790    100.4101      9.6807    106.2507  
  1919.0000    -21.3974     10.0753     11.3580    101.3149      9.7076    105.3635  
  1919.5000    -21.5049      9.9812     11.1137    102.8387      9.7526    107.0131  
  1920.0000    -21.5801      9.8872     10.6024    105.3030      9.7732    107.5050  
  1920.5000    -21.6089      9.7931     10.2504    106.2452      9.7093    108.0903  
  1921.0000    -21.6342      9.7480     10.1698    106.4912      9.6766    108.1288  
  1921.5000    -21.7647      9.7384     10.2228    106.7043      9.6730    107.6419  
  1922.0000    -21.8564      9.7524     10.3030    106.5401      9.6708    106.4341  
  1922.5000    -21.7756      9.7914     10.3832    105.5744      9.6904    105.9418  
  1923.0000    -21.3535      9.8305     10.4634    104.1349      9.7459    106.2218  
  1923.5000    -20.7924      9.8695     10.5436    103.3019      9.7899    107.0392  
  1924.0000    -20.5325      9.9086     10.6238    103.7226      9.7879    107.1210  
  1924.5000    -20.4730      9.9390     10.6664    103.8349      9.7780    106.9919  
  1925.0000    -20.4623      9.8895     10.6570    104.3507      9.7744    106.4857  
  1925.5000    -20.4398      9.8400     10.6476    105.0229      9.7718    106.1799  
  1926.0000    -20.4558      9.7906     10.6382    105.8284      9.7658    106.0155  
  1926.5000    -20.4304      9.7411     10.6288    106.5887      9.7738    106.0660  
  1927.0000    -20.2454      9.6916     10.6194    107.4745      9.7977    106.2617  
  1927.5000    -19.9879      9.6422     10.6100    107.8034      9.8210    106.3962  
  1928.0000    -19.7304      9.5927     10.6006    107.5378      9.8118    107.2470  
  1928.5000    -19.8632      9.5433     10.5912    107.4438      9.7987    108.1304  
  1929.0000    -20.0813      9.4938     10.7005    106.9904      9.7801    109.5309  
  1929.5000    -20.5741      9.4443     10.9301    106.0191      9.7809    109.4008  
  1930.0000    -20.7264      9.9378     11.3253    103.8018      9.7986    106.7108  
  1930.5000    -20.5415     10.4380     11.7205     99.7602      9.7992    106.9981  
  1931.0000    -20.7274     10.9636     12.2251     95.8472      9.7772    109.6327  
  1931.5000    -20.7568     11.3635     12.7557     92.6165      9.7773    121.7946  
  1932.0000    -20.4452     11.5255     13.1659     91.3528      9.7823    119.5387  
  1932.5000    -21.1214     11.6174     13.1234     90.4084      9.7827    106.9422  
  1933.0000    -21.8702     11.7157     12.9553     89.7627      9.7882    106.5978  
  1933.5000    -22.0087     11.7534     13.3760     89.4450      9.7755    106.6602  
  1934.0000    -21.7201     11.6275     13.4529     90.3669      9.7439    107.9004  
  1934.5000    -21.5522     11.3696     13.0648     92.7781      9.6620    103.1275  
  1935.0000    -21.4171     10.6246     12.4028     96.8410      9.5591    104.1170  
  1935.5000    -21.4289     10.1617     11.8607    100.6162      9.5342    107.6551  
  1936.0000    -21.6267      9.9779     11.3996    104.2102      9.5221    117.6656  
  1936.5000    -21.9472      9.8463     11.1671    106.2324      9.5261    116.5194  
  1937.0000    -21.9693      9.7059     11.0237    107.4480      9.5422    108.8625  
  1937.5000    -21.8872      9.5654     10.9252    108.8011      9.5974    107.9289  
  1938.0000    -21.7557      9.4249     10.8267    110.0951      9.6684    107.8644  
  1938.5000    -21.4779      9.2845     10.7360    111.4277      9.7395    108.1660  
