~VERSION INFORMATION
 VERS.                           2.00:        CWLS LOG ASCII STANDARD - VERSION 2.00
 WRAP.                             NO:        ONE LINE PER DEPTH STEP
~WELL INFORMATION
#MNEM.UNIT                   DATA             INFORMATION
#----------             --------------        ------------------------------
 STRT.F                      152.0000:        START DEPTH
 STOP.F                     2285.0000:        STOP DEPTH
 STEP.F                        0.5000:        STEP VALUE
 NULL.                      -999.2500:        NULL VALUE
 COMP.                      U.S. NAVY:        COMPANY  
 LOC .                   26  22N  17W:        LOCATION   
 DATE.                         4/1/74:        LOG DATE 
 WELL.            SOUTH BARROW NO. 12:        WELL     
 UWI .                   500232000600:        UNIQUE WELL ID 
 API .                   500232000600:        UNIQUE WELL IDENTIFIER 
 FLD .                   SOUTH BARROW:        FIELD    
 CNTY.                         NPPR-4:        COUNTY  
 STAT.                         ALASKA:        STATE   
 CTRY.                            USA:        COUNTRY 
 OPER.                      U.S. NAVY:        OPERATOR  
 SRVC.                   SCHLUMBERGER:        SERVICE COMPANY 
 LAT .                         0.0000:        LATITUDE
 LON .                         0.0000:        LONGITUDE
 DIGS.               CENTER LINE DATA:        DIGITIZING COMPANY 
~CURVE INFORMATION      
#MNEM        .UNIT         API CODE           CURVE DESCRIPTION
#-----------------      --------------        ------------------------------
 DEPT        .F                      :        1  DEPTH
 RHOB        .G/C3                   :        2  
 DRHO        .G/C3                   :        3  
 GR          .GAPI                   :        4  
 CALI        .IN                     :        5  
 DPHI        .%                      :        6  
 NPHI        .%                      :        7  
 SP          .MV                     :        8  
 ALL8        .OHMM                   :        9  
 ILD         .OHMM                   :        10 
 CILD        .MMHO                   :        11 
 DT          .US/F                   :        12 
~PARAMETER INFORMATION       
#MNEM.UNIT                  VALUE             DESCRIPTION OF MNEMONIC
#---------             ---------------        ------------------------------
 EKB .F                       26.0000:        KELLY BUSHING
 TD  .F                     2285.0000:        TOTAL DEPTH
~OTHER INFORMATION
~A    DEPTH        RHOB        DRHO          GR        CALI        DPHI        NPHI          SP        ALL8         ILD        CILD          DT  
# ...
  1554.5000      2.5177      0.0291     98.4460     10.8255      7.6924     41.6305    -32.2176     10.1928      9.8136     95.2799    104.2059  
  1555.0000      2.5036      0.0270     99.6493     10.8824      8.2341     41.1704    -32.2713     10.1923      9.6811     96.3287    103.8380  
  1555.5000      2.5031      0.0433    100.7768     10.8786      9.0327     41.7770    -32.3096     10.1918      9.5866     97.4848    105.2140  
  1556.0000      2.5142      0.0658    100.5886     10.8629      9.6143     42.3837    -32.4444     10.1914      9.4985     98.6787    107.3064  
  1556.5000      2.5226      0.0597     99.2510     10.8853      8.5687     42.8110    -32.7910     10.1909      9.4105     99.6438    109.1320  
  1557.0000      2.5233      0.0477     98.8271     10.8200      8.0247     42.0081    -32.9542     10.1904      9.3225    100.6089    109.8172  
  1557.5000      2.5228      0.0357     99.5286     10.8227      7.9485     40.5402    -32.8216     10.1900      9.2345    101.5741    109.4985  
  1558.0000      2.5037      0.0282    102.3592     10.9063      8.3632     39.9722    -32.5922     10.1895      9.1465    102.5392    107.9564  
  1558.5000      2.4883      0.0357    104.8911     10.9725      9.0581     40.8313    -32.4211     10.1890      9.1625    103.5043    106.9603  
  1559.0000      2.4894      0.0490    104.7155     10.8731      9.9100     43.1266    -32.7861     10.1886      9.2188    104.3803    107.0580  
  1559.5000      2.5050      0.0617    103.7354     10.8245      9.9986     45.1467    -33.2890     10.1881      9.2744    103.6140    108.0084  
  1560.0000      2.4975      0.0285    101.9033     10.8147      9.1291     45.5050    -33.4630     10.1876      9.2598    102.8478    108.9541  
  1560.5000      2.4914      0.0146    101.1344     10.8010      9.4350     43.8210    -33.3441     10.1872      9.1962    103.7951    108.3731  
  1561.0000      2.4916      0.0294    100.9070     10.6704      9.8279     42.5969    -33.1426     10.1867      9.1878    104.7809    107.8616  
  1561.5000      2.4772      0.0401     98.6016     10.6890      9.7944     42.6606    -32.9980     10.1862      9.2715    103.7390    108.2651  
  1562.0000      2.4500      0.0325     94.1615     10.6829     10.6944     41.6414    -33.2017     10.1858      9.6275    101.1073    109.3564  
  1562.5000      2.4404      0.0197     90.4201     10.6768     12.5517     39.5876    -33.3609     10.3491     10.0919     97.6502    110.0217  
  1563.0000      2.4501      0.0186     88.8228     10.7062     12.8252     36.0696    -33.1297     11.1926     10.7562     89.3553    108.9110  
  1563.5000      2.4786      0.0456     88.4545     10.7356     12.1841     34.5083    -32.9030     12.0361     11.3576     84.2674    105.4263  
  1564.0000      2.4667      0.0393     92.3951     10.7625     10.1979     32.9470    -33.0375     12.8796     11.8516     80.5379    101.8246  
  1564.5000      2.4388      0.0354     97.7298     10.7535     11.2129     33.8752    -33.4499     13.4741     12.3456     78.5762    101.6306  
  1565.0000      2.4209      0.0375    103.1266     10.6396     12.9222     35.4522    -33.8519     13.7115     12.5258     76.6788    105.0352  
  1565.5000      2.4214      0.0433    103.8722     10.5320     13.9841     37.4242    -34.0722     13.5215     12.5251     74.8922    109.2666  
  1566.0000      2.4319      0.0474    104.2442     10.4793     14.0613     38.8107    -34.0543     13.1776     12.3610     73.1056    112.4127  
  1566.5000      2.4352      0.0420    105.0191     10.4354     13.3014     37.5471    -34.0786     12.6096     12.1504     73.4494    112.4575  
  1567.0000      2.4318      0.0330    108.5792     10.4637     13.2190     36.9525    -34.1309     12.0132     11.9043     76.4299    110.8541  
  1567.5000      2.4319      0.0320    108.8724     10.4816     13.5560     37.1617    -34.0542     11.6253     11.6583     79.3449    109.2969  
  1568.0000      2.4239      0.0254    105.9465     10.4994     13.1241     38.8086    -33.9356     11.4033     11.4185     82.4680    108.5814  
  1568.5000      2.4068      0.0327    100.5618     10.5173     13.9398     41.2310    -33.9566     11.4208     11.4889     83.4265    109.3872  
  1569.0000      2.3953      0.0311     93.4997     10.5371     14.8640     44.1670    -34.0318     11.7308     11.8108     81.0273    110.1824  
  1569.5000      2.3745      0.0219     86.7593     10.5721     15.5465     44.8562    -34.1986     12.2546     12.2960     76.9891    110.8327  
  1570.0000      2.3722      0.0230     84.9032     10.6449     16.6000     41.6534    -34.4087     13.0732     12.8218     72.9992    111.7592  
  1570.5000      2.3830      0.0381     91.6613     10.7301     16.9116     37.6284    -34.5810     14.1758     13.3476     70.6154    112.3916  
  1571.0000      2.4002      0.0521    100.6986     10.7952     16.3492     37.3786    -34.8084     15.1862     13.2709     70.8682    111.6240  
  1571.5000      2.4070      0.0505    103.6506     10.7642     15.4211     38.5421    -35.0681     15.6997     13.1246     71.7485    110.9756  
  1572.0000      2.4143      0.0444    102.8672     10.6746     14.9725     39.6641    -34.9366     14.9212     13.0846     72.2272    109.9315  
  1572.5000      2.4221      0.0428    100.2578     10.6167     14.5737     40.7860    -34.7716     13.9695     12.8640     72.5546    108.5394  
  1573.0000      2.4275      0.0505     98.2260     10.6545     14.1753     39.6390    -34.6078     13.0571     12.6253     73.9199    109.1799  
  1573.5000      2.4250      0.0583     96.3999     10.6061     13.4831     39.2080    -34.3297     12.1509     12.1812     78.0561    110.6877  
  1574.0000      2.4188      0.0546     93.2203     10.5552     13.7966     39.4780    -33.9479     11.5728     11.6490     83.0771    111.5243  
  1574.5000      2.4046      0.0504     88.3825     10.5922     14.0993     39.6413    -34.1972     11.4933     11.0646     87.6881    112.5092  
  1575.0000      2.3873      0.0461     78.5168     10.6219     14.8154     39.7369    -34.3064     11.8814     10.7065     88.7871    111.3443  
  1575.5000      2.3742      0.0582     69.0721     10.8723     15.8326     39.8324    -34.5574     12.5325     11.1149     86.8568    107.8452  
  1576.0000      2.3609      0.0807     61.4635     11.6411     16.6219     38.2153    -34.8685     14.0651     11.9040     82.9244    105.8035  
  1576.5000      2.3188      0.0565     60.0119     12.2782     17.4754     36.3815    -35.6711     16.8578     13.9537     72.8538    104.7309  
  1577.0000      2.2973      0.0278     60.3254     11.9568     19.3893     34.1377    -36.6196     20.1782     16.0035     62.2346    104.0301  
  1577.5000      2.2989      0.0321     62.1129     11.5532     21.6481     31.5433    -37.6998     25.5405     19.1716     50.5523    104.0188  
  1578.0000      2.3015      0.0417     65.3773     11.5122     21.6412     30.8853    -38.2009     29.6585     23.8170     42.4513    104.9537  
  1578.5000      2.3063      0.0514     68.8665     11.4911     21.1294     31.3153    -38.5021     34.4419     28.4968     34.9877    105.9139  
  1579.0000      2.3181      0.0743     73.9780     11.5487     20.8438     32.0910    -38.7849     38.5786     33.1767     26.6240    106.7516  
  1579.5000      2.3526      0.0976     81.0135     11.6217     20.2336     33.9460    -38.8728     39.9383     37.8565     22.4212    106.7170  
  1580.0000      2.3642      0.0592     89.6359     11.5648     18.3893     36.2666    -38.8665     36.7519     39.6771     21.4956    105.6276  
  1580.5000      2.3834      0.0359     95.8371     11.2806     17.4226     38.3991    -38.6607     33.3484     33.9927     24.1964    104.6050  
  1581.0000      2.4276      0.0536     96.9053     10.6478     16.7334     38.9495    -38.1010     25.8802     28.4312     30.6129    104.2756  
  1581.5000      2.4302      0.0468     95.6178     10.3628     13.7821     39.4733    -37.3518     21.8270     23.1598     38.9345    104.4249  
