~VERSION INFORMATION
 VERS.                           2.00:        CWLS LOG ASCII STANDARD - VERSION 2.00
 WRAP.                             NO:        ONE LINE PER DEPTH STEP
~WELL INFORMATION
#MNEM.UNIT                   DATA             INFORMATION
#----------             --------------        ------------------------------
 STRT.F                      151.0000:        START DEPTH
 STOP.F                     2726.0000:        STOP DEPTH
 STEP.F                        0.5000:        STEP VALUE
 NULL.                      -999.2500:        NULL VALUE
 COMP.                      U.S. NAVY:        COMPANY  
 WELL.                     IKO BAY #1:        WELL     
 FLD .                        WILDCAT:        FIELD    
 LOC .                   16  21N  16W:        LOCATION   
 CNTY.                    NORTH SLOPE:        COUNTY  
 STAT.                         ALASKA:        STATE   
 CTRY.                            USA:        COUNTRY 
 DATE.                         2/8/75:        LOG DATE 
 API .                   502790000000:        UNIQUE WELL IDENTIFIER 
 OPER.                      U.S. NAVY:        OPERATOR  
 SRVC.                            440:        SERVICE COMPANY 
 UWI .                   502790000000:        UNIQUE WELL ID 
 LAT .                         0.0000:        LATITUDE
 LON .                         0.0000:        LONGITUDE
 DIGS.                             65:        DIGITIZING COMPANY 
~CURVE INFORMATION      
#MNEM.UNIT                 API CODE           CURVE DESCRIPTION
#---------              --------------        ------------------------------
 DEPT.F                              :        1  DEPTH
 SP  .MV                             :        2
 ILD .OHMM                           :        3
 LL8 .OHMM                           :        4
 ILM .OHMM                           :        5
 RHOB.G/C3                           :        6
 DRHO.G/C3                           :        7
 CALI.IN                             :        8
 GR  .GAPI                           :        9
 NPHI.%                              :       10
 DT  .US/F                           :       11
~PARAMETER INFORMATION       
#MNEM.UNIT                  VALUE             DESCRIPTION OF MNEMONIC
#---------             ---------------        ------------------------------
 EKB .F                        0.0000:        KELLY BUSHING
 TD  .F                     2731.0000:        TOTAL DEPTH
 BHT .F                             0.0000:        BOTTOM HOLE TEMPERATURE
 BS  .                             14.7500:        BIT SIZE
 FD  .                              0.0000:        FLUID DENSITY
 CSIZ.                             16.0000:        CASING SIZE
 CBD .F                           149.0000:        CASING DRILLER 1
 CBL .F                           152.0000:        CASING LOGGER 1
 DFT .                            Gel:        TYPE FLUID IN HOLE
 DFV .                              0.0000:        VISCOSITY
 DFPH.                              0.0000:        PH
 DFL .                              0.0000:        FLUID LOSS
 RMS .                              0.3000:        RM
 MST .F                       49.0000:        RM MEAS. TEMP.
 RMF .                              0.2300:        RMF
 MFST.F                       49.0000:        RMF MEAS. TEMP.
 RMC .                              0.4600:        RMC
 MCST.F                       49.0000:        RMC MEAS. TEMP.
 UWI .                   502790000000:        UNIQUE WELL ID
~OTHER INFORMATION
~A    DEPTH          SP         ILD         LL8         ILM        RHOB        DRHO        CALI          GR        NPHI          DT  
# ...
  1861.0000    -59.0447      7.9719      9.9192      8.2750      2.1824      0.0909     10.5237    103.0328     35.7712    101.1218  
  1861.5000    -59.0577      8.0125     10.4243      8.3201      2.1708      0.0992     10.4309    101.6364     36.1038    101.5521  
  1862.0000    -58.9558      8.0650     10.7566      8.3745      2.1413      0.0959     10.3989    101.1815     36.7933    102.4524  
  1862.5000    -58.6493      8.1177     10.5531      8.4293      2.1852      0.1054     10.3955    100.4735     36.4625    103.2259  
  1863.0000    -58.2853      8.1850     10.5586      8.5281      2.2356      0.1147     10.4867     98.9144     36.3259    103.7461  
  1863.5000    -57.9033      8.3598     11.0310      8.7099      2.2330      0.1245     10.6436     96.7879     36.4585    103.6123  
  1864.0000    -57.4496      8.5382     11.7934      8.8956      2.1920      0.1186     11.1286     95.5506     36.8362    102.8062  
  1864.5000    -57.1070      8.7205     11.8683      9.0851      2.1604      0.1020     11.3014     94.3707     35.5615    101.6696  
  1865.0000    -56.7768      8.9061     11.1178      9.5790      2.1724      0.0805     10.7953     91.7302     34.4876     99.9980  
  1865.5000    -56.6185      9.6301     10.6515     10.3696      2.2101      0.0433     10.7110     86.1268     32.9346     99.0776  
  1866.0000    -56.7288     10.4249     11.4291     11.2256      2.3011      0.0194     10.7534     77.9261     28.7608     99.1131  
  1866.5000    -57.0332     11.2853     14.2663     13.7401      2.3699      0.0116     10.6303     73.1833     22.8069     99.0287  
  1867.0000    -57.3719     11.8442     28.8724     16.3834      2.3664      0.0408     10.1536     72.4755     19.6774     98.4663  
  1867.5000    -57.9814     12.1013     52.0141     17.0110      2.2967      0.0801      9.8822     77.9407     23.2225     98.2046  
  1868.0000    -58.6899     12.3696     37.7140     15.9537      2.2350      0.1306      9.9040     87.2204     28.1645     97.8659  
  1868.5000    -58.4964     12.4553     16.9140     14.5066      2.1902      0.1087      9.9903     97.8487     30.6253     97.6098  
  1869.0000    -57.9140     12.0903     12.5948     13.1907      2.2345      0.1022     10.5107    102.1910     31.2801     97.0281  
  1869.5000    -57.8342     11.5230     13.3069     11.9942      2.2659      0.1141     11.1381    102.6865     30.2245     94.0363  
  1870.0000    -57.8069     10.8041     14.0468     11.1760      2.2532      0.1125     11.4303    102.5590     29.7869     89.2958  
  1870.5000    -57.6805     10.1269     13.8270     10.4942      2.2203      0.1068     10.6170    102.6266     30.4667     84.9064  
  1871.0000    -57.4698      9.4920     12.7486     10.0244      2.2382      0.1069     10.2229    104.2736     30.7924     83.2467  
  1871.5000    -57.3055      9.2221     11.9367      9.6300      2.2553      0.1042     10.2622    104.8296     30.3720     84.0823  
  1872.0000    -57.3636      9.0353     11.4816      9.3914      2.2462      0.0957     10.4323    104.1969     29.7129     88.1090  
  1872.5000    -57.8034      9.0067     11.3330      9.3497      2.2748      0.0641     10.5128    103.6044     29.0731     91.2167  
  1873.0000    -58.0608      8.9781     11.3576      9.3200      2.3277      0.0335     10.6425    103.0120     28.8093     92.6733  
  1873.5000    -57.9498      8.9496     11.2238      9.2905      2.3512      0.0150     11.1823    102.9597     29.3271     93.0871  
  1874.0000    -57.8123      9.0716     11.1428      9.4739      2.3852      0.0333     11.5999    103.2955     29.7955     93.6237  
  1874.5000    -57.6502      9.3306     11.0998      9.7443      2.3980      0.0570     11.0087    103.7217     29.9677     94.6323  
  1875.0000    -57.3691      9.5971     11.3143     10.0225      2.4101      0.0751     10.4648    103.7586     29.0127     95.8616  
  1875.5000    -57.0708      9.8711     11.8936     10.3086      2.3911      0.0904     10.9935    103.3820     28.3808     96.3486  
  1876.0000    -56.8524     10.1530     12.5013     10.6028      2.3676      0.1049     11.6155    102.1961     28.2251     96.3157  
  1876.5000    -56.3119     10.3579     13.1796     10.7649      2.3586      0.0781     12.1356    102.3425     28.3135     95.9704  
  1877.0000    -54.9154     10.4130     13.3632     10.8080      2.3231      0.0453     11.9495    103.6771     29.7905     95.4822  
  1877.5000    -53.6522     10.2365     13.1627     10.0883      2.3561      0.0396     11.6763    105.2054     32.1047     95.1250  
  1878.0000    -54.2515      9.2931     11.9342      8.9561      2.3658      0.0352     11.0816    107.0054     34.3359     94.6682  
  1878.5000    -56.2453      8.3788     10.1438      7.9509      2.3501      0.0364     10.4219    108.9063     37.6842     94.1481  
  1879.0000    -56.9460      7.5050      8.3287      7.0585      2.3409      0.0415     10.5504    109.7214     40.9282     93.7394  
  1879.5000    -56.6729      6.7134      7.2372      6.2664      2.3408      0.0458     10.8417    107.7479     43.0524     92.9235  
  1880.0000    -56.4466      6.0053      6.2888      5.6055      2.3400      0.0484     11.3233    105.7719     44.6471     91.5392  
  1880.5000    -56.3876      5.4800      5.7029      5.1324      2.3466      0.0434     11.9567    104.1698     45.0530     90.6434  
  1881.0000    -56.6262      5.2263      5.4971      4.9918      2.3241      0.0400     11.1014    102.1376     45.0263     90.7486  
  1881.5000    -57.0621      5.0850      5.7238      4.9118      2.3033      0.0251     10.5655     97.8528     43.5061     91.9737  
  1882.0000    -57.2052      5.1315      6.6266      5.0107      2.3197      0.0536     10.4809     92.5530     40.7351     94.6675  
  1882.5000    -57.2110      5.2463      7.5969      5.3724      2.3094      0.0874     10.5166     90.9487     38.1436     99.4303  
  1883.0000    -57.1160      5.4690      7.9322      5.8102      2.2531      0.0996     10.6324     90.3837     36.5131    105.2505  
  1883.5000    -57.1967      5.8517      7.9640      6.2838      2.2326      0.0943     10.6586     89.1506     35.0119    111.6654  
  1884.0000    -57.2649      6.3238      8.2930      6.7959      2.2477      0.1042     10.6116     87.3564     32.0624    115.6545  
  1884.5000    -57.3134      6.8340      9.9315      7.3498      2.3057      0.1267     10.5637     86.1710     28.8125    116.6986  
  1885.0000    -57.5180      7.3853     12.0974      7.8177      2.2943      0.0767     10.4799     87.7551     28.4824    115.1540  
  1885.5000    -57.9491      7.6993     12.0576      8.0480      2.3092      0.0486     10.4759     91.2294     29.8333    111.8356  
  1886.0000    -58.1494      7.9262     10.3333      8.2790      2.3526      0.0476     10.7946     92.6309     30.9576    108.3742  
  1886.5000    -58.1933      8.0613      9.3548      8.3697      2.3795      0.0629     11.0867     93.3648     30.7208    105.4434  
  1887.0000    -58.2916      8.1006      9.8591      8.4106      2.3860      0.0845     11.7585     90.9196     30.0275    103.6252  
  1887.5000    -58.2345      8.1402     10.1452      8.4517      2.3772      0.0774     11.7973     88.4744     30.0032    101.9752  
  1888.0000    -58.0580      8.1799     10.2416      8.4929      2.3323      0.0398     11.6426     86.0293     30.4014     99.2095  
  1888.5000    -58.0683      8.2199     10.3851      8.5324      2.3086      0.0345     11.4443     84.9545     30.6454     94.9725  
  1889.0000    -58.0237      8.2115     10.5311      8.5265      2.2818      0.0542     11.6907     85.1637     30.6028     93.2250  
  1889.5000    -57.8746      8.0444     10.2860      8.3778      2.2527      0.0897     11.7260     85.5946     32.1643     93.4772  
  1890.0000    -57.8105      7.8090     10.2359      8.2074      2.2444      0.0948     11.5746     87.3356     34.7399     95.0456  
  1890.5000    -57.7531      7.5424     10.6906      7.9013      2.3175      0.0505     11.0301     90.2293     35.4523     96.4818  
