~VERSION INFORMATION
 VERS.                           2.00:        CWLS LOG ASCII STANDARD - VERSION 2.00
 WRAP.                             NO:        ONE LINE PER DEPTH STEP
~WELL INFORMATION
#MNEM.UNIT                   DATA             INFORMATION
#----------             --------------        ------------------------------
 STRT.F                     1088.0000:        START DEPTH
 STOP.F                     2449.0000:        STOP DEPTH
 STEP.F                        0.5000:        STEP VALUE
 NULL.                      -999.2500:        NULL VALUE
 COMP.             UNITED STATES NAVY:        COMPANY  
 LOC .                   11  22N  18W:        LOCATION   
 DATE.                         4/7/70:        LOG DATE 
 WELL.                    GAS WELL #9:        WELL     
 UWI .                   500232000300:        UNIQUE WELL ID 
 API .                   500232000300:        UNIQUE WELL IDENTIFIER 
 FLD .                   SOUTH BARROW:        FIELD    
 CNTY.                   POINT BARROW:        COUNTY  
 STAT.                         ALASKA:        STATE   
 CTRY.                            USA:        COUNTRY 
 OPER.             UNITED STATES NAVY:        OPERATOR  
 SRVC.                   SCHLUMBERGER:        SERVICE COMPANY 
 LAT .                         0.0000:        LATITUDE
 LON .                         0.0000:        LONGITUDE
 DIGS.               CENTER LINE DATA:        DIGITIZING COMPANY 
~CURVE INFORMATION      
#MNEM        .UNIT         API CODE           CURVE DESCRIPTION
#-----------------      --------------        ------------------------------
 DEPT        .F                      :        1  DEPTH
 SP          .MV                     :        2  
 ASN         .OHMM                   :        3  
 ILD         .OHMM                   :        4  
 CILD        .MMHO                   :        5  
 CALI        .IN                     :        6  
 GR          .GAPI                   :        7  
 DRHO        .G/C3                   :        8  
 RHOB        .G/C3                   :        9  
 DT          .US/F                   :        10 
~PARAMETER INFORMATION       
#MNEM.UNIT                  VALUE             DESCRIPTION OF MNEMONIC
#---------             ---------------        ------------------------------
 EKB .F                       29.0000:        KELLY BUSHING
 TD  .F                     2450.0000:        TOTAL DEPTH
 BHT .F                       75.0000:        BOTTOM HOLE TEMPERATURE
 BS  .                         8.6250:        BIT SIZE
 FD  .                        10.7000:        FLUID DENSITY
 CSIZ.                         9.6250:        CASING SIZE
 CBD .F                     1100.0000:        CASING DRILLER 1
 CBL .F                     1102.0000:        CASING LOGGER 1
 DFT .                            Gel:        TYPE FLUID IN HOLE
 DFV .                        45.0000:        VISCOSITY
 DFPH.                         8.8000:        PH
 DFL .                         3.8000:        FLUID LOSS
 RMS .                         2.7500:        RM
 MST .F                       60.0000:        RM MEAS. TEMP.
 RMF .                         2.3600:        RMF
 MFST.F                       60.0000:        RMF MEAS. TEMP.
 RMC .                         3.7800:        RMC
 MCST.F                       60.0000:        RMC MEAS. TEMP.
~OTHER INFORMATION
~A    DEPTH          SP         ASN         ILD        CILD        CALI          GR        DRHO        RHOB          DT  
# ...
  2243.0000    -20.0950     10.6320      8.2188    116.6159      9.1560     75.4008      0.0412      2.4603    104.3524  
  2243.5000    -19.7088     10.6723      8.2960    115.5589      9.1576     74.7145      0.0356      2.4584    103.9808  
  2244.0000    -19.3904     10.7227      8.3643    114.7210      9.1659     75.7953      0.0419      2.4670    103.3720  
  2244.5000    -19.7488     10.8788      8.4390    113.9332      9.1891     77.9337      0.0530      2.4750    102.7156  
  2245.0000    -20.1670     11.0932      8.5764    112.7172      9.2294     76.5720      0.0436      2.4559    102.3325  
  2245.5000    -20.4659     11.2554      8.6563    111.3906      9.2187     74.4272      0.0388      2.4525    102.2166  
  2246.0000    -20.9297     11.2976      8.7042    110.7784      9.2019     73.8944      0.0562      2.4665    102.1674  
  2246.5000    -21.7562     11.2538      8.7345    110.7784      9.2761     74.2898      0.0565      2.4716    102.3229  
  2247.0000    -22.1178     11.2099      8.7190    111.0291      9.1666     74.1033      0.0405      2.4526    102.4485  
  2247.5000    -22.2353     11.1426      8.6865    111.3763      8.9897     73.8794      0.0533      2.4541    102.1958  
  2248.0000    -21.8058     10.9591      8.6085    112.2483      8.9145     75.2176      0.0602      2.4567    102.1248  
  2248.5000    -21.1452     10.8060      8.5754    112.8783      8.8915     76.7447      0.0695      2.4526    101.8378  
  2249.0000    -20.1179     10.7028      8.5127    113.2561      8.9884     76.7899      0.0587      2.4461    101.3458  
  2249.5000    -19.0342     10.7204      8.4827    113.9912      9.1176     75.8732      0.0725      2.4537    101.2506  
  2250.0000    -18.1149     10.7269      8.4472    114.6102      9.1282     74.4220      0.0847      2.4340    101.5848  
  2250.5000    -19.1711     10.7211      8.3977    115.1579      9.1683     75.8977      0.1144      2.4576    101.9239  
  2251.0000    -19.6160     10.7191      8.3876    115.2638      9.2820     77.6410      0.1151      2.4447    102.0520  
  2251.5000    -19.6858     10.8217      8.2720    115.9813      9.3586     75.3953      0.0587      2.4122    101.7167  
  2252.0000    -19.6993     10.7829      8.2592    116.6269      9.3816     71.8776      0.0809      2.4457    101.7631  
  2252.5000    -19.7482     10.5286      8.2567    117.0000      9.3975     71.8377      0.1069      2.4734    101.7829  
  2253.0000    -19.8175     10.3453      8.2672    117.3904      9.5184     74.8222      0.0725      2.4731    102.2555  
  2253.5000    -19.7379     10.1619      8.2251    118.3555      9.4378     73.8093      0.0407      2.4663    103.0846  
  2254.0000    -19.4211     10.0618      8.0606    119.9323      9.2186     74.3496      0.0598      2.4673    103.8308  
  2254.5000    -19.0678     10.0563      7.9508    120.8513      9.0790     78.4094      0.0740      2.4526    103.0497  
  2255.0000    -18.3648     10.1793      7.9737    120.3307      8.9394     79.8205      0.0713      2.4263    102.3197  
  2255.5000    -17.9258     10.4283      8.0457    118.6297      8.9904     78.5944      0.1054      2.4482    101.2914  
  2256.0000    -17.5260     10.6582      8.3034    115.7143      9.2757     76.9671      0.1382      2.4579    100.4601  
  2256.5000    -17.0419     10.8670      8.5810    112.6064      9.6431     74.8691      0.1661      2.4485     99.4217  
  2257.0000    -16.9595     11.4326      8.7792    110.7271      9.9229     73.8316      0.1641      2.4345     97.9984  
  2257.5000    -17.4057     12.1313      8.8179    110.2063      9.9037     73.1158      0.1699      2.4539     95.7007  
  2258.0000    -17.9818     12.9416      8.7613    110.7252      9.8814     68.9550      0.1447      2.5134     91.6128  
  2258.5000    -18.9445     13.1517      8.7123    111.3246      9.9806     60.2066      0.1105      2.5713     89.5243  
  2259.0000    -19.9474     13.0264      8.7578    110.0633      9.9807     54.4762      0.0147      2.6151     90.3656  
  2259.5000    -20.0460     12.5802      8.9394    108.3977      9.2981     51.4356     -0.0072      2.7191     92.7358  
  2260.0000    -19.2818     11.9175      9.0872    106.7537      9.0949     57.3942      0.0134      2.7434     97.6130  
  2260.5000    -18.1985     11.4548      9.2273    105.1908      9.2178     68.2315      0.0503      2.7074     96.1298  
  2261.0000    -17.1694     11.4269      9.3520    105.1018      9.2001     76.0741      0.1086      2.6609     98.2034  
  2261.5000    -17.3251     11.7995      9.2763    105.2967      9.0029     80.2961      0.0561      2.5221     99.9818  
  2262.0000    -18.2194     12.6254      9.2323    105.4902      9.0006     80.4349      0.0285      2.4897    102.5899  
  2262.5000    -19.1044     13.0738      9.2785    104.7695      9.0574     75.9673      0.0184      2.4765    104.9797  
  2263.0000    -20.0285     13.0504      9.4606    102.9064      9.0761     73.6334      0.0249      2.4719     93.4646  
  2263.5000    -19.9970     13.0815      9.5149    101.3182      9.1052     70.1369      0.0140      2.4507     90.8957  
  2264.0000    -20.2014     12.8064      9.5582    101.2598      9.0830     66.2332      0.0264      2.4468     91.7431  
  2264.5000    -20.0798     12.0200      9.5702    102.8044      9.0188     68.4359      0.0445      2.4497     94.8067  
  2265.0000    -19.8126     11.5193      9.1208    106.5536      9.1419     73.9783      0.0492      2.4396     98.4616  
  2265.5000    -19.6526     11.1950      8.7152    110.8508      9.5862     74.2173      0.0784      2.4334     99.8523  
  2266.0000    -19.3802     10.9289      8.4686    114.1263      9.7690     74.2165      0.1214      2.4470    100.0537  
  2266.5000    -18.4711     10.7742      8.1810    116.2491      9.7948     74.6811      0.0930      2.4284     99.5483  
  2267.0000    -18.2746     10.6390      8.2339    116.7777      9.9892     75.4570      0.0787      2.4047     99.9984  
  2267.5000    -17.9532     10.5969      8.2751    116.5292      9.9972     76.5275      0.1162      2.4325    100.8067  
  2268.0000    -17.8966     10.5905      8.3457    116.1085      9.9801     77.3501      0.1418      2.4309    101.0129  
  2268.5000    -18.2992     10.5889      8.3308    116.1698     10.1494     78.5954      0.1400      2.3999    102.4881  
  2269.0000    -18.3554     10.5889      8.2693    116.4149     10.1853     78.9206      0.1429      2.3800    105.4420  
  2269.5000    -18.8805     10.5889      8.2901    116.9168     10.0912     78.5268      0.1734      2.3862    104.5035  
  2270.0000    -18.7636     10.5723      8.3566    116.3534     10.3708     75.9221      0.1690      2.3869    103.3702  
  2270.5000    -18.6467     10.5694      8.4117    114.9520     10.5403     76.7275      0.1424      2.3934    103.5875  
  2271.0000    -18.8764     10.6389      8.5664    112.7317     10.3884     78.3015      0.1320      2.4216    103.5364  
  2271.5000    -18.8603     10.7085      8.7753    110.4754      9.9808     76.7800      0.1459      2.4476    104.0621  
  2272.0000    -18.7268     10.7955      8.9616    108.2152     10.0433     76.4770      0.1316      2.4182    103.0069  
  2272.5000    -18.2317     10.8591      9.1842    105.7889     10.3862     76.2926      0.1175      2.4133    101.6529  
  2273.0000    -18.7064     11.0679      9.2904    104.5439     10.3793     73.3054      0.1065      2.4308    101.1931  
  2273.5000    -19.2386     11.2532      9.3195    104.4906     10.3429     71.0437      0.0829      2.4198    100.4667  
  2274.0000    -19.1367     11.3963      9.2323    104.7473     10.2219     70.5602      0.0914      2.4353     99.7457  
  2274.5000    -19.8746     11.4428      9.1484    105.5021      9.8911     69.9735      0.0924      2.4398     99.7554  
  2275.0000    -20.8504     11.2042      9.0950    106.8861      9.7554     69.5691      0.0774      2.4281    100.9418  
  2275.5000    -20.7521     10.7662      8.9938    108.6490      9.8792     71.3880      0.0826      2.4256    102.6498  
