~VERSION INFORMATION
 VERS.                           2.00:        CWLS LOG ASCII STANDARD - VERSION 2.00
 WRAP.                             NO:        ONE LINE PER DEPTH STEP
~WELL INFORMATION
#MNEM.UNIT                   DATA             INFORMATION
#----------             --------------        ------------------------------
 STRT.F                     1088.0000:        START DEPTH
 STOP.F                     2449.0000:        STOP DEPTH
 STEP.F                        0.5000:        STEP VALUE
 NULL.                      -999.2500:        NULL VALUE
 COMP.             UNITED STATES NAVY:        COMPANY  
 LOC .                   11  22N  18W:        LOCATION   
 DATE.                         4/7/70:        LOG DATE 
 WELL.                    GAS WELL #9:        WELL     
 UWI .                   500232000300:        UNIQUE WELL ID 
 API .                   500232000300:        UNIQUE WELL IDENTIFIER 
 FLD .                   SOUTH BARROW:        FIELD    
 CNTY.                   POINT BARROW:        COUNTY  
 STAT.                         ALASKA:        STATE   
 CTRY.                            USA:        COUNTRY 
 OPER.             UNITED STATES NAVY:        OPERATOR  
 SRVC.                   SCHLUMBERGER:        SERVICE COMPANY 
 LAT .                         0.0000:        LATITUDE
 LON .                         0.0000:        LONGITUDE
 DIGS.               CENTER LINE DATA:        DIGITIZING COMPANY 
~CURVE INFORMATION      
#MNEM        .UNIT         API CODE           CURVE DESCRIPTION
#-----------------      --------------        ------------------------------
 DEPT        .F                      :        1  DEPTH
 SP          .MV                     :        2  
 ASN         .OHMM                   :        3  
 ILD         .OHMM                   :        4  
 CILD        .MMHO                   :        5  
 CALI        .IN                     :        6  
 GR          .GAPI                   :        7  
 DRHO        .G/C3                   :        8  
 RHOB        .G/C3                   :        9  
 DT          .US/F                   :        10 
~PARAMETER INFORMATION       
#MNEM.UNIT                  VALUE             DESCRIPTION OF MNEMONIC
#---------             ---------------        ------------------------------
 EKB .F                       29.0000:        KELLY BUSHING
 TD  .F                     2450.0000:        TOTAL DEPTH
 BHT .F                       75.0000:        BOTTOM HOLE TEMPERATURE
 BS  .                         8.6250:        BIT SIZE
 FD  .                        10.7000:        FLUID DENSITY
 CSIZ.                         9.6250:        CASING SIZE
 CBD .F                     1100.0000:        CASING DRILLER 1
 CBL .F                     1102.0000:        CASING LOGGER 1
 DFT .                            Gel:        TYPE FLUID IN HOLE
 DFV .                        45.0000:        VISCOSITY
 DFPH.                         8.8000:        PH
 DFL .                         3.8000:        FLUID LOSS
 RMS .                         2.7500:        RM
 MST .F                       60.0000:        RM MEAS. TEMP.
 RMF .                         2.3600:        RMF
 MFST.F                       60.0000:        RMF MEAS. TEMP.
 RMC .                         3.7800:        RMC
 MCST.F                       60.0000:        RMC MEAS. TEMP.
~OTHER INFORMATION
~A    DEPTH          SP         ASN         ILD        CILD        CALI          GR        DRHO        RHOB          DT  
# ...
  2309.0000    -20.3808     10.8020      8.8268    109.4079     10.2735     75.0688      0.1246      2.3992    101.2475  
  2309.5000    -20.5186     10.9103      8.9762    107.8849     10.3616     77.7920      0.1141      2.3836    100.9724  
  2310.0000    -20.5772     11.0213      9.0894    106.6245      9.9148     80.9805      0.0909      2.3841    100.4760  
  2310.5000    -20.5737     11.1852      9.3185    103.5871     10.0017     83.5700      0.0577      2.3902    100.4391  
  2311.0000    -20.4434     11.4413      9.6293    101.0110      9.9997     81.9455      0.0707      2.4431     99.8869  
  2311.5000    -20.1648     11.7004      9.7141     98.8319      9.7034     81.3673      0.0865      2.4701     98.8055  
  2312.0000    -20.3696     11.9186      9.8817     96.7788      9.7170     79.6224      0.1038      2.4870     97.9139  
  2312.5000    -20.5594     12.2171     10.2530     95.0794      9.9615     76.6645      0.1104      2.4813     97.3838  
  2313.0000    -20.5564     12.3901     10.2972     94.1029      9.9071     75.9746      0.0980      2.4805     96.7924  
  2313.5000    -20.3326     12.5040     10.5092     93.6626      9.6036     75.1163      0.0538      2.4796     95.7863  
  2314.0000    -20.3978     12.4250     10.5737     93.3017      9.3735     72.4999      0.0309      2.4811     95.2391  
  2314.5000    -20.9292     12.2615     10.5904     92.8464      9.2565     70.8541      0.0089      2.4841     95.3441  
  2315.0000    -21.4330     12.1607     10.6071     92.8160      9.2508     73.0096      0.0062      2.4810     95.8737  
  2315.5000    -21.2586     12.0621     10.6238     93.2655      9.2340     74.7805      0.0165      2.4781     96.1897  
  2316.0000    -20.9109     12.1133     10.3973     94.8077      9.2845     76.2684      0.0136      2.4651     95.9795  
  2316.5000    -20.6162     12.2052     10.1982     95.7127      9.3875     77.7373      0.0092      2.4526     95.8070  
  2317.0000    -20.6502     12.2693     10.2100     95.9594      9.3808     78.0823      0.0062      2.4611     95.6790  
  2317.5000    -21.2597     12.2465     10.2693     95.6653      9.2909     75.8051      0.0085      2.4657     95.9582  
  2318.0000    -21.8071     12.2220     10.2922     95.4105      9.2925     73.9816      0.0217      2.4768     96.4087  
  2318.5000    -22.5608     12.2345     10.3208     95.3892      9.2929     75.7353      0.0298      2.4890     96.8472  
  2319.0000    -23.1404     12.2648     10.2402     95.4956      9.2724     77.1027      0.0286      2.4941     97.1978  
  2319.5000    -22.5329     12.3800     10.2691     95.3805      9.2582     77.7302      0.0580      2.5232     97.6121  
  2320.0000    -21.7922     12.5741     10.3884     93.6344      9.2529     75.6741      0.0795      2.5345     98.1769  
  2320.5000    -20.9375     12.7223     10.6080     91.6739      9.2547     73.1450      0.1038      2.5217     98.7307  
  2321.0000    -20.7147     12.7916     10.7157     91.2326      9.3193     73.1734      0.1196      2.5042     98.7951  
  2321.5000    -20.8955     12.9683     10.8572     90.8197      9.5277     73.6567      0.1363      2.4840     98.4052  
  2322.0000    -21.0919     13.1926     10.8172     91.0641      9.8382     75.4894      0.1371      2.4370     97.9262  
  2322.5000    -20.5570     13.4325     10.8121     91.2500      9.9067     78.7108      0.1154      2.4123     96.6055  
  2323.0000    -20.2328     13.5771     10.8235     90.8711      9.6933     80.5096      0.0986      2.4065     95.3789  
  2323.5000    -20.2991     13.6102     10.8753     90.4946      9.3407     78.3645      0.1037      2.4193     95.5815  
  2324.0000    -19.8813     13.6190     10.9466     89.8551      9.5853     76.8382      0.1412      2.4427     96.2793  
  2324.5000    -19.9712     13.5930     10.9441     89.6427     10.1446     78.0096      0.1688      2.4619     97.1011  
  2325.0000    -20.1196     13.6548     10.9012     89.9957     10.3190     79.7823      0.1746      2.4471     97.5288  
  2325.5000    -20.4920     13.8072     10.8796     89.7848     10.4242     79.6467      0.1537      2.4136     97.5866  
  2326.0000    -20.5088     13.9229     10.9815     89.2522     10.3876     78.2273      0.1319      2.4074     97.5869  
  2326.5000    -20.1951     13.9850     11.1561     88.2022     10.1552     79.4468      0.1425      2.4334     97.4281  
  2327.0000    -20.0833     14.0623     11.4138     86.8565      9.9344     81.1547      0.1238      2.4325     97.3162  
  2327.5000    -19.9006     14.2607     11.6287     85.4336     10.0904     82.2115      0.1124      2.4212     96.7091  
  2328.0000    -19.5926     14.5018     11.8083     84.1224     10.2178     81.9869      0.1013      2.4132     95.9515  
  2328.5000    -19.8720     14.6362     11.9890     82.7032     10.0439     81.3065      0.1055      2.4185     95.1613  
  2329.0000    -19.8352     14.8502     12.1381     81.3055      9.9665     79.7207      0.1360      2.4443     94.5932  
  2329.5000    -19.5429     15.1308     12.3998     79.9078      9.8358     77.0676      0.1488      2.4544     93.9481  
  2330.0000    -18.9645     15.3895     12.7333     78.2020      9.6967     77.6965      0.1318      2.4594     93.8284  
  2330.5000    -18.4069     15.6399     12.9600     76.8179      9.6630     78.7905      0.1331      2.4624     93.7495  
  2331.0000    -18.6372     15.8650     13.2200     75.3603      9.5900     78.4968      0.1211      2.4738     93.6675  
  2331.5000    -18.3693     16.1466     13.4474     74.0653      9.4604     78.3111      0.0837      2.4707     93.4144  
  2332.0000    -17.9118     16.5991     13.6487     72.9462      9.3536     77.9534      0.0820      2.4871     92.9103  
  2332.5000    -17.9125     17.0140     13.8713     71.7395      9.0534     77.4710      0.0920      2.5091     92.3099  
  2333.0000    -18.5383     17.4633     14.2487     70.2290      9.1417     76.1972      0.0749      2.4890     91.4803  
  2333.5000    -19.0736     17.9547     14.7935     67.8679      9.2576     73.1138      0.0894      2.5008     90.8462  
  2334.0000    -19.2481     18.6493     15.7608     63.8157      9.3590     70.9847      0.0772      2.5134     90.3787  
  2334.5000    -19.4226     19.4294     17.1494     58.8087      9.1602     71.1132      0.0511      2.5059     90.0253  
  2335.0000    -19.8521     20.6097     18.7223     53.9583      9.1441     69.5813      0.0327      2.4980     89.7722  
  2335.5000    -21.0640     22.5558     21.0066     49.8368      9.1441     68.0315      0.0384      2.4916     89.6490  
  2336.0000    -22.9846     25.0862     23.0621     46.0863      9.1356     67.5567      0.0470      2.4796     90.1382  
  2336.5000    -26.7071     28.2590     23.9417     43.2736      9.1322     66.9708      0.0342      2.4564     89.9930  
  2337.0000    -31.8334     31.0557     24.5720     42.5627      9.1020     61.2888      0.0178      2.4139     89.2646  
  2337.5000    -35.4833     32.5015     24.4214     42.8581      9.0729     51.2146      0.0135      2.3579     88.7908  
  2338.0000    -36.4539     30.7871     23.7156     43.5584      9.0582     41.1405      0.0150      2.3229     88.2243  
  2338.5000    -35.3350     27.8437     22.5040     46.0896      9.0435     36.8906      0.0178      2.3074     87.7994  
  2339.0000    -31.4172     25.2804     20.9330     49.7692      9.0335     39.1269      0.0240      2.3318     88.3668  
  2339.5000    -25.8457     23.1436     18.9669     54.6591      9.0555     47.5566      0.0287      2.3833     88.8540  
  2340.0000    -21.8854     21.2943     17.5255     59.4347      9.1083     59.3737      0.0405      2.4458     88.9050  
  2340.5000    -20.3267     20.3729     16.1870     63.7829      9.2808     66.7855      0.0571      2.4969     88.9399  
  2341.0000    -19.4895     19.8115     15.4071     65.8111      9.3501     67.7604      0.0747      2.4976     89.0309  
  2341.5000    -19.2189     19.4380     15.0073     66.8170      9.1855     68.7996      0.1134      2.4969     89.1533  
