~VERSION INFORMATION
 VERS.                           2.00:        CWLS LOG ASCII STANDARD - VERSION 2.00
 WRAP.                             NO:        ONE LINE PER DEPTH STEP
~WELL INFORMATION
#MNEM.UNIT                   DATA             INFORMATION
#----------             --------------        ------------------------------
 STRT.F                      884.0000:        START DEPTH
 STOP.F                     2365.0000:        STOP DEPTH
 STEP.F                        0.5000:        STEP VALUE
 NULL.                      -999.2500:        NULL VALUE
 COMP.                      U.S. NAVY:        COMPANY  
 LOC .                   14  22N  18W:        LOCATION   
 DATE.                        3/19/64:        LOG DATE 
 WELL.                SOUTH BARROW #6:        WELL     
 UWI .                   500231001500:        UNIQUE WELL ID 
 API .                   500231001500:        UNIQUE WELL IDENTIFIER 
 FLD .                   SOUTH BARROW:        FIELD    
 CNTY.                         NPR #4:        COUNTY  
 STAT.                         ALASKA:        STATE   
 CTRY.                            USA:        COUNTRY 
 OPER.                      U.S. NAVY:        OPERATOR  
 SRVC.                   SCHLUMBERGER:        SERVICE COMPANY 
 LAT .                         0.0000:        LATITUDE
 LON .                         0.0000:        LONGITUDE
 DIGS.               CENTER LINE DATA:        DIGITIZING COMPANY 
~CURVE INFORMATION      
#MNEM        .UNIT         API CODE           CURVE DESCRIPTION
#-----------------      --------------        ------------------------------
 DEPT        .F                      :        1  DEPTH
 SP          .MV                     :        2  
 SN          .OHMM                   :        3  
 ILD         .OHMM                   :        4  
 CILD        .OHMM                   :        5  
 DT          .US/F                   :        6  
~PARAMETER INFORMATION       
#MNEM.UNIT                  VALUE             DESCRIPTION OF MNEMONIC
#---------             ---------------        ------------------------------
 EKB .F                       40.0000:        KELLY BUSHING
 TD  .F                     2366.0000:        TOTAL DEPTH
 BHT .F                        0.0000:        BOTTOM HOLE TEMPERATURE
 BS  .                         9.6250:        BIT SIZE
 FD  .                        85.0000:        FLUID DENSITY
 CSIZ.                        11.7500:        CASING SIZE
 CBD .F                      884.0000:        CASING DRILLER 1
 CBL .F                      884.0000:        CASING LOGGER 1
 DFT .                  Miscellaneous:        TYPE FLUID IN HOLE
 DFV .                        45.0000:        VISCOSITY
 DFPH.                         0.0000:        PH
 DFL .                         2.8000:        FLUID LOSS
 RMS .                         5.3700:        RM
 MST .F                       33.0000:        RM MEAS. TEMP.
 RMF .                         2.9500:        RMF
 MFST.F                       45.0000:        RMF MEAS. TEMP.
 RMC .                         2.4800:        RMC
 MCST.F                       35.0000:        RMC MEAS. TEMP.
~OTHER INFORMATION
~A    DEPTH          SP          SN         ILD        CILD          DT  
# ...
  2192.0000    -22.8221     13.1920     11.7471     92.6248   -999.2500  
  2192.5000    -24.2305     14.7094     12.2652     87.8679   -999.2500  
  2193.0000    -27.0169     16.5464     12.6233     84.5370   -999.2500  
  2193.5000    -30.6729     18.0850     12.9555     82.7006   -999.2500  
  2194.0000    -33.1597     18.6083     13.0758     81.7452   -999.2500  
  2194.5000    -33.9119     17.3297     12.6826     82.6039   -999.2500  
  2195.0000    -31.8089     15.6651     12.1000     86.2004   -999.2500  
  2195.5000    -27.9130     13.9090     11.0018     93.2240   -999.2500  
  2196.0000    -25.2792     12.5544     10.3294    100.9835   -999.2500  
  2196.5000    -23.9358     11.7926      9.8157    108.0225   -999.2500  
  2197.0000    -23.2631     11.3622      9.0751    113.4187   -999.2500  
  2197.5000    -23.0731     11.0963      8.9538    116.1024   -999.2500  
  2198.0000    -23.1239     11.0116      8.8862    117.5844   -999.2500  
  2198.5000    -23.2088     10.9983      8.8734    117.6541   -999.2500  
  2199.0000    -23.2485     11.0023      8.8914    117.6139   -999.2500  
  2199.5000    -23.3107     10.9796      8.8741    117.5667   -999.2500  
  2200.0000    -23.5431     10.9373      8.8377    117.6176   -999.2500  
  2200.5000    -23.8063     10.9056      8.8430    117.8285   -999.2500  
  2201.0000    -24.2841     10.8674      8.8292    118.1096   -999.2500  
  2201.5000    -24.9513     10.7947      8.7696    118.5640   -999.2500  
  2202.0000    -25.8239     10.7501      8.7496    118.8503   -999.2500  
  2202.5000    -26.7160     10.7425      8.7506    118.9819   -999.2500  
  2203.0000    -27.4701     10.7788      8.8076    118.5970   -999.2500  
  2203.5000    -27.6544     10.7818      8.8940    118.1083   -999.2500  
  2204.0000    -27.2614     10.7699      9.0554    116.9887   -999.2500  
  2204.5000    -26.3084     10.8105      9.1733    115.2814   -999.2500  
  2205.0000    -25.6178     10.9653      9.2640    113.4553   -999.2500  
  2205.5000    -25.1876     11.2330      9.5032    111.0052   -999.2500  
  2206.0000    -24.8334     11.4839      9.7471    108.4125   -999.2500  
  2206.5000    -24.3721     11.7495      9.9808    105.9310   -999.2500  
  2207.0000    -23.7992     12.0359     10.2159    103.1524   -999.2500  
  2207.5000    -23.4247     12.2892     10.4974    100.6986   -999.2500  
  2208.0000    -23.1928     12.5022     10.7727     98.4335   -999.2500  
  2208.5000    -23.0215     12.7337     10.9301     96.3465   -999.2500  
  2209.0000    -23.1459     12.9813     11.0926     95.0156   -999.2500  
  2209.5000    -23.2232     13.1942     11.2172     94.1185   -999.2500  
  2210.0000    -23.2461     13.3083     11.3195     93.3421   -999.2500  
  2210.5000    -23.2890     13.3111     11.4356     92.3521   -999.2500  
  2211.0000    -23.5037     13.2492     11.5660     91.4862   -999.2500  
  2211.5000    -23.7344     13.2272     11.6235     90.8856   -999.2500  
  2212.0000    -23.8383     13.3117     11.6215     90.7870   -999.2500  
  2212.5000    -23.7950     13.4603     11.6124     91.0884   -999.2500  
  2213.0000    -23.7052     13.5512     11.5539     91.5148   -999.2500  
  2213.5000    -23.6444     13.5081     11.4940     91.9327   -999.2500  
  2214.0000    -23.6956     13.3934     11.4317     92.5533   -999.2500  
  2214.5000    -23.6271     13.2820     11.3720     92.9637   -999.2500  
  2215.0000    -23.6622     13.1270     11.3173     93.4284   -999.2500  
  2215.5000    -23.8680     12.9130     11.2279     94.0731   -999.2500  
  2216.0000    -24.2170     12.7629     11.1010     95.9140   -999.2500  
  2216.5000    -24.6839     12.6994     11.0196     96.7423   -999.2500  
  2217.0000    -25.5001     12.7370     10.8804     97.1186   -999.2500  
  2217.5000    -26.1720     12.7709     10.9477     97.1606   -999.2500  
  2218.0000    -26.9368     12.6970     11.0131     96.9046   -999.2500  
  2218.5000    -27.6199     12.5502     11.1247     96.7904   -999.2500  
  2219.0000    -28.2393     12.4158     11.1014     96.6581   -999.2500  
  2219.5000    -28.8102     12.2757     11.1049     96.6198   -999.2500  
  2220.0000    -29.3220     12.1376     11.1110     96.6862   -999.2500  
  2220.5000    -29.8860     12.0215     11.0906     96.7452   -999.2500  
  2221.0000    -30.1156     11.9511     11.0174     96.9775   -999.2500  
  2221.5000    -30.0276     11.8995     10.8397     97.6752   -999.2500  
  2222.0000    -29.7310     11.8197     10.6177     99.6047   -999.2500  
  2222.5000    -29.5689     11.7125     10.4183    101.6108   -999.2500  
  2223.0000    -29.5991     11.5356     10.3186    103.4543   -999.2500  
  2223.5000    -29.8612     11.2722     10.2190    104.5188   -999.2500  
  2224.0000    -30.2362     10.9080     10.1194    105.0848   -999.2500  
  2224.5000    -30.6664     10.6868     10.0216    105.5474   -999.2500  
  2225.0000    -31.1667     10.6387      9.9601    105.9665   -999.2500  
  2225.5000    -31.5270     10.6672      9.9830    106.4503   -999.2500  
  2226.0000    -31.2614     10.8402     10.0153    106.8887   -999.2500  
  2226.5000    -31.2438     11.0884     10.0476    106.6290   -999.2500  
  2227.0000    -31.1739     11.2803     10.0654    105.3109   -999.2500  
  2227.5000    -31.3102     11.3961     10.2639    103.8587   -999.2500  
  2228.0000    -31.4952     11.3973     10.4453    102.3811   -999.2500  
  2228.5000    -31.5814     11.3727     10.6413    100.9001   -999.2500  
  2229.0000    -30.9289     11.4535     10.7407     99.6077   -999.2500  
  2229.5000    -29.7258     11.6099     10.8563     98.6048   -999.2500  
  2230.0000    -28.5279     11.8452     10.9796     97.2952   -999.2500  
  2230.5000    -26.8566     12.1349     11.1607     96.1273   -999.2500  
  2231.0000    -25.5063     12.4690     11.4526     94.6823   -999.2500  
  2231.5000    -24.5962     12.7833     11.6557     93.0918   -999.2500  
  2232.0000    -23.9994     13.0519     11.8661     91.1227   -999.2500  
  2232.5000    -23.4563     13.2787     12.0466     89.6711   -999.2500  
  2233.0000    -22.8391     13.4698     12.2013     88.4434   -999.2500  
  2233.5000    -22.6201     13.6530     12.3734     87.4408   -999.2500  
  2234.0000    -22.6622     13.9093     12.5195     86.5921   -999.2500  
  2234.5000    -22.4480     14.1791     12.6735     85.3861   -999.2500  
  2235.0000    -22.2290     14.4925     12.9223     83.8395   -999.2500  
  2235.5000    -22.1184     14.8141     13.2902     82.0241   -999.2500  
  2236.0000    -22.3883     15.0509     13.5108     80.0413   -999.2500  
  2236.5000    -22.6985     15.3895     13.7465     78.7569   -999.2500  
  2237.0000    -23.4272     15.9402     13.9188     77.8818   -999.2500  
  2237.5000    -24.8601     16.5919     13.8944     77.6038   -999.2500  
  2238.0000    -27.5627     17.2829     13.8588     77.8564   -999.2500  
  2238.5000    -30.5503     17.5618     13.8529     77.9117   -999.2500  
  2239.0000    -32.0345     17.5065     13.8836     77.7931   -999.2500  
  2239.5000    -30.3375     17.1172     13.8526     77.8874   -999.2500  
  2240.0000    -27.1014     16.5112     13.7397     78.4314   -999.2500  
  2240.5000    -24.3001     15.9730     13.5945     79.3674   -999.2500  
  2241.0000    -23.0227     15.6593     13.4891     80.1512   -999.2500  
  2241.5000    -22.3616     15.5193     13.4559     80.5723   -999.2500  
  2242.0000    -22.0320     15.6115     13.5883     80.1005   -999.2500  
  2242.5000    -22.0017     15.8410     13.8224     78.9522   -999.2500  
  2243.0000    -22.1350     16.2047     14.2757     76.8378   -999.2500  
  2243.5000    -22.3094     16.6291     14.8597     73.3495   -999.2500  
  2244.0000    -22.5029     17.0988     15.3850     70.3324   -999.2500  
  2244.5000    -22.7139     17.7161     15.8414     68.3547   -999.2500  
  2245.0000    -23.0739     18.3717     15.9521     67.5515   -999.2500  
  2245.5000    -24.0211     18.9967     15.6614     68.4804   -999.2500  
  2246.0000    -24.9565     19.3480     15.1704     70.6465   -999.2500  
