~VERSION INFORMATION
 VERS.                           2.00:        CWLS LOG ASCII STANDARD - VERSION 2.00
 WRAP.                             NO:        ONE LINE PER DEPTH STEP
~WELL INFORMATION
#MNEM.UNIT                   DATA             INFORMATION
#----------             --------------        ------------------------------
 STRT.F                       98.0000:        START DEPTH
 STOP.F                     2124.0000:        STOP DEPTH
 STEP.F                        0.5000:        STEP VALUE
 NULL.                      -999.2500:        NULL VALUE
 COMP.          USGS/NPR-A OPERATIONS:        COMPANY  
 LOC .                   24  22N  17W:        LOCATION   
 DATE.                        10/5/80:        LOG DATE 
 WELL.               SOUTH BARROW #18:        WELL     
 UWI .                   500232001700:        UNIQUE WELL ID 
 API .                   500232001700:        UNIQUE WELL IDENTIFIER 
 FLD .                   SOUTH BARROW:        FIELD    
 CNTY.                    NORTH SLOPE:        COUNTY  
 STAT.                         ALASKA:        STATE   
 CTRY.                            USA:        COUNTRY 
 OPER.          USGS/NPR-A OPERATIONS:        OPERATOR  
 SRVC.                   SCHLUMBERGER:        SERVICE COMPANY 
 LAT .                         0.0000:        LATITUDE
 LON .                         0.0000:        LONGITUDE
 DIGS.               CENTER LINE DATA:        DIGITIZING COMPANY 
~CURVE INFORMATION      
#MNEM        .UNIT         API CODE           CURVE DESCRIPTION
#-----------------      --------------        ------------------------------
 DEPT        .F                      :        1  DEPTH
 CALI        .IN                     :        2  
 GR          .GAPI                   :        3  
 NPHI        .%                      :        4  
 RHOB        .G/C3                   :        5  
 DRHO        .G/C3                   :        6  
 DT          .US/F                   :        7  
 SP          .MV                     :        8  
 ILD         .OHMM                   :        9  
 ILM         .OHMM                   :        10 
 SFL         .OHMM                   :        11 
 LLD         .OHMM                   :        12 
 LLS         .OHMM                   :        13 
 MSFL        .OHMM                   :        14 
~PARAMETER INFORMATION       
#MNEM.UNIT                  VALUE             DESCRIPTION OF MNEMONIC
#---------             ---------------        ------------------------------
 EKB .F                       30.0000:        KELLY BUSHING
 TD  .F                     2125.0000:        TOTAL DEPTH
 BHT .F                        0.0000:        BOTTOM HOLE TEMPERATURE
 BS  .                         8.5000:        BIT SIZE
 FD  .                        10.3000:        FLUID DENSITY
 CSIZ.                         9.6250:        CASING SIZE
 CBD .F                     1519.0000:        CASING DRILLER 1
 CBL .F                     1520.0000:        CASING LOGGER 1
 DFT .                  Miscellaneous:        TYPE FLUID IN HOLE
 DFV .                        47.0000:        VISCOSITY
 DFPH.                         8.5000:        PH
 DFL .                        14.0000:        FLUID LOSS
 RMS .                         0.1600:        RM
 MST .F                       43.0000:        RM MEAS. TEMP.
 RMF .                         0.1100:        RMF
 MFST.F                       43.0000:        RMF MEAS. TEMP.
 RMC .                         0.1200:        RMC
 MCST.F                       43.0000:        RMC MEAS. TEMP.
~OTHER INFORMATION
~A    DEPTH        CALI          GR        NPHI        RHOB        DRHO          DT          SP         ILD         ILM         SFL         LLD         LLS        MSFL  
# ...
  1514.0000   -999.2500     41.0398     59.9017   -999.2500   -999.2500   -999.2500   -999.2500   -999.2500   -999.2500   -999.2500   -999.2500   -999.2500   -999.2500  
  1514.5000   -999.2500     41.1063     59.9645   -999.2500   -999.2500   -999.2500   -999.2500   -999.2500   -999.2500   -999.2500   -999.2500   -999.2500   -999.2500  
  1515.0000   -999.2500     41.1706     54.0767   -999.2500   -999.2500   -999.2500   -999.2500   -999.2500   -999.2500   -999.2500   -999.2500   -999.2500   -999.2500  
  1515.5000   -999.2500     40.7905     53.9194   -999.2500   -999.2500   -999.2500   -999.2500   -999.2500   -999.2500   -999.2500   -999.2500   -999.2500   -999.2500  
  1516.0000   -999.2500     40.8073     53.2841   -999.2500   -999.2500   -999.2500   -999.2500   -999.2500   -999.2500   -999.2500   -999.2500   -999.2500   -999.2500  
  1516.5000   -999.2500     41.8437     51.8425   -999.2500   -999.2500   -999.2500   -999.2500   -999.2500   -999.2500   -999.2500   -999.2500   -999.2500   -999.2500  
  1517.0000   -999.2500     42.9663     51.2831   -999.2500   -999.2500   -999.2500   -999.2500   -999.2500   -999.2500   -999.2500   -999.2500   -999.2500   -999.2500  
  1517.5000   -999.2500     43.7481     51.0943   -999.2500   -999.2500   -999.2500   -999.2500   -999.2500   -999.2500   -999.2500   -999.2500   -999.2500   -999.2500  
  1518.0000   -999.2500     43.6980     51.5869   -999.2500   -999.2500   -999.2500   -999.2500   -999.2500   -999.2500   -999.2500   -999.2500   -999.2500   -999.2500  
  1518.5000   -999.2500     43.7302     52.8148   -999.2500   -999.2500   -999.2500   -999.2500   -999.2500   -999.2500   -999.2500   -999.2500   -999.2500   -999.2500  
  1519.0000   -999.2500     43.7719     54.7692   -999.2500   -999.2500   -999.2500   -999.2500   -999.2500   -999.2500   -999.2500   -999.2500   -999.2500   -999.2500  
  1519.5000   -999.2500     44.0726     57.7001   -999.2500   -999.2500   -999.2500   -999.2500   -999.2500   -999.2500   -999.2500   -999.2500   -999.2500   -999.2500  
  1520.0000      8.9356     45.2186     58.4820      2.6773     -0.2680     73.6664   -999.2500   -999.2500   -999.2500   -999.2500      3.5037    313.9481     12.4467  
  1520.5000      8.9497     46.4091     56.8887      2.7234     -0.2681    123.2489   -999.2500   -999.2500   -999.2500   -999.2500      0.9556     19.0520      1.3564  
  1521.0000      8.9494     48.3554     55.0122      2.7566     -0.2683    127.5674   -999.2500   -999.2500   -999.2500   -999.2500      0.4546      0.9295      1.8346  
  1521.5000      8.9348     51.3663     54.1650      2.7072     -0.2684    132.0661   -999.2500   -999.2500   -999.2500   -999.2500      0.2200      0.2253      3.2676  
  1522.0000      8.9597     58.1293     53.5779      2.6389     -0.1882    112.2248   -999.2500   -999.2500   -999.2500   -999.2500      0.1844      0.1823      4.4148  
  1522.5000      9.0450     64.9956     52.8978      2.5386      0.0127    114.3363   -999.2500   -999.2500   -999.2500   -999.2500      0.4650     30.7325      4.6025  
  1523.0000      9.1622     70.7864     50.9811      2.5662      0.1621    118.8193   -999.2500   -999.2500   -999.2500   -999.2500      1.2381     81.3229      3.8926  
  1523.5000      9.2865     74.1325     49.4980      2.3930      0.1586    118.2565   -999.2500   -999.2500   -999.2500   -999.2500      3.2963     10.3428      3.0875  
  1524.0000      9.3071     77.9655     47.2504      2.2972      0.1045    109.4935   -999.2500   -999.2500   -999.2500   -999.2500      7.2859      7.5841      3.3565  
  1524.5000      9.3284     82.8120     45.7427      2.2777      0.0920    106.4502   -999.2500   -999.2500   -999.2500   -999.2500      7.1523      5.2311      4.3667  
  1525.0000      9.4004     87.4049     45.7075      2.2720      0.0789    107.2404   -999.2500   -999.2500   -999.2500   -999.2500      8.7253      5.2513      5.0130  
  1525.5000      9.5528     90.7669     45.1160      2.3149      0.0669    108.7017   -999.2500   -999.2500   -999.2500   -999.2500      5.9902      8.8422      4.8728  
  1526.0000      9.9723     94.3336     42.8450      2.4444      0.0930    110.8842   -999.2500   -999.2500   -999.2500   -999.2500      6.1652      9.6682      4.6904  
  1526.5000     10.3533     94.5815     40.1238      2.4668      0.0999    113.2361   -999.2500   -999.2500   -999.2500   -999.2500      7.2586      9.3298      4.7443  
  1527.0000     10.8666     92.8286     39.8644      2.4552      0.0799    114.2915   -999.2500   -999.2500   -999.2500   -999.2500      8.3363      9.0684      4.7975  
  1527.5000     10.9610     91.6459     40.6249      2.4585      0.0933    113.7983   -999.2500   -999.2500   -999.2500   -999.2500      3.0691      8.0493      4.6018  
  1528.0000     10.5400     90.5465     41.0680      2.4457      0.0955    112.8209   -999.2500   -999.2500   -999.2500   -999.2500      1.5798      7.0457      4.3126  
  1528.5000     11.0248     88.9671     41.1106      2.4281      0.0886    111.7979   -999.2500   -999.2500   -999.2500   -999.2500      1.4665      6.8332      4.0389  
  1529.0000     11.4757     87.2349     41.6110      2.4139      0.0800    110.3166   -999.2500   -999.2500   -999.2500   -999.2500      1.5218      6.9894      3.7845  
  1529.5000     11.9074     88.2459     42.6878      2.4035      0.0655    110.1661   -999.2500   -999.2500   -999.2500   -999.2500      2.9886      7.3927      3.6875  
  1530.0000     12.0145     89.5465     42.9243      2.3795      0.0538    109.9819   -999.2500   -999.2500   -999.2500   -999.2500     21.6888      8.0594      3.8124  
  1530.5000     11.8083     90.2589     42.3456      2.3646      0.0464    108.9334   -999.2500   -999.2500   -999.2500   -999.2500      3.1887      8.9721      4.0161  
  1531.0000     11.4358     90.0724     41.3425      2.3943      0.0440    110.5923   -999.2500   -999.2500   -999.2500   -999.2500      4.3645      9.4418      4.5611  
  1531.5000     11.1386     89.6376     40.6266      2.4395      0.0621    113.7799   -999.2500   -999.2500   -999.2500   -999.2500      5.1266      9.6929      4.6340  
  1532.0000     11.3284     88.8825     40.4053      2.4641      0.0855    115.9422   -999.2500   -999.2500   -999.2500   -999.2500      5.1855      9.7660      4.1513  
  1532.5000     11.2484     88.3774     40.1620      2.4701      0.0936    117.6614   -999.2500   -999.2500   -999.2500   -999.2500      3.0182      9.6919      3.6147  
  1533.0000     11.1059     89.9335     39.7250      2.4682      0.0938    118.7760   -999.2500   -999.2500   -999.2500   -999.2500      1.4489      8.8228      2.9632  
  1533.5000     10.9719     91.7726     39.3299      2.4583      0.0836    119.1799   -999.2500   -999.2500   -999.2500   -999.2500      0.9240      8.0714      2.3536  
  1534.0000     10.6208     94.5807     39.1061      2.4283      0.0722    119.2944   -999.2500   -999.2500   -999.2500   -999.2500      5.0129      8.2287      2.3549  
  1534.5000     10.8878     97.3287     39.1271      2.4060      0.0555    119.2816   -999.2500   -999.2500   -999.2500   -999.2500      9.2866      8.5824      2.6062  
  1535.0000     11.1650     98.0455     39.5479      2.3940      0.0425    119.2634   -999.2500   -999.2500   -999.2500   -999.2500     11.6471      8.8408      2.8850  
  1535.5000     11.2309     97.4341     40.6032      2.3801      0.0374    117.2521   -999.2500   -999.2500   -999.2500   -999.2500     12.6857      8.9370      2.6093  
  1536.0000     11.3698     98.1612     41.3763      2.3952      0.0524    113.9807   -999.2500   -999.2500   -999.2500   -999.2500     10.2300      9.0516      2.0700  
  1536.5000     11.8710    101.3177     43.0449      2.4085      0.0529    115.4914   -999.2500   -999.2500   -999.2500   -999.2500      9.7558      9.1836      2.5496  
  1537.0000     11.5205    102.8082     44.8241      2.4096      0.0614    115.4852   -999.2500   -999.2500   -999.2500   -999.2500      9.9954      9.3176      3.8885  
  1537.5000     10.9664    100.9029     45.6798      2.4226      0.0743    115.8920   -999.2500   -999.2500   -999.2500   -999.2500     10.0151      9.4535      3.2541  
