~VERSION INFORMATION
 VERS.                           2.00:        CWLS LOG ASCII STANDARD - VERSION 2.00
 WRAP.                             NO:        ONE LINE PER DEPTH STEP
~WELL INFORMATION
#MNEM.UNIT                   DATA             INFORMATION
#----------             --------------        ------------------------------
 STRT.F                       50.0000:        START DEPTH
 STOP.F                     2158.0000:        STOP DEPTH
 STEP.F                        0.5000:        STEP VALUE
 NULL.                      -999.2500:        NULL VALUE
 COMP.              HUSKY OIL COMPANY:        COMPANY  
 LOC .                   25  22N  17W:        LOCATION   
 DATE.                        2-19-77:        LOG DATE 
 WELL.               SOUTH BARROW #14:        WELL     
 UWI .                   500232000900:        UNIQUE WELL ID 
 API .                   500232000900:        UNIQUE WELL IDENTIFIER 
 FLD .               SOUTH BARROW GAS:        FIELD    
 CNTY.                    NORTH SLOPE:        COUNTY  
 STAT.                         ALASKA:        STATE   
 CTRY.                            USA:        COUNTRY 
 OPER.              HUSKY OIL COMPANY:        OPERATOR  
 SRVC.                   SCHLUMBERGER:        SERVICE COMPANY 
 LAT .                         0.0000:        LATITUDE
 LON .                         0.0000:        LONGITUDE
 DIGS.               CENTER LINE DATA:        DIGITIZING COMPANY 
~CURVE INFORMATION      
#MNEM        .UNIT         API CODE           CURVE DESCRIPTION
#-----------------      --------------        ------------------------------
 DEPT        .F                      :        1  DEPTH
 LLS         .OHMM                   :        2  
 LLD         .OHMM                   :        3  
 SP          .MV                     :        4  
 ILD         .OHMM                   :        5  
 ILM         .OHMM                   :        6  
 LL8         .OHMM                   :        7  
 CALI        .IN                     :        8  
 GR          .GAPI                   :        9  
 NPHI        .%                      :        10 
 DPHI        .%                      :        11 
 RHOB        .G/C3                   :        12 
 DRHO        .G/C3                   :        13 
 DT          .US/F                   :        14 
~PARAMETER INFORMATION       
#MNEM.UNIT                  VALUE             DESCRIPTION OF MNEMONIC
#---------             ---------------        ------------------------------
 EKB .F                       31.0000:        KELLY BUSHING
 TD  .F                     1042.0000:        TOTAL DEPTH
 BHT .F                       62.0000:        BOTTOM HOLE TEMPERATURE
 BS  .                         6.0000:        BIT SIZE
 FD  .                        10.7000:        FLUID DENSITY
 CSIZ.                         7.0000:        CASING SIZE
 CBD .F                     1947.0000:        CASING DRILLER 1
 CBL .F                     1946.0000:        CASING LOGGER 1
 DFT .                  Miscellaneous:        TYPE FLUID IN HOLE
 DFV .                        50.0000:        VISCOSITY
 DFPH.                        10.0000:        PH
 DFL .                         0.0000:        FLUID LOSS
 RMS .                         0.1500:        RM
 MST .F                       50.0000:        RM MEAS. TEMP.
 RMF .                         0.1600:        RMF
 MFST.F                       61.0000:        RMF MEAS. TEMP.
 RMC .                         0.0000:        RMC
 MCST.F                        0.0000:        RMC MEAS. TEMP.
~OTHER INFORMATION
~A    DEPTH         LLS         LLD          SP         ILD         ILM         LL8        CALI          GR        NPHI        DPHI        RHOB        DRHO          DT  
# ...
  1250.0000   -999.2500   -999.2500    -64.2159     11.1940     11.4701     11.7324      9.4497     84.4724     40.9815     13.8028      2.3996      0.0788    112.6974  
  1250.5000   -999.2500   -999.2500    -64.3107     10.8021     11.0684     11.0591      9.2486     84.6849     41.0021     15.2939      2.3889      0.0732    111.8289  
  1251.0000   -999.2500   -999.2500    -64.2873     10.4239     10.6808     10.3872      9.0344     85.6790     41.6472     15.8019      2.3788      0.0658    113.4021  
  1251.5000   -999.2500   -999.2500    -64.2592     10.0590     10.3068     10.2501      8.8154     87.7199     43.4560     16.1960      2.3867      0.0593    112.6828  
  1252.0000   -999.2500   -999.2500    -64.2908     10.1336     10.3342     10.3864      8.5882     87.6625     44.4609     17.1324      2.3916      0.0614    114.5670  
  1252.5000   -999.2500   -999.2500    -64.3349     10.2143     10.4164     10.4751      8.4262     86.1248     46.1890     16.3699      2.4078      0.0557    115.2256  
  1253.0000   -999.2500   -999.2500    -64.2898     10.2955     10.4993     10.4339      8.4944     84.9124     47.6836     15.7304      2.4288      0.0700    117.6292  
  1253.5000   -999.2500   -999.2500    -63.9889     10.2274     10.4349     10.4638      8.5666     85.4626     47.2684     15.1859      2.4338      0.0928    118.7693  
  1254.0000   -999.2500   -999.2500    -63.3773     10.0908     10.2955     10.4567      8.4838     87.2536     44.4056     13.9322      2.4621      0.1155    118.9082  
  1254.5000   -999.2500   -999.2500    -62.7208      9.9559     10.1580     10.2925      8.4216     89.0450     42.2206     14.3710      2.4664      0.1041    118.4982  
  1255.0000   -999.2500   -999.2500    -62.4535      9.8229     10.0223     10.1469      8.5261     89.1963     41.0251     12.1574      2.4579      0.0870    118.3970  
  1255.5000   -999.2500   -999.2500    -62.3676      9.6059      9.8142      9.9877      8.6371     88.3302     42.0110     11.7384      2.4699      0.0941    118.0026  
  1256.0000   -999.2500   -999.2500    -62.4757      9.3928      9.5964      9.8283      8.6004     86.9656     43.0068     12.6388      2.4520      0.1019    118.9978  
  1256.5000   -999.2500   -999.2500    -62.6509      9.2374      9.4276      9.8942      8.5830     85.4739     43.8133     11.6510      2.4389      0.0981    118.9324  
  1257.0000   -999.2500   -999.2500    -62.7691      9.3835      9.5767     10.2064      8.5646     85.0825     43.1408     12.6893      2.4231      0.0877    118.0044  
  1257.5000   -999.2500   -999.2500    -62.8343      9.5319      9.7281     10.5285      8.5335     85.8396     42.5269     13.4195      2.4129      0.0803    118.8927  
  1258.0000   -999.2500   -999.2500    -63.1854      9.6826      9.8820     10.8608      8.5754     87.7634     42.1978     14.3485      2.4025      0.0656    119.3957  
  1258.5000   -999.2500   -999.2500    -63.6565      9.5346      9.7203     11.2035      8.5791     89.1185     42.3295     15.0153      2.3946      0.0448    119.8605  
  1259.0000   -999.2500   -999.2500    -64.0077      9.4945      9.6826     11.1796      8.5848     88.4094     42.8912     15.3462      2.3928      0.0541    120.0184  
  1259.5000   -999.2500   -999.2500    -64.3251      9.4738      9.6685     10.9648      8.5962     86.9533     42.4310     16.0719      2.3759      0.0503    119.3278  
  1260.0000   -999.2500   -999.2500    -64.8063      9.9566     10.4326     10.9246      8.6343     85.8703     42.4231     16.4632      2.3653      0.0455    118.5314  
  1260.5000   -999.2500   -999.2500    -65.4002     10.6518     10.9560     11.6681      8.5971     86.7239     42.4236     17.1843      2.3735      0.0646    118.0255  
  1261.0000   -999.2500   -999.2500    -65.6850     11.1862     11.5056     13.0347      8.4710     86.8090     42.1878     17.6375      2.3676      0.0775    118.4364  
  1261.5000   -999.2500   -999.2500    -65.6833     11.7473     12.0787     14.3634      8.3173     84.1687     42.0121     17.0490      2.3535      0.0667    118.0948  
  1262.0000   -999.2500   -999.2500    -65.4571     12.2955     12.6305     15.8276      8.1731     80.3484     41.3639     17.6591      2.3446      0.0605    117.2481  
  1262.5000   -999.2500   -999.2500    -65.1790     12.8573     13.2076     15.5783      8.2862     76.7799     40.6508     18.7644      2.3619      0.0697    116.3082  
  1263.0000   -999.2500   -999.2500    -64.8934     13.4447     13.8110     14.7664      8.2549     74.7111     40.4835     19.1759      2.3791      0.0811    113.4740  
  1263.5000   -999.2500   -999.2500    -64.5614     13.9308     14.2285     13.9969      8.0909     73.8925     40.1315     18.7807      2.3927      0.1033     65.7430  
  1264.0000   -999.2500   -999.2500    -64.4004     13.6449     13.9365     14.6822      8.3728     75.2386     38.6469     17.4087      2.4034      0.1161    115.7407  
  1264.5000   -999.2500   -999.2500    -64.4382     13.3650     13.6506     16.2853      8.5298     76.3134     38.0473     15.6294      2.3689      0.0879    115.0359  
  1265.0000   -999.2500   -999.2500    -64.6189     13.0907     13.3705     15.2953      8.5249     76.0227     37.9683     15.1842      2.3499      0.0595    115.0189  
  1265.5000   -999.2500   -999.2500    -64.7982     13.0727     13.3557     14.0322      8.4871     76.0829     37.7124     17.1696      2.3590      0.0569    115.2373  
  1266.0000   -999.2500   -999.2500    -65.0018     13.3656     13.6550     12.8734      8.4201     78.7801     37.8619     19.0881      2.3997      0.0716    115.8743  
  1266.5000   -999.2500   -999.2500    -65.3175     13.8089     14.1791     13.8225      8.3373     82.5171     38.6971     18.0350      2.4295      0.0994    115.8202  
  1267.0000   -999.2500   -999.2500    -65.4625     14.4180     14.8046     15.0992      8.3500     85.1672     38.8159     15.5587      2.4414      0.1157    116.0377  
  1267.5000   -999.2500   -999.2500    -65.4583     15.0540     15.4575     16.4938      8.4348     85.1576     38.3788     14.0048      2.4250      0.1207    115.6880  
  1268.0000   -999.2500   -999.2500    -65.3126     15.7181     16.1393     19.4979      8.4525     82.3084     36.9646     13.1926      2.3812      0.0975    113.0779  
  1268.5000   -999.2500   -999.2500    -65.1242     16.3155     16.7670     23.2764      8.2412     76.5395     35.6144     13.7835      2.3370      0.0847    110.6540  
  1269.0000   -999.2500   -999.2500    -64.9389     15.5809     16.0120     23.4469      8.0166     73.2244     35.8340     16.5720      2.3112      0.0810    108.5732  
  1269.5000   -999.2500   -999.2500    -64.6665     14.8793     15.2911     20.5884      7.9055     71.5779     35.8918     19.3945      2.3124      0.0620    109.9305  
  1270.0000   -999.2500   -999.2500    -64.3525     14.2094     14.6026     16.4233      7.7422     73.7373     34.7233     21.5651      2.3326      0.0428    112.9484  
  1270.5000   -999.2500   -999.2500    -64.1487     13.5696     13.9451     13.7272      7.8220     75.8267     34.6969     20.8145      2.3668      0.0457    117.4912  
  1271.0000   -999.2500   -999.2500    -64.2559     12.9586     13.3172     13.6949      7.8972     77.6718     36.1858     19.6315      2.3810      0.0378    128.1390  
  1271.5000   -999.2500   -999.2500    -64.1557     13.2079     13.5196     13.7452      8.0498     79.7678     38.2214     17.6973      2.3731      0.0467     94.8817  
  1272.0000   -999.2500   -999.2500    -63.7997     13.6251     13.9466     13.7956      8.2564     81.2229     38.8464     17.1144      2.3820      0.0494    114.8776  
  1272.5000   -999.2500   -999.2500    -63.7080     14.0554     14.3870     14.2502      8.5882     81.6369     38.9077     16.8530      2.3967      0.0593    114.3764  
  1273.0000   -999.2500   -999.2500    -64.0389     14.4993     14.8414     16.9031      8.7423     81.0572     40.2808     16.9536      2.3935      0.0654    113.1256  
  1273.5000   -999.2500   -999.2500    -64.4615     14.7211     15.0121     20.1697      8.8662     81.1178     40.3913     15.4575      2.3764      0.0907    113.2508  
