~VERSION INFORMATION
 VERS.                           2.00:        CWLS LOG ASCII STANDARD - VERSION 2.00
 WRAP.                             NO:        ONE LINE PER DEPTH STEP
~WELL INFORMATION
#MNEM.UNIT                   DATA             INFORMATION
#----------             --------------        ------------------------------
 STRT.F                     1244.0000:        START DEPTH
 STOP.F                     2340.0000:        STOP DEPTH
 STEP.F                        0.5000:        STEP VALUE
 NULL.                      -999.2500:        NULL VALUE
 COMP.        U.S. NAVY DEPT NP & OSR:        COMPANY  
 LOC .                   14  22N  18W:        LOCATION   
 DATE.                        3/16/73:        LOG DATE 
 WELL.               SOUTH BARROW #10:        WELL     
 UWI .                   500232000400:        UNIQUE WELL ID 
 API .                   500232000400:        UNIQUE WELL IDENTIFIER 
 FLD .                   SOUTH BARROW:        FIELD    
 CNTY.                         NPR #4:        COUNTY  
 STAT.                         ALASKA:        STATE   
 CTRY.                            USA:        COUNTRY 
 OPER.        U.S. NAVY DEPT NP & OSR:        OPERATOR  
 SRVC.                   SCHLUMBERGER:        SERVICE COMPANY 
 LAT .                         0.0000:        LATITUDE
 LON .                         0.0000:        LONGITUDE
 DIGS.               CENTER LINE DATA:        DIGITIZING COMPANY 
~CURVE INFORMATION      
#MNEM        .UNIT         API CODE           CURVE DESCRIPTION
#-----------------      --------------        ------------------------------
 DEPT        .F                      :        1  DEPTH
 SP          .MV                     :        2  
 LL8         .OHMM                   :        3  
 ILD         .OHMM                   :        4  
 CILD        .MMHO                   :        5  
 DT          .US/F                   :        6  
~PARAMETER INFORMATION       
#MNEM.UNIT                  VALUE             DESCRIPTION OF MNEMONIC
#---------             ---------------        ------------------------------
 EKB .F                       38.0000:        KELLY BUSHING
 TD  .F                     2349.0000:        TOTAL DEPTH
 BHT .F                       60.0000:        BOTTOM HOLE TEMPERATURE
 BS  .                         9.6250:        BIT SIZE
 FD  .                        10.6000:        FLUID DENSITY
 CSIZ.                        10.7500:        CASING SIZE
 CBD .F                     1240.0000:        CASING DRILLER 1
 CBL .F                     1244.0000:        CASING LOGGER 1
 DFT .                  Miscellaneous:        TYPE FLUID IN HOLE
 DFV .                        15.0000:        VISCOSITY
 DFPH.                        11.0000:        PH
 DFL .                         1.8000:        FLUID LOSS
 RMS .                         1.1900:        RM
 MST .F                       55.0000:        RM MEAS. TEMP.
 RMF .                         0.8500:        RMF
 MFST.F                       55.0000:        RMF MEAS. TEMP.
 RMC .                         1.2000:        RMC
 MCST.F                       55.0000:        RMC MEAS. TEMP.
~OTHER INFORMATION
~A    DEPTH          SP         LL8         ILD        CILD          DT  
# ...
  1462.0000    -26.9469     13.3909     10.5535     93.7906    115.0651  
  1462.5000    -26.8928     13.8273     10.7943     91.2281    114.9929  
  1463.0000    -27.0342     14.2291     11.1571     89.2075    114.4580  
  1463.5000    -27.2975     14.5315     11.3407     87.9205    112.2178  
  1464.0000    -27.7881     14.4846     11.4605     87.7799    109.8930  
  1464.5000    -28.5567     14.4376     11.5347     87.6392    106.7203  
  1465.0000    -29.5587     14.3503     11.5240     87.4985    105.9016  
  1465.5000    -29.8813     14.3518     11.4890     87.3579    106.0665  
  1466.0000    -29.3699     14.4057     11.4683     87.4822    106.4071  
  1466.5000    -28.7355     14.6102     11.4971     87.9475    106.9080  
  1467.0000    -28.3557     14.8319     11.6432     86.2512    107.7685  
  1467.5000    -28.1739     15.0912     11.8914     83.2162    108.1768  
  1468.0000    -28.0558     15.5353     12.4106     79.9317    108.8189  
  1468.5000    -27.9396     15.8939     12.8880     76.6472    107.2650  
  1469.0000    -27.8214     16.0347     13.3485     75.0596    106.3030  
  1469.5000    -27.6639     16.0545     13.7159     73.6471    104.8345  
  1470.0000    -27.5644     15.9282     13.8165     73.0483    103.5321  
  1470.5000    -27.4672     15.7655     13.8754     72.6142    102.8364  
  1471.0000    -27.2340     15.5542     13.8748     72.9036    103.0647  
  1471.5000    -26.8749     15.3080     13.8005     73.2996    103.8335  
  1472.0000    -26.7034     15.0179     13.6099     74.1909    103.9050  
  1472.5000    -26.8273     14.6593     13.3544     75.6086    104.3457  
  1473.0000    -26.9702     14.0016     12.7563     78.0639    104.8739  
  1473.5000    -27.1348     13.3439     12.1581     80.8031    105.7061  
  1474.0000    -27.5168     12.6861     11.5599     85.3838    105.9502  
  1474.5000    -27.9819     12.3492     11.0637     89.7497    105.5705  
  1475.0000    -28.8780     12.0400     10.5861     93.9705    105.0548  
  1475.5000    -30.0401     11.7427     10.1085     97.5017    105.0560  
  1476.0000    -31.5628     11.6826      9.7356    101.4231    106.1345  
  1476.5000    -33.1263     11.6133      9.3857    105.7692    108.0661  
  1477.0000    -34.3719     11.5498      9.0384    108.6906    109.9996  
  1477.5000    -35.5498     11.5606      8.7688    111.3018    111.0581  
  1478.0000    -34.6812     11.6625      8.7347    111.8149    111.8660  
  1478.5000    -32.8647     11.7837      8.7917    110.8615    110.2688  
  1479.0000    -31.2288     11.9880      8.9897    108.2200    108.1532  
  1479.5000    -30.4568     12.2285      9.3362    104.8605    107.0012  
  1480.0000    -29.9445     12.4012      9.7421    101.2033    108.4300  
  1480.5000    -29.4908     12.6479     10.0082     97.5461    110.3276  
  1481.0000    -28.9338     13.0595     10.3569     94.5664    111.5332  
  1481.5000    -28.7386     13.5697     10.7662     91.0599    111.8513  
  1482.0000    -28.8634     14.0507     11.1754     87.6305    111.5117  
  1482.5000    -28.8908     14.4061     11.5847     84.9152    109.8444  
  1483.0000    -28.7890     14.6088     11.9673     82.6656    107.7349  
  1483.5000    -28.7380     14.6821     12.2421     81.4376    107.4083  
  1484.0000    -28.5244     14.7214     12.3758     80.5560    107.4066  
  1484.5000    -28.0024     14.7611     12.4858     80.0372    107.3590  
  1485.0000    -27.5899     14.7284     12.5805     79.8959    107.2009  
  1485.5000    -27.8176     14.7064     12.5579     80.0601    106.9073  
  1486.0000    -27.9932     14.6814     12.5277     80.2243    106.6497  
  1486.5000    -28.0906     14.6785     12.4611     80.3885    106.5440  
  1487.0000    -28.1881     14.6421     12.4606     80.5527    106.4684  
  1487.5000    -28.2855     14.5659     12.4118     80.7169    105.5272  
  1488.0000    -28.4300     14.4743     12.3665     80.8811    106.0824  
  1488.5000    -28.6603     14.4407     12.3134     81.0453    106.7866  
  1489.0000    -28.8505     14.4382     12.3073     81.2095    107.7387  
  1489.5000    -28.8062     14.4357     12.3038     81.3737    106.8120  
  1490.0000    -28.8379     14.3923     12.3285     81.5039    105.9354  
  1490.5000    -29.0167     14.2894     12.3509     81.2304    106.1332  
  1491.0000    -29.0831     14.1860     12.3417     81.4355    105.8864  
  1491.5000    -28.6950     14.0776     12.2656     81.8032    105.8806  
  1492.0000    -28.2921     13.9133     12.1948     82.1555    105.6966  
  1492.5000    -28.0704     13.7450     12.0758     82.5078    105.0360  
  1493.0000    -27.5949     13.5554     11.8915     82.8600    105.4166  
  1493.5000    -26.9521     13.3958     11.7943     83.2123    105.9084  
  1494.0000    -26.6584     13.2955     11.6634     83.6525    106.6595  
  1494.5000    -26.6030     13.2667     11.5066     84.4845    108.2301  
  1495.0000    -26.5968     13.2493     11.4212     85.3165    109.1229  
  1495.5000    -26.6047     13.2468     11.3796     86.1484    107.2660  
  1496.0000    -26.9113     13.3015     11.3425     86.9804    107.8545  
  1496.5000    -27.4486     13.3703     11.3512     87.5490    108.4284  
  1497.0000    -27.7312     13.4450     11.3542     87.3315    109.5068  
  1497.5000    -27.7481     13.5678     11.4108     87.1141    109.4038  
  1498.0000    -27.7237     13.6313     11.4608     86.7349    108.9481  
  1498.5000    -27.6010     13.6720     11.5077     86.4327    108.6872  
  1499.0000    -27.3130     13.7397     11.5876     86.1013    108.6952  
  1499.5000    -26.9343     13.8704     11.6676     85.5331    109.0913  
  1500.0000    -26.5846     14.0010     11.7475     84.8377    107.5779  
  1500.5000    -26.4043     14.1160     11.8275     84.1358    106.4120  
  1501.0000    -26.5745     14.1602     11.9074     83.6993    106.9474  
  1501.5000    -26.8428     14.1948     11.9494     83.4422    106.9017  
  1502.0000    -27.1350     14.2333     11.9556     83.5133    106.6964  
  1502.5000    -27.2736     14.2718     11.9759     83.5496    106.4145  
  1503.0000    -27.4394     14.3146     12.0301     83.2968    105.7323  
  1503.5000    -27.7448     14.4306     12.0978     82.6731    105.7528  
  1504.0000    -28.2409     14.5349     12.2063     82.4205    105.8821  
  1504.5000    -28.2078     14.6042     12.2751     82.3009    105.4390  
  1505.0000    -27.9073     14.5758     12.2787     82.1813    105.1814  
  1505.5000    -27.7192     14.4357     12.2736     82.0616    105.0168  
  1506.0000    -27.6849     14.5861     12.2572     81.8273    104.8267  
  1506.5000    -27.9646     14.7365     12.3288     81.4557    104.2761  
  1507.0000    -28.2176     14.8046     12.5006     80.4526    103.5294  
  1507.5000    -27.9214     14.7284     12.6493     79.8578    103.6252  
  1508.0000    -27.3447     14.5308     12.6244     80.1120    104.4729  
  1508.5000    -27.1244     14.3308     12.4997     80.6143    105.4123  
  1509.0000    -27.1749     14.2110     12.3539     81.7338    105.7104  
  1509.5000    -27.2648     14.1854     12.2148     82.1757    105.3161  
  1510.0000    -27.3382     14.1480     12.2046     82.3261    103.7919  
  1510.5000    -27.3948     13.9927     12.2018     82.1012    103.0116  
  1511.0000    -27.5177     13.7255     12.1620     82.6393    104.0729  
  1511.5000    -27.5556     13.4960     12.0232     83.7017    105.9954  
  1512.0000    -27.7916     13.2968     11.8065     85.2034    107.0843  
  1512.5000    -27.9092     13.1256     11.5513     86.7051    106.9148  
  1513.0000    -27.8907     12.9751     11.3079     88.1177    106.1709  
  1513.5000    -28.0475     12.8397     11.1530     89.2260    106.1105  
  1514.0000    -27.9827     12.7045     11.0574     89.9244    105.6867  
  1514.5000    -27.9154     12.6099     10.9253     90.6297    107.3073  
  1515.0000    -27.8817     12.5793     10.8885     91.2098    109.1630  
  1515.5000    -27.7645     12.5851     10.8234     91.7334    110.5757  
  1516.0000    -27.4838     12.6830     10.7907     91.8642    112.9014  
