~VERSION INFORMATION
 VERS.                           2.00:        CWLS LOG ASCII STANDARD - VERSION 2.00
 WRAP.                             NO:        ONE LINE PER DEPTH STEP
~WELL INFORMATION
#MNEM.UNIT                   DATA             INFORMATION
#----------             --------------        ------------------------------
 STRT.F                       78.0000:        START DEPTH
 STOP.F                     2392.0000:        STOP DEPTH
 STEP.F                        0.5000:        STEP VALUE
 NULL.                      -999.2500:        NULL VALUE
 COMP.              U.S.G.S./NPR -  A:        COMPANY  
 LOC .                    1  22N  18W:        LOCATION   
 DATE.                        2/14/78:        LOG DATE 
 WELL.               SOUTH BARROW #16:        WELL     
 UWI .                   500232001000:        UNIQUE WELL ID 
 API .                   500232001000:        UNIQUE WELL IDENTIFIER 
 FLD .                   SOUTH BARROW:        FIELD    
 CNTY.                    NORTH SLOPE:        COUNTY  
 STAT.                         ALASKA:        STATE   
 CTRY.                            USA:        COUNTRY 
 OPER.              U.S.G.S./NPR -  A:        OPERATOR  
 SRVC.                   SCHLUMBERGER:        SERVICE COMPANY 
 LAT .                         0.0000:        LATITUDE
 LON .                         0.0000:        LONGITUDE
 DIGS.               CENTER LINE DATA:        DIGITIZING COMPANY 
~CURVE INFORMATION      
#MNEM        .UNIT         API CODE           CURVE DESCRIPTION
#-----------------      --------------        ------------------------------
 DEPT        .F                      :        1  DEPTH
 CALI        .IN                     :        2  
 GR          .GAPI                   :        3  
 RHOB        .G/C3                   :        4  
 DRHO        .G/C3                   :        5  
 NPHI        .%                      :        6  
 DT          .US/F                   :        7  
 SP          .MV                     :        8  
 ILD         .OHMM                   :        9  
 ILM         .OHMM                   :        10 
 LL8         .OHMM                   :        11 
 LLD         .OHMM                   :        12 
 LLS         .OHMM                   :        13 
~PARAMETER INFORMATION       
#MNEM.UNIT                  VALUE             DESCRIPTION OF MNEMONIC
#---------             ---------------        ------------------------------
 EKB .F                       30.0000:        KELLY BUSHING
 TD  .F                     2399.0000:        TOTAL DEPTH
 BHT .F                       73.0000:        BOTTOM HOLE TEMPERATURE
 BS  .                         8.5000:        BIT SIZE
 FD  .                        11.0000:        FLUID DENSITY
 CSIZ.                         8.5000:        CASING SIZE
 CBD .F                     1489.0000:        CASING DRILLER 1
 CBL .F                     1487.0000:        CASING LOGGER 1
 DFT .                  Miscellaneous:        TYPE FLUID IN HOLE
 DFV .                        52.0000:        VISCOSITY
 DFPH.                         8.5000:        PH
 DFL .                         8.0000:        FLUID LOSS
 RMS .                         0.0210:        RM
 MST .F                       58.0000:        RM MEAS. TEMP.
 RMF .                         0.0130:        RMF
 MFST.F                       52.0000:        RMF MEAS. TEMP.
 RMC .                         0.0170:        RMC
 MCST.F                       56.0000:        RMC MEAS. TEMP.
~OTHER INFORMATION
~A    DEPTH        CALI          GR        RHOB        DRHO        NPHI          DT          SP         ILD         ILM         LL8         LLD         LLS  
# ...
   103.5000     16.2489     48.8409   -999.2500   -999.2500   -999.2500    154.5339    -63.8001      3.7751      3.1437      4.8301   -999.2500   -999.2500  
   104.0000     16.2766     50.1157   -999.2500   -999.2500   -999.2500    151.2863    -63.4536      3.7836      3.1447      4.6590   -999.2500   -999.2500  
   104.5000     16.3047     51.3906   -999.2500   -999.2500   -999.2500    151.2129    -63.1100      3.7870      3.1558      4.4790   -999.2500   -999.2500  
   105.0000     16.3133     51.4669   -999.2500   -999.2500   -999.2500    153.9916    -62.9823      3.7605      3.1669      4.2633   -999.2500   -999.2500  
   105.5000     16.3187     51.5089   -999.2500   -999.2500   -999.2500    158.9316    -62.7885      3.7325      3.1776      4.0581   -999.2500   -999.2500  
   106.0000     16.3111     52.8468   -999.2500   -999.2500   -999.2500    165.0357    -62.2924      3.6882      3.1152      3.9475   -999.2500   -999.2500  
   106.5000     16.0045     54.7036   -999.2500   -999.2500   -999.2500    163.4615    -61.7434      3.6444      3.0540      4.0943   -999.2500   -999.2500  
   107.0000     15.2345     56.0803   -999.2500   -999.2500   -999.2500    156.6210    -61.5798      3.5908      2.9940      4.1038   -999.2500   -999.2500  
   107.5000     14.4644     58.0644   -999.2500   -999.2500   -999.2500    153.3659    -61.6566      3.5345      2.8782      3.9570   -999.2500   -999.2500  
   108.0000     12.5213     59.2621   -999.2500   -999.2500   -999.2500    149.3340    -61.8321      3.4792      2.7752      3.8154   -999.2500   -999.2500  
   108.5000     12.3581     60.2054   -999.2500   -999.2500   -999.2500    147.1889    -61.6639      3.4247      2.6758      3.6788   -999.2500   -999.2500  
   109.0000     12.1986     60.9575   -999.2500   -999.2500   -999.2500    145.0439    -61.7866      3.3364      2.5799      3.5472   -999.2500   -999.2500  
   109.5000     12.2551     61.5089   -999.2500   -999.2500   -999.2500    143.9423    -61.6131      3.1933      2.4875      3.4203   -999.2500   -999.2500  
   110.0000     12.3214     62.0645   -999.2500   -999.2500   -999.2500    144.7340    -61.4396      3.0563      2.3984      3.4035   -999.2500   -999.2500  
   110.5000     12.2984     60.8708   -999.2500   -999.2500   -999.2500    146.9816    -61.2661      2.9251      2.3125      3.4199   -999.2500   -999.2500  
   111.0000     12.3774     60.6220   -999.2500   -999.2500   -999.2500    150.2671    -61.0925      2.8061      2.2889      3.4365   -999.2500   -999.2500  
   111.5000     12.7034     60.4684   -999.2500   -999.2500   -999.2500    157.9084    -60.9190      2.8846      2.3169      3.4531   -999.2500   -999.2500  
   112.0000     13.5095     60.2841   -999.2500   -999.2500   -999.2500    164.4893    -60.6991      2.9653      2.3453      3.5184   -999.2500   -999.2500  
   112.5000     14.1724     59.9388   -999.2500   -999.2500   -999.2500    167.6166    -60.2895      3.0483      2.3740      3.6173   -999.2500   -999.2500  
   113.0000     14.7175     59.5936   -999.2500   -999.2500   -999.2500    171.0529    -59.8852      3.1489      2.4030      3.7190   -999.2500   -999.2500  
   113.5000     15.2149     59.0529   -999.2500   -999.2500   -999.2500    174.9028    -59.5517      3.3173      2.5238      3.8475   -999.2500   -999.2500  
   114.0000     15.7914     59.0065   -999.2500   -999.2500   -999.2500    178.0594    -59.7277      3.5052      2.6626      4.0670   -999.2500   -999.2500  
   114.5000     16.2498     60.1748   -999.2500   -999.2500   -999.2500    180.7321    -59.8277      3.7408      2.8089      4.2990   -999.2500   -999.2500  
   115.0000     16.1646     62.0244   -999.2500   -999.2500   -999.2500    183.9673    -59.5568      4.0988      2.9634      4.5443   -999.2500   -999.2500  
   115.5000     16.1967     63.2590   -999.2500   -999.2500   -999.2500    185.4115    -59.2757      4.5189      3.1260      4.8035   -999.2500   -999.2500  
   116.0000     15.7318     64.1884   -999.2500   -999.2500   -999.2500    185.7524    -59.1717      4.9821      3.1908      5.0776   -999.2500   -999.2500  
   116.5000     15.0024     65.1175   -999.2500   -999.2500   -999.2500    186.2658    -59.2099      5.4927      3.2569      5.3673   -999.2500   -999.2500  
   117.0000     14.4626     66.1359   -999.2500   -999.2500   -999.2500    184.3740    -59.3172      5.6292      3.3245      5.6735   -999.2500   -999.2500  
   117.5000     14.1052     68.1575   -999.2500   -999.2500   -999.2500    176.4713    -59.5782      5.6848      3.3934      5.5211   -999.2500   -999.2500  
   118.0000     13.2277     69.8776   -999.2500   -999.2500   -999.2500    174.2771    -59.8780      5.3153      3.2802      5.3161   -999.2500   -999.2500  
   118.5000     13.0896     71.6608   -999.2500   -999.2500   -999.2500    175.0938    -59.2188      4.9344      3.1301      5.1188   -999.2500   -999.2500  
   119.0000     13.2799     74.6894   -999.2500   -999.2500   -999.2500    175.2057    -58.1858      4.5808      3.0027      4.9288   -999.2500   -999.2500  
   119.5000     13.5087     77.5401   -999.2500   -999.2500   -999.2500    175.5552    -56.5028      4.6540      2.9935      4.8523   -999.2500   -999.2500  
   120.0000     13.8796     79.5310   -999.2500   -999.2500   -999.2500    171.4911    -52.7134      4.7755      2.9844      4.8094   -999.2500   -999.2500  
   120.5000     14.3606     79.8098   -999.2500   -999.2500   -999.2500    157.8184    -48.0212      4.8466      2.9790      4.9333   -999.2500   -999.2500  
   121.0000     14.5178     81.1106   -999.2500   -999.2500   -999.2500    149.8481    -44.7763      4.8396      2.9856      5.4765   -999.2500   -999.2500  
   121.5000     14.5634     82.8883   -999.2500   -999.2500   -999.2500    148.8579    -47.4156      4.8327      2.9922      6.0795   -999.2500   -999.2500  
   122.0000     14.4872     83.5934   -999.2500   -999.2500   -999.2500    150.2318    -49.4100      4.8257      2.9989      5.9013   -999.2500   -999.2500  
   122.5000     14.4940     84.7662   -999.2500   -999.2500   -999.2500    156.3022    -49.2753      4.8706      3.0054      5.8251   -999.2500   -999.2500  
   123.0000     14.5031     85.1383   -999.2500   -999.2500   -999.2500    159.4407    -47.3082      4.9704      3.0052      5.7499   -999.2500   -999.2500  
   123.5000     13.7952     84.1708   -999.2500   -999.2500   -999.2500    157.3407    -46.7872      5.0723      3.0050      5.6757   -999.2500   -999.2500  
   124.0000     13.1446     83.1734   -999.2500   -999.2500   -999.2500    155.8511    -49.6135      5.1762      3.0048      5.6025   -999.2500   -999.2500  
   124.5000     12.9814     85.1267   -999.2500   -999.2500   -999.2500    157.7224    -53.4628      5.2823      3.0046      5.5302   -999.2500   -999.2500  
   125.0000     12.8520     87.4700   -999.2500   -999.2500   -999.2500    160.9102    -57.7259      5.3906      3.0044      5.5978   -999.2500   -999.2500  
   125.5000     12.7746     89.5321   -999.2500   -999.2500   -999.2500    163.4562    -56.2049      5.5010      3.0042      5.6889   -999.2500   -999.2500  
   126.0000     12.6861     92.6284   -999.2500   -999.2500   -999.2500    164.3972    -50.7171      5.6015      3.0097      5.9991   -999.2500   -999.2500  
   126.5000     12.6082     94.8963   -999.2500   -999.2500   -999.2500    164.2894    -45.1287      5.6707      3.0204      6.3272   -999.2500   -999.2500  
   127.0000     12.5801     96.6768   -999.2500   -999.2500   -999.2500    165.8809    -40.2319      5.7408      3.0312      6.5374   -999.2500   -999.2500  
   127.5000     12.5519     97.1071   -999.2500   -999.2500   -999.2500    167.2894    -39.8574      5.8118      3.0419      6.6039   -999.2500   -999.2500  
   128.0000     12.5120     96.0834   -999.2500   -999.2500   -999.2500    168.5228    -46.3250      5.8836      3.0636      6.6710   -999.2500   -999.2500  
   128.5000     12.4636     95.1961   -999.2500   -999.2500   -999.2500    167.1755    -55.6916      5.9563      3.1103      6.7389   -999.2500   -999.2500  
