~VERSION INFORMATION
 VERS.                           2.00:        CWLS LOG ASCII STANDARD - VERSION 2.00
 WRAP.                             NO:        ONE LINE PER DEPTH STEP
~WELL INFORMATION
#MNEM.UNIT                   DATA             INFORMATION
#----------             --------------        ------------------------------
 STRT.F                      152.0000:        START DEPTH
 STOP.F                     2285.0000:        STOP DEPTH
 STEP.F                        0.5000:        STEP VALUE
 NULL.                      -999.2500:        NULL VALUE
 COMP.                      U.S. NAVY:        COMPANY  
 LOC .                   26  22N  17W:        LOCATION   
 DATE.                         4/1/74:        LOG DATE 
 WELL.            SOUTH BARROW NO. 12:        WELL     
 UWI .                   500232000600:        UNIQUE WELL ID 
 API .                   500232000600:        UNIQUE WELL IDENTIFIER 
 FLD .                   SOUTH BARROW:        FIELD    
 CNTY.                         NPPR-4:        COUNTY  
 STAT.                         ALASKA:        STATE   
 CTRY.                            USA:        COUNTRY 
 OPER.                      U.S. NAVY:        OPERATOR  
 SRVC.                   SCHLUMBERGER:        SERVICE COMPANY 
 LAT .                         0.0000:        LATITUDE
 LON .                         0.0000:        LONGITUDE
 DIGS.               CENTER LINE DATA:        DIGITIZING COMPANY 
~CURVE INFORMATION      
#MNEM        .UNIT         API CODE           CURVE DESCRIPTION
#-----------------      --------------        ------------------------------
 DEPT        .F                      :        1  DEPTH
 RHOB        .G/C3                   :        2  
 DRHO        .G/C3                   :        3  
 GR          .GAPI                   :        4  
 CALI        .IN                     :        5  
 DPHI        .%                      :        6  
 NPHI        .%                      :        7  
 SP          .MV                     :        8  
 ALL8        .OHMM                   :        9  
 ILD         .OHMM                   :        10 
 CILD        .MMHO                   :        11 
 DT          .US/F                   :        12 
~PARAMETER INFORMATION       
#MNEM.UNIT                  VALUE             DESCRIPTION OF MNEMONIC
#---------             ---------------        ------------------------------
 EKB .F                       26.0000:        KELLY BUSHING
 TD  .F                     2285.0000:        TOTAL DEPTH
~OTHER INFORMATION
~A    DEPTH        RHOB        DRHO          GR        CALI        DPHI        NPHI          SP        ALL8         ILD        CILD          DT  
# ...
  1939.5000      2.4849      0.0489     81.5440     11.5012      9.6334     30.0489    -36.2398      9.6140      9.5109     98.7004    127.5966  
  1940.0000      2.4849      0.0495     77.9139     11.5096     10.1790     30.3795    -36.3357      9.6173      9.3175     98.8009    108.8067  
  1940.5000      2.4560      0.0473     75.4269     11.5204     10.4179     30.2860    -36.4523      9.6207      9.3591     98.8526     96.0389  
  1941.0000      2.4429      0.0424     73.8316     11.5315     11.6757     30.3230    -36.5309      9.6240      9.2831     99.3592     96.7583  
  1941.5000      2.4356      0.0371     71.4017     11.5454     12.5042     30.2946    -36.6839      9.6216      9.2284     99.7106     97.8070  
  1942.0000      2.4309      0.0397     69.3309     11.5584     13.1070     30.1555    -37.1313      9.6041      9.2436     99.8828     98.1571  
  1942.5000      2.4407      0.0510     67.8581     11.5653     13.4839     30.4234    -37.7340      9.5866      9.2761     99.3587     97.4810  
  1943.0000      2.4266      0.0623     66.6078     11.5591     12.8701     29.8542    -38.4671      9.5690      9.3192     98.7279     95.8013  
  1943.5000      2.4199      0.0688     65.0878     11.5885     13.4965     29.3456    -38.9966      9.5515      9.3623     98.2321     95.4110  
  1944.0000      2.4119      0.0805     63.3856     11.6386     14.2043     29.0588    -39.1907      9.5339      9.3723     98.0420     96.5080  
  1944.5000      2.4220      0.0922     64.2486     11.8519     14.5616     29.4498    -39.4469      9.5164      9.3715     98.0755     97.5962  
  1945.0000      2.4125      0.0639     66.6415     12.0836     13.8746     29.9610    -39.6894      9.4989      9.3418     97.9406     98.8539  
  1945.5000      2.3953      0.0464     68.5971     12.1729     14.8280     29.8541    -40.0440      9.5199      9.3121     97.3214    100.1873  
  1946.0000      2.3932      0.0460     69.9769     12.0913     15.7815     29.3402    -40.5234      9.5504      9.3204     95.6961    100.6208  
  1946.5000      2.3879      0.0430     70.6813     11.9296     15.6792     28.7593    -40.7851      9.5808      9.4563     94.4232    100.0159  
  1947.0000      2.3501      0.0278     70.9700     12.2739     16.0126     29.5071    -41.0333      9.6113      9.5922     93.4768     98.0958  
  1947.5000      2.3455      0.0249     71.2555     12.1440     17.8947     29.9374    -41.3488      9.6418      9.7331     92.8596     96.6419  
  1948.0000      2.3642      0.0342     70.9522     11.8265     18.5915     29.5647    -41.6079      9.6848      9.8917     91.9137     92.3940  
  1948.5000      2.3859      0.0407     71.1146     11.8074     17.1915     28.8526    -41.5883      9.7505     10.0502     90.8276     89.5953  
  1949.0000      2.4057      0.0530     72.9804     12.2467     16.2113     28.7067    -41.4054      9.8162     10.2088     89.5127     87.4833  
  1949.5000      2.4215      0.0641     75.4853     12.7203     15.2377     28.5757    -41.1640      9.8819     10.3674     87.9335     87.1772  
  1950.0000      2.4293      0.0637     77.2556     13.0491     14.0809     27.9754    -40.7149      9.9476     10.5260     86.9996     88.6118  
  1950.5000      2.4394      0.0654     79.0863     13.0331     13.5628     27.5110    -40.2657     10.0594     10.6846     86.2443     90.1294  
  1951.0000      2.4442      0.0809     80.0817     12.3324     13.0584     27.5682    -39.4578     10.2112     10.8432     85.8496     91.3375  
  1951.5000      2.4448      0.1103     81.0981     11.8549     12.5395     27.8050    -38.5491     10.3629     10.9886     85.3639     91.5026  
  1952.0000      2.4457      0.1391     80.8327     11.8157     12.3107     28.2888    -37.2919     10.4682     11.0704     84.6464     91.4969  
  1952.5000      2.4433      0.1675     80.3682     12.1427     12.6564     29.1635    -36.2864     10.5691     11.1522     84.0623     91.4613  
  1953.0000      2.4217      0.1348     79.9148     12.7727     12.7093     29.7660    -35.5662     10.6699     11.2340     83.7546     91.4257  
  1953.5000      2.4314      0.1201     77.6877     13.0810     13.5262     29.3995    -35.0313     10.7708     11.3158     83.5492     91.4607  
  1954.0000      2.4505      0.1344     75.0030     12.9913     12.9958     29.2210    -34.4173     10.8716     11.3975     83.0079     91.3725  
  1954.5000      2.4495      0.1228     71.1201     13.1785     12.2691     28.8489    -34.0703     10.9724     11.4793     82.1697     90.8371  
  1955.0000      2.4313      0.0898     68.6342     13.0754     12.2724     28.4767    -33.9451     11.0678     11.5611     81.2786     90.3794  
  1955.5000      2.4176      0.0886     67.4669     13.2993     13.0954     29.2200    -33.8230     11.1551     11.6429     80.3130     90.2508  
  1956.0000      2.4131      0.0904     65.6723     13.5445     14.1292     30.0536    -33.8051     11.2424     11.7415     79.6570     90.3895  
  1956.5000      2.4023      0.0989     63.6895     13.6411     14.6133     29.7277    -33.9594     11.3296     11.8427     79.0419     90.6223  
  1957.0000      2.3641      0.0898     63.0106     13.5073     15.0415     29.9225    -34.3722     11.4169     11.9439     78.5625     90.6873  
  1957.5000      2.3225      0.0855     64.1663     13.3580     17.0057     30.8708    -34.8036     11.4259     11.9469     78.3508     90.6392  
  1958.0000      2.3104      0.0734     64.7260     14.0138     19.4445     30.9315    -35.4313     11.2422     11.9592     78.4412     91.4313  
  1958.5000      2.3388      0.0647     63.0802     13.6075     20.5777     30.6167    -36.2423     11.0584     11.9715     78.6094     93.9461  
  1959.0000      2.3765      0.0940     61.8006     13.1276     19.4302     30.2608    -37.1703     10.8747     12.0684     77.9406     95.6516  
  1959.5000      2.3828      0.0899     61.8682     13.3735     16.8183     30.0266    -38.7622     10.6819     12.2017     77.2607     97.0523  
  1960.0000      2.3813      0.0715     61.3298     13.2284     17.1568     29.7911    -40.5025     10.7650     12.2917     76.3610     94.9485  
  1960.5000      2.3916      0.0608     59.8505     13.0426     16.4176     29.6582    -41.9130     10.6172     12.4180     75.7395     92.2142  
  1961.0000      2.3702      0.0730     56.2702     12.9551     16.1127     30.4169    -42.5299     10.5447     12.4185     75.7506     91.2882  
  1961.5000      2.3383      0.1078     54.5139     13.4595     16.8939     32.5861    -42.4748     10.5221     12.2688     76.5793     90.3622  
  1962.0000      2.3024      0.1269     54.9981     14.4835     18.8291     35.1733    -41.7857     10.4593     12.1368     77.4856     89.6590  
  1962.5000      2.2685      0.1120     55.9918     15.2003     21.2920     37.0148    -40.8973     10.3965     11.9666     78.4411     90.6956  
  1963.0000      2.2549      0.0971     56.9125     15.5231     23.2111     36.1068    -40.7059     10.2961     11.8213     79.2114     94.0083  
  1963.5000      2.2848      0.0635     58.0301     15.1284     23.7810     34.1052    -41.3953     10.2144     11.8026     79.2306     96.2427  
  1964.0000      2.3512      0.0708     58.1207     14.5751     21.9395     33.0011    -42.4756      9.8919     11.8407     78.9471     96.4803  
  1964.5000      2.3913      0.0782     57.6468     13.7702     18.0595     31.7752    -43.1345      9.5894     11.7854     79.1315     93.7700  
  1965.0000      2.4009      0.0855     57.4686     13.2699     15.9029     31.6424    -43.1803      9.8026     11.7994     79.5941     91.2205  
  1965.5000      2.4284      0.0877     57.9160     12.8365     14.5627     31.3908    -43.1157     10.0627     11.7037     80.1173     89.2092  
  1966.0000      2.4451      0.0821     58.5183     12.7115     13.7304     31.1302    -43.1029     10.2559     11.5191     81.5237     89.6798  
  1966.5000      2.4283      0.0749     59.1206     12.9455     12.3690     30.8697    -43.0658     10.4059     11.4449     82.0925     91.1241  
