~VERSION INFORMATION
 VERS.                           2.00:        CWLS LOG ASCII STANDARD - VERSION 2.00
 WRAP.                             NO:        ONE LINE PER DEPTH STEP
~WELL INFORMATION
#MNEM.UNIT                   DATA             INFORMATION
#----------             --------------        ------------------------------
 STRT.F                      152.0000:        START DEPTH
 STOP.F                     2285.0000:        STOP DEPTH
 STEP.F                        0.5000:        STEP VALUE
 NULL.                      -999.2500:        NULL VALUE
 COMP.                      U.S. NAVY:        COMPANY  
 LOC .                   26  22N  17W:        LOCATION   
 DATE.                         4/1/74:        LOG DATE 
 WELL.            SOUTH BARROW NO. 12:        WELL     
 UWI .                   500232000600:        UNIQUE WELL ID 
 API .                   500232000600:        UNIQUE WELL IDENTIFIER 
 FLD .                   SOUTH BARROW:        FIELD    
 CNTY.                         NPPR-4:        COUNTY  
 STAT.                         ALASKA:        STATE   
 CTRY.                            USA:        COUNTRY 
 OPER.                      U.S. NAVY:        OPERATOR  
 SRVC.                   SCHLUMBERGER:        SERVICE COMPANY 
 LAT .                         0.0000:        LATITUDE
 LON .                         0.0000:        LONGITUDE
 DIGS.               CENTER LINE DATA:        DIGITIZING COMPANY 
~CURVE INFORMATION      
#MNEM        .UNIT         API CODE           CURVE DESCRIPTION
#-----------------      --------------        ------------------------------
 DEPT        .F                      :        1  DEPTH
 RHOB        .G/C3                   :        2  
 DRHO        .G/C3                   :        3  
 GR          .GAPI                   :        4  
 CALI        .IN                     :        5  
 DPHI        .%                      :        6  
 NPHI        .%                      :        7  
 SP          .MV                     :        8  
 ALL8        .OHMM                   :        9  
 ILD         .OHMM                   :        10 
 CILD        .MMHO                   :        11 
 DT          .US/F                   :        12 
~PARAMETER INFORMATION       
#MNEM.UNIT                  VALUE             DESCRIPTION OF MNEMONIC
#---------             ---------------        ------------------------------
 EKB .F                       26.0000:        KELLY BUSHING
 TD  .F                     2285.0000:        TOTAL DEPTH
~OTHER INFORMATION
~A    DEPTH        RHOB        DRHO          GR        CALI        DPHI        NPHI          SP        ALL8         ILD        CILD          DT  
# ...
  1692.0000      2.4970      0.0507     96.4332     11.0112      7.1669     33.4435    -29.8212     18.1761     18.1502     49.9751     91.1937  
  1692.5000      2.4811      0.0369     96.7581     11.1072      9.0922     33.3289    -29.8668     17.6320     17.6371     52.0824     91.4065  
  1693.0000      2.4913      0.0654     97.0586     10.9193     10.6263     32.8749    -29.9354     17.2251     17.1239     53.9309     91.5818  
  1693.5000      2.5207      0.1092     97.4269     10.9462      9.8367     32.7085    -30.0040     16.7649     16.6108     55.3070     91.4748  
  1694.0000      2.5247      0.1324     98.4091     11.0761      8.5955     32.5354    -30.0725     16.4542     16.1317     56.8146     91.3013  
  1694.5000      2.5292      0.1236     98.6979     11.1530      7.9061     33.0459    -30.1411     16.1319     15.9035     57.4832     91.2250  
  1695.0000      2.5291      0.1323     97.5500     11.1287      7.5868     33.8543    -30.2097     15.9398     15.6753     58.2071     91.5417  
  1695.5000      2.5322      0.1065     96.2656     11.0345      7.5676     34.2126    -30.2782     15.7476     15.6105     58.8775     91.9955  
  1696.0000      2.5126      0.0533     96.4141     10.9257      7.4151     33.6720    -30.3888     15.5555     15.6112     58.9112     91.8660  
  1696.5000      2.5047      0.0333     97.4018     10.7433      8.2883     32.4149    -30.5240     15.4123     15.6119     58.9392     91.1710  
  1697.0000      2.5086      0.0471     98.3802     10.7273      9.0353     30.5818    -30.6694     15.3555     15.6126     59.0480     91.0255  
  1697.5000      2.5107      0.0610     97.5602     10.8090      8.8618     29.7096    -30.8354     15.3358     15.6192     59.3545     91.1680  
  1698.0000      2.5203      0.0541     94.9522     11.1117      8.4644     30.5374    -31.0665     15.3428     15.6862     59.8160     91.6366  
  1698.5000      2.5118      0.0269     92.2083     11.0436      7.9187     30.5504    -31.1131     15.3134     15.7532     60.1693     92.0764  
  1699.0000      2.5017      0.0025     90.7201     11.1795      8.5899     29.3976    -31.1906     15.3777     15.8202     60.0449     92.0228  
  1699.5000      2.5097      0.0051     90.0198     10.7491      9.2226     28.6455    -31.3887     15.4104     16.0353     58.9229     91.1235  
  1700.0000      2.5249      0.0040     88.9355     10.4990      8.5573     27.1429    -31.3444     15.8843     16.5131     56.6820     89.0218  
  1700.5000      2.5242      0.0021     87.6549     10.4482      7.8676     26.5996    -31.1742     16.4353     17.2987     54.2591     86.4892  
  1701.0000      2.5204      0.0047     86.8718     10.4163      7.9086     25.7601    -30.7466     17.4631     18.0993     52.2604     85.0050  
  1701.5000      2.5244      0.0182     88.1113     10.4216      8.4120     24.8895    -30.2294     18.3210     18.9407     50.1118     84.1050  
  1702.0000      2.5136      0.0098     91.4133     10.4495      8.1833     24.6840    -30.0092     19.4469     19.8372     47.9056     83.4762  
  1702.5000      2.5096      0.0068     94.2692     10.4859      8.3713     25.2764    -30.0154     20.7456     20.7337     45.4871     83.4464  
  1703.0000      2.5046      0.0198     96.6563     10.5347      8.8118     26.3102    -30.0503     21.5978     21.6302     43.2190     83.9344  
  1703.5000      2.5148      0.0545     97.9516     10.5806      9.0294     27.4790    -30.0970     21.8675     22.2337     41.5602     84.8514  
  1704.0000      2.5072      0.0524     99.6331     10.6171      8.7913     28.1815    -30.1397     21.6556     22.6599     40.4702     85.8001  
  1704.5000      2.4848      0.0442    102.6983     10.5806      8.8434     29.2992    -30.2010     21.2426     23.0184     39.8228     86.6123  
  1705.0000      2.4590      0.0590    107.3293     10.5704     10.3252     30.3398    -30.3195     20.8383     22.5000     40.4749     87.4502  
  1705.5000      2.4625      0.1069    113.7866     10.7277     12.0103     32.0757    -30.3626     20.4655     21.3300     42.6333     88.5691  
  1706.0000      2.4378      0.1392    124.4790     11.2446     11.2750     34.4520    -30.4183     19.4621     20.0183     45.5803     91.5369  
  1706.5000      2.4003      0.0702    134.8997     12.0232     12.5810     38.8072    -30.4420     18.1410     18.7065     50.3479     94.7449  
  1707.0000      2.4021      0.0248    143.8585     11.3766     15.0505     41.1586    -30.4913     16.9711     17.3948     54.8197    100.0578  
  1707.5000      2.4556      0.0349    151.6113     10.8411     15.1999     42.1038    -30.5640     15.4889     16.2995     59.3497    105.9883  
  1708.0000      2.4637      0.0449    151.0562     10.6451     11.2145     42.7750    -30.6261     14.2021     15.2584     63.7572    110.1874  
  1708.5000      2.4782      0.0553    147.1768     10.6275     11.4674     43.6008    -30.6362     13.2343     14.2172     68.2334    112.0916  
  1709.0000      2.4989      0.0658    141.7285     10.5724     10.7357     44.8225    -30.6360     12.6285     13.1761     72.5927    112.6885  
  1709.5000      2.5090      0.0650    136.8928     10.8132      9.5561     45.7297    -30.6433     12.0545     12.2273     77.2218    112.8871  
  1710.0000      2.4843      0.0420    134.9920     11.0133      8.6188     46.4935    -30.5797     11.8207     11.7822     81.9040    112.5032  
  1710.5000      2.4658      0.0182    133.3540     11.1997     10.1505     47.2748    -30.5645     11.8139     11.3371     86.2160    111.6512  
  1711.0000      2.4606      0.0195    132.1701     11.0555     11.2961     46.1036    -30.6357     11.8071     10.9436     87.6482    111.0481  
  1711.5000      2.4524      0.0171    129.9147     10.8737     11.6335     43.3389    -30.8065     11.8003     10.8743     87.7032    111.0028  
  1712.0000      2.4621      0.0208    123.6326     10.7039     12.4518     41.0114    -31.0027     11.7935     10.8051     87.1541    111.1198  
  1712.5000      2.4786      0.0227    119.3744     10.8043     11.5840     38.8077    -31.1989     11.8143     10.8003     86.6597    110.3646  
  1713.0000      2.4950      0.0316    116.8602     10.9283     10.5492     37.9757    -31.3489     11.7581     10.7860     87.5234    109.5398  
  1713.5000      2.4968      0.0315    115.5014     10.9110      9.5032     37.9814    -31.3127     11.7951     10.7085     88.5547    108.5298  
  1714.0000      2.4953      0.0256    115.3101     10.8599      9.5493     38.5025    -31.5213     11.7751     10.6497     89.2161    107.6439  
  1714.5000      2.4996      0.0184    115.4131     10.9821      9.8009     38.5261    -32.0344     11.5938     10.7010     89.0548    106.7649  
  1715.0000      2.5181      0.0395    115.2969     11.1425      9.2711     38.0813    -32.7767     11.1508     10.7970     88.3855    106.0607  
  1715.5000      2.5213      0.0392    114.7480     11.3262      8.4386     37.6762    -32.8617     11.1225     10.8732     87.6879    104.8634  
  1716.0000      2.5155      0.0366    113.1188     11.3029      7.4953     37.5620    -32.5138     11.0942     10.8229     87.4004    103.6018  
  1716.5000      2.4948      0.0315    112.0456     11.0647      8.3871     37.5698    -31.8319     11.0091     10.6612     88.6515    103.1873  
  1717.0000      2.4529      0.0302    112.0309     10.9417      9.5988     38.3010    -31.5372     10.8075     10.3267     91.9577    104.7172  
  1717.5000      2.4170      0.0419    113.9352     10.8186     11.8754     40.5736    -31.6211     10.2504      9.7881     97.6120    108.6647  
  1718.0000      2.4024      0.0478    116.2575     10.7711     13.9709     43.6463    -31.6550     10.0523      9.2496    106.6145    113.0134  
  1718.5000      2.4144      0.0538    117.5642     10.8378     14.9274     48.0131    -31.5369      9.8542      8.7110    115.3018    117.1034  
  1719.0000      2.4329      0.0623    116.9877     10.9464     14.4998     51.6337    -31.2583      9.0022      8.1626    125.0098    119.7082  
