~VERSION INFORMATION
 VERS.                           2.00:        CWLS LOG ASCII STANDARD - VERSION 2.00
 WRAP.                             NO:        ONE LINE PER DEPTH STEP
~WELL INFORMATION
#MNEM.UNIT                   DATA             INFORMATION
#----------             --------------        ------------------------------
 STRT.F                       25.0000:        START DEPTH
 STOP.F                     4165.0000:        STOP DEPTH
 STEP.F                        0.5000:        STEP VALUE
 NULL.                      -999.2500:        NULL VALUE
 COMP.    USGS/NPR HUSKY OIL OPERATOR:        COMPANY
 LOC .                     21 21N 14W:        LOCATION
 DATE.                         3/3/80:        LOG DATE
 WELL.                 WEST  DEASE #1:        WELL
 UWI .                   500232001400:        UNIQUE WELL ID
 API .                   500232001400:        UNIQUE WELL IDENTIFIER
 FLD .                        WILDCAT:        FIELD
 CNTY.                    NORTH SLOPE:        COUNTY
 STAT.                         ALASKA:        STATE
 CTRY.                            USA:        COUNTRY
 OPER.    USGS/NPR HUSKY OIL OPERATOR:        OPERATOR
 SRVC.                   SCHLUMBERGER:        SERVICE COMPANY
 LAT .                         0.0000:        LATITUDE
 LON .                         0.0000:        LONGITUDE
 DIGS.               CENTER LINE DATA:        DIGITIZING COMPANY
~CURVE INFORMATION      
#MNEM        .UNIT         API CODE           CURVE DESCRIPTION
#-----------------      --------------        ------------------------------
 DEPT        .F                      :        1  DEPTH
 SP          .MV                     :        2  
 LLD         .OHMM                   :        3  
 LLS         .OHMM                   :        4  
 MSFL        .OHMM                   :        5  
 CALI        .IN                     :        6  
 RHOB        .G/C3                   :        7  
 DRHO        .G/C3                   :        8  
 NPHI        .%                      :        9  
 GR          .GAPI                   :        10 
 DT          .US/F                   :        11 
~PARAMETER INFORMATION
#MNEM.UNIT                  VALUE             DESCRIPTION OF MNEMONIC
#---------             ---------------        ------------------------------
 EKB .F                       24.0000:        KELLY BUSHING
 TD  .F                     4173.0000:        TOTAL DEPTH
 BHT .F                       85.0000:        BOTTOM HOLE TEMPERATURE
 BS  .                        12.2500:        BIT SIZE
 FD  .                        10.4000:        FLUID DENSITY
 CSIZ.                        13.3750:        CASING SIZE
 CBD .F                      288.0000:        CASING DRILLER 1
 CBL .F                      292.0000:        CASING LOGGER 1
 DFT .                             99:        TYPE FLUID IN HOLE
 DFV .                        52.0000:        VISCOSITY
 DFPH.                         8.0000:        PH
 DFL .                         7.5000:        FLUID LOSS
 RMS .                         0.1250:        RM
 MST .F                       35.0000:        RM MEAS. TEMP.
 RMF .                         0.1440:        RMF
 MFST.F                       44.0000:        RMF MEAS. TEMP.
 RMC .                         0.2360:        RMC
 MCST.F                       36.0000:        RMC MEAS. TEMP.
~OTHER INFORMATION
~A    DEPTH          SP         LLD         LLS        MSFL        CALI        RHOB        DRHO        NPHI          GR          DT 
# ...
  1580.5000   -145.6838      8.2106      6.6902      1.7001     14.7445      2.5173      0.1571     47.5820     67.0429    113.1718 
  1581.0000   -145.5155      8.2580      6.7954      1.5355     14.7764      2.5012      0.1530     47.6879     67.5944    110.9596 
  1581.5000   -145.5184      8.7993      6.9501      1.5114     14.8051      2.4725      0.1329     48.1414     66.8983    112.4653 
  1582.0000   -145.4674      9.0335      7.0645      1.7503     14.8236      2.4700      0.1793     48.9525     64.9543    110.4536 
  1582.5000   -145.5318      8.8633      6.9489      2.2936     14.8056      2.4224      0.1602     50.0765     63.8022    108.9897 
  1583.0000   -145.6215      8.7346      6.7942      2.1606     14.7608      2.3977      0.1249     51.3632     64.8536    112.2869 
  1583.5000   -145.5915      8.7680      6.7609      1.3763     14.7399      2.4533      0.1521     50.8000     65.6284    113.2548 
  1584.0000   -145.5616      8.8014      6.7375      2.1889     14.7520      2.4964      0.1992     48.7613     66.0597    112.6258 
  1584.5000   -145.5316      8.7975      6.8315      2.3014     14.7683      2.4642      0.1827     46.9193     66.1871    112.3496 
  1585.0000   -145.6376      8.7972      6.8838      2.6819     14.7650      2.4483      0.1447     45.8736     66.1326    112.1606 
  1585.5000   -145.5872      8.7231      6.8189      1.7266     14.7687      2.4362      0.1329     45.3287     66.1609    112.5103 
  1586.0000   -145.4946      8.5244      6.7645      1.7985     14.7932      2.4246      0.1299     45.2059     66.1943    113.1275 
  1586.5000   -145.5486      8.3303      6.7347      2.4154     14.8149      2.4162      0.1331     45.9243     66.3408    113.8231 
  1587.0000   -145.7613      8.7711      6.8069      1.8144     14.8258      2.4358      0.1351     47.4339     66.8400    111.9986 
  1587.5000   -145.8054      8.8852      6.8855      1.5711     14.7454      2.4233      0.1127     47.9804     67.6760    110.5734 
  1588.0000   -145.8495      8.9172      6.9643      1.8785     14.7339      2.4362      0.1182     47.5042     68.8987    109.9847 
  1588.5000   -145.8467      8.8893      7.0492      2.3909     14.7331      2.4498      0.1346     46.8026     69.3443    110.4175 
  1589.0000   -145.7237      8.9016      7.0044      1.9773     14.7498      2.4586      0.1540     46.4968     69.0824    110.5188 
  1589.5000   -145.9383      8.8098      6.9110      2.2561     14.7819      2.4372      0.1336     47.9354     68.8585    110.7228 
  1590.0000   -146.0686      8.7883      6.7778      2.4364     14.8012      2.4278      0.1351     49.8859     68.5308    111.1842 
  1590.5000   -146.2543      8.7435      6.8921      1.9182     14.8174      2.4439      0.1594     49.6223     68.3646    111.1550 
  1591.0000   -146.2446      8.6535      6.8092      1.8266     14.8389      2.4334      0.1592     49.1387     67.7962    109.8998 
  1591.5000   -146.2350      8.4442      6.6290      1.7955     14.8494      2.4656      0.1728     49.1021     66.6950    111.3965 
  1592.0000   -146.1197      8.3016      6.5626      1.7355     14.8509      2.5084      0.1920     49.0913     64.6886    112.4288 
  1592.5000   -146.2126      8.1966      6.5539      1.6695     14.8440      2.4763      0.1678     49.2175     64.5606    113.1601 
  1593.0000   -146.2033      8.3932      6.6528      1.4361     14.8357      2.4547      0.1430     50.2263     65.2315    114.1210 
  1593.5000   -146.2185      8.8042      6.7966      1.1872     14.8281      2.4699      0.1404     48.5270     65.8741    113.1556 
  1594.0000   -146.2141      8.8906      6.8059      1.4046     14.8323      2.4645      0.1379     47.2370     67.4037    111.1800 
  1594.5000   -146.0674      8.7307      6.7863      1.5736     14.8383      2.4841      0.1483     46.9734     65.9939    109.2895 
  1595.0000   -146.0361      8.4777      6.6358      1.7913     14.8491      2.4827      0.1458     47.6203     65.8097    111.3602 
  1595.5000   -146.0378      8.2374      6.5683      1.5787     14.8510      2.4541      0.1242     48.2220     65.7348    112.1622 
  1596.0000   -145.9419      8.2952      6.5758      2.0552     14.8404      2.4602      0.1198     48.7731     66.7816    111.9286 
  1596.5000   -146.0647      8.5694      6.7501      1.8936     14.8298      2.4481      0.1205     49.2473     67.9151    111.8356 
  1597.0000   -145.9116      8.7196      6.9177      1.6857     14.8203      2.4811      0.1621     50.8639     68.1106    111.6895 
  1597.5000   -145.9276      8.9627      7.0427      1.4934     14.8351      2.4974      0.1970     50.9202     67.5169    111.2214 
  1598.0000   -145.9784      8.7469      6.9034      1.7917     14.8515      2.4846      0.1933     51.3507     67.0265    111.2574 
  1598.5000   -146.2073      8.4198      6.7600      2.2056     14.8683      2.4651      0.1786     52.0946     66.6153    112.1925 
  1599.0000   -145.9416      8.1840      6.5995      1.8429     14.8864      2.4719      0.1569     51.5294     65.9546    112.4340 
  1599.5000   -146.3623      8.0851      6.4105      1.6173     14.9258      2.4795      0.1642     49.0996     63.8635    113.7510 
  1600.0000   -146.3147      7.7952      6.5553      1.8680     14.9653      2.4726      0.1558     48.4545     62.6435    115.2551 
  1600.5000   -146.2401      8.8572      6.8129      2.1237     14.9874      2.4492      0.1279     48.8982     61.5290    112.6075 
  1601.0000   -146.1594      9.0641      7.0568      2.2754     14.9393      2.4665      0.1404     49.7840     61.5683    109.6596 
  1601.5000   -146.1643      8.7212      7.1204      2.3169     14.8776      2.4928      0.1634     50.6308     63.2446    106.9831 
  1602.0000   -146.0070      8.3149      6.9943      2.1794     14.8409      2.5360      0.1916     50.1912     67.3420    110.3093 
  1602.5000   -146.1319      8.4223      6.8529      1.8511     14.8445      2.5559      0.2175     49.1075     69.2579    113.3638 
  1603.0000   -146.1112      8.5277      6.7862      1.6041     14.8142      2.5271      0.2011     47.5396     69.6308    114.0944 
  1603.5000   -146.1630      8.2429      6.5996      1.9275     14.7910      2.4943      0.1607     46.4775     69.0673    115.1609 
  1604.0000   -146.1683      8.1642      6.4292      1.9566     14.7860      2.4829      0.1322     47.0602     68.2266    112.4405 
  1604.5000   -146.1369      8.1751      6.4895      1.8641     14.7867      2.5191      0.1448     47.3585     69.1482    114.7540 
  1605.0000   -146.2151      8.4044      6.6911      1.8779     14.7764      2.4975      0.1276     46.0324     68.3766    114.4402 
  1605.5000   -146.2850      8.7040      6.7694      2.6334     14.7637      2.5267      0.1443     45.7087     67.4583    113.5325 
  1606.0000   -146.0902      8.9541      6.8768      2.3411     14.7455      2.5547      0.1412     45.7074     66.4764    111.6630 
  1606.5000   -146.0653      9.0375      7.1615      2.1613     14.7000      2.5468      0.1358     44.7344     65.5515    108.9762 
  1607.0000   -146.4853      8.9290      7.1249      2.1579     14.6388      2.5253      0.1450     44.4006     64.6578    109.5067 
  1607.5000   -146.2554      9.0163      7.2008      2.2096     14.6451      2.5094      0.1596     45.0269     63.2866    109.6368 
  1608.0000   -146.2823      8.8541      7.2877      2.3071     14.6850      2.4824      0.1736     47.0197     62.7363    109.6715 
  1608.5000   -146.3994      9.2976      7.6683      3.0237     14.7479      2.4724      0.1710     49.1140     62.9992    108.0481 
  1609.0000   -146.4611      9.9089      8.1904      3.4121     14.7955      2.4558      0.1629     51.2472     63.5656    105.1935 
  1609.5000   -146.5298      9.8687      8.0300      4.0047     14.8068      2.4763      0.1674     51.5501     63.9088    101.5673 
  1610.0000   -146.6442      9.1640      7.5339      3.2939     14.8222      2.4857      0.1851     51.9264     64.8460    103.6685 
  1610.5000   -146.6315      8.5460      6.9307      1.8661     14.8356      2.4940      0.1999     52.3161     65.6190    105.2130 
