~VERSION INFORMATION
 VERS.                           2.00:        CWLS LOG ASCII STANDARD - VERSION 2.00
 WRAP.                             NO:        ONE LINE PER DEPTH STEP
~WELL INFORMATION
#MNEM.UNIT                   DATA             INFORMATION
#----------             --------------        ------------------------------
 STRT.F                      151.0000:        START DEPTH
 STOP.F                     2726.0000:        STOP DEPTH
 STEP.F                        0.5000:        STEP VALUE
 NULL.                      -999.2500:        NULL VALUE
 COMP.                      U.S. NAVY:        COMPANY  
 WELL.                     IKO BAY #1:        WELL     
 FLD .                        WILDCAT:        FIELD    
 LOC .                   16  21N  16W:        LOCATION   
 CNTY.                    NORTH SLOPE:        COUNTY  
 STAT.                         ALASKA:        STATE   
 CTRY.                            USA:        COUNTRY 
 DATE.                         2/8/75:        LOG DATE 
 API .                   502790000000:        UNIQUE WELL IDENTIFIER 
 OPER.                      U.S. NAVY:        OPERATOR  
 SRVC.                            440:        SERVICE COMPANY 
 UWI .                   502790000000:        UNIQUE WELL ID 
 LAT .                         0.0000:        LATITUDE
 LON .                         0.0000:        LONGITUDE
 DIGS.                             65:        DIGITIZING COMPANY 
~CURVE INFORMATION      
#MNEM.UNIT                 API CODE           CURVE DESCRIPTION
#---------              --------------        ------------------------------
 DEPT.F                              :        1  DEPTH
 SP  .MV                             :        2
 ILD .OHMM                           :        3
 LL8 .OHMM                           :        4
 ILM .OHMM                           :        5
 RHOB.G/C3                           :        6
 DRHO.G/C3                           :        7
 CALI.IN                             :        8
 GR  .GAPI                           :        9
 NPHI.%                              :       10
 DT  .US/F                           :       11
~PARAMETER INFORMATION       
#MNEM.UNIT                  VALUE             DESCRIPTION OF MNEMONIC
#---------             ---------------        ------------------------------
 EKB .F                        0.0000:        KELLY BUSHING
 TD  .F                     2731.0000:        TOTAL DEPTH
 BHT .F                             0.0000:        BOTTOM HOLE TEMPERATURE
 BS  .                             14.7500:        BIT SIZE
 FD  .                              0.0000:        FLUID DENSITY
 CSIZ.                             16.0000:        CASING SIZE
 CBD .F                           149.0000:        CASING DRILLER 1
 CBL .F                           152.0000:        CASING LOGGER 1
 DFT .                            Gel:        TYPE FLUID IN HOLE
 DFV .                              0.0000:        VISCOSITY
 DFPH.                              0.0000:        PH
 DFL .                              0.0000:        FLUID LOSS
 RMS .                              0.3000:        RM
 MST .F                       49.0000:        RM MEAS. TEMP.
 RMF .                              0.2300:        RMF
 MFST.F                       49.0000:        RMF MEAS. TEMP.
 RMC .                              0.4600:        RMC
 MCST.F                       49.0000:        RMC MEAS. TEMP.
 UWI .                   502790000000:        UNIQUE WELL ID
~OTHER INFORMATION
~A    DEPTH          SP         ILD         LL8         ILM        RHOB        DRHO        CALI          GR        NPHI          DT  
# ...
  1021.0000    -39.0528      7.6782      7.0347   -999.2500   -999.2500   -999.2500     13.4651   -999.2500   -999.2500    117.5208  
  1021.5000    -39.3360      7.9173      7.3348   -999.2500   -999.2500   -999.2500     13.7226   -999.2500   -999.2500    117.3628  
  1022.0000    -39.2443      8.1466      7.6350   -999.2500   -999.2500   -999.2500     13.7335   -999.2500   -999.2500    118.0270  
  1022.5000    -39.0269      8.3759      7.9445   -999.2500   -999.2500   -999.2500     13.7349   -999.2500   -999.2500    114.6237  
  1023.0000    -38.6334      8.6052      8.2924   -999.2500   -999.2500   -999.2500     13.7295   -999.2500   -999.2500    104.7490  
  1023.5000    -38.5230      8.7190      8.5961   -999.2500   -999.2500   -999.2500     13.5839   -999.2500   -999.2500     95.4090  
  1024.0000    -38.5920      8.7519      8.6077   -999.2500   -999.2500   -999.2500     13.4664   -999.2500   -999.2500     93.7245  
  1024.5000    -38.7541      8.7848      8.6637   -999.2500   -999.2500   -999.2500     13.5450   -999.2500   -999.2500     96.9222  
  1025.0000    -38.9364      8.8177      8.7120   -999.2500   -999.2500   -999.2500     13.7025   -999.2500   -999.2500    103.8834  
  1025.5000    -38.9968      8.8002      8.6226   -999.2500   -999.2500   -999.2500     13.7323   -999.2500   -999.2500    107.2440  
  1026.0000    -39.0950      8.7426      8.5641   -999.2500   -999.2500   -999.2500     13.7346   -999.2500   -999.2500    106.3836  
  1026.5000    -39.2709      8.6850      8.5146   -999.2500   -999.2500   -999.2500     13.7546   -999.2500   -999.2500    105.0273  
  1027.0000    -39.3276      8.5575      8.4717   -999.2500   -999.2500   -999.2500     13.7266   -999.2500   -999.2500    103.6111  
  1027.5000    -39.1531      8.4168      8.3398   -999.2500   -999.2500   -999.2500     13.6538   -999.2500   -999.2500    104.9579  
  1028.0000    -39.0929      8.2761      8.1509   -999.2500   -999.2500   -999.2500     13.6211   -999.2500   -999.2500    106.2825  
  1028.5000    -39.2336      8.1354      7.8995   -999.2500   -999.2500   -999.2500     13.6073   -999.2500   -999.2500    108.0508  
  1029.0000    -39.2486      7.9948      7.6482   -999.2500   -999.2500   -999.2500     13.6090   -999.2500   -999.2500    110.6682  
  1029.5000    -39.1606      7.8843      7.3968   -999.2500   -999.2500   -999.2500     13.6009   -999.2500   -999.2500    112.5251  
  1030.0000    -39.0726      7.7866      7.1753   -999.2500   -999.2500   -999.2500     13.6027   -999.2500   -999.2500    113.1097  
  1030.5000    -39.2256      7.7361      7.0148   -999.2500   -999.2500   -999.2500     13.6028   -999.2500   -999.2500    113.2567  
  1031.0000    -39.3390      7.6928      6.9128   -999.2500   -999.2500   -999.2500     13.6005   -999.2500   -999.2500    112.6218  
  1031.5000    -39.7938      7.6495      6.8878   -999.2500   -999.2500   -999.2500     13.5760   -999.2500   -999.2500    113.0286  
  1032.0000    -40.1967      7.6061      6.8913   -999.2500   -999.2500   -999.2500     13.4431   -999.2500   -999.2500    114.1866  
  1032.5000    -40.5398      7.5628      6.8929   -999.2500   -999.2500   -999.2500     13.5764   -999.2500   -999.2500    114.5445  
  1033.0000    -40.6620      7.5195      6.8945   -999.2500   -999.2500   -999.2500     13.6596   -999.2500   -999.2500    114.7367  
  1033.5000    -40.8067      7.4761      6.8962   -999.2500   -999.2500   -999.2500     13.6641   -999.2500   -999.2500    114.9279  
  1034.0000    -40.6933      7.4328      6.8978   -999.2500   -999.2500   -999.2500     13.6637   -999.2500   -999.2500    115.0657  
  1034.5000    -40.4599      7.3895      6.9097   -999.2500   -999.2500   -999.2500     13.6639   -999.2500   -999.2500    115.2261  
  1035.0000    -40.2313      7.2717      6.9282   -999.2500   -999.2500   -999.2500     13.6587   -999.2500   -999.2500    116.8370  
  1035.5000    -40.0321      7.1397      6.8749   -999.2500   -999.2500   -999.2500     13.6525   -999.2500   -999.2500    117.5518  
  1036.0000    -39.8330      7.0086      6.8871   -999.2500   -999.2500   -999.2500     13.6545   -999.2500   -999.2500    117.7323  
  1036.5000    -39.8618      6.8777      6.8993   -999.2500   -999.2500   -999.2500     13.6532   -999.2500   -999.2500    117.6747  
  1037.0000    -39.9157      6.7469      6.9116   -999.2500   -999.2500   -999.2500     13.6559   -999.2500   -999.2500    116.6733  
  1037.5000    -39.9695      6.6161      6.9206   -999.2500   -999.2500   -999.2500     13.6561   -999.2500   -999.2500    116.6957  
  1038.0000    -40.0188      6.6156      6.9253   -999.2500   -999.2500   -999.2500     13.6554   -999.2500   -999.2500    117.3240  
  1038.5000    -40.0664      6.6156      6.9299   -999.2500   -999.2500   -999.2500     13.6560   -999.2500   -999.2500    117.5807  
  1039.0000    -40.1140      6.6156      6.9345   -999.2500   -999.2500   -999.2500     13.6596   -999.2500   -999.2500    117.6329  
  1039.5000    -40.1616      6.6156      6.9392   -999.2500   -999.2500   -999.2500     13.6642   -999.2500   -999.2500    117.6523  
  1040.0000    -40.2092      6.6364      6.9438   -999.2500   -999.2500   -999.2500     13.6544   -999.2500   -999.2500    116.6974  
  1040.5000    -40.2557      6.6727      6.9484   -999.2500   -999.2500   -999.2500     13.6366   -999.2500   -999.2500    116.2896  
  1041.0000    -40.3019      6.7089      6.9531   -999.2500   -999.2500   -999.2500     13.6270   -999.2500   -999.2500    116.4734  
  1041.5000    -40.3482      6.7452      6.9577   -999.2500   -999.2500   -999.2500     13.5931   -999.2500   -999.2500    116.5873  
  1042.0000    -40.3945      6.7814      6.9684   -999.2500   -999.2500   -999.2500     13.5384   -999.2500   -999.2500    117.7854  
  1042.5000    -40.4408      6.8166      7.0014   -999.2500   -999.2500   -999.2500     13.5277   -999.2500   -999.2500    118.5901  
  1043.0000    -40.3921      6.8288      7.0341   -999.2500   -999.2500   -999.2500     13.5217   -999.2500   -999.2500    117.8070  
  1043.5000    -40.0655      6.8410      7.0544   -999.2500   -999.2500   -999.2500     13.5201   -999.2500   -999.2500    117.6988  
  1044.0000    -39.6814      6.8533      7.0731   -999.2500   -999.2500   -999.2500     13.5252   -999.2500   -999.2500    117.3010  
  1044.5000    -39.3172      6.8655      7.0240   -999.2500   -999.2500   -999.2500     13.5334   -999.2500   -999.2500    116.9320  
  1045.0000    -39.2670      6.8446      6.9749   -999.2500   -999.2500   -999.2500     13.5311   -999.2500   -999.2500    116.9357  
  1045.5000    -39.4029      6.8149      6.9257   -999.2500   -999.2500   -999.2500     13.5368   -999.2500   -999.2500    116.6723  
  1046.0000    -39.5713      6.7853      6.8766   -999.2500   -999.2500   -999.2500     13.5426   -999.2500   -999.2500    116.3935  
  1046.5000    -39.6776      6.7556      6.8455   -999.2500   -999.2500   -999.2500     13.5463   -999.2500   -999.2500    116.9683  
  1047.0000    -39.7839      6.7259      6.8442   -999.2500   -999.2500   -999.2500     13.5410   -999.2500   -999.2500    117.7767  
  1047.5000    -39.8902      6.6963      6.8571   -999.2500   -999.2500   -999.2500     13.5382   -999.2500   -999.2500    117.8468  
  1048.0000    -39.9965      6.6666      6.8710   -999.2500   -999.2500   -999.2500     13.5389   -999.2500   -999.2500    118.0075  
  1048.5000    -40.1778      6.6369      6.8849   -999.2500   -999.2500   -999.2500     13.5339   -999.2500   -999.2500    117.5553  
  1049.0000    -40.3684      6.6632      6.8988   -999.2500   -999.2500   -999.2500     13.5242   -999.2500   -999.2500    117.7913  
  1049.5000    -40.4856      6.7008      6.9127   -999.2500   -999.2500   -999.2500     13.5103   -999.2500   -999.2500    118.8150  
  1050.0000    -40.6280      6.7452      6.9266   -999.2500   -999.2500   -999.2500     13.4903   -999.2500   -999.2500    118.8483  
  1050.5000    -40.7009      6.7900      6.9586   -999.2500   -999.2500   -999.2500     13.4669   -999.2500   -999.2500    118.2590  
