~VERSION INFORMATION
 VERS.                           2.00:        CWLS LOG ASCII STANDARD - VERSION 2.00
 WRAP.                             NO:        ONE LINE PER DEPTH STEP
~WELL INFORMATION
#MNEM.UNIT                   DATA             INFORMATION
#----------             --------------        ------------------------------
 STRT.F                       75.0000:        START DEPTH
 STOP.F                     2534.0000:        STOP DEPTH
 STEP.F                        0.5000:        STEP VALUE
 NULL.                      -999.2500:        NULL VALUE
 COMP.                      HUSKY OIL:        COMPANY  
 LOC .                   14  22N  18W:        LOCATION   
 DATE.                       12/20/76:        LOG DATE 
 WELL.               SOUTH BARROW #13:        WELL     
 UWI .                   500232000800:        UNIQUE WELL ID 
 API .                   500232000800:        UNIQUE WELL IDENTIFIER 
 FLD .                   SOUTH BARROW:        FIELD    
 CNTY.                    NORTH SLOPE:        COUNTY  
 STAT.                         ALASKA:        STATE   
 CTRY.                            USA:        COUNTRY 
 OPER.                      HUSKY OIL:        OPERATOR  
 SRVC.                   SCHLUMBERGER:        SERVICE COMPANY 
 LAT .                         0.0000:        LATITUDE
 LON .                         0.0000:        LONGITUDE
 DIGS.               CENTER LINE DATA:        DIGITIZING COMPANY 
~CURVE INFORMATION      
#MNEM        .UNIT         API CODE           CURVE DESCRIPTION
#-----------------      --------------        ------------------------------
 DEPT        .F                      :        1  DEPTH
 SP          .MV                     :        2  
 ILD         .OHMM                   :        3  
 LL8         .OHMM                   :        4  
 CILD        .MMHO                   :        5  
 ILM         .OHMM                   :        6  
 GR          .GAPI                   :        7  
 CALI        .IN                     :        8  
 DRHO        .G/C3                   :        9  
 RHOB        .G/C3                   :        10 
 NPHI        .%                      :        11 
 DPHI        .%                      :        12 
 DT          .US/F                   :        13 
~PARAMETER INFORMATION       
#MNEM.UNIT                  VALUE             DESCRIPTION OF MNEMONIC
#---------             ---------------        ------------------------------
 EKB .F                       40.0000:        KELLY BUSHING
 TD  .F                     1139.0000:        TOTAL DEPTH
 BHT .F                        0.0000:        BOTTOM HOLE TEMPERATURE
 BS  .                        14.7500:        BIT SIZE
 FD  .                        10.3000:        FLUID DENSITY
 CSIZ.                        20.0000:        CASING SIZE
 CBD .F                       65.0000:        CASING DRILLER 1
 CBL .F                       75.0000:        CASING LOGGER 1
 DFT .                  Miscellaneous:        TYPE FLUID IN HOLE
 DFV .                        34.0000:        VISCOSITY
 DFPH.                         8.5000:        PH
 DFL .                        10.2000:        FLUID LOSS
 RMS .                         5.3200:        RM
 MST .F                       55.0000:        RM MEAS. TEMP.
 RMF .                         3.8000:        RMF
 MFST.F                       55.0000:        RMF MEAS. TEMP.
 RMC .                         6.0000:        RMC
 MCST.F                       55.0000:        RMC MEAS. TEMP.
~OTHER INFORMATION
~A    DEPTH          SP         ILD         LL8        CILD         ILM          GR        CALI        DRHO        RHOB        NPHI        DPHI          DT  
# ...
  1681.5000    -35.5304     10.3427     11.9623   -999.2500     10.6535     49.5732     10.6950      0.0617      2.4766     37.5255      9.1798    112.8248  
  1682.0000    -35.0991     10.3426     11.9803   -999.2500     10.8146     50.3595     10.6805      0.0718      2.4966     37.4271      8.4879    111.8467  
  1682.5000    -34.7704     10.3425     12.2754   -999.2500     10.7947     51.1458     10.6964      0.0931      2.5110     36.9145      8.9776    110.6940  
  1683.0000    -35.2612     10.3423     12.7634   -999.2500     10.7748     50.9537     10.7932      0.0908      2.5154     36.4359     10.0595    110.7070  
  1683.5000    -36.1710     10.3422     12.8123   -999.2500     10.7550     50.1920     10.9163      0.0884      2.5072     36.6303     12.2129    111.0952  
  1684.0000    -35.7557     10.3420     12.5080   -999.2500     10.7352     49.4303     10.7124      0.0801      2.4854     37.0568     11.9556    111.5641  
  1684.5000    -34.8475     10.3419     12.3147   -999.2500     10.7154     49.3639     10.4405      0.0641      2.4634     37.3042     11.5806    111.6582  
  1685.0000    -34.7530     10.3417     12.2286   -999.2500     10.6957     49.5089     10.4342      0.0750      2.4641     37.4955     12.4415    112.0843  
  1685.5000    -34.2962     10.3416     12.1366   -999.2500     10.6760     49.6539     10.4499      0.0714      2.4667     37.5635     13.9561    113.4720  
  1686.0000    -34.5444     10.3414     12.2007   -999.2500     10.6563     49.7989     10.5033      0.0599      2.4490     37.9352     14.0428    114.3576  
  1686.5000    -34.6848     10.3413     12.4733   -999.2500     10.6414     49.9335     10.5498      0.0289      2.4277     37.8865     12.2915    112.6444  
  1687.0000    -34.5224     10.3411     12.6764   -999.2500     10.6684     49.9745     10.5090      0.0427      2.4417     37.6376     11.6006    111.2000  
  1687.5000    -34.2444     10.3410     12.4812   -999.2500     10.6955     49.8429     10.5369      0.0446      2.4589     37.6473     11.0326    110.8116  
  1688.0000    -31.6744     10.3409     12.4400   -999.2500     10.7227     49.1911     10.5464      0.0582      2.4716     38.1581     10.2138    110.3201  
  1688.5000    -30.3388     10.3077     12.8973   -999.2500     10.6865     48.1888     10.5466      0.0712      2.4824     39.1662     10.8468    110.6086  
  1689.0000    -30.9459     10.2557     13.5763   -999.2500     10.5642     47.9825     10.5757      0.0850      2.4852     39.9240     10.5652    114.6687  
  1689.5000    -33.5875     10.0583     13.3845   -999.2500     10.4433     48.6555     10.5896      0.0900      2.4781     39.9372     10.9366    115.2696  
  1690.0000    -34.5566      9.9147     12.3048   -999.2500     10.3118     49.3971     10.5984      0.1096      2.4860     39.6161     11.9095    117.0351  
  1690.5000    -36.4591      9.7732     11.5723   -999.2500     10.1534     49.9654     10.6119      0.1110      2.4714     39.0132     12.7310    120.0120  
  1691.0000    -36.4901      9.6337     11.3886   -999.2500      9.9974     49.6621     10.6294      0.0951      2.4602     38.1317     13.6561    120.3727  
  1691.5000    -34.7912      9.4962     11.2832   -999.2500      9.8438     49.4250     10.6451      0.0738      2.4449     36.9361     12.9955    119.4527  
  1692.0000    -33.6000      9.3656     11.3398   -999.2500      9.6926     49.8611     10.7504      0.0701      2.4423     37.4758     13.6286    119.1595  
  1692.5000    -33.9009      9.2386     12.2999   -999.2500      9.5437     51.7776     11.1514      0.0683      2.4435     38.3631     12.7788    120.0944  
  1693.0000    -37.2090      9.1121     12.6523   -999.2500      9.3970     52.5760     11.3131      0.0592      2.4399     39.1345     11.7387    128.2692  
  1693.5000    -37.2117      8.9556     12.0376   -999.2500      9.2527     54.2748     11.2097      0.0562      2.4526     39.7106     11.7771    145.0943  
  1694.0000    -36.2716      8.9005     11.6030   -999.2500      9.1537     51.5472     10.8324      0.0470      2.4702     40.2606     12.0906    126.8847  
  1694.5000    -35.4397      8.8347     11.3200   -999.2500      9.0822     49.9216     10.5876      0.0439      2.4641     40.0296     12.7054    120.1023  
  1695.0000    -34.3266      8.8189     11.0808   -999.2500      9.0113     49.3545     10.5857      0.0466      2.4595     39.0569     13.2769    122.4560  
  1695.5000    -34.4427      8.8089     11.5012   -999.2500      8.9409     49.4961     10.5974      0.0358      2.4484     38.5386     13.6687    139.1870  
  1696.0000    -34.1240      8.8361     11.6353   -999.2500      8.8710     49.7528     10.6152      0.0352      2.4392     38.6627     13.1371    136.9986  
  1696.5000    -32.8412      8.8601     11.3584   -999.2500      8.8778     49.7166     10.5992      0.0364      2.4408     37.6252     12.5549    134.5340  
  1697.0000    -32.6366      8.9386     11.5079   -999.2500      9.0334     47.5810     10.5831      0.0483      2.4466     36.9819     13.7395    120.9362  
  1697.5000    -34.6994      9.0813     11.9971   -999.2500      9.1917     46.6777     10.5670      0.0483      2.4463     36.6241     15.3069    118.7734  
  1698.0000    -35.3761      9.1820     12.1463   -999.2500      9.3528     46.3977     10.5510      0.0332      2.4278     36.5610     16.1440    125.5158  
  1698.5000    -34.2781      9.3113     12.3172   -999.2500      9.5167     46.0028     10.5349      0.0215      2.3993     38.1885     16.5101    139.0789  
  1699.0000    -33.8515      9.4865     12.5621   -999.2500      9.6719     45.6670     10.8033      0.0211      2.3906     39.4896     16.2941    121.8645  
  1699.5000    -34.6752      9.5160     12.6442   -999.2500      9.6688     45.6335     11.0297      0.0207      2.3861     39.9772     13.7146    117.6551  
  1700.0000    -34.5006      9.4367     12.7038   -999.2500      9.6658     47.0488     11.0429      0.0302      2.4095     40.2366     13.3885    115.6833  
  1700.5000    -33.5380      9.3582     12.6723   -999.2500      9.6627     48.4641     11.0098      0.0383      2.4351     40.4232     13.1736    113.9151  
  1701.0000    -31.8640      9.2803     12.2273   -999.2500      9.6596     49.8794     10.9477      0.0443      2.4403     40.7855     13.0908    114.0807  
  1701.5000    -31.2348      9.2030     11.5691   -999.2500      9.6565     50.6854     10.8857      0.0578      2.4447     41.0610     13.5216    114.2780  
  1702.0000    -31.1591      9.1899     11.5079   -999.2500      9.6535     50.1557     10.7356      0.0597      2.4402     40.3833     13.5657    114.1127  
  1702.5000    -32.3585      9.2757     11.7191   -999.2500      9.6504     49.6259     10.7001      0.0448      2.4345     39.6337     11.1245    113.0057  
  1703.0000    -32.9102      9.2267     11.9449   -999.2500      9.6473     49.2299     10.7684      0.0581      2.4501     38.7998     10.8415    111.3008  
  1703.5000    -32.7106      9.1565     12.0097   -999.2500      9.6442     49.6136     10.8367      0.0753      2.4756     38.4834     11.1398    112.4970  
  1704.0000    -31.1359      9.1078     12.0202   -999.2500      9.6427     49.9972     10.8673      0.0825      2.4780     38.2982     11.2295    113.6079  
  1704.5000    -30.6944      9.1542     12.0408   -999.2500      9.6539     50.3809     10.7975      0.0830      2.4763     37.6204     12.3342    113.2174  
  1705.0000    -31.2909      9.1433     12.1697   -999.2500      9.6650     50.7645     10.7022      0.0748      2.4709     37.1665     13.0434    113.4514  
  1705.5000    -31.6575      9.1473     12.1214   -999.2500      9.5554     51.1482     10.6273      0.0676      2.4549     37.6949     14.9357    113.5313  
  1706.0000    -31.4402      9.0146     11.8287   -999.2500      9.3501     52.8167     10.5853      0.0571      2.4403     38.6480     15.6696    113.9221  
  1706.5000    -32.5428      8.7939     11.6800   -999.2500      9.1492     54.7389     10.5063      0.0467      2.4205     39.6457     15.3491    114.4919  
