~VERSION INFORMATION
 VERS.                           2.00:        CWLS LOG ASCII STANDARD - VERSION 2.00
 WRAP.                             NO:        ONE LINE PER DEPTH STEP
~WELL INFORMATION
#MNEM.UNIT                   DATA             INFORMATION
#----------             --------------        ------------------------------
 STRT.F                      152.0000:        START DEPTH
 STOP.F                     2285.0000:        STOP DEPTH
 STEP.F                        0.5000:        STEP VALUE
 NULL.                      -999.2500:        NULL VALUE
 COMP.                      U.S. NAVY:        COMPANY  
 LOC .                   26  22N  17W:        LOCATION   
 DATE.                         4/1/74:        LOG DATE 
 WELL.            SOUTH BARROW NO. 12:        WELL     
 UWI .                   500232000600:        UNIQUE WELL ID 
 API .                   500232000600:        UNIQUE WELL IDENTIFIER 
 FLD .                   SOUTH BARROW:        FIELD    
 CNTY.                         NPPR-4:        COUNTY  
 STAT.                         ALASKA:        STATE   
 CTRY.                            USA:        COUNTRY 
 OPER.                      U.S. NAVY:        OPERATOR  
 SRVC.                   SCHLUMBERGER:        SERVICE COMPANY 
 LAT .                         0.0000:        LATITUDE
 LON .                         0.0000:        LONGITUDE
 DIGS.               CENTER LINE DATA:        DIGITIZING COMPANY 
~CURVE INFORMATION      
#MNEM        .UNIT         API CODE           CURVE DESCRIPTION
#-----------------      --------------        ------------------------------
 DEPT        .F                      :        1  DEPTH
 RHOB        .G/C3                   :        2  
 DRHO        .G/C3                   :        3  
 GR          .GAPI                   :        4  
 CALI        .IN                     :        5  
 DPHI        .%                      :        6  
 NPHI        .%                      :        7  
 SP          .MV                     :        8  
 ALL8        .OHMM                   :        9  
 ILD         .OHMM                   :        10 
 CILD        .MMHO                   :        11 
 DT          .US/F                   :        12 
~PARAMETER INFORMATION       
#MNEM.UNIT                  VALUE             DESCRIPTION OF MNEMONIC
#---------             ---------------        ------------------------------
 EKB .F                       26.0000:        KELLY BUSHING
 TD  .F                     2285.0000:        TOTAL DEPTH
~OTHER INFORMATION
~A    DEPTH        RHOB        DRHO          GR        CALI        DPHI        NPHI          SP        ALL8         ILD        CILD          DT  
# ...
  1389.5000      2.4317      0.0368     99.8620     10.6059     13.2388     38.2565    -35.2935      9.7987      8.9125    106.3987    113.1370  
  1390.0000      2.4423      0.0505     99.7044     10.6057     13.0392     38.8779    -35.2828      9.9735      9.0664    105.3766    113.2072  
  1390.5000      2.4557      0.0547     99.9951     10.6254     12.4229     40.0043    -35.2373     10.0134      9.2203    102.8399    113.7655  
  1391.0000      2.4557      0.0446    101.7718     10.6330     11.9285     40.1308    -35.1067     10.0137      9.3742    100.3363    114.2978  
  1391.5000      2.4560      0.0496    103.4481     10.6265     11.9535     39.5346    -34.9643     10.0140      9.5281     98.0999    114.4501  
  1392.0000      2.4658      0.0527    103.8614     10.6365     11.5460     37.9626    -34.8474     10.0143      9.6784     97.0797    114.8378  
  1392.5000      2.4732      0.0610    103.1611     10.6590     11.3140     36.8330    -35.0535     10.0146      9.7605     96.7104    115.0132  
  1393.0000      2.4880      0.0705    101.3526     10.6553     10.8808     36.0189    -35.2611     10.0148      9.6489     97.0199    114.5734  
  1393.5000      2.4837      0.0585     98.8326     10.6454     10.0701     36.1179    -35.4722     10.0151      9.5309     97.5491    114.0188  
  1394.0000      2.4815      0.0482     97.8091     10.6557     10.2103     35.4871    -35.4821     10.0154      9.3814     98.3342    113.6430  
  1394.5000      2.5020      0.0560     98.7007     10.6226     10.6214     37.1991    -35.2533     10.0157      9.2320     99.7524    112.9486  
  1395.0000      2.4943      0.0478    100.1635     10.6180      9.1765     38.1888    -34.8535      9.9338      9.0825    101.2887    112.7108  
  1395.5000      2.4740      0.0369    101.6200     10.6231      9.8707     39.3157    -34.4809      9.7467      8.9331    103.0447    112.7351  
  1396.0000      2.4704      0.0413    101.8242     10.6277     10.8643     40.3118    -34.0732      9.5617      8.9093    105.1219    113.0469  
  1396.5000      2.4659      0.0421    101.3037     10.6239     10.6572     40.5215    -34.1531      9.4778      8.8858    107.1303    113.2105  
  1397.0000      2.4463      0.0418     99.8804     10.6068     11.4592     40.4601    -34.6901      9.4108      8.8622    107.8731    112.8812  
  1397.5000      2.4290      0.0406     98.9700     10.5995     12.3165     40.5056    -35.0076      9.3715      8.8387    108.3972    112.5142  
  1398.0000      2.4194      0.0409     98.0700     10.6373     13.5291     40.1083    -35.0834      9.4008      8.8152    108.8668    112.5738  
  1398.5000      2.4129      0.0345     97.7888     10.6304     14.5664     39.6920    -35.0247      9.5297      8.7916    109.2628    112.9670  
  1399.0000      2.4130      0.0256     98.0266     10.6129     14.5977     39.6476    -34.9860      9.6471      8.8847    108.7560    113.4696  
  1399.5000      2.4261      0.0249     97.0852     10.6163     14.5722     40.3548    -34.9498      9.7244      8.9900    107.4294    114.5571  
  1400.0000      2.4468      0.0248     96.1754     10.6184     13.4377     41.7654    -34.8790      9.8321      9.0953    106.4104    115.9747  
  1400.5000      2.4438      0.0241     95.3914     10.6136     12.9126     41.7985    -34.8842      9.9803      9.2006    105.5573    116.4280  
  1401.0000      2.4437      0.0228     94.9017     10.5881     12.6709     40.8989    -35.1254     10.1285      9.3143    105.1138    115.7117  
  1401.5000      2.4432      0.0217     94.8343     10.5657     12.7606     40.0411    -35.3143     10.2767      9.4500    104.3752    114.7030  
  1402.0000      2.4378      0.0203     95.1725     10.5725     12.8807     39.7425    -35.0725     10.3462      9.5857    102.9936    113.8652  
  1402.5000      2.4343      0.0206     95.2250     10.5488     13.0171     39.5756    -34.9536     10.4157      9.7213    101.1900    114.7553  
  1403.0000      2.4421      0.0326     94.3552     10.5270     13.0918     39.3046    -34.7053     10.4851      9.8554     99.4448    113.4281  
  1403.5000      2.4699      0.0523     92.5289     10.5014     12.6102     39.2157    -34.4139     10.6090      9.9799     97.2281    111.4889  
  1404.0000      2.5049      0.0665     88.5428     10.4799     11.2876     39.1951    -34.0749     10.8350     10.1045     94.7061    107.4155  
  1404.5000      2.5333      0.0720     84.9656     10.5042      9.1650     38.3677    -33.7321     11.0611     10.0388     95.2781    106.9235  
  1405.0000      2.5476      0.0558     84.9364     10.5158      7.7326     36.8389    -33.4440     11.2871      9.8458     96.6069    108.3261  
  1405.5000      2.5647      0.0466     88.3610     10.5228      6.6825     34.6942    -33.4398     11.1739      9.6528     97.8111    109.4141  
  1406.0000      2.5570      0.0550     94.4866     10.5289      4.8688     33.8045    -33.5301     10.7852      9.5175     97.6778    109.6614  
  1406.5000      2.5113      0.0479     98.8530     10.5894      5.5941     36.6454    -33.6591     10.3966      9.4046     97.3969    108.5991  
  1407.0000      2.4881      0.0505    101.2976     10.6424      8.1139     39.4863    -33.8029     10.1807      9.2917     97.2998    106.2902  
  1407.5000      2.4739      0.0562    101.7075     10.6860      9.6200     42.3272    -33.9705     10.0554      9.2119     98.4961    101.3950  
  1408.0000      2.4707      0.0555    100.6033     10.7092     11.0446     42.1441    -34.1430      9.9851      9.2589    100.3168     96.9910  
  1408.5000      2.4621      0.0495     98.7977     10.7288     11.1312     41.5719    -34.2601      9.9405      9.3059    102.0600     93.6295  
  1409.0000      2.4540      0.0331     98.1608     10.7358     11.5407     40.6316    -34.0920      9.9332      9.3528    102.8662     95.5756  
  1409.5000      2.4432      0.0128     97.5304     10.7479     11.8677     38.6054    -33.8926      9.9258      9.3998    102.5331     99.4389  
  1410.0000      2.4348      0.0207     95.8630     10.7385     12.6505     37.8189    -33.9709      9.9185      9.4468    101.8011    105.0116  
  1410.5000      2.4265      0.0214     94.8750     10.7341     13.2482     38.5347    -34.1680      9.9112      9.4938     99.7337    108.4962  
  1411.0000      2.4147      0.0148     94.4315     10.7320     13.7308     39.2505    -34.2892      9.9039      9.5408     98.0761    109.6040  
  1411.5000      2.4137      0.0253     93.6471     10.7353     14.2134     39.9663    -34.4104      9.8965      9.5878     97.1472    109.5460  
  1412.0000      2.4405      0.0357     91.4889     10.8041     14.2097     40.2606    -34.4725      9.8892      9.7055     96.4471    109.3087  
  1412.5000      2.4669      0.0479     89.5003     10.9600     12.7181     39.9547    -34.2845      9.8819      9.8740     96.1290    108.8393  
  1413.0000      2.4740      0.0476     87.8947     11.0232     11.2264     39.6997    -33.9735      9.8873     10.0425     95.9927    108.5207  
  1413.5000      2.4703      0.0307     86.8495     11.0954     10.6160     39.5336    -33.5048      9.9691     10.2111     95.5549    109.6177  
  1414.0000      2.4728      0.0337     86.4653     11.1131     11.1868     39.1417    -33.1343     10.0509     10.3796     93.8515    110.3917  
  1414.5000      2.4673      0.0502     86.1414     11.0431     10.5774     38.6951    -33.0739     10.2741     10.6437     89.1167    111.3008  
  1415.0000      2.4373      0.0576     85.6196     10.9730     11.1068     38.6008    -33.6228     10.5836     10.9313     85.8405    113.1675  
  1415.5000      2.4147      0.0655     85.8951     10.9739     12.7697     38.3670    -34.8146     10.8932     11.1121     84.4038    113.1657  
  1416.0000      2.3927      0.0614     88.8681     11.4550     14.3579     38.0246    -35.8902     10.9756     11.2142     85.1316    108.0878  
  1416.5000      2.3762      0.0362     94.8782     12.0761     15.5734     37.5318    -35.9999     11.0007     11.0355     86.3923    104.4311  
