~VERSION INFORMATION
 VERS.                           2.00:        CWLS LOG ASCII STANDARD - VERSION 2.00
 WRAP.                             NO:        ONE LINE PER DEPTH STEP
~WELL INFORMATION
#MNEM.UNIT                   DATA             INFORMATION
#----------             --------------        ------------------------------
 STRT.F                       25.0000:        START DEPTH
 STOP.F                     2347.0000:        STOP DEPTH
 STEP.F                        0.5000:        STEP VALUE
 NULL.                      -999.2500:        NULL VALUE
 COMP.        HUSKY OIL COMPANY/NPR-A:        COMPANY
 LOC .                     26 22N 17W:        LOCATION
 DATE.                        4/14/80:        LOG DATE
 WELL.                     BARROW #20:        WELL
 UWI .                   500232001500:        UNIQUE WELL ID
 API .                   500232001500:        UNIQUE WELL IDENTIFIER
 FLD .                   SOUTH BARROW:        FIELD
 CNTY.                    NORTH SLOPE:        COUNTY
 STAT.                        ALAASKA:        STATE
 CTRY.                            USA:        COUNTRY
 OPER.        HUSKY OIL COMPANY/NPR-A:        OPERATOR
 SRVC.                   SCHLUMBERGER:        SERVICE COMPANY
 LAT .                         0.0000:        LATITUDE
 LON .                         0.0000:        LONGITUDE
 DIGS.               CENTER LINE DATA:        DIGITIZING COMPANY
~CURVE INFORMATION      
#MNEM        .UNIT         API CODE           CURVE DESCRIPTION
#-----------------      --------------        ------------------------------
 DEPT        .F                      :        1  DEPTH
 CALI        .IN                     :        2  
 GR          .GAPI                   :        3  
 DRHO        .G/C3                   :        4  
 RHOB        .G/C3                   :        5  
 NPHI        .%                      :        6  
 SP          .MV                     :        7  
 ILD         .OHMM                   :        8  
 ILM         .OHMM                   :        9  
 SFL         .OHMM                   :        10 
 LLD         .OHMM                   :        11 
 LLS         .OHMM                   :        12 
 MSFL        .OHMM                   :        13 
 DT          .US/F                   :        14 
~PARAMETER INFORMATION
#MNEM.UNIT                  VALUE             DESCRIPTION OF MNEMONIC
#---------             ---------------        ------------------------------
 EKB .F                       30.0000:        KELLY BUSHING
 TD  .F                     2356.0000:        TOTAL DEPTH
 BHT .F                        0.0000:        BOTTOM HOLE TEMPERATURE
 BS  .                         8.5000:        BIT SIZE
 FD  .                        10.8000:        FLUID DENSITY
 CSIZ.                         9.6250:        CASING SIZE
 CBD .F                     1500.0000:        CASING DRILLER 1
 CBL .F                     1485.0000:        CASING LOGGER 1
 DFT .                            GEL:        TYPE FLUID IN HOLE
 DFV .                        10.0000:        VISCOSITY
 DFPH.                         9.0000:        PH
 DFL .                        10.0000:        FLUID LOSS
 RMS .                         0.1840:        RM
 MST .F                       61.0000:        RM MEAS. TEMP.
 RMF .                         0.1270:        RMF
 MFST.F                       61.0000:        RMF MEAS. TEMP.
 RMC .                         0.2660:        RMC
 MCST.F                       61.0000:        RMC MEAS. TEMP.
~OTHER INFORMATION
~A    DEPTH        CALI          GR        DRHO        RHOB        NPHI          SP         ILD         ILM         SFL         LLD         LLS        MSFL          DT 
# ...
  2305.0000      5.7967     27.0038      0.0121      2.5040     19.7763    -25.9171   -999.2500   -999.2500   -999.2500     71.2788     56.1884   -999.2500     70.9906 
  2305.5000      5.8356     28.0234      0.0197      2.5622     19.8830    -26.0682   -999.2500   -999.2500   -999.2500     64.5238     57.3534   -999.2500     67.8527 
  2306.0000      5.8059     30.9679      0.0470      2.5986     20.2003    -26.1898   -999.2500   -999.2500   -999.2500     52.9956     44.7816   -999.2500     70.8549 
  2306.5000      5.7863     35.4134      0.0131      2.5429     20.4304    -26.1922   -999.2500   -999.2500   -999.2500     54.2134     43.2207   -999.2500     72.3548 
  2307.0000      5.7965     40.1600      0.0029      2.5375     20.8277    -26.2349   -999.2500   -999.2500   -999.2500     56.6717     44.3432   -999.2500     73.1836 
  2307.5000      5.8059     47.7697      0.0338      2.5837     21.6161    -26.3655   -999.2500   -999.2500   -999.2500     60.1988     45.5063   -999.2500     73.5506 
  2308.0000      5.7998     57.8347      0.0431      2.6225     22.3517    -26.6291   -999.2500   -999.2500   -999.2500     56.1671     44.5117   -999.2500     74.0797 
  2308.5000      5.8117     68.0252      0.0474      2.6730     23.2276    -26.8927   -999.2500   -999.2500   -999.2500     39.5223     37.5036   -999.2500     72.4350 
  2309.0000      5.8236     78.1562      0.0271      2.6794     24.1035    -27.0287   -999.2500   -999.2500   -999.2500     31.3839     30.4978   -999.2500     73.6997 
  2309.5000      5.8354     85.2945      0.0373      2.7007     24.9794    -27.0364   -999.2500   -999.2500   -999.2500     26.5723     24.2673   -999.2500     74.4890 
  2310.0000      5.8450     89.2614      0.0405      2.7221     24.8849    -27.1402   -999.2500   -999.2500   -999.2500     20.7377     17.2787   -999.2500     75.5103 
  2310.5000      5.8511     87.4531      0.0261      2.6935     24.2478    -27.1932   -999.2500   -999.2500   -999.2500     18.2463     15.7626   -999.2500     76.0087 
  2311.0000      5.8522     86.4320      0.0318      2.6856     22.9396    -27.0707   -999.2500   -999.2500   -999.2500     19.9497     19.4953   -999.2500     75.3349 
  2311.5000      5.8448     86.2695      0.0474      2.6858     21.6708    -27.1138   -999.2500   -999.2500   -999.2500     26.0313     24.3163   -999.2500     73.7511 
  2312.0000      5.8374     88.3518      0.0534      2.6908     21.4000    -27.2942   -999.2500   -999.2500   -999.2500     37.6189     39.7839   -999.2500     71.2317 
  2312.5000      5.8262     91.1761      0.0268      2.6752     21.1723    -27.5938   -999.2500   -999.2500   -999.2500     68.4575     59.3082   -999.2500     69.3253 
  2313.0000      5.8102     95.8459      0.0405      2.6889     20.9570    -27.9178   -999.2500   -999.2500   -999.2500     90.8560     85.5678   -999.2500     68.0425 
  2313.5000      5.7930    104.3029      0.0361      2.7070     20.8288    -28.2418   -999.2500   -999.2500   -999.2500    107.6254    100.2489   -999.2500     67.9920 
  2314.0000      5.7726    112.0192      0.0197      2.6959     21.0582    -28.4613   -999.2500   -999.2500   -999.2500    112.3966     95.3735   -999.2500     67.2649 
  2314.5000      5.7522    118.9007      0.0213      2.7038     21.3835    -28.4754   -999.2500   -999.2500   -999.2500    101.9568     91.2520   -999.2500     66.4320 
  2315.0000      5.7310    125.6812      0.0409      2.7359     21.6638    -28.7548   -999.2500   -999.2500   -999.2500     80.7419     73.2930   -999.2500     66.0887 
  2315.5000      5.7110    126.2200      0.0473      2.7706     21.2064    -29.8411   -999.2500   -999.2500   -999.2500     43.9724     40.6447   -999.2500     66.0223 
  2316.0000      5.6933    119.5881      0.0375      2.7623     20.9308    -31.1059   -999.2500   -999.2500   -999.2500     14.6124      9.8944   -999.2500     66.0195 
  2316.5000      5.6755    112.8661      0.0213      2.7285     21.6821    -32.2908   -999.2500   -999.2500   -999.2500      3.4672      3.4961   -999.2500     66.0166 
  2317.0000      5.6575    111.0915      0.0134      2.6959     22.4297    -32.9046   -999.2500   -999.2500   -999.2500      1.8527      1.8591   -999.2500     67.7111 
  2317.5000      5.6421    111.1640      0.0191      2.6782     23.1773    -32.9128   -999.2500   -999.2500   -999.2500      1.5933      1.4413   -999.2500     69.8693 
  2318.0000      5.6267    112.1253      0.0109      2.6285     23.6260    -32.8491   -999.2500   -999.2500   -999.2500      1.5175      1.5349   -999.2500     72.9023 
  2318.5000      5.6139    111.2266      0.0035      2.5939     22.8691    -32.8228   -999.2500   -999.2500   -999.2500      2.3731      2.4207   -999.2500     75.6997 
  2319.0000      5.6233    106.4525      0.0201      2.6102     22.1067    -32.9070   -999.2500   -999.2500   -999.2500      4.9323      5.4047   -999.2500     74.2257 
  2319.5000      5.6326     98.6592      0.0381      2.6581     21.8958    -33.0210   -999.2500   -999.2500   -999.2500     16.5854     17.1133   -999.2500     72.9052 
  2320.0000      5.6419     94.6268      0.0479      2.6879     21.3310    -33.0611   -999.2500   -999.2500   -999.2500     36.6262     35.9858   -999.2500     71.0864 
  2320.5000      5.6503     90.6808      0.0440      2.7241     20.8917    -33.1457   -999.2500   -999.2500   -999.2500     41.8511     42.8599   -999.2500     68.8571 
  2321.0000      5.6588     86.4897      0.0206      2.7010     20.8909    -33.6730   -999.2500   -999.2500   -999.2500     48.2199     47.5967   -999.2500     68.8235 
  2321.5000      5.6673     81.7605      0.0212      2.6873     20.8768    -33.5243   -999.2500   -999.2500   -999.2500     51.7047     52.9241   -999.2500     82.2049 
  2322.0000      5.6736     75.2918      0.0287      2.6990     19.7597    -33.4243   -999.2500   -999.2500   -999.2500     55.4834     53.7378   -999.2500     63.6208 
  2322.5000      5.6776     65.6649      0.0128      2.6893     18.9825    -33.3028   -999.2500   -999.2500   -999.2500     47.5021     45.4658   -999.2500     54.8994 
  2323.0000      5.6815     51.7317      0.0455      2.7179     18.2149    -33.2946   -999.2500   -999.2500   -999.2500     24.6512     24.0823   -999.2500     80.4474 
  2323.5000      5.6594     36.9349      0.0775      2.7441     18.3290    -33.3717   -999.2500   -999.2500   -999.2500     17.6773     14.1210   -999.2500     55.1394 
  2324.0000      5.6405     21.5970      0.0646      2.7232     18.3395    -33.4047   -999.2500   -999.2500   -999.2500     20.4460     15.8885   -999.2500     68.7436 
  2324.5000      5.6525   -999.2500      0.0413      2.7046     18.3415    -33.4635   -999.2500   -999.2500   -999.2500     26.2492     24.3352   -999.2500     69.2319 
  2325.0000      5.6588   -999.2500      0.0312      2.6916     19.0184    -33.4644   -999.2500   -999.2500   -999.2500     76.5621     64.3810   -999.2500     68.8522 
  2325.5000      5.6650   -999.2500      0.0308      2.6765     20.3118    -33.3932   -999.2500   -999.2500   -999.2500    138.4723    113.2541   -999.2500     68.6554 
  2326.0000      5.6711   -999.2500      0.0360      2.6945     20.2625    -33.0474   -999.2500   -999.2500   -999.2500    123.6956     95.1284   -999.2500     68.8881 
  2326.5000      5.6772   -999.2500      0.0400      2.7130     20.1945    -32.6832   -999.2500   -999.2500   -999.2500     96.6101     70.4504   -999.2500     69.1207 
  2327.0000      5.6833   -999.2500      0.0348      2.7160     20.1100    -32.4209   -999.2500   -999.2500   -999.2500     67.6528     48.6640   -999.2500     69.1310 
  2327.5000      5.6833   -999.2500      0.0169      2.7045     20.1576    -32.6470   -999.2500   -999.2500   -999.2500     67.3603     44.8934   -999.2500     69.1052 
  2328.0000      5.6613   -999.2500      0.0320      2.7063     20.4487    -32.4796   -999.2500   -999.2500   -999.2500     80.3017     48.3465   -999.2500     68.8029 
  2328.5000      5.6393   -999.2500      0.0392      2.7112     20.5969    -32.2290   -999.2500   -999.2500   -999.2500     99.0409     57.1408   -999.2500     68.3012 
