~VERSION INFORMATION
 VERS.                           2.00:        CWLS LOG ASCII STANDARD - VERSION 2.00
 WRAP.                             NO:        ONE LINE PER DEPTH STEP
~WELL INFORMATION
#MNEM.UNIT                   DATA             INFORMATION
#----------             --------------        ------------------------------
 STRT.F                       78.0000:        START DEPTH
 STOP.F                     2392.0000:        STOP DEPTH
 STEP.F                        0.5000:        STEP VALUE
 NULL.                      -999.2500:        NULL VALUE
 COMP.              U.S.G.S./NPR -  A:        COMPANY  
 LOC .                    1  22N  18W:        LOCATION   
 DATE.                        2/14/78:        LOG DATE 
 WELL.               SOUTH BARROW #16:        WELL     
 UWI .                   500232001000:        UNIQUE WELL ID 
 API .                   500232001000:        UNIQUE WELL IDENTIFIER 
 FLD .                   SOUTH BARROW:        FIELD    
 CNTY.                    NORTH SLOPE:        COUNTY  
 STAT.                         ALASKA:        STATE   
 CTRY.                            USA:        COUNTRY 
 OPER.              U.S.G.S./NPR -  A:        OPERATOR  
 SRVC.                   SCHLUMBERGER:        SERVICE COMPANY 
 LAT .                         0.0000:        LATITUDE
 LON .                         0.0000:        LONGITUDE
 DIGS.               CENTER LINE DATA:        DIGITIZING COMPANY 
~CURVE INFORMATION      
#MNEM        .UNIT         API CODE           CURVE DESCRIPTION
#-----------------      --------------        ------------------------------
 DEPT        .F                      :        1  DEPTH
 CALI        .IN                     :        2  
 GR          .GAPI                   :        3  
 RHOB        .G/C3                   :        4  
 DRHO        .G/C3                   :        5  
 NPHI        .%                      :        6  
 DT          .US/F                   :        7  
 SP          .MV                     :        8  
 ILD         .OHMM                   :        9  
 ILM         .OHMM                   :        10 
 LL8         .OHMM                   :        11 
 LLD         .OHMM                   :        12 
 LLS         .OHMM                   :        13 
~PARAMETER INFORMATION       
#MNEM.UNIT                  VALUE             DESCRIPTION OF MNEMONIC
#---------             ---------------        ------------------------------
 EKB .F                       30.0000:        KELLY BUSHING
 TD  .F                     2399.0000:        TOTAL DEPTH
 BHT .F                       73.0000:        BOTTOM HOLE TEMPERATURE
 BS  .                         8.5000:        BIT SIZE
 FD  .                        11.0000:        FLUID DENSITY
 CSIZ.                         8.5000:        CASING SIZE
 CBD .F                     1489.0000:        CASING DRILLER 1
 CBL .F                     1487.0000:        CASING LOGGER 1
 DFT .                  Miscellaneous:        TYPE FLUID IN HOLE
 DFV .                        52.0000:        VISCOSITY
 DFPH.                         8.5000:        PH
 DFL .                         8.0000:        FLUID LOSS
 RMS .                         0.0210:        RM
 MST .F                       58.0000:        RM MEAS. TEMP.
 RMF .                         0.0130:        RMF
 MFST.F                       52.0000:        RMF MEAS. TEMP.
 RMC .                         0.0170:        RMC
 MCST.F                       56.0000:        RMC MEAS. TEMP.
~OTHER INFORMATION
~A    DEPTH        CALI          GR        RHOB        DRHO        NPHI          DT          SP         ILD         ILM         LL8         LLD         LLS  
# ...
  1914.0000      8.8348     86.2857      2.4131      0.0595     40.2518    105.2880    -70.7715   -999.2500   -999.2500   -999.2500      7.0371      8.5501  
  1914.5000      8.7952     87.0644      2.4133      0.0432     39.8307    105.8351    -70.7100   -999.2500   -999.2500   -999.2500      7.3165      8.8661  
  1915.0000      8.8563     87.4542      2.4270      0.0511     39.9691    105.4799    -70.6683   -999.2500   -999.2500   -999.2500      7.5791      9.3134  
  1915.5000      8.7777     87.2599      2.4498      0.0756     39.9772    104.5201    -70.6983   -999.2500   -999.2500   -999.2500      7.7328      9.7832  
  1916.0000      8.7429     86.1123      2.4268      0.0638     39.6668    103.1063    -70.9281   -999.2500   -999.2500   -999.2500      8.0138     10.2767  
  1916.5000      8.7232     83.4429      2.4110      0.0471     39.6334    102.4203    -71.2309   -999.2500   -999.2500   -999.2500      8.2059     10.0081  
  1917.0000      8.6736     80.5637      2.4084      0.0457     40.2062    102.8797    -71.3234   -999.2500   -999.2500   -999.2500      8.0868      9.7368  
  1917.5000      8.7957     79.0070      2.4131      0.0517     40.7061    104.2324    -71.3298   -999.2500   -999.2500   -999.2500      7.9695      9.4729  
  1918.0000      8.7797     77.7334      2.4227      0.0453     39.9822    106.1415    -71.3210   -999.2500   -999.2500   -999.2500      7.9302      9.4172  
  1918.5000      8.7814     77.4508      2.4137      0.0408     38.7957    108.0569    -71.3322   -999.2500   -999.2500   -999.2500      8.2853      9.7970  
  1919.0000      8.8133     77.8286      2.4060      0.0501     37.1733    108.9115    -71.3473   -999.2500   -999.2500   -999.2500      8.6563     10.1920  
  1919.5000      8.7995     78.9884      2.3975      0.0439     36.5733    109.0501    -71.4360   -999.2500   -999.2500   -999.2500      8.8567     10.4711  
  1920.0000      8.7736     79.0671      2.3897      0.0439     37.1916    108.4480    -71.5310   -999.2500   -999.2500   -999.2500      8.8823     10.3830  
  1920.5000      8.7625     79.9004      2.4054      0.0605     38.1439    107.0770    -71.5567   -999.2500   -999.2500   -999.2500      8.7888     10.0010  
  1921.0000      8.7128     80.8961      2.3935      0.0762     39.7733    105.1509    -71.5147   -999.2500   -999.2500   -999.2500      8.3259      9.6332  
  1921.5000      8.7508     82.4653      2.3930      0.1011     41.1297    103.8461    -71.5460   -999.2500   -999.2500   -999.2500      7.7624      9.2821  
  1922.0000      8.7654     83.8579      2.3721      0.0766     41.4364    103.5792    -71.5540   -999.2500   -999.2500   -999.2500      7.5417      9.0680  
  1922.5000      8.7822     84.8810      2.3433      0.0494     42.1240    104.3126    -71.6003   -999.2500   -999.2500   -999.2500      7.5307      8.8992  
  1923.0000      8.6999     86.2697      2.3537      0.0469     43.5339    105.5142    -71.7901   -999.2500   -999.2500   -999.2500      7.6659      9.0630  
  1923.5000      8.7349     87.4393      2.3868      0.0737     44.6343    106.2317    -72.2015   -999.2500   -999.2500   -999.2500      8.1213      9.4107  
  1924.0000      8.8132     87.9365      2.4078      0.0917     45.0253    106.1020    -72.5510   -999.2500   -999.2500   -999.2500      8.3749      9.9276  
  1924.5000      8.8757     88.3894      2.4058      0.0884     43.8012    105.8373    -72.9437   -999.2500   -999.2500   -999.2500      8.6248     10.2520  
  1925.0000      8.8770     88.9121      2.3842      0.0833     42.5049    105.8768    -73.2253   -999.2500   -999.2500   -999.2500      8.5724     10.3005  
  1925.5000      8.8242     88.8462      2.3600      0.0676     41.5795    106.3404    -73.4341   -999.2500   -999.2500   -999.2500      8.3892      9.9349  
  1926.0000      8.7066     87.9519      2.3508      0.0490     41.0150    106.8669    -73.6147   -999.2500   -999.2500   -999.2500      8.2099      9.7076  
  1926.5000      8.7671     87.1070      2.3592      0.0488     40.7872    107.3006    -73.7711   -999.2500   -999.2500   -999.2500      8.0344      9.3792  
  1927.0000      8.7798     86.8975      2.3619      0.0381     40.4080    107.5590    -73.8415   -999.2500   -999.2500   -999.2500      8.1851      9.5455  
  1927.5000      8.7891     86.8546      2.3714      0.0431     40.6608    107.6761    -73.8298   -999.2500   -999.2500   -999.2500      8.3536      9.7148  
  1928.0000      8.7880     86.4860      2.4027      0.0603     40.9757    107.5945    -73.6525   -999.2500   -999.2500   -999.2500      8.3960      9.8510  
  1928.5000      8.7895     86.4785      2.4409      0.0793     41.4450    107.5627    -73.5268   -999.2500   -999.2500   -999.2500      8.2493      9.6740  
  1929.0000      8.7961     86.8143      2.4443      0.0860     42.1280    107.9364    -73.4662   -999.2500   -999.2500   -999.2500      8.0982      9.5001  
  1929.5000      8.7520     86.8593      2.4429      0.0869     42.5283    108.9692    -73.3612   -999.2500   -999.2500   -999.2500      7.8844      9.3293  
  1930.0000      8.7930     86.9897      2.4309      0.0612     42.8279    111.0813    -73.3241   -999.2500   -999.2500   -999.2500      7.7630      9.3996  
  1930.5000      8.8386     88.0726      2.4002      0.0387     43.0968    112.7570    -73.3654   -999.2500   -999.2500   -999.2500      7.8172      9.5637  
  1931.0000      8.8813     90.2829      2.4052      0.0392     43.2386    113.5242    -73.4465   -999.2500   -999.2500   -999.2500      7.8717      9.6707  
  1931.5000      8.7878     93.1093      2.4176      0.0512     42.6187    113.4039    -73.5780   -999.2500   -999.2500   -999.2500      7.8381      9.6907  
  1932.0000      8.8696     96.2452      2.4177      0.0603     42.3171    111.9591    -73.6504   -999.2500   -999.2500   -999.2500      7.7944      9.3582  
  1932.5000      8.9456    100.0158      2.4084      0.0477     43.0327    110.3025    -73.7928   -999.2500   -999.2500   -999.2500      7.7426      8.9901  
  1933.0000      8.8781    103.0902      2.4133      0.0531     43.7643    109.4716    -73.9680   -999.2500   -999.2500   -999.2500      7.3140      8.6224  
  1933.5000      8.7905    108.9877      2.4218      0.0543     43.7960    109.2331    -74.2129   -999.2500   -999.2500   -999.2500      6.9317      8.3169  
  1934.0000      8.8036    114.0635      2.4290      0.0483     43.1361    109.6589    -74.5257   -999.2500   -999.2500   -999.2500      6.5901      8.0222  
  1934.5000      8.7330    115.2559      2.4420      0.0379     43.2829    109.9109    -74.8534   -999.2500   -999.2500   -999.2500      6.3681      7.7380  
  1935.0000      8.7088    110.8961      2.4300      0.0176     43.5339    109.5156    -75.1358   -999.2500   -999.2500   -999.2500      6.3877      7.6374  
  1935.5000      8.7790    103.3282      2.4479      0.0484     43.4506    109.0290    -75.4275   -999.2500   -999.2500   -999.2500      6.4902      8.1633  
  1936.0000      8.7831     97.5150      2.4300      0.0543     42.3631    108.7074    -75.4895   -999.2500   -999.2500   -999.2500      6.7313      8.4640  
  1936.5000      8.7542     97.6949      2.4054      0.0405     41.1462    109.4160    -75.4348   -999.2500   -999.2500   -999.2500      7.0092      8.8213  
  1937.0000      8.7711     99.9149      2.4061      0.0487     40.6522    110.2850    -75.1681   -999.2500   -999.2500   -999.2500      7.0635      8.9781  
  1937.5000      8.7989    102.1350      2.4199      0.0547     41.6273    111.8469    -74.7844   -999.2500   -999.2500   -999.2500      7.1606      8.9295  
  1938.0000      8.8098    104.7546      2.4293      0.0707     43.3339    114.0508    -74.3600   -999.2500   -999.2500   -999.2500      7.1123      8.8812  
  1938.5000      8.7929    103.5846      2.4355      0.0789     44.8291    115.9377    -74.0326   -999.2500   -999.2500   -999.2500      7.1791      8.8892  
  1939.0000      8.7771    101.5328      2.4363      0.0737     46.0949    116.4088    -73.7612   -999.2500   -999.2500   -999.2500      7.3535      8.9505  
