~VERSION INFORMATION
 VERS.                           2.00:        CWLS LOG ASCII STANDARD - VERSION 2.00
 WRAP.                             NO:        ONE LINE PER DEPTH STEP
~WELL INFORMATION
#MNEM.UNIT                   DATA             INFORMATION
#----------             --------------        ------------------------------
 STRT.F                       25.0000:        START DEPTH
 STOP.F                     2347.0000:        STOP DEPTH
 STEP.F                        0.5000:        STEP VALUE
 NULL.                      -999.2500:        NULL VALUE
 COMP.        HUSKY OIL COMPANY/NPR-A:        COMPANY
 LOC .                     26 22N 17W:        LOCATION
 DATE.                        4/14/80:        LOG DATE
 WELL.                     BARROW #20:        WELL
 UWI .                   500232001500:        UNIQUE WELL ID
 API .                   500232001500:        UNIQUE WELL IDENTIFIER
 FLD .                   SOUTH BARROW:        FIELD
 CNTY.                    NORTH SLOPE:        COUNTY
 STAT.                        ALAASKA:        STATE
 CTRY.                            USA:        COUNTRY
 OPER.        HUSKY OIL COMPANY/NPR-A:        OPERATOR
 SRVC.                   SCHLUMBERGER:        SERVICE COMPANY
 LAT .                         0.0000:        LATITUDE
 LON .                         0.0000:        LONGITUDE
 DIGS.               CENTER LINE DATA:        DIGITIZING COMPANY
~CURVE INFORMATION      
#MNEM        .UNIT         API CODE           CURVE DESCRIPTION
#-----------------      --------------        ------------------------------
 DEPT        .F                      :        1  DEPTH
 CALI        .IN                     :        2  
 GR          .GAPI                   :        3  
 DRHO        .G/C3                   :        4  
 RHOB        .G/C3                   :        5  
 NPHI        .%                      :        6  
 SP          .MV                     :        7  
 ILD         .OHMM                   :        8  
 ILM         .OHMM                   :        9  
 SFL         .OHMM                   :        10 
 LLD         .OHMM                   :        11 
 LLS         .OHMM                   :        12 
 MSFL        .OHMM                   :        13 
 DT          .US/F                   :        14 
~PARAMETER INFORMATION
#MNEM.UNIT                  VALUE             DESCRIPTION OF MNEMONIC
#---------             ---------------        ------------------------------
 EKB .F                       30.0000:        KELLY BUSHING
 TD  .F                     2356.0000:        TOTAL DEPTH
 BHT .F                        0.0000:        BOTTOM HOLE TEMPERATURE
 BS  .                         8.5000:        BIT SIZE
 FD  .                        10.8000:        FLUID DENSITY
 CSIZ.                         9.6250:        CASING SIZE
 CBD .F                     1500.0000:        CASING DRILLER 1
 CBL .F                     1485.0000:        CASING LOGGER 1
 DFT .                            GEL:        TYPE FLUID IN HOLE
 DFV .                        10.0000:        VISCOSITY
 DFPH.                         9.0000:        PH
 DFL .                        10.0000:        FLUID LOSS
 RMS .                         0.1840:        RM
 MST .F                       61.0000:        RM MEAS. TEMP.
 RMF .                         0.1270:        RMF
 MFST.F                       61.0000:        RMF MEAS. TEMP.
 RMC .                         0.2660:        RMC
 MCST.F                       61.0000:        RMC MEAS. TEMP.
~OTHER INFORMATION
~A    DEPTH        CALI          GR        DRHO        RHOB        NPHI          SP         ILD         ILM         SFL         LLD         LLS        MSFL          DT 
# ...
  2089.0000      8.6859     59.3585     -0.0127      2.5002     24.9742    -33.1099   -999.2500   -999.2500   -999.2500     16.0611     15.2372      8.6047     87.0304 
  2089.5000      8.6870     56.6532     -0.0239      2.5033     24.7350    -32.8053   -999.2500   -999.2500   -999.2500     15.9233     15.1065      9.7724     79.4927 
  2090.0000      8.6890     57.3765     -0.0116      2.5158     24.5729    -32.6419   -999.2500   -999.2500   -999.2500     15.8123     15.0145     12.7434     87.3666 
  2090.5000      8.6913     59.9436      0.0038      2.5094     24.5859    -32.6178   -999.2500   -999.2500   -999.2500     15.8126     15.0148     14.5213     91.0183 
  2091.0000      8.6972     63.1526      0.0061      2.4984     24.8749    -32.8860   -999.2500   -999.2500   -999.2500     15.8129     15.0152     14.6850     89.2662 
  2091.5000      8.7031     66.0169      0.0077      2.5104     25.3625    -32.8369   -999.2500   -999.2500   -999.2500     15.9410     15.0975     14.2902     88.5544 
  2092.0000      8.7090     69.3222      0.0176      2.5399     25.7775    -32.8092   -999.2500   -999.2500   -999.2500     16.1740     15.3182     14.2245     89.3269 
  2092.5000      8.7148     70.8863      0.0266      2.5709     26.1474    -32.9110   -999.2500   -999.2500   -999.2500     16.4105     15.5421     14.3876     90.4244 
  2093.0000      8.7207     71.4169      0.0299      2.5769     26.5572    -32.8010   -999.2500   -999.2500   -999.2500     16.6117     15.7621     14.5525     90.5066 
  2093.5000      8.7268     70.5921      0.0200      2.5536     26.9575    -33.0338   -999.2500   -999.2500   -999.2500     16.5077     15.5810     14.6794     89.5701 
  2094.0000      8.7102     67.6519      0.0063      2.5207     27.1433    -32.9985   -999.2500   -999.2500   -999.2500     16.1364     15.2305     14.2925     86.3065 
  2094.5000      8.7082     61.9700      0.0004      2.4951     26.9651    -32.9370   -999.2500   -999.2500   -999.2500     15.7735     14.8877     13.7134     79.5480 
  2095.0000      8.7110     57.0916      0.0068      2.5031     26.8313    -32.9283   -999.2500   -999.2500   -999.2500     15.4177     14.6198     13.5135     84.7499 
  2095.5000      8.7126     55.4842      0.0161      2.5198     26.6680    -32.9651   -999.2500   -999.2500   -999.2500     15.4627     14.6198     13.8500     90.3057 
  2096.0000      8.7143     55.1076      0.0185      2.5114     26.2121    -32.7935   -999.2500   -999.2500   -999.2500     15.7809     15.0195     14.6543     91.2430 
  2096.5000      8.7160     53.7685      0.0124      2.4906     25.3692    -32.8916   -999.2500   -999.2500   -999.2500     16.7471     15.8485     15.5368     91.8224 
  2097.0000      8.7176     51.9349     -0.0012      2.4724     24.2849    -32.7979   -999.2500   -999.2500   -999.2500     18.3151     16.7233     16.4284     94.0073 
  2097.5000      8.7193     50.8420     -0.0043      2.4714     23.6576    -32.5358   -999.2500   -999.2500   -999.2500     19.6872     17.5149     17.2500     96.0902 
  2098.0000      8.6935     49.9758      0.0004      2.4758     23.8039    -31.9600   -999.2500   -999.2500   -999.2500     19.9097     17.7545     17.4823     96.0357 
  2098.5000      8.6805     48.3621      0.0063      2.4841     23.9502    -30.9625   -999.2500   -999.2500   -999.2500     18.5034     17.6047     17.1225     93.3237 
  2099.0000      8.6848     46.9750      0.0161      2.4928     24.1118    -29.4029   -999.2500   -999.2500   -999.2500     17.8199     17.0609     16.3314     95.0454 
  2099.5000      8.6719     46.7186      0.0122      2.4771     24.0388    -25.7397   -999.2500   -999.2500   -999.2500     17.1616     16.6579     15.0362     96.0356 
  2100.0000      8.6821     46.4037      0.0024      2.4392     24.5120    -21.9137   -999.2500   -999.2500   -999.2500     16.7703     16.3702     13.9698     96.8154 
  2100.5000      8.6913     44.9835      0.0081      2.4173     25.1721    -19.4625   -999.2500   -999.2500   -999.2500     16.7193     16.3603     14.2923     97.0835 
  2101.0000      8.6942     43.6162      0.0137      2.4208     25.6934    -18.7209   -999.2500   -999.2500   -999.2500     16.8522     16.6340     15.0437     96.7251 
  2101.5000      8.7045     42.3958      0.0169      2.4161     26.0294    -18.7598   -999.2500   -999.2500   -999.2500     17.4639     17.1127     15.8760     95.8438 
  2102.0000      8.6972     41.0853      0.0244      2.4171     25.7139    -18.7986   -999.2500   -999.2500   -999.2500     18.2803     17.5363     17.0614     95.0209 
  2102.5000      8.6782     40.2179      0.0305      2.4374     25.1021    -18.8375   -999.2500   -999.2500   -999.2500     19.1348     17.7023     17.7349     93.0761 
  2103.0000      8.6793     39.0413      0.0452      2.4575     24.5902    -18.8764   -999.2500   -999.2500   -999.2500     18.4695     17.1198     17.6595     91.2239 
  2103.5000      8.6888     37.9723      0.0385      2.4456     24.4817    -18.9153   -999.2500   -999.2500   -999.2500     16.4074     16.1258     16.0075     89.9570 
  2104.0000      8.6947     39.9891      0.0315      2.4481     24.9556    -18.9541   -999.2500   -999.2500   -999.2500     15.5318     15.1894     14.1519     88.9445 
  2104.5000      8.6861     42.7988      0.0233      2.4624     24.8573    -18.9930   -999.2500   -999.2500   -999.2500     15.4037     14.8367     13.0138     87.2600 
  2105.0000      8.6942     45.3470      0.0169      2.4857     24.5765    -19.0319   -999.2500   -999.2500   -999.2500     15.2432     14.7328     12.6320     85.0306 
  2105.5000      8.7022     46.5526      0.0186      2.5038     24.3233    -19.0708   -999.2500   -999.2500   -999.2500     15.1102     14.7930     13.0060     85.9933 
  2106.0000      8.6894     46.9008      0.0204      2.5177     24.3709    -19.1096   -999.2500   -999.2500   -999.2500     15.3529     14.8534     13.4318     89.7184 
  2106.5000      8.7063     45.3566      0.0178      2.5206     24.3674    -19.1485   -999.2500   -999.2500   -999.2500     15.5996     14.9141     13.6292     90.1248 
  2107.0000      8.6976     40.0672      0.0103      2.5032     24.3872    -19.1874   -999.2500   -999.2500   -999.2500     15.8503     14.8440     13.7141     90.7481 
  2107.5000      8.6890     32.8316      0.0071      2.4927     24.4999    -19.2263   -999.2500   -999.2500   -999.2500     15.6628     14.5938     13.5812     91.5347 
  2108.0000      8.6804     29.7381      0.0091      2.4879     24.5955    -19.2651   -999.2500   -999.2500   -999.2500     15.3086     14.3478     13.4496     93.8203 
  2108.5000      8.6758     28.0286      0.0089      2.4730     24.6978    -19.3040   -999.2500   -999.2500   -999.2500     14.7980     14.1217     13.3664     96.3404 
  2109.0000      8.6717     36.4887      0.0064      2.4464     25.0938    -19.3429   -999.2500   -999.2500   -999.2500     14.3926     13.8980     13.3664     97.2956 
  2109.5000      8.6676     52.3501      0.0095      2.4322     25.5002    -19.3818   -999.2500   -999.2500   -999.2500     14.4169     13.6737     13.3193     96.9767 
  2110.0000      8.6635     24.9113      0.0182      2.4257     25.5536    -19.4206   -999.2500   -999.2500   -999.2500     14.5569     13.8066     12.9682     93.9153 
  2110.5000      8.6593     25.0935      0.0277      2.4183     25.4836    -19.4595   -999.2500   -999.2500   -999.2500     14.7059     13.9407     13.2521     87.8152 
  2111.0000      8.6552     26.5887      0.0205      2.3987     25.5330    -19.4984   -999.2500   -999.2500   -999.2500     15.9860     15.3683     15.3597     83.3989 
  2111.5000      8.6656     28.2748      0.0103      2.4014     26.0894    -19.5373   -999.2500   -999.2500   -999.2500     17.8537     17.3103     22.5264     80.6904 
  2112.0000      8.6830     29.4483      0.0064      2.4335     26.3459    -19.5761   -999.2500   -999.2500   -999.2500     19.9395     19.5836     22.4574     81.3641 
  2112.5000      8.7004     29.8498      0.0051      2.4793     25.9130    -19.6150   -999.2500   -999.2500   -999.2500     20.2055     19.5278     17.1654     82.5467 
