~VERSION INFORMATION
 VERS.                           2.00:        CWLS LOG ASCII STANDARD - VERSION 2.00
 WRAP.                             NO:        ONE LINE PER DEPTH STEP
~WELL INFORMATION
#MNEM.UNIT                   DATA             INFORMATION
#----------             --------------        ------------------------------
 STRT.F                       52.0000:        START DEPTH
 STOP.F                     2296.0000:        STOP DEPTH
 STEP.F                        0.5000:        STEP VALUE
 NULL.                      -999.2500:        NULL VALUE
 COMP.                     USGS/NPR-A:        COMPANY  
 LOC .                   23  22N  17W:        LOCATION   
 DATE.                        4/30/78:        LOG DATE 
 WELL.               SOUTH BARROW #19:        WELL     
 UWI .                   500232001200:        UNIQUE WELL ID 
 API .                   500232001200:        UNIQUE WELL IDENTIFIER 
 FLD .                   SOUTH BARROW:        FIELD    
 CNTY.                    NORTH SLOPE:        COUNTY  
 STAT.                         ALASKA:        STATE   
 CTRY.                            USA:        COUNTRY 
 OPER.                     USGS/NPR-A:        OPERATOR  
 SRVC.                   SCHLUMBERGER:        SERVICE COMPANY 
 LAT .                         0.0000:        LATITUDE
 LON .                         0.0000:        LONGITUDE
 DIGS.               CENTER LINE DATA:        DIGITIZING COMPANY 
~CURVE INFORMATION      
#MNEM        .UNIT         API CODE           CURVE DESCRIPTION
#-----------------      --------------        ------------------------------
 DEPT        .F                      :        1  DEPTH
 GR          .GAPI                   :        2  
 CALI        .IN                     :        3  
 RHOB        .G/C3                   :        4  
 DRHO        .G/C3                   :        5  
 NPHI        .%                      :        6  
 DT          .US/F                   :        7  
 SP          .MV                     :        8  
 ILD         .OHMM                   :        9  
 ILM         .OHMM                   :        10 
 LL8         .OHMM                   :        11 
 LLD         .OHMM                   :        12 
 LLS         .OHMM                   :        13 
 MSFL        .OHMM                   :        14 
~PARAMETER INFORMATION       
#MNEM.UNIT                  VALUE             DESCRIPTION OF MNEMONIC
#---------             ---------------        ------------------------------
 EKB .F                       30.0000:        KELLY BUSHING
 TD  .F                     2300.0000:        TOTAL DEPTH
 BHT .F                      173.0000:        BOTTOM HOLE TEMPERATURE
 BS  .                         8.5000:        BIT SIZE
 FD  .                        11.6000:        FLUID DENSITY
 CSIZ.                         9.6250:        CASING SIZE
 CBD .F                     1491.0000:        CASING DRILLER 1
 CBL .F                     1490.0000:        CASING LOGGER 1
 DFT .                  Miscellaneous:        TYPE FLUID IN HOLE
 DFV .                        46.0000:        VISCOSITY
 DFPH.                         8.5000:        PH
 DFL .                         6.0000:        FLUID LOSS
 RMS .                         0.1090:        RM
 MST .F                       58.0000:        RM MEAS. TEMP.
 RMF .                         0.0720:        RMF
 MFST.F                       61.0000:        RMF MEAS. TEMP.
 RMC .                         0.3000:        RMC
 MCST.F                       70.0000:        RMC MEAS. TEMP.
~OTHER INFORMATION
~A    DEPTH          GR        CALI        RHOB        DRHO        NPHI          DT          SP         ILD         ILM         LL8         LLD         LLS        MSFL  
# ...
  1252.0000     66.4537     12.3510   -999.2500   -999.2500   -999.2500     96.5007    -38.3839     14.3688     14.0347     15.0689   -999.2500   -999.2500   -999.2500  
  1252.5000     66.5537     12.3584   -999.2500   -999.2500   -999.2500     97.2029    -38.6324     14.3959     13.7244     14.7904   -999.2500   -999.2500   -999.2500  
  1253.0000     68.1436     12.3902   -999.2500   -999.2500   -999.2500     98.2056    -39.6176     14.0552     13.4210     14.5170   -999.2500   -999.2500   -999.2500  
  1253.5000     70.1971     12.3499   -999.2500   -999.2500   -999.2500     99.7334    -41.5544     13.6568     13.1242     14.2487   -999.2500   -999.2500   -999.2500  
  1254.0000     71.7869     12.3241   -999.2500   -999.2500   -999.2500    101.7191    -43.6503     13.3768     12.8341     13.9854   -999.2500   -999.2500   -999.2500  
  1254.5000     72.1235     12.3034   -999.2500   -999.2500   -999.2500    104.1282    -45.1638     13.1709     12.5503     13.8030   -999.2500   -999.2500   -999.2500  
  1255.0000     70.3740     12.2814   -999.2500   -999.2500   -999.2500    107.2168    -46.3668     13.2973     12.2728     13.7351   -999.2500   -999.2500   -999.2500  
  1255.5000     67.3640     12.2561   -999.2500   -999.2500   -999.2500    110.0798    -47.1263     13.4308     12.0014     14.4433   -999.2500   -999.2500   -999.2500  
  1256.0000     65.2175     12.2427   -999.2500   -999.2500   -999.2500    111.8256    -46.9684     13.1540     12.0291     14.1208   -999.2500   -999.2500   -999.2500  
  1256.5000     64.8067     12.2581   -999.2500   -999.2500   -999.2500    109.8148    -46.4061     12.7689     12.1691     13.6106   -999.2500   -999.2500   -999.2500  
  1257.0000     64.5070     12.3525   -999.2500   -999.2500   -999.2500    105.0868    -45.3678     12.7876     12.3108     13.1188   -999.2500   -999.2500   -999.2500  
  1257.5000     64.3974     12.4290   -999.2500   -999.2500   -999.2500    100.5693    -44.3838     12.8587     12.4541     12.9484   -999.2500   -999.2500   -999.2500  
  1258.0000     64.1633     12.3980   -999.2500   -999.2500   -999.2500     97.3014    -43.8651     12.9867     12.5990     13.1164   -999.2500   -999.2500   -999.2500  
  1258.5000     63.9292     12.3670   -999.2500   -999.2500   -999.2500     97.5193    -43.5242     13.0876     12.7457     13.2866   -999.2500   -999.2500   -999.2500  
  1259.0000     63.8309     12.3383   -999.2500   -999.2500   -999.2500    101.3591    -43.9011     13.1305     12.5613     13.4589   -999.2500   -999.2500   -999.2500  
  1259.5000     64.4901     12.3132   -999.2500   -999.2500   -999.2500    109.0173    -45.4448     12.8863     12.2191     13.6335   -999.2500   -999.2500   -999.2500  
  1260.0000     66.4247     12.2881   -999.2500   -999.2500   -999.2500    115.6617    -46.7804     12.5673     11.8862     13.4472   -999.2500   -999.2500   -999.2500  
  1260.5000     68.1760     12.2845   -999.2500   -999.2500   -999.2500    118.2187    -47.0597     12.1254     11.5624     13.1999   -999.2500   -999.2500   -999.2500  
  1261.0000     69.9119     12.3141   -999.2500   -999.2500   -999.2500    116.3867    -46.2822     12.0762     11.5398     12.9571   -999.2500   -999.2500   -999.2500  
  1261.5000     71.7888     12.3476   -999.2500   -999.2500   -999.2500    110.6528    -45.4893     12.1708     11.6401     12.8218   -999.2500   -999.2500   -999.2500  
  1262.0000     73.3890     12.3576   -999.2500   -999.2500   -999.2500    104.0906    -44.6510     12.5305     11.8558     12.9228   -999.2500   -999.2500   -999.2500  
  1262.5000     74.6039     12.3569   -999.2500   -999.2500   -999.2500    102.9008    -44.3731     12.7614     12.1645     13.0246   -999.2500   -999.2500   -999.2500  
  1263.0000     75.6530     12.3545   -999.2500   -999.2500   -999.2500    103.4688    -44.6310     12.6681     12.4811     13.1272   -999.2500   -999.2500   -999.2500  
  1263.5000     77.2232     12.5539   -999.2500   -999.2500   -999.2500    103.7490    -44.4466     12.7192     12.6982     13.2306   -999.2500   -999.2500   -999.2500  
  1264.0000     79.1516     12.5434   -999.2500   -999.2500   -999.2500    103.8386    -44.0620     13.1126     12.6996     13.2945   -999.2500   -999.2500   -999.2500  
  1264.5000     74.7686     12.4975   -999.2500   -999.2500   -999.2500    103.9340    -44.1490     13.1421     12.7011     13.3355   -999.2500   -999.2500   -999.2500  
  1265.0000     72.8936     12.4588   -999.2500   -999.2500   -999.2500    104.0707    -44.7788     12.8549     12.7025     13.3767   -999.2500   -999.2500   -999.2500  
  1265.5000     72.7022     12.4245   -999.2500   -999.2500   -999.2500    104.0441    -45.7781     13.1201     12.7040     13.4180   -999.2500   -999.2500   -999.2500  
  1266.0000     73.2580     12.4904   -999.2500   -999.2500   -999.2500    104.1463    -46.2900     13.0782     12.5840     13.4594   -999.2500   -999.2500   -999.2500  
  1266.5000     73.6221     12.5322   -999.2500   -999.2500   -999.2500    103.3568    -46.5853     12.9521     12.4114     13.3534   -999.2500   -999.2500   -999.2500  
  1267.0000     73.5581     12.4906   -999.2500   -999.2500   -999.2500    102.7710    -46.3695     12.8627     12.2411     13.1674   -999.2500   -999.2500   -999.2500  
  1267.5000     74.8609     12.5598   -999.2500   -999.2500   -999.2500    102.9711    -46.5890     12.8877     12.0732     12.9840   -999.2500   -999.2500   -999.2500  
  1268.0000     78.5331     12.6233   -999.2500   -999.2500   -999.2500    103.9291    -46.6358     12.5750     11.9075     12.8032   -999.2500   -999.2500   -999.2500  
  1268.5000     80.3105     12.5592   -999.2500   -999.2500   -999.2500    105.0637    -46.3192     12.2541     11.7441     12.6248   -999.2500   -999.2500   -999.2500  
  1269.0000     80.2878     12.5549   -999.2500   -999.2500   -999.2500    105.5444    -46.0138     12.2988     11.5830     12.4490   -999.2500   -999.2500   -999.2500  
  1269.5000     78.8195     12.6120   -999.2500   -999.2500   -999.2500    105.6247    -45.8786     12.2868     11.3924     12.2756   -999.2500   -999.2500   -999.2500  
  1270.0000     77.3189     12.5385   -999.2500   -999.2500   -999.2500    105.8148    -45.9456     11.8815     11.1561     12.1047   -999.2500   -999.2500   -999.2500  
  1270.5000     78.7253     12.4887   -999.2500   -999.2500   -999.2500    107.1148    -46.1211     11.4725     10.9247     11.8897   -999.2500   -999.2500   -999.2500  
  1271.0000     80.2438     12.4511   -999.2500   -999.2500   -999.2500    108.6377    -46.3178     11.1645     10.6981     11.6142   -999.2500   -999.2500   -999.2500  
  1271.5000     81.4524     12.4584   -999.2500   -999.2500   -999.2500    110.5171    -46.1886     10.8648     10.5226     11.3451   -999.2500   -999.2500   -999.2500  
  1272.0000     82.7790     12.4998   -999.2500   -999.2500   -999.2500    113.1268    -46.0144     10.6133     10.5226     11.0822   -999.2500   -999.2500   -999.2500  
  1272.5000     82.9090     12.5382   -999.2500   -999.2500   -999.2500    115.5176    -45.9510     10.8347     10.5226     11.1492   -999.2500   -999.2500   -999.2500  
  1273.0000     81.4123     12.5474   -999.2500   -999.2500   -999.2500    115.4373    -45.7612     10.8947     10.5262     11.3850   -999.2500   -999.2500   -999.2500  
  1273.5000     78.8264     12.5517   -999.2500   -999.2500   -999.2500    113.9600    -45.1833     10.9731     10.6480     11.6257   -999.2500   -999.2500   -999.2500  
  1274.0000     76.6234     12.5752   -999.2500   -999.2500   -999.2500    111.3423    -44.2400     11.2261     10.7712     11.8715   -999.2500   -999.2500   -999.2500  
  1274.5000     74.8946     12.6015   -999.2500   -999.2500   -999.2500    107.3546    -43.7294     11.3683     10.8958     12.1101   -999.2500   -999.2500   -999.2500  
  1275.0000     74.1435     12.6198   -999.2500   -999.2500   -999.2500    105.1307    -43.7543     11.5122     11.0218     12.2557   -999.2500   -999.2500   -999.2500  
  1275.5000     74.4431     12.6250   -999.2500   -999.2500   -999.2500    104.7867    -43.9479     11.6580     11.1493     12.4030   -999.2500   -999.2500   -999.2500  
