~VERSION INFORMATION
 VERS.                           2.00:        CWLS LOG ASCII STANDARD - VERSION 2.00
 WRAP.                             NO:        ONE LINE PER DEPTH STEP
~WELL INFORMATION
#MNEM.UNIT                   DATA             INFORMATION
#----------             --------------        ------------------------------
 STRT.F                       68.0000:        START DEPTH
 STOP.F                     2380.0000:        STOP DEPTH
 STEP.F                        0.5000:        STEP VALUE
 NULL.                      -999.2500:        NULL VALUE
 COMP.                     USGS/NPR-A:        COMPANY  
 LOC .                   30  22N  16W:        LOCATION   
 DATE.                        3/18/78:        LOG DATE 
 WELL.               SOUTH BARROW #17:        WELL     
 UWI .                   500232001100:        UNIQUE WELL ID 
 API .                   500232001100:        UNIQUE WELL IDENTIFIER 
 FLD .                   SOUTH BARROW:        FIELD    
 CNTY.                     NOTH SLOPE:        COUNTY  
 STAT.                         ALASKA:        STATE   
 CTRY.                            USA:        COUNTRY 
 OPER.                     USGS/NPR-A:        OPERATOR  
 SRVC.                   SCHLUMBERGER:        SERVICE COMPANY 
 LAT .                         0.0000:        LATITUDE
 LON .                         0.0000:        LONGITUDE
 DIGS.               CENTER LINE DATA:        DIGITIZING COMPANY 
~CURVE INFORMATION      
#MNEM        .UNIT         API CODE           CURVE DESCRIPTION
#-----------------      --------------        ------------------------------
 DEPT        .F                      :        1  DEPTH
 CALI        .IN                     :        2  
 GR          .GAPI                   :        3  
 NPHI        .%                      :        4  
 RHOB        .G/C3                   :        5  
 DRHO        .G/C3                   :        6  
 DT          .US/F                   :        7  
 SP          .MV                     :        8  
 ILD         .OHMM                   :        9  
 ILM         .OHMM                   :        10 
 LL8         .OHMM                   :        11 
 LLD         .OHMM                   :        12 
 LLS         .OHMM                   :        13 
~PARAMETER INFORMATION       
#MNEM.UNIT                  VALUE             DESCRIPTION OF MNEMONIC
#---------             ---------------        ------------------------------
 EKB .F                       33.0000:        KELLY BUSHING
 TD  .F                     2382.0000:        TOTAL DEPTH
 BHT .F                        0.0000:        BOTTOM HOLE TEMPERATURE
 BS  .                         8.5000:        BIT SIZE
 FD  .                        10.8000:        FLUID DENSITY
 CSIZ.                         9.6250:        CASING SIZE
 CBD .F                     1512.0000:        CASING DRILLER 1
 CBL .F                     1512.0000:        CASING LOGGER 1
 DFT .                  Miscellaneous:        TYPE FLUID IN HOLE
 DFV .                        43.0000:        VISCOSITY
 DFPH.                         8.5000:        PH
 DFL .                         4.0000:        FLUID LOSS
 RMS .                         0.0760:        RM
 MST .F                       60.0000:        RM MEAS. TEMP.
 RMF .                         0.0000:        RMF
 MFST.F                        0.0000:        RMF MEAS. TEMP.
 RMC .                         0.1640:        RMC
 MCST.F                       55.0000:        RMC MEAS. TEMP.
~OTHER INFORMATION
~A    DEPTH        CALI          GR        NPHI        RHOB        DRHO          DT          SP         ILD         ILM         LL8         LLD         LLS  
# ...
   272.0000     15.0365     90.1911   -999.2500   -999.2500   -999.2500    150.0458    -58.3999     16.2545     11.1853     28.7922   -999.2500   -999.2500  
   272.5000     15.1041     90.9435   -999.2500   -999.2500   -999.2500    150.0467    -55.2728     15.8260     11.1665     26.6912   -999.2500   -999.2500  
   273.0000     15.3308     92.5881   -999.2500   -999.2500   -999.2500    150.0476    -51.3949     14.9315     11.0274     26.5631   -999.2500   -999.2500  
   273.5000     15.3801     93.5941   -999.2500   -999.2500   -999.2500    150.0485    -49.2369     14.4927     10.8752     26.6757   -999.2500   -999.2500  
   274.0000     15.3515     95.1067   -999.2500   -999.2500   -999.2500    150.0494    -48.1701     14.5005     10.7251     25.6415   -999.2500   -999.2500  
   274.5000     15.3402     96.6285   -999.2500   -999.2500   -999.2500    150.0503    -48.5606     14.7033     10.6454     24.6344   -999.2500   -999.2500  
   275.0000     15.3689     97.4462   -999.2500   -999.2500   -999.2500    150.0512    -51.0300     15.3333     10.7426     25.2067   -999.2500   -999.2500  
   275.5000     15.4011     98.6387   -999.2500   -999.2500   -999.2500    150.0521    -57.0069     15.9467     10.8713     27.6188   -999.2500   -999.2500  
   276.0000     15.4454     97.3383   -999.2500   -999.2500   -999.2500    150.0530    -61.7605     16.3323     11.1259     32.1960   -999.2500   -999.2500  
   276.5000     15.4764     94.4782   -999.2500   -999.2500   -999.2500    150.0539    -60.6425     16.6206     11.4028     38.4041   -999.2500   -999.2500  
   277.0000     15.4387     92.6958   -999.2500   -999.2500   -999.2500    150.0548    -57.4088     16.9830     11.5883     43.5454   -999.2500   -999.2500  
   277.5000     15.3325     91.9774   -999.2500   -999.2500   -999.2500    150.0557    -53.9452     17.5253     11.7769     47.9160   -999.2500   -999.2500  
   278.0000     15.5616     92.0921   -999.2500   -999.2500   -999.2500    150.0566    -52.6491     17.7901     11.8120     50.4358   -999.2500   -999.2500  
   278.5000     15.7673     92.8465   -999.2500   -999.2500   -999.2500    150.0575    -52.8590     17.9880     11.7607     52.8847   -999.2500   -999.2500  
   279.0000     15.7556     93.5329   -999.2500   -999.2500   -999.2500    150.0583    -52.4445     18.1593     11.6659     54.3213   -999.2500   -999.2500  
   279.5000     15.6288     93.8816   -999.2500   -999.2500   -999.2500    150.0592    -51.3436     18.4321     11.6322     54.9616   -999.2500   -999.2500  
   280.0000     15.6572     93.7032   -999.2500   -999.2500   -999.2500    150.0601    -50.0268     18.5889     11.6958     55.1500   -999.2500   -999.2500  
   280.5000     15.6856     92.4523   -999.2500   -999.2500   -999.2500    150.0610    -50.2550     18.7731     11.7414     54.7042   -999.2500   -999.2500  
   281.0000     15.6833     90.1468   -999.2500   -999.2500   -999.2500    150.0619    -50.8423     19.4646     12.3332     52.6121   -999.2500   -999.2500  
   281.5000     15.6735     87.9232   -999.2500   -999.2500   -999.2500    150.0628    -53.0381     19.9686     12.7055     49.5430   -999.2500   -999.2500  
   282.0000     15.8029     86.2665   -999.2500   -999.2500   -999.2500    150.0637    -56.0835     20.3301     13.0891     46.5801   -999.2500   -999.2500  
   282.5000     15.8400     86.1011   -999.2500   -999.2500   -999.2500    150.0646    -62.0815     20.6122     13.4842     45.8235   -999.2500   -999.2500  
   283.0000     15.5120     86.5935   -999.2500   -999.2500   -999.2500    150.0655    -63.3179     19.8533     13.7735     44.7597   -999.2500   -999.2500  
   283.5000     15.3322     87.2434   -999.2500   -999.2500   -999.2500    150.0664    -62.1348     19.2930     13.5238     40.8341   -999.2500   -999.2500  
   284.0000     15.2952     87.0823   -999.2500   -999.2500   -999.2500    150.0673    -59.1700     18.7695     13.0762     36.5995   -999.2500   -999.2500  
   284.5000     15.0595     86.4761   -999.2500   -999.2500   -999.2500    150.0682    -56.4521     17.5712     12.3284     32.1902   -999.2500   -999.2500  
   285.0000     15.2282     85.4718   -999.2500   -999.2500   -999.2500    150.0691    -56.2105     16.3979     11.6546     30.1587   -999.2500   -999.2500  
   285.5000     15.2643     84.4714   -999.2500   -999.2500   -999.2500    150.0700    -56.9108     16.2539     11.4428     29.9623   -999.2500   -999.2500  
   286.0000     15.2870     84.0782   -999.2500   -999.2500   -999.2500    150.0709    -55.4665     16.0805     11.5730     30.8815   -999.2500   -999.2500  
   286.5000     15.2459     84.0818   -999.2500   -999.2500   -999.2500    150.0718    -54.2448     15.9228     11.7235     32.1318   -999.2500   -999.2500  
   287.0000     15.8654     84.1332   -999.2500   -999.2500   -999.2500    150.0727    -53.6894     15.9747     11.9929     33.0280   -999.2500   -999.2500  
   287.5000     16.1762     83.7717   -999.2500   -999.2500   -999.2500    150.0735    -54.0494     16.1015     12.2684     33.3063   -999.2500   -999.2500  
   288.0000     16.1564     83.5066   -999.2500   -999.2500   -999.2500    150.0744    -54.7460     16.3795     12.4801     33.7423   -999.2500   -999.2500  
   288.5000     16.1718     84.5123   -999.2500   -999.2500   -999.2500    150.0753    -56.6907     16.7599     12.5938     34.2912   -999.2500   -999.2500  
   289.0000     16.6037     85.8143   -999.2500   -999.2500   -999.2500    150.0762    -60.2931     17.1543     12.6873     34.3189   -999.2500   -999.2500  
   289.5000     16.6450     86.4247   -999.2500   -999.2500   -999.2500    150.0771    -59.9506     17.2051     12.5723     33.6980   -999.2500   -999.2500  
   290.0000     16.9912     85.0442   -999.2500   -999.2500   -999.2500    150.0780    -57.8018     17.3442     12.4090     33.3859   -999.2500   -999.2500  
   290.5000     16.9930     83.4632   -999.2500   -999.2500   -999.2500    150.0789    -54.2300     17.6003     12.2528     35.1896   -999.2500   -999.2500  
   291.0000     16.9947     83.3795   -999.2500   -999.2500   -999.2500    150.0798    -52.8773     17.2801     12.0728     37.3617   -999.2500   -999.2500  
   291.5000     16.9965     84.6384   -999.2500   -999.2500   -999.2500    150.0807    -52.7796     16.9912     12.1790     40.0973   -999.2500   -999.2500  
   292.0000     16.6874     86.8880   -999.2500   -999.2500   -999.2500    150.0816    -54.0292     16.5653     12.0148     42.2312   -999.2500   -999.2500  
   292.5000     16.3653     87.8397   -999.2500   -999.2500   -999.2500    150.0825    -53.0236     16.3023     11.8364     43.5008   -999.2500   -999.2500  
   293.0000     16.1200     86.9930   -999.2500   -999.2500   -999.2500    150.0834    -48.0229     16.0783     11.3799     44.1550   -999.2500   -999.2500  
   293.5000     16.1482     85.4793   -999.2500   -999.2500   -999.2500    150.0843    -45.2134     15.9483     11.1814     44.9372   -999.2500   -999.2500  
   294.0000     16.2589     83.6634   -999.2500   -999.2500   -999.2500    150.0852    -44.8839     15.8193     11.0074     45.7602   -999.2500   -999.2500  
   294.5000     16.5608     80.9672   -999.2500   -999.2500   -999.2500    150.0861    -45.4517     15.6914     10.8362     46.0551   -999.2500   -999.2500  
   295.0000     16.2738     80.0747   -999.2500   -999.2500   -999.2500    150.0870    -48.5680     15.2856     10.8482     45.5175   -999.2500   -999.2500  
   295.5000     16.3082     81.0638   -999.2500   -999.2500   -999.2500    150.0879    -55.0701     15.2594     10.8058     44.7790   -999.2500   -999.2500  
   296.0000     16.4062     81.8767   -999.2500   -999.2500   -999.2500    150.0887    -58.2105     15.1284     10.7459     44.3675   -999.2500   -999.2500  
   296.5000     16.1877     83.0809   -999.2500   -999.2500   -999.2500    150.0896    -56.6414     14.9788     10.7525     43.5945   -999.2500   -999.2500  
   297.0000     16.1641     85.5014   -999.2500   -999.2500   -999.2500    150.0905    -52.7648     14.9000     10.7930     42.4280   -999.2500   -999.2500  
