~VERSION INFORMATION
 VERS.                           2.00:        CWLS LOG ASCII STANDARD - VERSION 2.00
 WRAP.                             NO:        ONE LINE PER DEPTH STEP
~WELL INFORMATION
#MNEM.UNIT                   DATA             INFORMATION
#----------             --------------        ------------------------------
 STRT.F                     1244.0000:        START DEPTH
 STOP.F                     2340.0000:        STOP DEPTH
 STEP.F                        0.5000:        STEP VALUE
 NULL.                      -999.2500:        NULL VALUE
 COMP.        U.S. NAVY DEPT NP & OSR:        COMPANY  
 LOC .                   14  22N  18W:        LOCATION   
 DATE.                        3/16/73:        LOG DATE 
 WELL.               SOUTH BARROW #10:        WELL     
 UWI .                   500232000400:        UNIQUE WELL ID 
 API .                   500232000400:        UNIQUE WELL IDENTIFIER 
 FLD .                   SOUTH BARROW:        FIELD    
 CNTY.                         NPR #4:        COUNTY  
 STAT.                         ALASKA:        STATE   
 CTRY.                            USA:        COUNTRY 
 OPER.        U.S. NAVY DEPT NP & OSR:        OPERATOR  
 SRVC.                   SCHLUMBERGER:        SERVICE COMPANY 
 LAT .                         0.0000:        LATITUDE
 LON .                         0.0000:        LONGITUDE
 DIGS.               CENTER LINE DATA:        DIGITIZING COMPANY 
~CURVE INFORMATION      
#MNEM        .UNIT         API CODE           CURVE DESCRIPTION
#-----------------      --------------        ------------------------------
 DEPT        .F                      :        1  DEPTH
 SP          .MV                     :        2  
 LL8         .OHMM                   :        3  
 ILD         .OHMM                   :        4  
 CILD        .MMHO                   :        5  
 DT          .US/F                   :        6  
~PARAMETER INFORMATION       
#MNEM.UNIT                  VALUE             DESCRIPTION OF MNEMONIC
#---------             ---------------        ------------------------------
 EKB .F                       38.0000:        KELLY BUSHING
 TD  .F                     2349.0000:        TOTAL DEPTH
 BHT .F                       60.0000:        BOTTOM HOLE TEMPERATURE
 BS  .                         9.6250:        BIT SIZE
 FD  .                        10.6000:        FLUID DENSITY
 CSIZ.                        10.7500:        CASING SIZE
 CBD .F                     1240.0000:        CASING DRILLER 1
 CBL .F                     1244.0000:        CASING LOGGER 1
 DFT .                  Miscellaneous:        TYPE FLUID IN HOLE
 DFV .                        15.0000:        VISCOSITY
 DFPH.                        11.0000:        PH
 DFL .                         1.8000:        FLUID LOSS
 RMS .                         1.1900:        RM
 MST .F                       55.0000:        RM MEAS. TEMP.
 RMF .                         0.8500:        RMF
 MFST.F                       55.0000:        RMF MEAS. TEMP.
 RMC .                         1.2000:        RMC
 MCST.F                       55.0000:        RMC MEAS. TEMP.
~OTHER INFORMATION
~A    DEPTH          SP         LL8         ILD        CILD          DT  
# ...
  2279.5000    -28.9111     19.9237     15.3358     65.8643   -999.2500  
  2280.0000    -28.2935     19.5463     15.3274     65.8846   -999.2500  
  2280.5000    -27.8521     19.5180     15.3191     65.9238   -999.2500  
  2281.0000    -28.5401     19.4896     15.3108     66.1072   -999.2500  
  2281.5000    -29.8867     19.3908     15.3024     66.1057   -999.2500  
  2282.0000    -30.6140     19.1700     15.2941     66.1041   -999.2500  
  2282.5000    -31.3319     19.0796     15.2858     66.1026   -999.2500  
  2283.0000    -40.2911     23.0077     16.0676     65.9008   -999.2500  
  2283.5000    -40.9340     23.2729     16.2271     65.2549   -999.2500  
  2284.0000    -41.6982     23.1529     16.3843     64.3618   -999.2500  
  2284.5000    -42.3887     23.0344     16.5357     63.5872   -999.2500  
  2285.0000    -43.3035     23.4726     16.6870     63.0360   -999.2500  
  2285.5000    -44.3170     24.3982     16.8383     62.9176   -999.2500  
  2286.0000    -45.5579     24.3664     16.9897     62.7222   -999.2500  
  2286.5000    -46.7940     24.4856     17.1410     62.2897   -999.2500  
  2287.0000    -48.0400     24.8312     17.3444     61.9130   -999.2500  
  2287.5000    -49.0702     25.2901     17.5780     61.5647   -999.2500  
  2288.0000    -50.1736     25.9814     17.6829     60.7838   -999.2500  
  2288.5000    -51.2541     26.8515     18.0201     59.6171   -999.2500  
  2289.0000    -52.2027     27.4603     18.5323     58.0141   -999.2500  
  2289.5000    -53.0478     28.0044     19.0445     56.8399   -999.2500  
  2290.0000    -53.5255     28.6387     19.4206     55.7407   -999.2500  
  2290.5000    -53.7935     29.2253     19.7766     54.9472   -999.2500  
  2291.0000    -53.9744     29.9742     20.1325     54.4055   -999.2500  
  2291.5000    -54.2808     30.7061     20.4885     53.5520   -999.2500  
  2292.0000    -54.6853     31.2763     20.9850     53.3544   -999.2500  
  2292.5000    -54.9804     31.5598     20.9338     52.5493   -999.2500  
  2293.0000    -55.1784     31.5160     20.7691     52.3616   -999.2500  
  2293.5000    -55.5351     31.2197     20.7879     52.3242   -999.2500  
  2294.0000    -55.4873     31.2415     20.7848     52.1845   -999.2500  
  2294.5000    -53.6618     31.5897     20.7690     52.5355   -999.2500  
  2295.0000    -50.8192     31.8964     20.8926     52.1931   -999.2500  
  2295.5000    -47.9004     31.9968     20.9861     52.1561   -999.2500  
  2296.0000    -44.8095     32.2225     20.8152     52.5900   -999.2500  
  2296.5000    -43.0892     32.2704     20.6366     52.9035   -999.2500  
  2297.0000    -43.1409     32.1588     20.5339     53.0635   -999.2500  
  2297.5000    -44.8112     32.2972     20.5395     53.1788   -999.2500  
  2298.0000    -47.1959     32.4881     20.7085     52.9409   -999.2500  
  2298.5000    -49.4220     33.6984     20.8348     52.1286   -999.2500  
  2299.0000    -51.6480     36.1460     21.1927     51.0029   -999.2500  
  2299.5000    -53.0889     39.3253     22.0749     50.0497   -999.2500  
  2300.0000    -53.1175     39.5953     22.5633     49.2640   -999.2500  
  2300.5000    -53.1740     40.9888     22.9710     48.2177   -999.2500  
  2301.0000    -53.4173     41.4336     23.2439     47.6712   -999.2500  
  2301.5000    -53.0862     42.1574     23.5957     46.9689   -999.2500  
  2302.0000    -51.7295     41.8112     23.9475     46.4864   -999.2500  
  2302.5000    -49.9587     40.3517     24.0336     46.3567   -999.2500  
  2303.0000    -48.1982     36.3579     23.3434     46.8192   -999.2500  
  2303.5000    -47.2830     34.5793     22.4778     48.3654   -999.2500  
  2304.0000    -47.7723     34.4457     21.7278     50.0356   -999.2500  
  2304.5000    -49.4976     34.3083     20.9697     51.4356   -999.2500  
  2305.0000    -52.3420     33.8443     20.6308     52.2675   -999.2500  
  2305.5000    -55.6281     33.6218     20.5184     52.9296   -999.2500  
  2306.0000    -58.3351     33.6108     20.6526     52.9756   -999.2500  
  2306.5000    -59.5352     33.9661     20.7346     51.7514   -999.2500  
  2307.0000    -59.7940     34.3215     21.0323     51.2901   -999.2500  
  2307.5000    -59.1238     34.5204     21.2056     51.1030   -999.2500  
  2308.0000    -57.5639     33.7302     21.1797     51.0904   -999.2500  
  2308.5000    -55.9623     33.2901     21.0678     51.2958   -999.2500  
  2309.0000    -54.4518     33.0100     20.8473     51.5816   -999.2500  
  2309.5000    -53.0965     32.5840     20.6936     51.9630   -999.2500  
  2310.0000    -52.2238     32.1072     20.5582     52.4029   -999.2500  
  2310.5000    -52.2046     31.9913     20.1166     53.3807   -999.2500  
  2311.0000    -51.7791     31.8221     19.6960     54.7709   -999.2500  
  2311.5000    -50.9908     30.1175     19.2216     56.0323   -999.2500  
  2312.0000    -49.9624     28.0922     18.3208     58.7292   -999.2500  
  2312.5000    -48.8154     28.0795     17.3526     61.1377   -999.2500  
  2313.0000    -47.1658     27.1398     16.6731     63.1133   -999.2500  
  2313.5000    -46.0539     27.5748     16.3285     64.6227   -999.2500  
  2314.0000    -45.4079     28.8895     16.2587     65.2000   -999.2500  
  2314.5000    -44.8096     31.4207     16.2484     65.2250   -999.2500  
  2315.0000    -44.4402     30.2946     16.1389     65.5622   -999.2500  
  2315.5000    -44.4469     32.2262     15.8598     66.4897   -999.2500  
  2316.0000    -45.2020     32.8927     15.7778     66.3887   -999.2500  
  2316.5000    -46.3400     33.5381     16.1154     65.3366   -999.2500  
  2317.0000    -47.5613     34.0871     17.0207     63.2672   -999.2500  
  2317.5000    -48.9210     34.2272     17.7555     60.5466   -999.2500  
  2318.0000    -49.7272     32.5728     18.8065     58.1522   -999.2500  
  2318.5000    -50.4443     30.6378     19.0931     56.7599   -999.2500  
  2319.0000    -51.0947     32.1116     19.4283     56.1277   -999.2500  
  2319.5000    -51.6865     31.6157     19.7034     55.2102   -999.2500  
  2320.0000    -52.1204     32.2890     19.6305     55.0069   -999.2500  
  2320.5000    -52.6874     31.3689     19.7001     54.3420   -999.2500  
  2321.0000    -53.7194     30.3583     19.6719     54.2762   -999.2500  
  2321.5000    -54.6877     31.3863     19.9300     54.0472   -999.2500  
  2322.0000    -55.7367     30.4945     20.1263     53.6010   -999.2500  
  2322.5000    -56.7076     30.6801     20.1935     53.3002   -999.2500  
  2323.0000    -57.1262     29.3371     20.2230     53.3743   -999.2500  
  2323.5000    -57.7106     30.8198     20.2329     53.6846   -999.2500  
  2324.0000    -58.7346     30.5740     20.1152     54.2837   -999.2500  
  2324.5000    -59.6875     31.9825     19.9204     54.3946   -999.2500  
  2325.0000    -60.9763     31.0487     19.8595     54.8210   -999.2500  
  2325.5000    -63.1367     30.3892     19.6440     55.1811   -999.2500  
  2326.0000    -65.4248     31.2508     19.6629     54.5890   -999.2500  
  2326.5000    -67.8458     32.2185     20.7646     52.0621   -999.2500  
  2327.0000    -70.2370     33.2410     22.1005     49.9760   -999.2500  
  2327.5000    -72.0033     34.2014     22.3114     49.0622   -999.2500  
  2328.0000    -73.5322     35.4103     22.4854     48.8756   -999.2500  
  2328.5000    -75.3340     38.1056     22.4293     49.3810   -999.2500  
  2329.0000    -76.6695     42.2457     22.2440     49.5931   -999.2500  
  2329.5000    -77.9113     46.7127     24.1178     46.9302   -999.2500  
  2330.0000    -79.2030     48.2088     25.6480     43.7302   -999.2500  
  2330.5000    -80.3117     49.5447     26.9692     41.5533   -999.2500  
  2331.0000    -80.5763     49.8853     28.3187     40.3796   -999.2500  
  2331.5000    -79.9645     54.4599     29.2991     39.3615   -999.2500  
  2332.0000    -78.3267     59.0345     30.3594     38.3392   -999.2500  
  2332.5000    -76.2873     63.9798     31.4197     37.0198   -999.2500  
  2333.0000    -74.3886     64.6140     31.9015     36.4754   -999.2500  
  2333.5000    -73.4066     61.5833     30.7543     37.4779   -999.2500  
