~VERSION INFORMATION
 VERS.                           2.00:        CWLS LOG ASCII STANDARD - VERSION 2.00
 WRAP.                             NO:        ONE LINE PER DEPTH STEP
~WELL INFORMATION
#MNEM.UNIT                   DATA             INFORMATION
#----------             --------------        ------------------------------
 STRT.F                       25.0000:        START DEPTH
 STOP.F                     2347.0000:        STOP DEPTH
 STEP.F                        0.5000:        STEP VALUE
 NULL.                      -999.2500:        NULL VALUE
 COMP.        HUSKY OIL COMPANY/NPR-A:        COMPANY
 LOC .                     26 22N 17W:        LOCATION
 DATE.                        4/14/80:        LOG DATE
 WELL.                     BARROW #20:        WELL
 UWI .                   500232001500:        UNIQUE WELL ID
 API .                   500232001500:        UNIQUE WELL IDENTIFIER
 FLD .                   SOUTH BARROW:        FIELD
 CNTY.                    NORTH SLOPE:        COUNTY
 STAT.                        ALAASKA:        STATE
 CTRY.                            USA:        COUNTRY
 OPER.        HUSKY OIL COMPANY/NPR-A:        OPERATOR
 SRVC.                   SCHLUMBERGER:        SERVICE COMPANY
 LAT .                         0.0000:        LATITUDE
 LON .                         0.0000:        LONGITUDE
 DIGS.               CENTER LINE DATA:        DIGITIZING COMPANY
~CURVE INFORMATION      
#MNEM        .UNIT         API CODE           CURVE DESCRIPTION
#-----------------      --------------        ------------------------------
 DEPT        .F                      :        1  DEPTH
 CALI        .IN                     :        2  
 GR          .GAPI                   :        3  
 DRHO        .G/C3                   :        4  
 RHOB        .G/C3                   :        5  
 NPHI        .%                      :        6  
 SP          .MV                     :        7  
 ILD         .OHMM                   :        8  
 ILM         .OHMM                   :        9  
 SFL         .OHMM                   :        10 
 LLD         .OHMM                   :        11 
 LLS         .OHMM                   :        12 
 MSFL        .OHMM                   :        13 
 DT          .US/F                   :        14 
~PARAMETER INFORMATION
#MNEM.UNIT                  VALUE             DESCRIPTION OF MNEMONIC
#---------             ---------------        ------------------------------
 EKB .F                       30.0000:        KELLY BUSHING
 TD  .F                     2356.0000:        TOTAL DEPTH
 BHT .F                        0.0000:        BOTTOM HOLE TEMPERATURE
 BS  .                         8.5000:        BIT SIZE
 FD  .                        10.8000:        FLUID DENSITY
 CSIZ.                         9.6250:        CASING SIZE
 CBD .F                     1500.0000:        CASING DRILLER 1
 CBL .F                     1485.0000:        CASING LOGGER 1
 DFT .                            GEL:        TYPE FLUID IN HOLE
 DFV .                        10.0000:        VISCOSITY
 DFPH.                         9.0000:        PH
 DFL .                        10.0000:        FLUID LOSS
 RMS .                         0.1840:        RM
 MST .F                       61.0000:        RM MEAS. TEMP.
 RMF .                         0.1270:        RMF
 MFST.F                       61.0000:        RMF MEAS. TEMP.
 RMC .                         0.2660:        RMC
 MCST.F                       61.0000:        RMC MEAS. TEMP.
~OTHER INFORMATION
~A    DEPTH        CALI          GR        DRHO        RHOB        NPHI          SP         ILD         ILM         SFL         LLD         LLS        MSFL          DT 
# ...
  1465.0000   -999.2500   -999.2500   -999.2500   -999.2500   -999.2500    -69.0292      9.3477      9.2140     11.9063   -999.2500   -999.2500   -999.2500    115.1978 
  1465.5000   -999.2500   -999.2500   -999.2500   -999.2500   -999.2500    -72.2080      9.4368      9.3018     11.3618   -999.2500   -999.2500   -999.2500    115.3932 
  1466.0000   -999.2500   -999.2500   -999.2500   -999.2500   -999.2500    -69.6676      9.4948      9.3610     11.7286   -999.2500   -999.2500   -999.2500    114.8228 
  1466.5000   -999.2500   -999.2500   -999.2500   -999.2500   -999.2500    -63.4357      9.5183      9.3847     13.1221   -999.2500   -999.2500   -999.2500    113.7202 
  1467.0000   -999.2500     33.5790   -999.2500   -999.2500   -999.2500    -59.7839      9.5014      9.3680     14.4577   -999.2500   -999.2500   -999.2500    112.1924 
  1467.5000   -999.2500     33.8464   -999.2500   -999.2500   -999.2500    -63.2177      9.4845      9.3513     15.6078   -999.2500   -999.2500   -999.2500    110.9961 
  1468.0000   -999.2500     34.3916   -999.2500   -999.2500     57.6815    -64.8923      9.4666      9.3335     15.5510   -999.2500   -999.2500   -999.2500    110.4546 
  1468.5000   -999.2500     34.5986   -999.2500   -999.2500     56.7745    -65.0002      9.4294      9.2929     14.2355   -999.2500   -999.2500   -999.2500    111.5825 
  1469.0000   -999.2500     34.4036   -999.2500   -999.2500     57.2104    -67.1592      9.3209      9.1860     12.6909   -999.2500   -999.2500   -999.2500    112.8723 
  1469.5000   -999.2500     34.4307   -999.2500   -999.2500     57.8766    -69.6640      9.2192      9.0877     12.0719   -999.2500   -999.2500   -999.2500    114.1597 
  1470.0000   -999.2500     34.5539   -999.2500   -999.2500     57.0910    -67.8493      9.1091      8.9744     12.0970   -999.2500   -999.2500   -999.2500    115.1863 
  1470.5000   -999.2500     35.3622   -999.2500   -999.2500     55.0683    -60.6254      8.9702      8.8375     11.9794   -999.2500   -999.2500   -999.2500    116.1310 
  1471.0000   -999.2500     35.7368   -999.2500   -999.2500     53.4365    -60.6102      8.8334      8.7027     11.1876   -999.2500   -999.2500   -999.2500    116.9943 
  1471.5000   -999.2500     35.1711   -999.2500   -999.2500     51.8893    -64.5731      8.8379      8.7138     10.3559   -999.2500   -999.2500   -999.2500    117.3648 
  1472.0000   -999.2500     34.6054   -999.2500   -999.2500     51.7475    -70.3431      8.8996      8.7546     10.8595   -999.2500   -999.2500   -999.2500    117.0203 
  1472.5000   -999.2500     35.1898   -999.2500   -999.2500     51.7242    -73.2205      9.1464      8.9974     12.0014   -999.2500   -999.2500   -999.2500    116.2452 
  1473.0000   -999.2500     35.8898   -999.2500   -999.2500     51.8874    -72.9412      9.4001      9.2470     12.4493   -999.2500   -999.2500   -999.2500    115.6795 
  1473.5000   -999.2500     36.3582   -999.2500   -999.2500     52.4033    -70.0577      9.4459      9.3131     12.5122   -999.2500   -999.2500   -999.2500    115.0852 
  1474.0000   -999.2500     36.7201   -999.2500   -999.2500     53.9031    -65.0811      9.4218      9.2894     13.5513   -999.2500   -999.2500   -999.2500    114.1681 
  1474.5000   -999.2500     37.0820   -999.2500   -999.2500     55.3498    -61.0718      9.3977      9.2657     14.6768   -999.2500   -999.2500   -999.2500    112.5950 
  1475.0000   -999.2500     37.5945   -999.2500   -999.2500     57.2102    -63.1914      9.3751      9.2435     15.8474   -999.2500   -999.2500   -999.2500    111.8446 
  1475.5000   -999.2500     38.1512   -999.2500   -999.2500     56.7491    -65.8815      9.3619      9.2304     15.6080   -999.2500   -999.2500   -999.2500    111.3757 
  1476.0000   -999.2500     37.9769   -999.2500   -999.2500     56.4532    -67.9124      9.3486      9.2174     13.1061   -999.2500   -999.2500   -999.2500    111.1471 
  1476.5000   -999.2500     36.7925   -999.2500   -999.2500     56.1601    -68.8138      9.3354      9.2044      9.2028   -999.2500   -999.2500   -999.2500    110.9750 
  1477.0000   -999.2500     35.7566   -999.2500   -999.2500     55.4599    -64.3583      9.3319      9.1995     10.1171   -999.2500   -999.2500   -999.2500    110.5294 
  1477.5000   -999.2500     34.8809   -999.2500   -999.2500     55.3700    -65.5475      9.3982      9.2648     11.9483   -999.2500   -999.2500   -999.2500    110.2941 
  1478.0000   -999.2500     35.0455   -999.2500   -999.2500     55.4118    -62.6268      9.4649      9.3306     13.8327   -999.2500   -999.2500   -999.2500    110.2834 
  1478.5000   -999.2500     35.2865   -999.2500   -999.2500     55.4078    -58.9602      9.5321      9.3968     14.7137   -999.2500   -999.2500   -999.2500    110.2481 
  1479.0000   -999.2500     35.2370   -999.2500   -999.2500     56.0783    -60.9701      9.5997      9.4635     14.9073   -999.2500   -999.2500   -999.2500    110.2494 
  1479.5000   -999.2500     35.0653   -999.2500   -999.2500     55.6300    -64.3339      9.6708      9.5331     14.5926   -999.2500   -999.2500   -999.2500    110.6629 
  1480.0000   -999.2500     35.1765   -999.2500   -999.2500     52.2367    -68.0412      9.7487      9.6099     13.3854   -999.2500   -999.2500   -999.2500    111.3159 
  1480.5000   -999.2500     35.5861   -999.2500   -999.2500     53.5115    -66.2278      9.8341      9.6920     12.4742   -999.2500   -999.2500   -999.2500    112.1551 
  1481.0000   -999.2500     36.0583   -999.2500   -999.2500     55.3974    -59.8691      9.9437      9.8006     12.6162   -999.2500   -999.2500   -999.2500    112.6528 
  1481.5000   -999.2500     36.5389   -999.2500   -999.2500     57.9358    -52.4989      9.9830      9.8417     13.4440   -999.2500   -999.2500   -999.2500    112.7997 
  1482.0000   -999.2500     37.0449   -999.2500   -999.2500     59.1092    -53.1689      9.8100      9.6501     13.9410   -999.2500   -999.2500   -999.2500    112.5136 
  1482.5000   -999.2500     37.6590   -999.2500   -999.2500     57.4250    -56.4734      9.5451      9.3896     14.2075   -999.2500   -999.2500   -999.2500    111.6995 
  1483.0000   -999.2500     39.9963   -999.2500   -999.2500     55.1705    -58.3156      9.2871      8.8460     15.0589   -999.2500   -999.2500   -999.2500    111.0840 
  1483.5000   -999.2500     43.9288   -999.2500   -999.2500     52.9139    -59.6215      9.0360      8.2011     15.4952   -999.2500   -999.2500   -999.2500    111.1573 
  1484.0000   -999.2500     47.8612   -999.2500   -999.2500     50.8756    -58.9840      8.7924      7.6689     13.1864   -999.2500   -999.2500   -999.2500    112.0537 
  1484.5000   -999.2500     51.4630   -999.2500   -999.2500     48.9202    -56.5974      8.7374      7.6348      9.0196   -999.2500   -999.2500   -999.2500    113.1654 
  1485.0000      8.7345     53.1374      0.1359      2.4616     47.5060    -50.1459      8.7810      7.8818      6.7625   -999.2500   -999.2500   -999.2500    113.5600 
  1485.5000      8.7281     53.4190      0.1120      2.3131     48.8947    -45.0785      8.8249      8.2889      7.5736   -999.2500   -999.2500   -999.2500    113.2647 
  1486.0000      8.7490     53.5787      0.0933      2.2518     50.7507    -42.5768      9.0889      8.7170     11.7137   -999.2500   -999.2500   -999.2500    111.9608 
  1486.5000      8.7805     53.6488      0.0758      2.2374     51.4324    -41.7626      9.4493      9.1672     16.2437   -999.2500   -999.2500   -999.2500    110.0274 
  1487.0000      8.8121     53.1403      0.0761      2.2423     49.8687    -46.1236      9.6706      9.5256     17.3014   -999.2500   -999.2500   -999.2500    109.5689 
  1487.5000      8.8473     51.9317      0.0887      2.2550     48.3492    -40.6869      9.8385      9.6910     16.6209   -999.2500   -999.2500   -999.2500    110.1515 
  1488.0000      8.8194     51.0796      0.0851      2.2533     47.3571    -32.4582     10.1269      9.9707     15.4684   -999.2500   -999.2500   -999.2500    111.1852 
  1488.5000      8.7677     51.6869      0.0831      2.2478     47.0232    -25.5675     10.4211     10.1731     13.6309   -999.2500   -999.2500   -999.2500    111.8896 
