~VERSION INFORMATION
 VERS.                           2.00:        CWLS LOG ASCII STANDARD - VERSION 2.00
 WRAP.                             NO:        ONE LINE PER DEPTH STEP
~WELL INFORMATION
#MNEM.UNIT                   DATA             INFORMATION
#----------             --------------        ------------------------------
 STRT.F                      990.0000:        START DEPTH
 STOP.F                     2362.0000:        STOP DEPTH
 STEP.F                        0.5000:        STEP VALUE
 NULL.                      -999.2500:        NULL VALUE
 COMP.                 U.S. AIR FORCE:        COMPANY  
 LOC .                   14  22N  18W:        LOCATION   
 DATE.                        4/21/69:        LOG DATE 
 WELL.       SOUTH BARROW GAS WELL #8:        WELL     
 UWI .                   500232000200:        UNIQUE WELL ID 
 API .                   500232000200:        UNIQUE WELL IDENTIFIER 
 FLD .                S. B. GAS FIELD:        FIELD    
 CNTY.                   POINT BARROW:        COUNTY  
 STAT.                         ALASKA:        STATE   
 CTRY.                            USA:        COUNTRY 
 OPER.                 U.S. AIR FORCE:        OPERATOR  
 SRVC.                   SCHLUMBERGER:        SERVICE COMPANY 
 LAT .                         0.0000:        LATITUDE
 LON .                         0.0000:        LONGITUDE
 DIGS.               CENTER LINE DATA:        DIGITIZING COMPANY 
~CURVE INFORMATION      
#MNEM        .UNIT         API CODE           CURVE DESCRIPTION
#-----------------      --------------        ------------------------------
 DEPT        .F                      :        1  DEPTH
 SP          .MV                     :        2  
 ASN         .OHMM                   :        3  
 ILD         .OHMM                   :        4  
 CILD        .MMHO                   :        5  
 CALI        .IN                     :        6  
 DT          .US/F                   :        7  
~PARAMETER INFORMATION       
#MNEM.UNIT                  VALUE             DESCRIPTION OF MNEMONIC
#---------             ---------------        ------------------------------
 EKB .F                       31.0000:        KELLY BUSHING
 TD  .F                     2363.0000:        TOTAL DEPTH
 BHT .F                       74.0000:        BOTTOM HOLE TEMPERATURE
 BS  .                         8.6250:        BIT SIZE
 FD  .                        10.6000:        FLUID DENSITY
 CSIZ.                         9.6250:        CASING SIZE
 CBD .F                      992.0000:        CASING DRILLER 1
 CBL .F                      990.0000:        CASING LOGGER 1
 DFT .                            Gel:        TYPE FLUID IN HOLE
 DFV .                        54.0000:        VISCOSITY
 DFPH.                        10.0000:        PH
 DFL .                         4.8000:        FLUID LOSS
 RMS .                         2.0000:        RM
 MST .F                       82.0000:        RM MEAS. TEMP.
 RMF .                         2.1800:        RMF
 MFST.F                       61.0000:        RMF MEAS. TEMP.
 RMC .                         4.1900:        RMC
 MCST.F                       53.0000:        RMC MEAS. TEMP.
~OTHER INFORMATION
~A    DEPTH          SP         ASN         ILD        CILD        CALI          DT  
# ...
  1084.0000    -53.6537      4.4519      4.7216    198.4983   -999.2500   -999.2500  
  1084.5000    -53.9896      4.4250      4.7146    198.6312   -999.2500   -999.2500  
  1085.0000    -54.4927      4.3212      4.6467    198.9745   -999.2500   -999.2500  
  1085.5000    -55.5289      4.2378      4.5683    199.9285   -999.2500   -999.2500  
  1086.0000    -55.7764      4.1718      4.4777    202.7823   -999.2500   -999.2500  
  1086.5000    -55.0959      4.0945      4.3785    211.2788   -999.2500   -999.2500  
  1087.0000    -54.8294      3.9848      4.2281    220.3389   -999.2500   -999.2500  
  1087.5000    -54.6847      3.8295      4.1087    228.0076   -999.2500   -999.2500  
  1088.0000    -55.0948      3.7098      3.9822    234.6875   -999.2500   -999.2500  
  1088.5000    -55.7762      3.6077      3.8797    239.7729   -999.2500   -999.2500  
  1089.0000    -55.9575      3.5653      3.8750    246.0928   -999.2500   -999.2500  
  1089.5000    -55.7184      3.5941      3.8564    252.0610   -999.2500   -999.2500  
  1090.0000    -55.2893      3.6653      3.8915    257.1030   -999.2500   -999.2500  
  1090.5000    -54.9437      3.7305      3.8973    256.0192   -999.2500   -999.2500  
  1091.0000    -54.6636      3.7650      3.9884    249.0105   -999.2500   -999.2500  
  1091.5000    -54.4710      3.8070      4.1045    237.8948   -999.2500   -999.2500  
  1092.0000    -53.7847      3.9145      4.2211    226.4395   -999.2500   -999.2500  
  1092.5000    -53.4991      4.1046      4.3743    215.8153   -999.2500   -999.2500  
  1093.0000    -53.6354      4.3446      4.5679    206.9153   -999.2500   -999.2500  
  1093.5000    -54.3394      4.5412      4.7143    198.1712   -999.2500   -999.2500  
  1094.0000    -55.0226      4.6214      4.8950    189.8574   -999.2500   -999.2500  
  1094.5000    -54.7730      4.6302      4.9557    183.9884   -999.2500   -999.2500  
  1095.0000    -54.8999      4.6060      5.0245    181.1980   -999.2500   -999.2500  
  1095.5000    -54.5898      4.5630      5.0183    179.6840   -999.2500   -999.2500  
  1096.0000    -54.8994      4.5160      5.0408    179.5442   -999.2500   -999.2500  
  1096.5000    -55.3014      4.4786      5.0449    179.7904   -999.2500   -999.2500  
  1097.0000    -55.5379      4.5197      4.9802    179.8818   -999.2500   -999.2500  
  1097.5000    -55.7329      4.5758      5.0337    180.1898   -999.2500   -999.2500  
  1098.0000    -55.6996      4.6240      5.0554    181.6782   -999.2500   -999.2500  
  1098.5000    -55.6728      4.6686      5.0052    184.2230   -999.2500   -999.2500  
  1099.0000    -55.9206      4.7381      4.9820    186.7317   -999.2500   -999.2500  
  1099.5000    -56.4210      4.7502      4.9573    188.8388   -999.2500   -999.2500  
  1100.0000    -57.5717      4.7162      4.9325    189.8176   -999.2500   -999.2500  
  1100.5000    -57.1732      4.6793      4.9078    190.6544   -999.2500   -999.2500  
  1101.0000    -56.7084      4.6452      4.8830    191.7294   -999.2500   -999.2500  
  1101.5000    -55.8468      4.6054      4.8582    193.1895   -999.2500   -999.2500  
  1102.0000    -55.2777      4.5159      4.8091    195.0198   -999.2500   -999.2500  
  1102.5000    -54.8829      4.3943      4.7466    196.8501   -999.2500   -999.2500  
  1103.0000    -54.0235      4.3138      4.7209    197.5875   -999.2500   -999.2500  
  1103.5000    -53.9927      4.3226      4.7300    197.8418   -999.2500   -999.2500  
  1104.0000    -53.9304      4.4000      4.7390    198.2509   -999.2500   -999.2500  
  1104.5000    -54.1849      4.4264      4.7468    198.4557   -999.2500   -999.2500  
  1105.0000    -54.5164      4.3552      4.6542    199.1900   -999.2500   -999.2500  
  1105.5000    -54.4255      4.2423      4.5368    199.7430   -999.2500   -999.2500  
  1106.0000    -54.1555      4.1949      4.4615    202.1882   -999.2500   -999.2500  
  1106.5000    -53.9596      4.1847      4.4541    203.0881   -999.2500   -999.2500  
  1107.0000    -53.8051      4.1617      4.4455    204.5476   -999.2500   -999.2500  
  1107.5000    -53.9144      4.1040      4.4369    207.5052   -999.2500   -999.2500  
  1108.0000    -53.9801      4.0594      4.3424    210.3198   -999.2500   -999.2500  
  1108.5000    -53.8560      4.0161      4.3277    212.3580   -999.2500   -999.2500  
  1109.0000    -54.0521      3.9882      4.3264    214.2679   -999.2500   -999.2500  
  1109.5000    -54.0457      3.9707      4.3250    215.6455   -999.2500   -999.2500  
  1110.0000    -54.0339      3.9740      4.3264    217.2382   -999.2500   -999.2500  
  1110.5000    -54.1216      3.9846      4.3302    219.0347   -999.2500   -999.2500  
  1111.0000    -53.9713      3.9888      4.3058    220.8629   -999.2500   -999.2500  
  1111.5000    -54.1921      4.0024      4.2575    222.3560   -999.2500   -999.2500  
  1112.0000    -54.4679      4.0251      4.2447    224.0678   -999.2500   -999.2500  
  1112.5000    -54.7496      4.0218      4.2472    225.7868   -999.2500   -999.2500  
  1113.0000    -54.5006      3.9858      4.2321    226.6992   -999.2500   -999.2500  
  1113.5000    -54.2132      3.9225      4.1704    227.3581   -999.2500   -999.2500  
  1114.0000    -54.0472      3.8592      4.1489    228.1719   -999.2500   -999.2500  
  1114.5000    -53.7439      3.8560      4.1167    229.1771   -999.2500   -999.2500  
  1115.0000    -53.2698      3.8513      4.1697    228.6996   -999.2500   -999.2500  
  1115.5000    -52.7415      3.8599      4.2277    227.1774   -999.2500   -999.2500  
  1116.0000    -52.2415      3.8821      4.1368    222.6447   -999.2500   -999.2500  
  1116.5000    -52.1507      3.9065      4.2408    217.5961   -999.2500   -999.2500  
  1117.0000    -52.0609      3.9546      4.3059    213.6788   -999.2500   -999.2500  
  1117.5000    -52.1779      4.0064      4.3358    209.3252   -999.2500   -999.2500  
  1118.0000    -52.0884      4.0551      4.3490    206.0137   -999.2500   -999.2500  
  1118.5000    -52.3094      4.0771      4.3938    202.4886   -999.2500   -999.2500  
  1119.0000    -52.8257      4.0984      4.4449    200.9976   -999.2500   -999.2500  
  1119.5000    -52.8583      4.1438      4.4687    200.3748   -999.2500   -999.2500  
  1120.0000    -53.8123      4.2471      4.4434    203.7103   -999.2500   -999.2500  
  1120.5000    -55.2968      4.3572      4.4182    205.8009   -999.2500   -999.2500  
  1121.0000    -55.8183      4.4083      4.3930    210.9948   -999.2500   -999.2500  
  1121.5000    -57.4553      4.3539      4.3678    214.3663   -999.2500   -999.2500  
  1122.0000    -60.3794      4.1509      4.3426    215.3568   -999.2500   -999.2500  
  1122.5000    -60.9794      3.9847      4.3174    215.9218   -999.2500   -999.2500  
  1123.0000    -58.4031      3.9818      4.3384    216.3538   -999.2500   -999.2500  
  1123.5000    -56.0051      4.0548      4.3825    216.4625   -999.2500   -999.2500  
  1124.0000    -56.0230      4.1224      4.4022    215.7884   -999.2500   -999.2500  
  1124.5000    -56.1686      4.1163      4.4415    213.9583   -999.2500   -999.2500  
  1125.0000    -56.1589      4.1023      4.4756    209.9592   -999.2500   -999.2500  
  1125.5000    -55.7531      4.1175      4.4296    206.3227   -999.2500   -999.2500  
  1126.0000    -55.2973      4.1160      4.3717    204.1486   -999.2500   -999.2500  
  1126.5000    -54.9284      4.1003      4.4488    202.4928   -999.2500   -999.2500  
  1127.0000    -54.7007      4.1106      4.4654    202.4870   -999.2500   -999.2500  
  1127.5000    -54.7479      4.1272      4.4605    204.0251   -999.2500   -999.2500  
  1128.0000    -55.2483      4.1169      4.5086    205.8223   -999.2500   -999.2500  
  1128.5000    -55.5840      4.0608      4.5724    207.3496   -999.2500   -999.2500  
  1129.0000    -55.7396      4.0300      4.5479    208.9072   -999.2500   -999.2500  
  1129.5000    -55.3700      4.0569      4.6121    210.3350   -999.2500   -999.2500  
  1130.0000    -55.2829      4.0908      4.6131    211.8206   -999.2500   -999.2500  
  1130.5000    -55.6197      4.1274      4.6024    213.1456   -999.2500   -999.2500  
