~VERSION INFORMATION
 VERS.                           2.00:        CWLS LOG ASCII STANDARD - VERSION 2.00
 WRAP.                             NO:        ONE LINE PER DEPTH STEP
~WELL INFORMATION
#MNEM.UNIT                   DATA             INFORMATION
#----------             --------------        ------------------------------
 STRT.F                     1260.0000:        START DEPTH
 STOP.F                     2340.0000:        STOP DEPTH
 STEP.F                        0.5000:        STEP VALUE
 NULL.                      -999.2500:        NULL VALUE
 COMP.        U.S.NAVY DEEPT NP & OSR:        COMPANY  
 LOC .                  144  22N 18W UPM:        LOCATION   
 DATE.                        2/24/74:        LOG DATE 
 WELL.               SOUTH BARROW #11:        WELL     
 UWI .                    50023200500:        UNIQUE WELL ID 
 API .                    50023200500:        UNIQUE WELL IDENTIFIER 
 FLD .                   SOUTH BARROW:        FIELD    
 CNTY.                          NPR-4:        COUNTY  
 STAT.                         ALASKA:        STATE   
 CTRY.                            USA:        COUNTRY 
 OPER.        U.S.NAVY DEEPT NP & OSR:        OPERATOR  
 SRVC.                   SCHLUMBERGER:        SERVICE COMPANY 
 LAT .                         0.0000:        LATITUDE
 LON .                         0.0000:        LONGITUDE
 DIGS.               CENTER LINE DATA:        DIGITIZING COMPANY 
~CURVE INFORMATION      
#MNEM        .UNIT         API CODE           CURVE DESCRIPTION
#-----------------      --------------        ------------------------------
 DEPT        .F                      :        1  DEPTH
 CALI        .IN                     :        2  
 GR          .GAPI                   :        3  
 RHOB        .G/C3                   :        4  
 NPHI        .%                      :        5  
 DPHI        .%                      :        6  
 SP          .MV                     :        7  
 LL8         .OHMM                   :        8  
 ILD         .OHMM                   :        9  
 CILD        .MMHO                   :        10 
 DT          .US/F                   :        11 
~PARAMETER INFORMATION       
#MNEM.UNIT                  VALUE             DESCRIPTION OF MNEMONIC
#---------             ---------------        ------------------------------
 EKB .F                       36.0000:        KELLY BUSHING
 TD  .F                     2350.0000:        TOTAL DEPTH
 BHT .F                       60.0000:        BOTTOM HOLE TEMPERATURE
 BS  .                         9.6250:        BIT SIZE
 FD  .                        10.8000:        FLUID DENSITY
 CSIZ.                        10.7500:        CASING SIZE
 CBD .F                     1267.0000:        CASING DRILLER 1
 CBL .F                     1267.0000:        CASING LOGGER 1
 DFT .      Salt Water-Lignosulfonate:        TYPE FLUID IN HOLE
 DFV .                        52.0000:        VISCOSITY
 DFPH.                         9.0000:        PH
 DFL .                         4.2000:        FLUID LOSS
 RMS .                         1.8800:        RM
 MST .F                       50.0000:        RM MEAS. TEMP.
 RMF .                         1.1500:        RMF
 MFST.F                       63.0000:        RMF MEAS. TEMP.
 RMC .                         1.5000:        RMC
 MCST.F                       50.0000:        RMC MEAS. TEMP.
~OTHER INFORMATION
~A    DEPTH        CALI          GR        RHOB        NPHI        DPHI          SP         LL8         ILD        CILD          DT  
# ...
  1680.0000     10.2364     97.8580      2.4228     37.9053     13.3880    -26.6993     10.3955      9.9502    100.6358    107.5130  
  1680.5000     10.2416     97.7417      2.4093     37.9011     14.2663    -26.5925     10.3566      9.9297    100.8715    107.2782  
  1681.0000     10.2483     98.0956      2.4146     38.9802     14.4159    -26.3423     10.2812      9.9092    100.9503    106.6109  
  1681.5000     10.2550     98.5463      2.4203     40.2265     14.1402    -26.1067     10.2278      9.8884    101.5367    105.6272  
  1682.0000     10.2624     99.0015      2.4231     41.1250     13.8725    -25.9090     10.1431      9.8651    103.1824    104.0800  
  1682.5000     10.2709     98.8741      2.4287     41.5406     13.5965    -25.7637     10.0825      9.8419    102.8829    105.6255  
  1683.0000     10.2850     98.4712      2.4348     41.0377     13.3079    -25.7542     10.0976      9.8186    102.8175    106.0131  
  1683.5000     10.3114     97.8035      2.4372     40.4849     12.9354    -25.8042     10.0964      9.8617    102.6115    106.5537  
  1684.0000     10.3230     96.4645      2.4280     39.7978     13.0323    -25.8643     10.2360      9.9517    101.6083    106.8191  
  1684.5000     10.3290     95.3670      2.4279     39.8875     13.3170    -25.8790     10.4235     10.1836     99.9236    106.8980  
  1685.0000     10.3336     94.1605      2.4244     40.0646     13.3044    -25.8138     10.6120     10.4922     98.1854    106.6875  
  1685.5000     10.3387     92.1995      2.4202     39.8667     13.5802    -25.8442     10.7774     10.8008     96.2069    106.8017  
  1686.0000     10.3288     90.5247      2.4199     38.9255     13.7368    -25.8411     11.2238     11.1286     94.0430    107.4701  
  1686.5000     10.3185     88.9640      2.4205     37.9976     13.7949    -25.8496     11.5940     11.4679     91.8791    108.1568  
  1687.0000     10.3045     88.9291      2.4214     36.2442     13.7389    -25.8503     11.9146     11.8092     89.2492    108.2478  
  1687.5000     10.2891     90.3778      2.4204     36.9229     13.7143    -26.0069     12.0816     12.1270     87.1015    107.7330  
  1688.0000     10.2724     91.3374      2.4194     39.1399     13.7808    -26.0719     12.2756     12.3250     85.0035    105.9283  
  1688.5000     10.2415     92.1227      2.4175     40.7681     13.9151    -25.9366     12.4441     12.4688     83.7474    103.4921  
  1689.0000     10.1818     92.2751      2.4199     40.5270     13.9307    -25.8861     12.5000     12.6171     83.0593    101.9133  
  1689.5000     10.1783     91.6548      2.4225     39.6278     13.7440    -26.0235     12.5703     12.6311     82.8696    100.7388  
  1690.0000     10.2396     91.1692      2.4263     38.8975     13.6031    -26.3136     12.5723     12.4182     83.2506    100.1098  
  1690.5000     10.2872     90.9111      2.4293     38.0812     13.4142    -26.5054     12.4903     12.2913     84.0332     99.6837  
  1691.0000     10.3250     91.5062      2.4339     37.5126     13.2628    -26.4686     12.2732     12.0144     85.3539     99.4355  
  1691.5000     10.2837     92.6630      2.4376     37.7626     13.0178    -26.2946     11.9922     11.6798     87.0735     99.0220  
  1692.0000     10.2928     94.2500      2.4367     38.3405     12.7614    -26.2394     11.5594     11.3451     89.5318     98.5999  
  1692.5000     10.3059     96.3657      2.4333     38.9085     12.8506    -26.2393     11.1086     11.0104     92.9926     98.5285  
  1693.0000     10.2924     98.1460      2.4297     38.7472     13.1250    -26.2161     10.7921     10.6894     95.2956     98.9734  
  1693.5000     10.2822     98.9835      2.4188     38.3188     13.4810    -26.3548     10.4546     10.5609     96.9349     99.5929  
  1694.0000     10.2941     98.1668      2.4292     37.7911     13.6227    -26.6586     10.3431     10.5335     97.8753    100.4163  
  1694.5000     10.3320     97.0740      2.4222     38.2823     13.5783    -27.0665     10.3425     10.5060     98.0353    101.2727  
  1695.0000     10.3334     96.6241      2.4148     38.7590     13.7179    -27.3583     10.4541     10.5063     97.8930    102.1745  
  1695.5000     10.3289     95.6976      2.4175     38.9488     14.1016    -27.6987     10.5276     10.7165     97.0522    104.0125  
  1696.0000     10.2869     95.4196      2.4205     38.9429     14.5221    -28.2056     10.7263     10.9268     93.1374    106.4408  
  1696.5000     10.2271     95.9995      2.4121     38.3251     13.8506    -28.6862     11.1037     11.1370     92.8317    108.1644  
  1697.0000     10.2067     96.9803      2.4055     37.9130     14.3617    -28.8645     11.3870     11.3473     92.0085    108.6579  
  1697.5000     10.2023     96.8978      2.4023     37.6297     14.6524    -28.6190     11.5783     11.5575     89.5759    108.5580  
  1698.0000     10.1835     95.7499      2.4083     37.3812     14.7496    -28.3485     11.7814     11.7678     87.7837    107.8437  
  1698.5000     10.1820     94.8831      2.4136     36.7860     14.4838    -27.8988     11.9555     11.9083     86.7571    106.6954  
  1699.0000     10.2206     93.4285      2.4187     34.5687     14.2092    -27.2854     12.0742     12.0381     86.2989    106.0817  
  1699.5000     10.2891     92.2193      2.4277     34.5835     13.9369    -27.1734     12.1393     12.1679     85.9603    106.4095  
  1700.0000     10.3288     91.1238      2.4224     35.2503     13.7365    -27.5843     12.1981     12.2667     84.7983    107.2635  
  1700.5000     10.3109     90.0338      2.4159     35.9440     13.9555    -28.0530     12.2574     12.3063     84.0049    107.2689  
  1701.0000     10.2450     88.5676      2.4012     36.1596     14.5442    -28.2682     12.2505     12.3460     83.7525    103.4205  
  1701.5000     10.2356     88.0813      2.3921     35.9294     15.0539    -28.4972     12.1988     12.3856     83.7133    101.4300  
  1702.0000     10.2287     88.2741      2.3883     35.2068     15.4520    -28.5936     12.1916     12.4252     83.7030    100.4885  
  1702.5000     10.2233     89.3704      2.3861     34.3561     15.9652    -28.2882     12.2567     12.4648     82.8554    102.3019  
  1703.0000     10.2239     89.7603      2.3969     33.9408     15.9332    -27.6214     12.3821     12.5676     81.3120    103.6446  
  1703.5000     10.2288     89.5080      2.4154     33.5769     15.2175    -26.8414     12.6094     12.8608     79.8889    102.0067  
  1704.0000     10.2501     88.9316      2.4341     33.2914     13.9898    -26.1504     12.8596     13.1539     78.9144    100.0555  
  1704.5000     10.2831     87.9018      2.4506     32.9975     12.7022    -25.5639     13.0912     13.3494     78.1432     98.1086  
  1705.0000     10.2740     87.5682      2.4597     31.9398     11.8053    -25.2905     13.2625     13.5126     77.7001     97.5344  
  1705.5000     10.2424     87.6461      2.4669     30.9019     11.2457    -25.3991     13.3385     13.5101     77.1825     98.1807  
  1706.0000     10.2257     87.2054      2.4631     30.6727     11.0224    -25.7352     13.3078     13.2876     76.6502     99.1771  
  1706.5000     10.2311     88.5494      2.4428     31.1850     11.6731    -25.9979     13.1455     12.9455     76.9875     97.5030  
  1707.0000     10.2456     91.0340      2.4173     32.2086     13.1423    -25.8315     12.7779     12.4919     78.0747     95.6664  
  1707.5000     10.2657     93.6887      2.4180     33.3144     13.8162    -25.6370     12.3531     12.0382     80.3688     94.2187  
  1708.0000     10.3113     95.1653      2.4226     34.2340     13.8751    -25.6625     11.7301     11.5845     84.0799     92.8810  
  1708.5000     10.3423     96.2878      2.4238     35.8541     13.4413    -25.8192     11.1418     11.1308     89.0716     94.0094  
  1709.0000     10.1931     98.6231      2.4174     36.7331     13.9739    -26.1038     10.6822     10.6641     93.2760     95.3704  
  1709.5000     10.0919     99.4780      2.4091     38.3456     14.3458    -26.3098     10.2468     10.1634     96.7605     96.8257  
