~VERSION INFORMATION
 VERS.                           2.00:        CWLS LOG ASCII STANDARD - VERSION 2.00
 WRAP.                             NO:        ONE LINE PER DEPTH STEP
~WELL INFORMATION
#MNEM.UNIT                   DATA             INFORMATION
#----------             --------------        ------------------------------
 STRT.F                      101.0000:        START DEPTH
 STOP.F                     3666.0000:        STOP DEPTH
 STEP.F                        0.5000:        STEP VALUE
 NULL.                      -999.2500:        NULL VALUE
 COMP.     USGS/NPR HUSKY OIL COMPANY:        COMPANY
 LOC .                      9 20N 19W:        LOCATION
 DATE.                       12/30/79:        LOG DATE
 WELL.           WALAKPA TEST WELL #1:        WELL
 UWI .                   500232001300:        UNIQUE WELL ID
 API .                   500232001300:        UNIQUE WELL IDENTIFIER
 FLD .                        WILDCAT:        FIELD
 CNTY.                    NORTH SLOPE:        COUNTY
 STAT.                         ALASKA:        STATE
 CTRY.                            USA:        COUNTRY
 OPER.     USGS/NPR HUSKY OIL COMPANY:        OPERATOR
 SRVC.                   SCHLUMBERGER:        SERVICE COMPANY
 LAT .                         0.0000:        LATITUDE
 LON .                         0.0000:        LONGITUDE
 DIGS.               CENTER LINE DATA:        DIGITIZING COMPANY
~CURVE INFORMATION      
#MNEM        .UNIT         API CODE           CURVE DESCRIPTION
#-----------------      --------------        ------------------------------
 DEPT        .F                      :        1  DEPTH
 GR          .GAPI                   :        2  
 CALI        .IN                     :        3  
 RHOB        .G/C3                   :        4  
 DRHO        .G/C3                   :        5  
 NPHI        .%                      :        6  
 DT          .US/F                   :        7  
 SP          .MV                     :        8  
 ILD         .OHMM                   :        9  
 ILM         .OHMM                   :        10 
 LL8         .OHMM                   :        11 
 SFL         .OHMM                   :        12 
~PARAMETER INFORMATION
#MNEM.UNIT                  VALUE             DESCRIPTION OF MNEMONIC
#---------             ---------------        ------------------------------
 EKB .F                       50.0000:        KELLY BUSHING
 TD  .F                     3672.0000:        TOTAL DEPTH
 BHT .F                       80.0000:        BOTTOM HOLE TEMPERATURE
 BS  .                        12.2500:        BIT SIZE
 FD  .                         9.9000:        FLUID DENSITY
 CSIZ.                        13.3750:        CASING SIZE
 CBD .F                      100.0000:        CASING DRILLER 1
 CBL .F                      106.0000:        CASING LOGGER 1
 DFT .                             99:        TYPE FLUID IN HOLE
 DFV .                        45.0000:        VISCOSITY
 DFPH.                         8.0000:        PH
 DFL .                        23.0000:        FLUID LOSS
 RMS .                         5.9200:        RM
 MST .F                       58.0000:        RM MEAS. TEMP.
 RMF .                         6.2200:        RMF
 MFST.F                       57.0000:        RMF MEAS. TEMP.
 RMC .                         7.0500:        RMC
 MCST.F                       57.0000:        RMC MEAS. TEMP.
~OTHER INFORMATION
~A    DEPTH          GR        CALI        RHOB        DRHO        NPHI          DT          SP         ILD         ILM         LL8         SFL 
# ...
   577.0000     83.3073     13.9854      2.4972      0.0479     31.7682    117.7022    -66.8475     20.8612     13.9947     24.8807   -999.2500 
   577.5000     81.4585     13.7775      2.4874      0.0370     31.0308    119.4858    -67.8203     20.9458     13.7514     22.6281   -999.2500 
   578.0000     81.1753     13.7834      2.4821      0.0318     30.2316    121.4060    -68.6861     21.0307     13.9205     21.3185   -999.2500 
   578.5000     81.3240     13.8369      2.4641      0.0329     30.7214    121.0124    -68.4333     21.1160     14.1353     21.3823   -999.2500 
   579.0000     80.9810     13.9918      2.4661      0.0433     32.5007    119.6958    -67.9938     21.3007     14.2436     22.1952   -999.2500 
   579.5000     80.7205     14.2329      2.4941      0.0559     33.8307    118.9906    -67.5547     21.5610     14.2528     23.5361   -999.2500 
   580.0000     81.1433     14.3848      2.4764      0.0556     33.5809    120.1866    -67.6494     21.8245     14.1614     24.9580   -999.2500 
   580.5000     81.5155     14.1775      2.4764      0.0539     32.9075    122.1166    -67.7403     22.0456     14.1220     23.0527   -999.2500 
   581.0000     82.3668     13.7614      2.4830      0.0683     32.3333    122.4954    -68.0178     22.2295     14.1827     23.0041   -999.2500 
   581.5000     83.2181     13.9254      2.4673      0.0449     31.8809    123.9708    -68.0875     22.4149     14.2183     23.3988   -999.2500 
   582.0000     84.4297     14.1238      2.4416      0.0265     31.1768    126.6909    -68.0138     22.5096     14.2906     24.1081   -999.2500 
   582.5000     86.8638     14.5292      2.4243      0.0246     30.6808    125.1363    -67.8780     22.5822     14.4061     25.0124   -999.2500 
   583.0000     88.4534     14.9911      2.4220      0.0452     30.2037    121.4473    -67.4989     22.6551     14.7061     26.4762   -999.2500 
   583.5000     89.1859     15.1665      2.4156      0.0398     29.8412    115.8124    -66.7728     22.7282     15.0040     27.9649   -999.2500 
   584.0000     89.8686     15.1447      2.4299      0.0309     29.9210    113.8599    -66.1898     22.5767     15.1197     29.4393   -999.2500 
   584.5000     90.2074     14.9882      2.4762      0.0458     30.6735    115.2475    -65.9000     22.4761     15.0178     30.6005   -999.2500 
   585.0000     89.6153     14.9265      2.4845      0.0415     32.1288    116.5734    -65.6366     22.7701     14.8893     29.7063   -999.2500 
   585.5000     87.8703     14.8587      2.4896      0.0488     33.5927    118.0143    -65.7967     23.0342     14.8972     28.7005   -999.2500 
   586.0000     86.0568     13.9901      2.4791      0.0532     33.3185    118.6987    -66.0088     23.4196     15.0080     28.6160   -999.2500 
   586.5000     86.5636     14.5544      2.4578      0.0281     32.0140    117.4634    -65.9230     23.6781     15.1287     29.7422   -999.2500 
   587.0000     87.3390     14.8977      2.4507      0.0210     30.7719    116.7039    -65.3701     23.8040     15.2222     30.7205   -999.2500 
   587.5000     88.0334     14.7787      2.4530      0.0165     31.4353    116.8068    -64.3246     23.8807     15.2950     30.9722   -999.2500 
   588.0000     87.2841     14.6962      2.4545      0.0079     32.1740    117.4172    -64.4429     24.2600     15.3859     30.7697   -999.2500 
   588.5000     85.5963     14.4730      2.4640      0.0262     32.1411    118.1526    -65.0747     24.8556     15.5314     30.3926   -999.2500 
   589.0000     84.6373     14.3467      2.4818      0.0457     31.4274    118.4295    -65.1478     25.2821     15.6638     29.5495   -999.2500 
   589.5000     84.2666     14.6183      2.4697      0.0314     30.8835    118.0058    -64.5728     25.4349     16.0148     28.5456   -999.2500 
   590.0000     83.9884     14.6191      2.4762      0.0356     30.9473    116.6027    -64.0092     26.7577     16.2936     27.8692   -999.2500 
   590.5000     83.8727     14.2782      2.4745      0.0370     30.9591    116.1431    -63.1703     28.3365     16.4945     29.0697   -999.2500 
   591.0000     84.6284     13.9192      2.4676      0.0432     30.3074    116.0650    -61.9631     28.6708     16.4907     30.0398   -999.2500 
   591.5000     86.4770     13.9004      2.4640      0.0405     29.8268    116.0522    -62.9446     28.3742     16.5505     29.0934   -999.2500 
   592.0000     88.3255     14.4288      2.4746      0.0641     29.4916    114.7078    -62.9251     27.3112     16.6542     28.1540   -999.2500 
   592.5000     89.8459     14.8409      2.4866      0.0610     30.1932    113.2428    -62.3017     26.2043     16.7468     28.2984   -999.2500 
   593.0000     90.2240     14.3244      2.4882      0.0563     31.1150    112.9970    -62.5343     24.6752     16.4165     29.5241   -999.2500 
   593.5000     89.4275     14.2144      2.5094      0.0531     32.2833    115.2754    -63.1488     22.4001     15.5346     31.4611   -999.2500 
   594.0000     88.0127     14.2022      2.5004      0.0409     32.9832    119.9786    -64.5237     20.8367     13.9620     27.5500   -999.2500 
   594.5000     87.3939     14.2847      2.4892      0.0485     33.3012    126.6858    -66.0397     19.9123     12.5318     23.3590   -999.2500 
   595.0000     88.4261     14.6123      2.4825      0.0676     33.5028    130.1250    -66.2808     19.0290     12.0151     19.9294   -999.2500 
   595.5000     89.1363     14.4827      2.4731      0.0564     33.7753    129.9033    -65.8979     18.1849     11.7767     19.5886   -999.2500 
   596.0000     89.4976     14.2336      2.4798      0.0563     33.5909    126.5328    -64.8169     17.3782     11.7437     20.6309   -999.2500 
   596.5000     90.3176     13.7806      2.4922      0.0594     33.2021    125.6839    -65.1253     16.7026     11.7644     21.8813   -999.2500 
   597.0000     90.1399     13.6750      2.5002      0.0600     33.7825    125.6172    -64.7558     16.2318     11.6785     22.6776   -999.2500 
   597.5000     89.7091     13.7422      2.4931      0.0635     35.0548    125.8731    -63.2865     16.0899     11.5089     22.6804   -999.2500 
   598.0000     89.2783     13.6180      2.4786      0.0563     34.1612    126.3932    -62.6322     16.4931     11.3813     20.1532   -999.2500 
   598.5000     88.8475     13.4363      2.4687      0.0459     32.6997    126.6860    -62.3293     17.0592     11.3949     18.6537   -999.2500 
   599.0000     89.2895     13.5327      2.4502      0.0382     31.7988    125.9791    -62.2419     17.4925     11.6605     18.8376   -999.2500 
   599.5000     89.8234     13.6532      2.4473      0.0293     31.8156    125.2976    -62.3399     17.3780     11.9558     22.0273   -999.2500 
   600.0000     91.1607     13.4481      2.4623      0.0396     32.3600    125.2610    -61.6076     17.0124     12.4832     23.6997   -999.2500 
   600.5000     92.6340     13.2430      2.4853      0.0532     33.0099    125.3410    -60.5841     16.6545     11.8553     24.5176   -999.2500 
   601.0000     93.0177     13.0771      2.4885      0.0721     33.4644    126.5591    -60.2954     16.4854     11.6440     23.8668   -999.2500 
   601.5000     93.9783     13.0316      2.4780      0.0571     34.0867    127.0421    -60.5585     16.1700     11.4236     24.5212   -999.2500 
   602.0000     94.8383     13.0906      2.4766      0.0495     34.7352    127.8197    -61.6381     15.8080     10.9518     25.9912   -999.2500 
   602.5000     93.9872     13.2158      2.4781      0.0577     34.2245    129.7080    -62.0873     15.3484     10.6062     24.5534   -999.2500 
   603.0000     92.2256     13.3426      2.4852      0.0777     34.4831    130.7065    -62.3656     15.0398     10.3921     23.5906   -999.2500 
   603.5000     90.9620     13.4073      2.4744      0.0739     35.0930    131.9336    -62.8451     14.9136     10.2196     23.4621   -999.2500 
   604.0000     90.4088     13.4436      2.4636      0.0569     35.0445    131.1447    -63.1102     14.9273     10.2905     23.2533   -999.2500 
   604.5000     90.6917     13.4654      2.4242      0.0205     34.8742    126.9302    -63.0644     14.9974     10.5021     23.2920   -999.2500 
