~VERSION INFORMATION
 VERS.                           2.00:        CWLS LOG ASCII STANDARD - VERSION 2.00
 WRAP.                             NO:        ONE LINE PER DEPTH STEP
~WELL INFORMATION
#MNEM.UNIT                   DATA             INFORMATION
#----------             --------------        ------------------------------
 STRT.F                       25.0000:        START DEPTH
 STOP.F                     4165.0000:        STOP DEPTH
 STEP.F                        0.5000:        STEP VALUE
 NULL.                      -999.2500:        NULL VALUE
 COMP.    USGS/NPR HUSKY OIL OPERATOR:        COMPANY
 LOC .                     21 21N 14W:        LOCATION
 DATE.                         3/3/80:        LOG DATE
 WELL.                 WEST  DEASE #1:        WELL
 UWI .                   500232001400:        UNIQUE WELL ID
 API .                   500232001400:        UNIQUE WELL IDENTIFIER
 FLD .                        WILDCAT:        FIELD
 CNTY.                    NORTH SLOPE:        COUNTY
 STAT.                         ALASKA:        STATE
 CTRY.                            USA:        COUNTRY
 OPER.    USGS/NPR HUSKY OIL OPERATOR:        OPERATOR
 SRVC.                   SCHLUMBERGER:        SERVICE COMPANY
 LAT .                         0.0000:        LATITUDE
 LON .                         0.0000:        LONGITUDE
 DIGS.               CENTER LINE DATA:        DIGITIZING COMPANY
~CURVE INFORMATION      
#MNEM        .UNIT         API CODE           CURVE DESCRIPTION
#-----------------      --------------        ------------------------------
 DEPT        .F                      :        1  DEPTH
 SP          .MV                     :        2  
 LLD         .OHMM                   :        3  
 LLS         .OHMM                   :        4  
 MSFL        .OHMM                   :        5  
 CALI        .IN                     :        6  
 RHOB        .G/C3                   :        7  
 DRHO        .G/C3                   :        8  
 NPHI        .%                      :        9  
 GR          .GAPI                   :        10 
 DT          .US/F                   :        11 
~PARAMETER INFORMATION
#MNEM.UNIT                  VALUE             DESCRIPTION OF MNEMONIC
#---------             ---------------        ------------------------------
 EKB .F                       24.0000:        KELLY BUSHING
 TD  .F                     4173.0000:        TOTAL DEPTH
 BHT .F                       85.0000:        BOTTOM HOLE TEMPERATURE
 BS  .                        12.2500:        BIT SIZE
 FD  .                        10.4000:        FLUID DENSITY
 CSIZ.                        13.3750:        CASING SIZE
 CBD .F                      288.0000:        CASING DRILLER 1
 CBL .F                      292.0000:        CASING LOGGER 1
 DFT .                             99:        TYPE FLUID IN HOLE
 DFV .                        52.0000:        VISCOSITY
 DFPH.                         8.0000:        PH
 DFL .                         7.5000:        FLUID LOSS
 RMS .                         0.1250:        RM
 MST .F                       35.0000:        RM MEAS. TEMP.
 RMF .                         0.1440:        RMF
 MFST.F                       44.0000:        RMF MEAS. TEMP.
 RMC .                         0.2360:        RMC
 MCST.F                       36.0000:        RMC MEAS. TEMP.
~OTHER INFORMATION
~A    DEPTH          SP         LLD         LLS        MSFL        CALI        RHOB        DRHO        NPHI          GR          DT 
# ...
  4142.5000    -37.7766     39.1942     37.7817     38.5917      7.7480      2.6727      0.0872     30.2032     72.8073     60.2787 
  4143.0000    -37.7449     38.7955     36.9810     45.9818      7.7418      2.6805      0.1015     29.6104     67.2970     60.3232 
  4143.5000    -37.7916     38.4009     36.1127     50.0614      7.7482      2.6603      0.0890     28.3690     54.2742     60.6364 
  4144.0000    -37.8159     38.5826     36.3956     45.9871      7.7485      2.6395      0.0793     28.0659     35.1950     60.9124 
  4144.5000    -37.7761     39.8222     37.5222     43.7388      7.7426      2.6058      0.0362     27.8377     10.4582     61.0462 
  4145.0000    -37.7498     41.6557     39.5400     43.9803      7.7358      2.6194      0.0352     27.5027      0.7875     61.2548 
  4145.5000    -37.7827     43.5737     41.6663     48.3285      7.7353      2.6576      0.0496     27.5607   -999.2500     61.1837 
  4146.0000    -37.7950     45.4546     43.2075     59.6288      7.7370      2.6352      0.0415     28.4945   -999.2500     61.8174 
  4146.5000    -37.7775     47.3278     44.7546     55.3704      7.7354      2.6204      0.0439     29.4185   -999.2500     59.9472 
  4147.0000    -37.7494     47.8307     44.4026     40.9964      7.7426      2.6463      0.0849     30.2485   -999.2500     59.8466 
  4147.5000    -37.7856     45.6122     42.5500     28.5276      7.7483      2.6497      0.1022     30.5873   -999.2500     60.2217 
  4148.0000    -37.8218     43.2391     41.2647     17.8145      7.7410      2.6605      0.1288     29.9413   -999.2500     60.8314 
  4148.5000    -37.8137     42.8679     41.3894      8.4928      7.7358      2.6924      0.1715     28.7799   -999.2500     59.5065 
  4149.0000    -37.7398     43.3118     41.5146      6.9193      7.7398      2.6516      0.1451     26.9404   -999.2500     58.8036 
  4149.5000    -37.6970     44.1849     41.8480     17.6387      7.7316      2.6025      0.1072     25.9254   -999.2500     58.4516 
  4150.0000    -37.8036     45.6968     43.1477     35.1674      7.7416      2.6034      0.0792     29.9986   -999.2500     58.3673 
  4150.5000    -37.8526     47.0366     44.4877     27.0818      7.7560      2.6085      0.0674     29.9928   -999.2500     58.3969 
  4151.0000    -37.7714     47.4647     45.8052     26.1537      7.7606      2.6000      0.0624     29.9871   -999.2500     52.0206 
  4151.5000    -37.7711     48.9994     47.1544     24.3896      7.7527      2.5947      0.0703     29.9814   -999.2500     57.6778 
  4152.0000    -37.8035     50.8006     48.6166     26.9289      7.7502      2.5771      0.0384     29.9757   -999.2500     57.5032 
  4152.5000    -37.8213     52.4657     50.1412     56.0126      7.7600      2.6067      0.0264   -999.2500   -999.2500     57.0273 
  4153.0000    -37.7512     53.0952     50.8985     74.3355      7.7635      2.6300      0.0201   -999.2500   -999.2500     56.7181 
  4153.5000    -37.7921     53.0586     50.4813     65.1357      7.7616      2.6206      0.0091   -999.2500   -999.2500     56.4651 
  4154.0000    -37.7880     52.9037     50.2686     47.9508      7.7761      2.6162      0.0034   -999.2500   -999.2500     55.6710 
  4154.5000    -37.7568     52.7867     50.1383     58.3426      7.7738      2.6161      0.0116   -999.2500   -999.2500     55.9265 
  4155.0000    -37.7684     52.6851     51.0152     50.2377      7.7645      2.6190      0.0203   -999.2500   -999.2500     57.0640 
  4155.5000    -37.7800     52.5836     52.0000     40.4470      7.7654      2.6226      0.0290   -999.2500   -999.2500     58.1201 
  4156.0000    -37.7789     52.8385     52.0725     40.2479      7.7675      2.6260      0.0255   -999.2500   -999.2500     58.9913 
  4156.5000    -37.7574     53.4998     51.8017     56.9484      7.7758      2.6431      0.0339   -999.2500   -999.2500     59.9347 
  4157.0000    -37.7689     53.2101     51.6769     82.4940      7.7848      2.6618      0.0467   -999.2500   -999.2500     59.0143 
  4157.5000    -37.7804     52.8866     51.5610     90.9084      7.7847      2.6591      0.0591   -999.2500   -999.2500     58.2711 
  4158.0000    -37.7775     52.9107     51.8656     61.5623      7.7800      2.6491      0.0624   -999.2500   -999.2500     57.8938 
  4158.5000    -37.7551     52.9671     52.2338     20.7920      7.7746      2.6282      0.0823   -999.2500   -999.2500     57.8750 
  4159.0000    -37.7602     53.0234     50.9387     16.8086      7.7822      2.5913      0.0750   -999.2500   -999.2500     58.2226 
  4159.5000    -37.7696     52.0449     49.4991     24.8005      7.7752      2.6029      0.0797   -999.2500   -999.2500     58.7888 
  4160.0000    -37.8085     51.5602     49.0312     34.3148      7.7732      2.6364      0.0849   -999.2500   -999.2500     59.4544 
  4160.5000    -37.7979     52.0543     49.1202     43.9469      7.7867      2.6450      0.0729   -999.2500   -999.2500   -999.2500 
  4161.0000    -37.7504     52.5707     49.3536     52.8326      7.7923      2.6339      0.0451   -999.2500   -999.2500   -999.2500 
  4161.5000    -37.7732     53.0998     51.7403     57.6038      7.7943      2.6487      0.0550   -999.2500   -999.2500   -999.2500 
  4162.0000    -37.7871     53.2699     51.9518     61.9101      7.8077      2.6472      0.0372   -999.2500   -999.2500   -999.2500 
  4162.5000    -37.7739     53.1021     51.3071     59.9169      7.8187      2.6291      0.0304   -999.2500   -999.2500   -999.2500 
  4163.0000    -37.7634     52.9348     51.3071     69.0820      7.8248      2.6232      0.0324   -999.2500   -999.2500   -999.2500 
  4163.5000    -37.7431     52.7681     51.3071     73.7958      7.8298      2.6140      0.0573   -999.2500   -999.2500   -999.2500 
  4164.0000    -37.7229     52.6944     51.3713     44.8603      7.8182      2.6178      0.1262   -999.2500   -999.2500   -999.2500 
  4164.5000   -999.2500   -999.2500   -999.2500   -999.2500      7.7984      2.6268      0.1734   -999.2500   -999.2500   -999.2500 
  4165.0000   -999.2500   -999.2500   -999.2500   -999.2500      7.7779      2.6385      0.1916   -999.2500   -999.2500   -999.2500 
