~VERSION INFORMATION
 VERS.                           2.00:        CWLS LOG ASCII STANDARD - VERSION 2.00
 WRAP.                             NO:        ONE LINE PER DEPTH STEP
~WELL INFORMATION
#MNEM.UNIT                   DATA             INFORMATION
#----------             --------------        ------------------------------
 STRT.F                       25.0000:        START DEPTH
 STOP.F                     4165.0000:        STOP DEPTH
 STEP.F                        0.5000:        STEP VALUE
 NULL.                      -999.2500:        NULL VALUE
 COMP.    USGS/NPR HUSKY OIL OPERATOR:        COMPANY
 LOC .                     21 21N 14W:        LOCATION
 DATE.                         3/3/80:        LOG DATE
 WELL.                 WEST  DEASE #1:        WELL
 UWI .                   500232001400:        UNIQUE WELL ID
 API .                   500232001400:        UNIQUE WELL IDENTIFIER
 FLD .                        WILDCAT:        FIELD
 CNTY.                    NORTH SLOPE:        COUNTY
 STAT.                         ALASKA:        STATE
 CTRY.                            USA:        COUNTRY
 OPER.    USGS/NPR HUSKY OIL OPERATOR:        OPERATOR
 SRVC.                   SCHLUMBERGER:        SERVICE COMPANY
 LAT .                         0.0000:        LATITUDE
 LON .                         0.0000:        LONGITUDE
 DIGS.               CENTER LINE DATA:        DIGITIZING COMPANY
~CURVE INFORMATION      
#MNEM        .UNIT         API CODE           CURVE DESCRIPTION
#-----------------      --------------        ------------------------------
 DEPT        .F                      :        1  DEPTH
 SP          .MV                     :        2  
 LLD         .OHMM                   :        3  
 LLS         .OHMM                   :        4  
 MSFL        .OHMM                   :        5  
 CALI        .IN                     :        6  
 RHOB        .G/C3                   :        7  
 DRHO        .G/C3                   :        8  
 NPHI        .%                      :        9  
 GR          .GAPI                   :        10 
 DT          .US/F                   :        11 
~PARAMETER INFORMATION
#MNEM.UNIT                  VALUE             DESCRIPTION OF MNEMONIC
#---------             ---------------        ------------------------------
 EKB .F                       24.0000:        KELLY BUSHING
 TD  .F                     4173.0000:        TOTAL DEPTH
 BHT .F                       85.0000:        BOTTOM HOLE TEMPERATURE
 BS  .                        12.2500:        BIT SIZE
 FD  .                        10.4000:        FLUID DENSITY
 CSIZ.                        13.3750:        CASING SIZE
 CBD .F                      288.0000:        CASING DRILLER 1
 CBL .F                      292.0000:        CASING LOGGER 1
 DFT .                             99:        TYPE FLUID IN HOLE
 DFV .                        52.0000:        VISCOSITY
 DFPH.                         8.0000:        PH
 DFL .                         7.5000:        FLUID LOSS
 RMS .                         0.1250:        RM
 MST .F                       35.0000:        RM MEAS. TEMP.
 RMF .                         0.1440:        RMF
 MFST.F                       44.0000:        RMF MEAS. TEMP.
 RMC .                         0.2360:        RMC
 MCST.F                       36.0000:        RMC MEAS. TEMP.
~OTHER INFORMATION
~A    DEPTH          SP         LLD         LLS        MSFL        CALI        RHOB        DRHO        NPHI          GR          DT 
# ...
  1336.5000   -144.9055      8.0516      6.0842      3.0612     13.9483      2.2852      0.1836     46.3199     62.8108    105.7903 
  1337.0000   -144.6596      7.8124      5.9407      3.4410     13.5256      2.2469      0.2241     46.3513     63.3634    107.6598 
  1337.5000   -144.7176      7.8840      5.9713      3.5481     14.0463      2.1952      0.2325     47.0317     64.3042    109.3072 
  1338.0000   -145.0966      8.0476      6.1175      3.3980     14.6508      2.2296      0.2188     48.8985     62.6072    109.7056 
  1338.5000   -145.1886      8.2079      6.2839      3.2714     13.8775      2.2615      0.1928     49.8618     61.2542    111.2643 
  1339.0000   -144.8967      8.1803      6.3690      3.5310     13.1117      2.2865      0.1393     49.9612     60.9230    112.3691 
  1339.5000   -145.1300      8.1622      6.3379      3.3711     13.3284      2.3570      0.1502     47.9985     60.5918    111.2421 
  1340.0000   -145.2497      7.7453      6.1232      2.6086     13.7635      2.3798      0.1743     45.8846     60.4777    113.4702 
  1340.5000   -145.2000      7.7349      5.8881      1.6061     14.3166      2.3769      0.1694     44.2724     61.2216    115.2519 
  1341.0000   -145.3997      7.8582      5.9352      1.6982     14.5673      2.3845      0.1927     43.3424     62.6397    115.5775 
  1341.5000   -145.2249      8.1218      6.1491      2.2342     14.1811      2.3944      0.2441     43.0413     63.6399    115.8084 
  1342.0000   -145.3553      8.1468      6.3538      3.2745     13.9931      2.3850      0.2661     42.9192     63.7631    113.7266 
  1342.5000   -145.4661      8.6487      6.5252      3.0210     13.2256      2.3182      0.2663     42.9320     63.6109    112.0672 
  1343.0000   -145.4894      8.5160      6.6266      2.6597     13.7998      2.2707      0.2665     43.6105     64.2372    111.9697 
  1343.5000   -145.4521      8.2356      6.3982      3.2138     14.8301      2.2299      0.2465     45.4702     65.1730    112.3808 
  1344.0000   -145.4234      8.1288      6.2633      2.8968     14.6744      2.2138      0.2195     46.9424     65.1869    113.4750 
  1344.5000   -145.4829      8.0455      6.1532      1.8781     13.9470      2.1960      0.2394     47.1692     65.3207    111.8824 
  1345.0000   -145.7101      7.9698      6.0567      2.1962     13.2753      2.1569      0.2615     46.6380     65.1884    110.5473 
  1345.5000   -145.7422      7.9828      6.0381      2.4609     14.8331      2.1184      0.2451     47.5209     64.6592    111.3509 
  1346.0000   -145.6465      8.0337      6.1026      1.9198     14.8721      2.1930      0.2208     49.1300     62.5474    112.0076 
  1346.5000   -145.5849      8.1320      6.2002      1.6101     14.8075      2.3128      0.2069     48.7958     60.7726    112.0924 
  1347.0000   -145.7647      8.1055      6.1757      1.7631     14.2617      2.4211      0.1682     47.5663     59.5599    111.8757 
  1347.5000   -145.7048      8.1650      6.2198      1.9655     12.7923      2.4239      0.1180     47.4866     58.5083    111.8079 
  1348.0000   -145.6286      8.3407      6.2489      1.1136     12.7049      2.4707      0.1326     47.8118     57.3658    109.7406 
  1348.5000   -145.4540      7.9888      6.0975      0.7706     12.7482      2.4839      0.1512     47.5812     57.1691    111.4097 
  1349.0000   -145.6198      8.0363      6.0882      0.7846     12.6333      2.5015      0.1752     47.1097     58.5063    113.6850 
  1349.5000   -145.5207      8.1302      6.1641      0.9246     12.5879      2.5146      0.2115     47.0407     59.9707    114.5190 
  1350.0000   -145.3522      7.9515      6.2818      1.5040     12.9089      2.5094      0.2208     48.0446     60.1476    111.4724 
  1350.5000   -145.1837      8.0419      6.2205      3.4694     13.2425      2.4568      0.1762     49.0486     60.3245    108.4951 
  1351.0000   -145.0297      8.1102      6.2106      3.4552     12.6800      2.4576      0.1320     49.7026     60.2703    107.2141 
  1351.5000   -145.1003      8.0778      6.1548      3.1348     12.5233      2.4783      0.1047     48.6411     60.3572    104.7286 
  1352.0000   -144.9188      8.0382      6.1235      2.7233     12.4255      2.5012      0.1092     47.2665     61.9565    106.7816 
  1352.5000   -144.9085      7.9644      6.0270      2.1396     12.5213      2.5095      0.1106     46.2320     63.5948    109.5434 
  1353.0000   -144.8555      7.9396      5.9766      1.4592     12.5152      2.5057      0.1135     45.7630     64.0687    110.0797 
  1353.5000   -144.8025      8.0231      5.9763      1.3795     12.3783      2.4808      0.1142     45.0592     64.2836    111.6791 
  1354.0000   -144.6945      8.0335      6.1433      1.6307     12.3546      2.4857      0.1215     44.7377     64.8769    109.9389 
  1354.5000   -144.3975      8.0081      6.0303      3.0666     12.4333      2.4896      0.1564     45.0346     65.3215    105.4146 
  1355.0000   -144.3635      7.9427      5.9789      3.8732     12.6389      2.4821      0.1492     46.2798     64.8672    103.8194 
  1355.5000   -144.5164      7.8048      5.9632      3.7465     12.6010      2.4394      0.1339     47.9600     64.0262    102.5297 
  1356.0000   -144.4608      7.8491      5.9399      3.5784     12.3120      2.4673      0.1339     47.2529     62.6885    104.1233 
  1356.5000   -144.1992      7.8297      5.9328      4.0365     12.4386      2.4800      0.1571     46.2676     64.4536    103.0097 
  1357.0000   -144.1577      7.8178      5.9369      3.4403     12.6601      2.4523      0.1264     45.9089     66.0587    104.6409 
  1357.5000   -143.8404      8.0580      6.0359      2.6066     12.5501      2.4494      0.0953     45.8030     68.3609    108.2368 
  1358.0000   -144.2504      8.1157      6.0018      1.7532     12.3788      2.4655      0.0891     44.9437     69.4191    106.9987 
  1358.5000   -143.6367      8.0452      5.9413      2.9458     12.4318      2.4659      0.1089     43.7244     69.8348    107.8623 
  1359.0000   -143.9491      7.8735      5.9833      2.6003     12.5667      2.4768      0.1382     43.2605     68.8343    108.8357 
  1359.5000   -143.3385      7.8053      5.9133      1.8864     12.6454      2.4984      0.1956     43.5092     67.2669    105.5032 
  1360.0000   -143.5120      7.4757      5.7590      2.7358     13.0624      2.4653      0.1960     43.9839     65.5718    106.8203 
  1360.5000   -143.0372      7.7219      5.8710      3.8790     12.9011      2.4154      0.1154     45.6627     63.8913    107.6448 
  1361.0000   -142.8483      7.8114      5.9012      4.0125     12.6832      2.4502      0.1213     47.1382     62.6066    103.3327 
  1361.5000   -143.3029      7.7384      5.8233      3.6141     12.6460      2.4841      0.1377     48.2124     61.0710    101.5399 
  1362.0000   -144.8325      7.8661      5.7676      3.2876     12.6819      2.4719      0.1339     48.1283     60.8096    104.5471 
  1362.5000   -143.5957      7.9979      5.8529      1.9008     12.7511      2.4963      0.1553     47.2454     63.1572    110.1158 
  1363.0000   -143.4876      8.0457      5.9278      1.5399     12.8928      2.4834      0.1242     46.8056     64.3934    110.3273 
  1363.5000   -143.3197      8.1482      5.9699      2.4105     12.7802      2.4707      0.1252     46.9577     64.6803    112.7626 
  1364.0000   -144.0714      8.3399      6.1989      2.7295     12.7242      2.4780      0.1380     46.1564     64.0323    108.8947 
  1364.5000   -143.2717      8.3363      6.2542      2.2453     12.7448      2.4597      0.0989     44.7008     62.7126    104.7537 
  1365.0000   -143.2535      8.2557      6.1636      3.3276     12.7068      2.4681      0.1050     43.6712     61.8282    106.5979 
  1365.5000   -143.2306      8.2623      6.1757      2.3869     12.6880      2.4884      0.1148     41.7883     61.8229    107.8852 
  1366.0000   -144.2090      8.3955      6.3127      2.2829     12.6988      2.5008      0.1359     40.6294     62.9876    108.6303 
  1366.5000   -143.4875      8.4727      6.3062      3.0834     12.7194      2.5062      0.1457     41.3789     64.9753    109.7071 
