~VERSION INFORMATION
 VERS.                           2.00:        CWLS LOG ASCII STANDARD - VERSION 2.00
 WRAP.                             NO:        ONE LINE PER DEPTH STEP
~WELL INFORMATION
#MNEM.UNIT                   DATA             INFORMATION
#----------             --------------        ------------------------------
 STRT.F                      990.0000:        START DEPTH
 STOP.F                     2362.0000:        STOP DEPTH
 STEP.F                        0.5000:        STEP VALUE
 NULL.                      -999.2500:        NULL VALUE
 COMP.                 U.S. AIR FORCE:        COMPANY  
 LOC .                   14  22N  18W:        LOCATION   
 DATE.                        4/21/69:        LOG DATE 
 WELL.       SOUTH BARROW GAS WELL #8:        WELL     
 UWI .                   500232000200:        UNIQUE WELL ID 
 API .                   500232000200:        UNIQUE WELL IDENTIFIER 
 FLD .                S. B. GAS FIELD:        FIELD    
 CNTY.                   POINT BARROW:        COUNTY  
 STAT.                         ALASKA:        STATE   
 CTRY.                            USA:        COUNTRY 
 OPER.                 U.S. AIR FORCE:        OPERATOR  
 SRVC.                   SCHLUMBERGER:        SERVICE COMPANY 
 LAT .                         0.0000:        LATITUDE
 LON .                         0.0000:        LONGITUDE
 DIGS.               CENTER LINE DATA:        DIGITIZING COMPANY 
~CURVE INFORMATION      
#MNEM        .UNIT         API CODE           CURVE DESCRIPTION
#-----------------      --------------        ------------------------------
 DEPT        .F                      :        1  DEPTH
 SP          .MV                     :        2  
 ASN         .OHMM                   :        3  
 ILD         .OHMM                   :        4  
 CILD        .MMHO                   :        5  
 CALI        .IN                     :        6  
 DT          .US/F                   :        7  
~PARAMETER INFORMATION       
#MNEM.UNIT                  VALUE             DESCRIPTION OF MNEMONIC
#---------             ---------------        ------------------------------
 EKB .F                       31.0000:        KELLY BUSHING
 TD  .F                     2363.0000:        TOTAL DEPTH
 BHT .F                       74.0000:        BOTTOM HOLE TEMPERATURE
 BS  .                         8.6250:        BIT SIZE
 FD  .                        10.6000:        FLUID DENSITY
 CSIZ.                         9.6250:        CASING SIZE
 CBD .F                      992.0000:        CASING DRILLER 1
 CBL .F                      990.0000:        CASING LOGGER 1
 DFT .                            Gel:        TYPE FLUID IN HOLE
 DFV .                        54.0000:        VISCOSITY
 DFPH.                        10.0000:        PH
 DFL .                         4.8000:        FLUID LOSS
 RMS .                         2.0000:        RM
 MST .F                       82.0000:        RM MEAS. TEMP.
 RMF .                         2.1800:        RMF
 MFST.F                       61.0000:        RMF MEAS. TEMP.
 RMC .                         4.1900:        RMC
 MCST.F                       53.0000:        RMC MEAS. TEMP.
~OTHER INFORMATION
~A    DEPTH          SP         ASN         ILD        CILD        CALI          DT  
# ...
  2118.0000    -30.1740     10.8429      9.6824    104.4043   -999.2500   -999.2500  
  2118.5000    -29.6451     10.9596      9.7707    103.7105   -999.2500   -999.2500  
  2119.0000    -29.3620     11.0127      9.9895    102.3062   -999.2500   -999.2500  
  2119.5000    -29.0231     10.9362     10.2084    100.5780   -999.2500   -999.2500  
  2120.0000    -29.0149     10.9791     10.4272     97.5978   -999.2500   -999.2500  
  2120.5000    -28.9278     11.1378     10.6460     94.5329   -999.2500   -999.2500  
  2121.0000    -28.8640     11.3185     10.8277     93.0087   -999.2500   -999.2500  
  2121.5000    -28.6478     11.7916     10.9167     92.0803   -999.2500   -999.2500  
  2122.0000    -28.8505     12.1124     11.0057     91.6388   -999.2500   -999.2500  
  2122.5000    -29.4037     12.3349     11.1166     91.0908   -999.2500   -999.2500  
  2123.0000    -29.7341     12.3858     11.2407     90.1640   -999.2500   -999.2500  
  2123.5000    -29.6123     12.0519     11.3647     89.8400   -999.2500   -999.2500  
  2124.0000    -29.1529     11.7248     11.0723     91.0537   -999.2500   -999.2500  
  2124.5000    -28.8180     11.5675     10.6346     95.0987   -999.2500   -999.2500  
  2125.0000    -29.0445     11.5035     10.2679     98.0964   -999.2500   -999.2500  
  2125.5000    -29.2844     11.3409     10.0782     99.9372   -999.2500   -999.2500  
  2126.0000    -29.5827     11.1931      9.8885    101.5341   -999.2500   -999.2500  
  2126.5000    -29.7491     11.0633      9.6644    103.9602   -999.2500   -999.2500  
  2127.0000    -29.7644     10.9082      9.3398    106.6485   -999.2500   -999.2500  
  2127.5000    -29.7798     10.7950      9.1730    109.3907   -999.2500   -999.2500  
  2128.0000    -29.7952     10.6502      9.1484    110.0056   -999.2500   -999.2500  
  2128.5000    -29.8216     10.3723      9.1968    109.1076   -999.2500   -999.2500  
  2129.0000    -29.8804     10.2007      9.6251    104.9843   -999.2500   -999.2500  
  2129.5000    -29.5264     10.9789      9.8903    102.3738   -999.2500   -999.2500  
  2130.0000    -28.9032     12.0052      9.9636    101.5519   -999.2500   -999.2500  
  2130.5000    -28.3787     13.4345     10.0370     99.8656   -999.2500   -999.2500  
  2131.0000    -28.5698     14.3359     10.1881     98.5699   -999.2500   -999.2500  
  2131.5000    -28.7173     14.7810     10.5825     95.8815   -999.2500   -999.2500  
  2132.0000    -28.7799     14.2423     10.8638     92.9605   -999.2500   -999.2500  
  2132.5000    -28.6591     12.9053     10.9197     91.5164   -999.2500   -999.2500  
  2133.0000    -28.6640     12.0576     10.6360     93.4745   -999.2500   -999.2500  
  2133.5000    -29.0298     11.7663     10.2694     95.9093   -999.2500   -999.2500  
  2134.0000    -29.0321     11.3718      9.9640     97.5567   -999.2500   -999.2500  
  2134.5000    -29.0419     11.0649      9.7073    101.5077   -999.2500   -999.2500  
  2135.0000    -28.9547     10.9092      9.4968    103.7461   -999.2500   -999.2500  
  2135.5000    -29.0987     10.7917      9.3987    105.3785   -999.2500   -999.2500  
  2136.0000    -29.2016     10.6827      9.3601    106.2467   -999.2500   -999.2500  
  2136.5000    -29.6589     10.5724      9.3661    106.5181   -999.2500   -999.2500  
  2137.0000    -30.1736     10.4622      9.4408    105.5798   -999.2500   -999.2500  
  2137.5000    -30.6636     10.3957      9.5334    105.1377   -999.2500   -999.2500  
  2138.0000    -31.0351     10.5385      9.6259    104.2987   -999.2500   -999.2500  
  2138.5000    -31.9996     10.6812      9.7184    103.3486   -999.2500   -999.2500  
  2139.0000    -32.4658     10.8239      9.8032    102.9201   -999.2500   -999.2500  
  2139.5000    -33.1913     10.9535      9.8043    103.1264   -999.2500   -999.2500  
  2140.0000    -33.1969     11.0245      9.8053    102.9474   -999.2500   -999.2500  
  2140.5000    -33.1882     11.0280      9.8064    102.5463   -999.2500   -999.2500  
  2141.0000    -33.0195     10.9858      9.8075    102.1452   -999.2500   -999.2500  
  2141.5000    -32.4883     10.8954      9.8086    101.7441   -999.2500   -999.2500  
  2142.0000    -31.9585     10.8333      9.8096    101.3430   -999.2500   -999.2500  
  2142.5000    -31.5336     10.8846      9.8107    100.9419   -999.2500   -999.2500  
  2143.0000    -31.0274     10.9837      9.8158    100.5408   -999.2500   -999.2500  
  2143.5000    -30.4929     11.0437      9.8315    100.2435   -999.2500   -999.2500  
  2144.0000    -29.9877     11.0726      9.8473    100.2618   -999.2500   -999.2500  
  2144.5000    -29.5064     11.0065      9.8630    100.2801   -999.2500   -999.2500  
  2145.0000    -29.4078     10.9577      9.8788    100.2983   -999.2500   -999.2500  
  2145.5000    -29.4214     10.9089      9.8945    100.3166   -999.2500   -999.2500  
  2146.0000    -29.4974     10.8264      9.9103    100.3348   -999.2500   -999.2500  
  2146.5000    -29.4956     10.7816      9.9260     99.6029   -999.2500   -999.2500  
  2147.0000    -29.3761     10.8158      9.9418     99.1865   -999.2500   -999.2500  
  2147.5000    -29.4486     10.7616      9.9575     99.3616   -999.2500   -999.2500  
  2148.0000    -29.5130     10.7045      9.9733     98.6598   -999.2500   -999.2500  
  2148.5000    -29.6985     10.6624      9.9890     99.3441   -999.2500   -999.2500  
  2149.0000    -30.0264     10.6846     10.0047     99.2834   -999.2500   -999.2500  
  2149.5000    -30.1495     10.7501     10.0205     99.0556   -999.2500   -999.2500  
  2150.0000    -30.2363     10.8552     10.0362     99.1299   -999.2500   -999.2500  
  2150.5000    -30.3912     10.9373     10.0368     99.2139   -999.2500   -999.2500  
  2151.0000    -30.6519     10.9256     10.0196     99.1450   -999.2500   -999.2500  
  2151.5000    -30.5112     10.9139     10.0024     98.8072   -999.2500   -999.2500  
  2152.0000    -30.6471     10.8802      9.9852     99.6773   -999.2500   -999.2500  
  2152.5000    -29.8200     10.8283      9.9680    100.5648   -999.2500   -999.2500  
  2153.0000    -29.6284     10.8099      9.9508    100.8458   -999.2500   -999.2500  
  2153.5000    -29.5185     10.8242      9.9336    100.8260   -999.2500   -999.2500  
  2154.0000    -29.0440     10.8541      9.9164     99.9311   -999.2500   -999.2500  
  2154.5000    -28.7223     10.8577      9.9332     99.2497   -999.2500   -999.2500  
  2155.0000    -28.2559     10.6907     10.0879     98.4125   -999.2500   -999.2500  
  2155.5000    -28.0123     10.9946     10.2426     96.3673   -999.2500   -999.2500  
  2156.0000    -28.3707     11.0608     10.6497     93.7803   -999.2500   -999.2500  
  2156.5000    -28.5823     11.0551     10.9574     93.4515   -999.2500   -999.2500  
  2157.0000    -28.8239     10.9460     10.9438     93.2587   -999.2500   -999.2500  
  2157.5000    -28.5813     10.8404     10.9301     92.9334   -999.2500   -999.2500  
  2158.0000    -28.5865     11.2805     10.9164     92.4221   -999.2500   -999.2500  
  2158.5000    -28.6335     11.8741     10.9182     91.6589   -999.2500   -999.2500  
  2159.0000    -28.4978     11.7579     10.8844     91.3859   -999.2500   -999.2500  
  2159.5000    -28.8778     11.5442     10.7140     92.7938   -999.2500   -999.2500  
  2160.0000    -29.0336     11.3780     10.4356     94.4169   -999.2500   -999.2500  
  2160.5000    -29.3266     11.1837     10.2382     96.5972   -999.2500   -999.2500  
  2161.0000    -29.4515     10.9725     10.2124     97.8143   -999.2500   -999.2500  
  2161.5000    -29.2973     10.9206     10.1831     98.6186   -999.2500   -999.2500  
  2162.0000    -29.3587     10.8836     10.1535     98.3608   -999.2500   -999.2500  
  2162.5000    -29.3383     10.8797     10.1238     98.2116   -999.2500   -999.2500  
  2163.0000    -29.0808     10.8880     10.0942     98.6825   -999.2500   -999.2500  
  2163.5000    -28.7195     10.8462     10.0646     99.1534   -999.2500   -999.2500  
  2164.0000    -28.2684     10.8450     10.0350     98.3288   -999.2500   -999.2500  
  2164.5000    -27.9394     10.9061     10.1377     96.9877   -999.2500   -999.2500  
