~VERSION INFORMATION
 VERS.                           2.00:        CWLS LOG ASCII STANDARD - VERSION 2.00
 WRAP.                             NO:        ONE LINE PER DEPTH STEP
~WELL INFORMATION
#MNEM.UNIT                   DATA             INFORMATION
#----------             --------------        ------------------------------
 STRT.F                      999.0000:        START DEPTH
 STOP.F                     2350.0000:        STOP DEPTH
 STEP.F                        0.5000:        STEP VALUE
 NULL.                      -999.2500:        NULL VALUE
 COMP.             UNITED STATES NAVY:        COMPANY  
 LOC .                   14  22N  18W:        LOCATION   
 DATE.                        3/19/68:        LOG DATE 
 WELL.                SOUTH BARROW #7:        WELL     
 UWI .                   500232000100:        UNIQUE WELL ID 
 API .                   500232000100:        UNIQUE WELL IDENTIFIER 
 FLD .                   SOUTH BARROW:        FIELD    
 CNTY.                         NPR #4:        COUNTY  
 STAT.                         ALASKA:        STATE   
 CTRY.                            USA:        COUNTRY 
 OPER.             UNITED STATES NAVY:        OPERATOR  
 SRVC.                   SCHLUMBERGER:        SERVICE COMPANY 
 LAT .                         0.0000:        LATITUDE
 LON .                         0.0000:        LONGITUDE
 DIGS.               CENTER LINE DATA:        DIGITIZING COMPANY 
~CURVE INFORMATION      
#MNEM        .UNIT         API CODE           CURVE DESCRIPTION
#-----------------      --------------        ------------------------------
 DEPT        .F                      :        1  DEPTH
 SP          .MV                     :        2  
 ILD         .OHMM                   :        3  
 ASN         .OHMM                   :        4  
 CILD        .OHMM                   :        5  
 CALI        .IN                     :        6  
 DT          .US/F                   :        7  
~PARAMETER INFORMATION       
#MNEM.UNIT                  VALUE             DESCRIPTION OF MNEMONIC
#---------             ---------------        ------------------------------
 EKB .F                       36.0000:        KELLY BUSHING
 TD  .F                     2351.0000:        TOTAL DEPTH
 BHT .F                        0.0000:        BOTTOM HOLE TEMPERATURE
 BS  .                         9.6250:        BIT SIZE
 FD  .                        76.5000:        FLUID DENSITY
 CSIZ.                        10.7500:        CASING SIZE
 CBD .F                      998.0000:        CASING DRILLER 1
 CBL .F                      999.0000:        CASING LOGGER 1
 DFT .                            Gel:        TYPE FLUID IN HOLE
 DFV .                        45.0000:        VISCOSITY
 DFPH.                         9.5000:        PH
 DFL .                         7.0000:        FLUID LOSS
 RMS .                         5.4300:        RM
 MST .F                       42.0000:        RM MEAS. TEMP.
 RMF .                         5.1700:        RMF
 MFST.F                       59.0000:        RMF MEAS. TEMP.
 RMC .                         5.0900:        RMC
 MCST.F                       56.0000:        RMC MEAS. TEMP.
~OTHER INFORMATION
~A    DEPTH          SP         ILD         ASN        CILD        CALI          DT  
# ...
  1516.0000    -42.7523     12.7005     12.5874     84.4021      9.5445    106.8357  
  1516.5000    -42.1665     12.7731     12.7827     83.9361      9.5529    106.2984  
  1517.0000    -41.3035     12.8457     12.8409     83.6130      9.5507    105.9381  
  1517.5000    -40.9476     12.9183     12.8477     83.3670      9.5556    105.9121  
  1518.0000    -40.9473     12.8286     12.8028     83.3352      9.5605    105.7415  
  1518.5000    -40.5262     12.6347     12.7022     83.6571      9.5655    105.4764  
  1519.0000    -40.2630     12.4408     12.6142     84.5635      9.5370    105.0347  
  1519.5000    -40.3175     12.2468     12.4783     85.8329      9.5222    104.2453  
  1520.0000    -40.5139     12.0529     12.3029     87.4866      9.4575    104.8855  
  1520.5000    -40.7180     11.8590     12.0555     89.0100      9.4244    105.5366  
  1521.0000    -40.7607     11.6651     11.7540     89.8274      9.4323    106.0507  
  1521.5000    -40.5310     11.4712     11.5956     90.0103      9.4348    106.4385  
  1522.0000    -40.9873     11.2773     11.5602     89.5346      9.4347    106.2886  
  1522.5000    -41.1459     11.2655     11.5901     89.6061      9.4403    105.6794  
  1523.0000    -40.8865     11.3579     11.5838     90.2203      9.4412    105.9749  
  1523.5000    -40.8145     11.4504     11.6178     90.8736      9.4447    107.7831  
  1524.0000    -41.0234     11.5428     11.7011     90.4122      9.4466    110.0088  
  1524.5000    -41.2216     11.6352     11.7770     89.4985      9.4464    111.2388  
  1525.0000    -41.2718     11.7276     11.8543     88.9027      9.4457    111.2612  
  1525.5000    -40.9989     11.8200     11.9422     87.7908      9.4512    109.6272  
  1526.0000    -40.8467     11.9124     12.0919     85.7977      9.4561    108.6598  
  1526.5000    -40.7613     12.0049     12.2200     84.7028      9.4744    108.2352  
  1527.0000    -40.9068     12.0973     12.2850     84.4303      9.5085    107.9764  
  1527.5000    -41.4453     12.1897     12.3198     84.6789      9.5596    107.7552  
  1528.0000    -42.0458     12.2682     12.3373     84.8693      9.6328    108.0190  
  1528.5000    -42.3554     12.2325     12.3522     85.1503      9.6537    108.1056  
  1529.0000    -42.6599     12.1967     12.3070     85.5034      9.6423    108.0163  
  1529.5000    -42.6537     12.1609     12.3061     86.0436      9.5325    107.5798  
  1530.0000    -42.0640     12.1008     12.2483     87.3645      9.5250    106.3901  
  1530.5000    -41.0692     11.9972     12.1118     88.6119      9.5372    105.6518  
  1531.0000    -40.1487     11.8060     11.8315     90.5378      9.5493    104.9014  
  1531.5000    -40.1031     11.4775     11.5545     93.3323      9.5591    104.3308  
  1532.0000    -40.0933     11.1491     11.0957     95.7299      9.5488    104.3223  
  1532.5000    -39.8686     10.8206     10.9241     97.4227      9.5596    105.2554  
  1533.0000    -39.5264     10.4922     10.7009     98.7780      9.6229    106.5381  
  1533.5000    -39.4156     10.2902     10.5812    100.5494      9.6441    107.8347  
  1534.0000    -39.0387     10.1924     10.4325    102.6706      9.6652    108.1746  
  1534.5000    -38.5652     10.0947     10.3566    103.6343      9.6519    108.3412  
  1535.0000    -37.7278      9.9970     10.2854    104.5318      9.5636    109.2575  
  1535.5000    -37.1228      9.8993     10.2857    105.5128      9.4635    110.0586  
  1536.0000    -37.1666      9.8016     10.1590    107.0951      9.3895    110.5751  
  1536.5000    -37.5661      9.7038     10.1091    107.7505      9.3715    111.0238  
  1537.0000    -37.8075      9.6061     10.0694    107.4380      9.4015    111.4165  
  1537.5000    -37.6523      9.5084      9.9129    108.1893      9.4320    112.1236  
  1538.0000    -37.6038      9.4187      9.8044    108.9219      9.4399    112.5073  
  1538.5000    -37.5973      9.4127      9.6872    109.5304      9.4323    112.6852  
  1539.0000    -37.2230      9.4068      9.6380    110.1733      9.4259    112.7362  
  1539.5000    -37.3226      9.4009      9.6046    110.9033      9.4281    112.8262  
  1540.0000    -37.7777      9.3949      9.5069    111.7024      9.4295    113.3580  
  1540.5000    -38.4569      9.3890      9.5681    112.3508      9.4280    114.3761  
  1541.0000    -38.7581      9.3830      9.6053    112.2555      9.4251    115.5107  
  1541.5000    -38.9407      9.3771      9.6731    111.8382      9.4169    116.1657  
  1542.0000    -39.0629      9.3875      9.7532    110.6680      9.3987    117.0117  
  1542.5000    -39.1302      9.4011      9.7992    109.3976      9.3808    117.2299  
  1543.0000    -39.5242      9.4148      9.8741    109.0572      9.3892    116.9017  
  1543.5000    -39.9591      9.4284      9.8629    109.0459      9.3780    116.5424  
  1544.0000    -39.5014      9.4421      9.8368    109.4383      9.3668    116.3518  
  1544.5000    -39.5409      9.4558      9.8552    109.7727      9.3582    116.2848  
  1545.0000    -39.2601      9.4694      9.8236    109.7980      9.3577    116.2365  
  1545.5000    -38.7319      9.4831      9.8477    109.5499      9.3608    115.9409  
  1546.0000    -38.0519      9.4967      9.8264    109.1000      9.3556    115.3625  
  1546.5000    -37.2384      9.5104      9.7964    109.3915      9.3589    114.9388  
  1547.0000    -36.9097      9.5241      9.8446    109.7034      9.3570    114.2319  
  1547.5000    -36.8800      9.5377      9.8385    109.4010      9.3497    113.3505  
  1548.0000    -37.4442      9.5514      9.9066    109.2222      9.3315    113.0807  
  1548.5000    -38.4591      9.5650      9.9811    109.3400      9.2983    113.1480  
  1549.0000    -38.5030      9.5794     10.0151    109.2448      9.2288    113.5961  
  1549.5000    -38.0068      9.5978     10.0871    108.9691      9.1683    114.5350  
  1550.0000    -37.4886      9.6161     10.1127    108.5381      9.1149    114.8472  
  1550.5000    -36.9314      9.6344     10.0873    108.1112      9.0615    115.1593  
  1551.0000    -36.5829      9.6528     10.0478    107.4942      9.1204    115.1667  
  1551.5000    -36.1438      9.6711     10.0697    106.8160      9.2405    114.6248  
  1552.0000    -35.8747      9.6895     10.1639    106.3300      9.3925    112.6482  
  1552.5000    -35.8377      9.7078     10.2418    105.8072      9.4109    110.5905  
  1553.0000    -36.0994      9.7262     10.3936    105.9423      9.3084    110.0561  
  1553.5000    -36.7552      9.7445     10.3846    105.6889      9.3430    110.3448  
  1554.0000    -37.4081      9.7629     10.2972    105.9477      9.4862    111.1794  
  1554.5000    -37.8978      9.7812     10.2859    105.8909      9.5998    112.1580  
  1555.0000    -38.0664      9.7995     10.2252    105.3766      9.6670    112.5978  
  1555.5000    -38.1107      9.8122     10.2190    105.3601      9.7207    112.5839  
  1556.0000    -37.9344      9.7968     10.0937    106.2848      9.7202    112.2254  
  1556.5000    -37.6533      9.7234      9.9956    107.5726      9.7197    112.1042  
  1557.0000    -37.5758      9.6360     10.0145    108.8684      9.7192    112.8659  
  1557.5000    -37.3058      9.5487     10.0333    110.3406      9.7188    114.0659  
  1558.0000    -36.9884      9.4613     10.0522    112.0087      9.7007    115.6954  
  1558.5000    -37.5422      9.3739     10.0710    113.3002      9.6547    116.3650  
  1559.0000    -38.0264      9.2866      9.6072    114.3949      9.6088    116.2834  
  1559.5000    -38.2580      9.1992      9.8404    115.0132      9.5791    115.8962  
  1560.0000    -39.0925      9.1527      9.7009    114.7207      9.5564    115.6637  
  1560.5000    -40.2189      9.2344      9.6909    113.2012      9.5337    115.9225  
  1561.0000    -41.2196      9.4204      9.8258    110.2142      9.5125    116.3881  
  1561.5000    -41.7175      9.7916      9.9092    106.6050      9.5021    116.8641  
  1562.0000    -41.4868     10.1628     10.6092    103.1068      9.5066    117.6954  
  1562.5000    -40.6200     10.5341     11.7968    100.0718      9.5337    118.5419  
