~VERSION INFORMATION
 VERS.                           2.00:        CWLS LOG ASCII STANDARD - VERSION 2.00
 WRAP.                             NO:        ONE LINE PER DEPTH STEP
~WELL INFORMATION
#MNEM.UNIT                   DATA             INFORMATION
#----------             --------------        ------------------------------
 STRT.F                       75.0000:        START DEPTH
 STOP.F                     2534.0000:        STOP DEPTH
 STEP.F                        0.5000:        STEP VALUE
 NULL.                      -999.2500:        NULL VALUE
 COMP.                      HUSKY OIL:        COMPANY  
 LOC .                   14  22N  18W:        LOCATION   
 DATE.                       12/20/76:        LOG DATE 
 WELL.               SOUTH BARROW #13:        WELL     
 UWI .                   500232000800:        UNIQUE WELL ID 
 API .                   500232000800:        UNIQUE WELL IDENTIFIER 
 FLD .                   SOUTH BARROW:        FIELD    
 CNTY.                    NORTH SLOPE:        COUNTY  
 STAT.                         ALASKA:        STATE   
 CTRY.                            USA:        COUNTRY 
 OPER.                      HUSKY OIL:        OPERATOR  
 SRVC.                   SCHLUMBERGER:        SERVICE COMPANY 
 LAT .                         0.0000:        LATITUDE
 LON .                         0.0000:        LONGITUDE
 DIGS.               CENTER LINE DATA:        DIGITIZING COMPANY 
~CURVE INFORMATION      
#MNEM        .UNIT         API CODE           CURVE DESCRIPTION
#-----------------      --------------        ------------------------------
 DEPT        .F                      :        1  DEPTH
 SP          .MV                     :        2  
 ILD         .OHMM                   :        3  
 LL8         .OHMM                   :        4  
 CILD        .MMHO                   :        5  
 ILM         .OHMM                   :        6  
 GR          .GAPI                   :        7  
 CALI        .IN                     :        8  
 DRHO        .G/C3                   :        9  
 RHOB        .G/C3                   :        10 
 NPHI        .%                      :        11 
 DPHI        .%                      :        12 
 DT          .US/F                   :        13 
~PARAMETER INFORMATION       
#MNEM.UNIT                  VALUE             DESCRIPTION OF MNEMONIC
#---------             ---------------        ------------------------------
 EKB .F                       40.0000:        KELLY BUSHING
 TD  .F                     1139.0000:        TOTAL DEPTH
 BHT .F                        0.0000:        BOTTOM HOLE TEMPERATURE
 BS  .                        14.7500:        BIT SIZE
 FD  .                        10.3000:        FLUID DENSITY
 CSIZ.                        20.0000:        CASING SIZE
 CBD .F                       65.0000:        CASING DRILLER 1
 CBL .F                       75.0000:        CASING LOGGER 1
 DFT .                  Miscellaneous:        TYPE FLUID IN HOLE
 DFV .                        34.0000:        VISCOSITY
 DFPH.                         8.5000:        PH
 DFL .                        10.2000:        FLUID LOSS
 RMS .                         5.3200:        RM
 MST .F                       55.0000:        RM MEAS. TEMP.
 RMF .                         3.8000:        RMF
 MFST.F                       55.0000:        RMF MEAS. TEMP.
 RMC .                         6.0000:        RMC
 MCST.F                       55.0000:        RMC MEAS. TEMP.
~OTHER INFORMATION
~A    DEPTH          SP         ILD         LL8        CILD         ILM          GR        CALI        DRHO        RHOB        NPHI        DPHI          DT  
# ...
  2395.5000    -25.8663     18.7228     31.1625   -999.2500     21.5309     27.6782      8.6114      0.0190      2.5551     19.4574     -0.8107     77.6128  
  2396.0000    -24.7161     19.3952     35.8475   -999.2500     20.5588     28.5589      8.7143     -0.0086      2.6110     19.6665     -0.8439     78.5905  
  2396.5000    -24.6443     19.3058     29.7262   -999.2500     20.2538     29.4396      8.8171      0.0074      2.6700     19.8544      5.6950     81.3465  
  2397.0000    -25.0425     18.9816     22.5571   -999.2500     19.9664     30.3203      8.9199      0.0292      2.6489     19.9425      8.9247     83.3548  
  2397.5000    -24.9620     18.6628     22.4666   -999.2500     19.6829     31.3435      9.0227      0.0513      2.5513     20.1765      8.1624     83.0653  
  2398.0000    -24.2998     18.3494     22.4540   -999.2500     19.4036     32.4516      9.1255      0.0432      2.4994     20.9080      6.5782     82.7326  
  2398.5000    -23.4071     18.0412     22.0011   -999.2500     19.1281     32.8935      9.1356      0.0352      2.5275     20.9366      6.3684     82.0020  
  2399.0000    -23.1121     17.7382     21.6908   -999.2500     18.9368     31.9162      9.1031      0.0272      2.5502     20.5473      7.0855     80.9179  
  2399.5000    -23.6073     17.4403     21.7588   -999.2500     19.2544     30.7317      9.0497      0.0200      2.5495     19.9375      7.3999     80.3357  
  2400.0000    -23.6470     17.1474     22.8178   -999.2500     19.5773     29.5472      8.9584      0.0156      2.5387     19.2624      8.0128     78.8948  
  2400.5000    -23.7431     17.4796     24.2428   -999.2500     19.9056     28.3627      8.8671      0.0115      2.5325     18.8484      7.6354     76.9307  
  2401.0000    -25.2996     17.8777     28.6930   -999.2500     20.2431     27.1782      8.7758      0.0077      2.5239     18.5724      4.7611     76.4534  
  2401.5000    -26.9897     18.2849     30.6459   -999.2500     20.6447     27.4416      8.6845      0.0069      2.5447     18.3610      2.4381     76.2237  
  2402.0000    -27.8570     18.7013     29.8582   -999.2500     21.0543     27.8670      8.6159      0.0113      2.5790     18.1460      2.4382     75.2198  
  2402.5000    -27.5824     19.1272     27.5764   -999.2500     21.4721     28.2924      8.6428      0.0777      2.6203     18.1105      2.9577     77.2777  
  2403.0000    -27.5983     19.5629     29.5992   -999.2500     21.5230     28.7178      8.6697      0.0597      2.6108     18.7151      0.2741     77.4956  
  2403.5000    -28.0795     20.0084     35.2719   -999.2500     20.9306     28.7698      8.6965      0.0182      2.6179     19.4625     -0.6436     79.9301  
  2404.0000    -27.9245     19.6566     27.6211   -999.2500     20.3544     28.6881      8.7234      0.0009      2.6497     19.9511     -0.4509     86.8798  
  2404.5000    -27.6971     19.2570     22.1562   -999.2500     19.7941     28.6063      8.7503      0.0387      2.6567     20.3278      3.1069     88.3755  
  2405.0000    -27.9621     18.8655     22.0935   -999.2500     19.2492     28.5246      8.7772      0.1003      2.6377     20.5681      2.6523     88.6744  
  2405.5000    -28.3496     18.4820     21.8766   -999.2500     18.7193     28.5348      8.8191      0.1140      2.6016     20.7652      4.0226     90.3558  
  2406.0000    -28.8747     18.1063     20.3146   -999.2500     18.2040     29.0188      8.8619      0.1276      2.6019     20.6320      5.6686     94.3626  
  2406.5000    -29.2185     17.6475     19.9411   -999.2500     18.1710     29.5027      8.9047      0.0299      2.5775     20.2495      5.5565     97.7839  
  2407.0000    -29.1021     17.1772     21.7545   -999.2500     19.1452     29.7030      8.9475      0.0090      2.5649     20.2801      4.3688     93.4700  
  2407.5000    -28.8519     16.7195     23.4845   -999.2500     20.1717     29.6831      8.9903     -0.0089      2.5697     20.5352      1.9886     87.6499  
  2408.0000    -29.3614     16.7469     23.4769   -999.2500     19.1476     30.0281      9.0331      0.0156      2.5865     21.5330      2.8906     87.3223  
  2408.5000    -29.8048     17.0263     22.0781   -999.2500     17.9442     30.3977      9.0683      0.0524      2.6237     22.5656      6.1097     89.8672  
  2409.0000    -29.7818     17.3104     20.4276   -999.2500     17.3212     30.1728      9.0643      0.0946      2.5947     23.4816      5.7755     92.8411  
  2409.5000    -29.7585     16.8384     18.9749   -999.2500     17.2298     30.4171      9.0603      0.0658      2.5624     23.7320      5.7770     94.3510  
  2410.0000    -30.0914     16.3206     18.0068   -999.2500     17.1388     30.7823      9.0293      0.0609      2.5617     23.3609      6.5967     95.7115  
  2410.5000    -30.7605     15.8187     17.0881   -999.2500     17.0484     30.3016      8.9877      0.0561      2.5585     22.9484      6.3217     97.7114  
  2411.0000    -31.3294     15.3322     17.7844   -999.2500     16.9584     29.8791      8.9462      0.0703      2.5547     22.5144      8.1834     99.3887  
  2411.5000    -31.9944     14.9809     18.2816   -999.2500     16.8693     28.6815      8.9450      0.0900      2.5463     22.1327      8.7382     99.8228  
  2412.0000    -32.2522     14.8274     17.7391   -999.2500     16.7852     29.3502      8.9612      0.0776      2.5254     22.0252      8.9476     99.5205  
  2412.5000    -31.8784     14.8595     17.2565   -999.2500     16.7016     30.4954      8.9744      0.0778      2.5084     22.7915      5.9573     98.2575  
  2413.0000    -30.7824     15.1670     16.9977   -999.2500     16.4463     30.7548      8.9855      0.0858      2.5255     23.1887      3.6343     97.1639  
  2413.5000    -29.8431     15.1449     16.7238   -999.2500     16.1377     31.4470      8.9966      0.1019      2.5654     23.2988      2.9684     94.5161  
  2414.0000    -29.7158     15.0137     16.4542   -999.2500     15.8350     33.1073      9.0042      0.1290      2.6102     22.9534      4.8854     90.7648  
  2414.5000    -29.6609     14.8837     17.2982   -999.2500     15.5379     34.5274      9.0089      0.0825      2.5926     23.2173      5.6602     87.9752  
  2415.0000    -29.2278     14.7549     18.4752   -999.2500     15.2464     35.0004      9.0135      0.0574      2.5675     23.7152      5.6359     87.5433  
  2415.5000    -28.8787     14.6271     18.5782   -999.2500     14.9604     35.2954      9.0182      0.0611      2.5661     24.4257      7.0653     88.5797  
  2416.0000    -28.8125     14.5005     16.9361   -999.2500     14.8420     35.7454      9.0258      0.0647      2.5557     24.4466      6.9726     91.1506  
  2416.5000    -29.3949     14.3749     16.4638   -999.2500     14.7943     36.3537      9.0661      0.0688      2.5447     24.1404      6.1566     93.1430  
  2417.0000    -29.6113     14.2505     16.6936   -999.2500     14.7468     37.3070      9.0714      0.0790      2.5474     23.9264      7.0796     93.6440  
  2417.5000    -29.4989     14.1271     16.8381   -999.2500     14.6994     38.5022      9.0497      0.0867      2.5485     23.7804      7.8977     92.9172  
  2418.0000    -29.3151     14.0048     16.8749   -999.2500     14.6521     38.6789      9.0372      0.0713      2.5375     23.8322      7.5066     92.1198  
  2418.5000    -29.2368     13.8835     16.7630   -999.2500     14.6051     38.0456      9.0603      0.0576      2.5290     23.5961      7.0791     91.9903  
  2419.0000    -29.0324     13.7633     16.4057   -999.2500     14.5581     37.5322      9.0341      0.0603      2.5345     23.1138      5.3823     90.8849  
  2419.5000    -28.8283     13.6441     16.6869   -999.2500     14.5114     37.9075      9.0330      0.0618      2.5430     22.4777      6.0085     90.6194  
  2420.0000    -28.3628     13.5499     17.5285   -999.2500     14.4647     38.6593      9.0426      0.0837      2.5514     22.3596      6.8160     90.6252  
  2420.5000    -27.9776     13.6215     17.9552   -999.2500     14.4182     39.4552      9.0326      0.0660      2.5570     22.5344      5.5082     90.7054  
