~VERSION INFORMATION
 VERS.                           2.00:        CWLS LOG ASCII STANDARD - VERSION 2.00
 WRAP.                             NO:        ONE LINE PER DEPTH STEP
~WELL INFORMATION
#MNEM.UNIT                   DATA             INFORMATION
#----------             --------------        ------------------------------
 STRT.F                      990.0000:        START DEPTH
 STOP.F                     2362.0000:        STOP DEPTH
 STEP.F                        0.5000:        STEP VALUE
 NULL.                      -999.2500:        NULL VALUE
 COMP.                 U.S. AIR FORCE:        COMPANY  
 LOC .                   14  22N  18W:        LOCATION   
 DATE.                        4/21/69:        LOG DATE 
 WELL.       SOUTH BARROW GAS WELL #8:        WELL     
 UWI .                   500232000200:        UNIQUE WELL ID 
 API .                   500232000200:        UNIQUE WELL IDENTIFIER 
 FLD .                S. B. GAS FIELD:        FIELD    
 CNTY.                   POINT BARROW:        COUNTY  
 STAT.                         ALASKA:        STATE   
 CTRY.                            USA:        COUNTRY 
 OPER.                 U.S. AIR FORCE:        OPERATOR  
 SRVC.                   SCHLUMBERGER:        SERVICE COMPANY 
 LAT .                         0.0000:        LATITUDE
 LON .                         0.0000:        LONGITUDE
 DIGS.               CENTER LINE DATA:        DIGITIZING COMPANY 
~CURVE INFORMATION      
#MNEM        .UNIT         API CODE           CURVE DESCRIPTION
#-----------------      --------------        ------------------------------
 DEPT        .F                      :        1  DEPTH
 SP          .MV                     :        2  
 ASN         .OHMM                   :        3  
 ILD         .OHMM                   :        4  
 CILD        .MMHO                   :        5  
 CALI        .IN                     :        6  
 DT          .US/F                   :        7  
~PARAMETER INFORMATION       
#MNEM.UNIT                  VALUE             DESCRIPTION OF MNEMONIC
#---------             ---------------        ------------------------------
 EKB .F                       31.0000:        KELLY BUSHING
 TD  .F                     2363.0000:        TOTAL DEPTH
 BHT .F                       74.0000:        BOTTOM HOLE TEMPERATURE
 BS  .                         8.6250:        BIT SIZE
 FD  .                        10.6000:        FLUID DENSITY
 CSIZ.                         9.6250:        CASING SIZE
 CBD .F                      992.0000:        CASING DRILLER 1
 CBL .F                      990.0000:        CASING LOGGER 1
 DFT .                            Gel:        TYPE FLUID IN HOLE
 DFV .                        54.0000:        VISCOSITY
 DFPH.                        10.0000:        PH
 DFL .                         4.8000:        FLUID LOSS
 RMS .                         2.0000:        RM
 MST .F                       82.0000:        RM MEAS. TEMP.
 RMF .                         2.1800:        RMF
 MFST.F                       61.0000:        RMF MEAS. TEMP.
 RMC .                         4.1900:        RMC
 MCST.F                       53.0000:        RMC MEAS. TEMP.
~OTHER INFORMATION
~A    DEPTH          SP         ASN         ILD        CILD        CALI          DT  
# ...
  1695.0000    -41.2526     10.1386      9.7550    100.9408   -999.2500   -999.2500  
  1695.5000    -41.3340     10.1509      9.8010    100.6705   -999.2500   -999.2500  
  1696.0000    -41.8751     10.0841      9.8471    100.9894   -999.2500   -999.2500  
  1696.5000    -42.3696      9.9596      9.8373    101.8968   -999.2500   -999.2500  
  1697.0000    -41.8097      9.8980      9.7222    103.5956   -999.2500   -999.2500  
  1697.5000    -41.4254      9.5620      9.6071    104.7883   -999.2500   -999.2500  
  1698.0000    -41.8789      9.7670      9.4920    105.4386   -999.2500   -999.2500  
  1698.5000    -42.4612      9.9719      9.3769    105.8913   -999.2500   -999.2500  
  1699.0000    -40.2979      9.7750      9.3588    106.4575   -999.2500   -999.2500  
  1699.5000    -39.0659      9.7606      9.4172    106.5374   -999.2500   -999.2500  
  1700.0000    -38.0562      9.9202      9.4756    106.3495   -999.2500   -999.2500  
  1700.5000    -37.8937      9.7087      9.5340    106.0670   -999.2500   -999.2500  
  1701.0000    -37.8441      9.4972      9.6719    104.7212   -999.2500   -999.2500  
  1701.5000    -37.2913      9.7458      9.8198    103.3665   -999.2500   -999.2500  
  1702.0000    -37.9304      9.9943      9.9676    102.2187   -999.2500   -999.2500  
  1702.5000    -38.3771     10.1919     10.0527    101.0503   -999.2500   -999.2500  
  1703.0000    -38.8700     10.3862     10.0308    100.8483   -999.2500   -999.2500  
  1703.5000    -39.7480     10.5806     10.0088    100.6591   -999.2500   -999.2500  
  1704.0000    -41.0762     10.7749      9.9868    100.7156   -999.2500   -999.2500  
  1704.5000    -41.3139     10.2613      9.9648    100.9674   -999.2500   -999.2500  
  1705.0000    -41.2185     10.0791      9.9428    101.4736   -999.2500   -999.2500  
  1705.5000    -42.0913     10.0140      9.9208    102.2327   -999.2500   -999.2500  
  1706.0000    -44.1597      9.7993      9.7863    103.0240   -999.2500   -999.2500  
  1706.5000    -44.6180      9.8336      9.6364    102.9684   -999.2500   -999.2500  
  1707.0000    -43.0741      9.8680      9.4865    103.8967   -999.2500   -999.2500  
  1707.5000    -42.9643      9.7806      9.3366    105.3667   -999.2500   -999.2500  
  1708.0000    -43.0369      9.7991      9.1867    108.3333   -999.2500   -999.2500  
  1708.5000    -43.1169      9.9153      8.9855    110.8789   -999.2500   -999.2500  
  1709.0000    -43.5485      9.8982      8.7693    113.6191   -999.2500   -999.2500  
  1709.5000    -44.8074      9.8002      8.5531    115.9656   -999.2500   -999.2500  
  1710.0000    -45.4971      9.7854      8.3369    118.2957   -999.2500   -999.2500  
  1710.5000    -48.6967     10.0383      8.1516    120.7044   -999.2500   -999.2500  
  1711.0000    -55.2292     10.3280      8.0037    123.3725   -999.2500   -999.2500  
  1711.5000    -59.7216     10.6024      7.8525    125.4751   -999.2500   -999.2500  
  1712.0000    -61.4259     10.1842      7.8237    126.7066   -999.2500   -999.2500  
  1712.5000    -60.1333      9.5927      7.8188    126.7699   -999.2500   -999.2500  
  1713.0000    -57.4334      9.5838      7.9315    125.7960   -999.2500   -999.2500  
  1713.5000    -52.5023      9.2871      8.1155    123.7806   -999.2500   -999.2500  
  1714.0000    -46.5016      9.3629      8.5815    118.1386   -999.2500   -999.2500  
  1714.5000    -44.7080      9.8734      9.0952    111.2768   -999.2500   -999.2500  
  1715.0000    -47.4137     10.3838      9.5872    105.0308   -999.2500   -999.2500  
  1715.5000    -52.0207     10.9019     10.0415    100.4350   -999.2500   -999.2500  
  1716.0000    -51.2533     11.4673     10.2249     97.7170   -999.2500   -999.2500  
  1716.5000    -46.7328     11.8149     10.4678     94.9394   -999.2500   -999.2500  
  1717.0000    -41.5879     12.1717     10.8990     91.1478   -999.2500   -999.2500  
  1717.5000    -39.9368     12.3711     11.3303     87.3562   -999.2500   -999.2500  
  1718.0000    -39.6944     12.3364     11.7615     83.0045   -999.2500   -999.2500  
  1718.5000    -41.2894     12.3017     12.1927     80.0417   -999.2500   -999.2500  
  1719.0000    -44.1031     12.3957     12.3948     79.2349   -999.2500   -999.2500  
  1719.5000    -45.7086     12.6137     12.2342     79.3981   -999.2500   -999.2500  
  1720.0000    -45.4395     13.0768     12.0151     81.4242   -999.2500   -999.2500  
  1720.5000    -44.8363     13.4196     11.7335     83.8880   -999.2500   -999.2500  
  1721.0000    -44.0762     13.0558     11.4519     85.3884   -999.2500   -999.2500  
  1721.5000    -41.8507     12.1238     11.1990     86.1286   -999.2500   -999.2500  
  1722.0000    -40.8390     11.6894     11.0427     85.6819   -999.2500   -999.2500  
  1722.5000    -40.0471     11.3878     10.8865     85.1955   -999.2500   -999.2500  
  1723.0000    -38.9101     10.9874     10.7302     86.9228   -999.2500   -999.2500  
  1723.5000    -38.4583     10.9074     10.6398     89.4993   -999.2500   -999.2500  
  1724.0000    -38.3195     11.1526     10.7597     91.2670   -999.2500   -999.2500  
  1724.5000    -38.4922     11.4601     10.8795     91.7552   -999.2500   -999.2500  
  1725.0000    -39.3085     11.7676     10.9858     90.9417   -999.2500   -999.2500  
  1725.5000    -40.5546     11.5366     11.0806     89.2299   -999.2500   -999.2500  
  1726.0000    -42.1590     11.2824     11.1706     87.8933   -999.2500   -999.2500  
  1726.5000    -42.1014     11.1811     11.2101     87.0989   -999.2500   -999.2500  
  1727.0000    -41.1138     11.0196     11.2496     87.5213   -999.2500   -999.2500  
  1727.5000    -40.2938     10.8921     11.2891     87.5910   -999.2500   -999.2500  
  1728.0000    -40.2703     10.8937     11.3286     87.7051   -999.2500   -999.2500  
  1728.5000    -40.3511     10.9635     11.3680     87.4908   -999.2500   -999.2500  
  1729.0000    -40.5787     11.0886     11.4075     86.4042   -999.2500   -999.2500  
  1729.5000    -40.7803     11.2298     11.4776     85.0370   -999.2500   -999.2500  
  1730.0000    -41.0581     11.4112     11.6191     83.1878   -999.2500   -999.2500  
  1730.5000    -41.1374     11.6908     11.7606     81.5875   -999.2500   -999.2500  
  1731.0000    -41.9348     11.8964     11.9021     80.9314   -999.2500   -999.2500  
  1731.5000    -42.3521     12.0164     12.0436     80.5750   -999.2500   -999.2500  
  1732.0000    -42.9908     12.1534     12.1139     80.7727   -999.2500   -999.2500  
  1732.5000    -44.5673     12.3110     12.0629     81.0429   -999.2500   -999.2500  
  1733.0000    -48.1165     12.6249     12.0119     81.3492   -999.2500   -999.2500  
  1733.5000    -53.1801     13.0524     11.9608     81.6555   -999.2500   -999.2500  
  1734.0000    -56.9578     13.3494     11.9098     81.9618   -999.2500   -999.2500  
  1734.5000    -58.2399     13.6164     11.8766     82.1939   -999.2500   -999.2500  
  1735.0000    -58.8596     13.7937     11.8937     82.3757   -999.2500   -999.2500  
  1735.5000    -58.5671     13.7282     11.9009     82.6686   -999.2500   -999.2500  
  1736.0000    -57.5130     13.3814     11.9267     82.5322   -999.2500   -999.2500  
  1736.5000    -54.7039     12.8978     11.9663     82.2361   -999.2500   -999.2500  
  1737.0000    -50.0321     12.2692     11.9838     82.4080   -999.2500   -999.2500  
  1737.5000    -47.1478     11.9113     11.9816     82.5799   -999.2500   -999.2500  
  1738.0000    -44.4307     11.7423     11.9794     82.7511   -999.2500   -999.2500  
  1738.5000    -42.8854     11.5915     11.9771     82.5244   -999.2500   -999.2500  
  1739.0000    -41.9621     11.3063     12.0119     82.0407   -999.2500   -999.2500  
  1739.5000    -41.1420     11.2349     12.0805     81.0807   -999.2500   -999.2500  
  1740.0000    -40.8741     11.4518     12.1401     80.8515   -999.2500   -999.2500  
  1740.5000    -40.7045     11.7960     12.1961     80.7087   -999.2500   -999.2500  
  1741.0000    -40.2938     11.9915     12.2522     80.3727   -999.2500   -999.2500  
  1741.5000    -40.2091     12.1923     12.3350     79.7962   -999.2500   -999.2500  
