~VERSION INFORMATION
 VERS.                           2.00:        CWLS LOG ASCII STANDARD - VERSION 2.00
 WRAP.                             NO:        ONE LINE PER DEPTH STEP
~WELL INFORMATION
#MNEM.UNIT                   DATA             INFORMATION
#----------             --------------        ------------------------------
 STRT.F                     1088.0000:        START DEPTH
 STOP.F                     2449.0000:        STOP DEPTH
 STEP.F                        0.5000:        STEP VALUE
 NULL.                      -999.2500:        NULL VALUE
 COMP.             UNITED STATES NAVY:        COMPANY  
 LOC .                   11  22N  18W:        LOCATION   
 DATE.                         4/7/70:        LOG DATE 
 WELL.                    GAS WELL #9:        WELL     
 UWI .                   500232000300:        UNIQUE WELL ID 
 API .                   500232000300:        UNIQUE WELL IDENTIFIER 
 FLD .                   SOUTH BARROW:        FIELD    
 CNTY.                   POINT BARROW:        COUNTY  
 STAT.                         ALASKA:        STATE   
 CTRY.                            USA:        COUNTRY 
 OPER.             UNITED STATES NAVY:        OPERATOR  
 SRVC.                   SCHLUMBERGER:        SERVICE COMPANY 
 LAT .                         0.0000:        LATITUDE
 LON .                         0.0000:        LONGITUDE
 DIGS.               CENTER LINE DATA:        DIGITIZING COMPANY 
~CURVE INFORMATION      
#MNEM        .UNIT         API CODE           CURVE DESCRIPTION
#-----------------      --------------        ------------------------------
 DEPT        .F                      :        1  DEPTH
 SP          .MV                     :        2  
 ASN         .OHMM                   :        3  
 ILD         .OHMM                   :        4  
 CILD        .MMHO                   :        5  
 CALI        .IN                     :        6  
 GR          .GAPI                   :        7  
 DRHO        .G/C3                   :        8  
 RHOB        .G/C3                   :        9  
 DT          .US/F                   :        10 
~PARAMETER INFORMATION       
#MNEM.UNIT                  VALUE             DESCRIPTION OF MNEMONIC
#---------             ---------------        ------------------------------
 EKB .F                       29.0000:        KELLY BUSHING
 TD  .F                     2450.0000:        TOTAL DEPTH
 BHT .F                       75.0000:        BOTTOM HOLE TEMPERATURE
 BS  .                         8.6250:        BIT SIZE
 FD  .                        10.7000:        FLUID DENSITY
 CSIZ.                         9.6250:        CASING SIZE
 CBD .F                     1100.0000:        CASING DRILLER 1
 CBL .F                     1102.0000:        CASING LOGGER 1
 DFT .                            Gel:        TYPE FLUID IN HOLE
 DFV .                        45.0000:        VISCOSITY
 DFPH.                         8.8000:        PH
 DFL .                         3.8000:        FLUID LOSS
 RMS .                         2.7500:        RM
 MST .F                       60.0000:        RM MEAS. TEMP.
 RMF .                         2.3600:        RMF
 MFST.F                       60.0000:        RMF MEAS. TEMP.
 RMC .                         3.7800:        RMC
 MCST.F                       60.0000:        RMC MEAS. TEMP.
~OTHER INFORMATION
~A    DEPTH          SP         ASN         ILD        CILD        CALI          GR        DRHO        RHOB          DT  
# ...
  1253.0000    -27.6597     10.6903      9.7445    101.8491      9.9326     73.1540      0.0753      2.4945    114.0479  
  1253.5000    -27.4474     10.6851      9.7057    101.9614      9.9100     71.5258      0.0468      2.4642    113.2824  
  1254.0000    -26.9384     10.6799      9.6669    102.1089      9.9320     69.2643      0.0458      2.4526    112.5266  
  1254.5000    -26.6998     10.6747      9.6281    102.1645      9.9608     67.4604      0.0620      2.4662    111.6057  
  1255.0000    -26.8530     10.6695      9.5914    102.2200      9.9802     68.0284      0.0682      2.4767    111.3413  
  1255.5000    -26.7146     10.6643      9.5549    102.6725      9.9700     68.0785      0.0737      2.4841    112.3105  
  1256.0000    -26.1589     10.6591      9.5184    103.1517      9.9598     68.9357      0.0673      2.4651    112.8399  
  1256.5000    -25.7697     10.6539      9.4819    103.3500      9.9496     70.8523      0.0587      2.4587    113.4996  
  1257.0000    -25.8222     10.6453      9.4454    103.3000      9.9394     73.8317      0.0519      2.4518    114.1592  
  1257.5000    -25.9145     10.6195      9.4089    103.2500      9.9223     74.4412      0.0334      2.4300    114.5266  
  1258.0000    -25.5631     10.5936      9.3724    103.2319      9.9151     71.4590      0.0194      2.4149    114.8838  
  1258.5000    -25.1419     10.5678      9.3359    103.2449      9.9327     71.5832      0.0109      2.4107    114.9900  
  1259.0000    -24.8923     10.5420      9.2794    103.7502      9.9961     72.2550      0.0212      2.4151    114.3851  
  1259.5000    -25.5371     10.7558      9.2573    104.1128     10.0403     73.6429      0.0349      2.4340    113.2220  
  1260.0000    -26.1409     10.8105      9.3361    103.9885     10.0799     75.5025      0.0295      2.4327    112.3902  
  1260.5000    -25.5914     10.6986      9.4267    102.4442     10.0525     74.5858      0.0340      2.4417    112.0837  
  1261.0000    -25.0642     10.5831      9.5173    101.4700     10.0853     72.0170      0.0305      2.4338    111.9195  
  1261.5000    -24.7850     10.5979      9.6079    100.4755     10.1307     70.9603      0.0301      2.4368    112.1255  
  1262.0000    -25.3606     10.6624      9.6985     99.9139     10.1615     72.5204      0.0476      2.4510    112.4579  
  1262.5000    -25.9426     10.9936      9.7890     98.9035     10.0238     72.5016      0.0499      2.4574    112.2935  
  1263.0000    -25.5982     11.2446      9.9157     98.2594     10.0799     71.4234      0.0535      2.4659    111.2321  
  1263.5000    -25.4195     11.4838     10.0643     97.3642     10.1207     71.1766      0.0491      2.4637    110.0328  
  1264.0000    -24.7650     11.6237     10.2128     95.7063     10.0568     71.5802      0.0377      2.4553    109.3291  
  1264.5000    -23.7130     11.5035     10.3613     94.1263      9.9943     71.6562      0.0501      2.4585    109.2269  
  1265.0000    -22.7456     11.5447     10.5108     93.0226      9.9427     71.3108      0.0620      2.4596    109.2021  
  1265.5000    -22.6257     11.7132     10.6610     92.1227      9.8608     71.4297      0.0405      2.4395    108.8563  
  1266.0000    -23.7619     12.0464     10.8038     91.3584      9.8581     72.5941      0.0389      2.4471    108.1115  
  1266.5000    -24.8339     12.1923     10.8641     90.7324      9.8522     70.5069      0.0499      2.4673    107.7130  
  1267.0000    -24.6721     12.1577     10.9072     90.7273      9.8633     66.7227      0.0693      2.4838    107.7461  
  1267.5000    -24.2865     12.1494     10.8064     91.2296      9.8966     65.5322      0.0998      2.5197    107.8518  
  1268.0000    -24.5487     12.1707     10.7443     91.8764      9.8669     66.8879      0.0840      2.5076    107.6178  
  1268.5000    -25.0284     12.1111     10.6901     92.4013      9.8812     69.2995      0.0645      2.4865    107.4016  
  1269.0000    -25.2866     11.8994     10.7265     91.6501      9.9007     66.8131      0.0473      2.4700    107.7014  
  1269.5000    -25.4484     11.5624     10.9161     90.8073      9.9318     66.1359      0.0466      2.4605    108.9614  
  1270.0000    -26.0830     11.4226     11.0438     89.6766      9.8916     66.7475      0.0539      2.4671    110.0250  
  1270.5000    -26.8923     11.4996     11.1714     88.7821      9.9076     68.5767      0.0470      2.4602    110.5322  
  1271.0000    -27.1513     12.1559     11.2991     88.4174      9.8864     70.2988      0.0396      2.4535    109.7060  
  1271.5000    -26.6932     12.5487     11.3240     87.9107      9.9059     69.5927      0.0468      2.4560    107.4331  
  1272.0000    -26.1323     12.8066     11.3816     87.1491      9.9174     69.7149      0.0305      2.4488    105.4737  
  1272.5000    -25.8095     12.8194     11.4392     86.4673     10.0428     68.0411      0.0265      2.4441    103.9633  
  1273.0000    -25.6510     12.5957     11.4968     86.3501     10.1373     66.4015      0.0408      2.4772    103.9990  
  1273.5000    -25.4089     12.3655     11.4934     86.9507     10.1728     64.6207      0.0427      2.4833    105.3462  
  1274.0000    -25.2073     12.1857     11.2369     88.3396     10.1084     66.1888      0.0460      2.4850    107.2532  
  1274.5000    -25.1194     12.0059     10.9803     90.0792     10.0180     68.2582      0.0552      2.4852    109.0861  
  1275.0000    -25.3507     11.8260     10.7369     92.1269      9.9163     68.1019      0.0749      2.4870    109.8986  
  1275.5000    -25.4972     11.6627     10.3913     94.5442      9.9490     66.4659      0.0549      2.4704    109.9104  
  1276.0000    -26.0367     11.5611     10.1460     96.3331     10.0030     64.7160      0.0485      2.4641    109.7128  
  1276.5000    -26.9565     11.4997      9.9119     98.1219     10.0133     65.7335      0.0644      2.4885    109.5151  
  1277.0000    -27.1461     11.3879      9.7327     99.8110      9.9675     67.3878      0.0737      2.4886    109.9947  
  1277.5000    -27.5632     11.1936      9.5995    101.3775      9.9511     67.1603      0.0524      2.4715    110.8389  
  1278.0000    -27.6273     10.9606      9.3394    103.7260      9.9347     67.6959      0.0567      2.4732    111.9175  
  1278.5000    -26.8967     10.7216      9.3042    105.0989      9.9183     68.9992      0.0520      2.4764    112.6952  
  1279.0000    -26.4834     10.4826      9.1250    106.7516      9.9426     69.8838      0.0394      2.4560    113.3093  
  1279.5000    -26.4343     10.3455      8.9807    107.7399      9.9289     72.7786      0.0344      2.4483    113.7365  
  1280.0000    -26.2187     10.3053      8.9619    108.1065      9.9050     75.7030      0.0543      2.4756    114.0042  
  1280.5000    -25.8151     10.3046      8.9354    108.2926      9.8488     76.2995      0.0720      2.4895    114.3073  
  1281.0000    -25.7694     10.3470      8.9432    108.4852      9.8349     76.8476      0.0742      2.4941    114.5052  
  1281.5000    -25.8665     10.3894      8.9141    108.2514      9.8461     76.1926      0.0697      2.4844    114.3939  
  1282.0000    -25.9402     10.4212      8.9395    107.7332      9.8944     74.8817      0.0609      2.4706    114.0237  
  1282.5000    -25.9185     10.4077      9.0284    106.9180      9.9477     74.4607      0.0491      2.4646    114.0519  
  1283.0000    -24.7517     10.3466      9.1684    105.9809     10.0010     70.9591      0.0626      2.4747    114.5247  
  1283.5000    -24.0097     10.2865      9.3214    104.9226     10.0038     68.8183      0.0610      2.4814    114.4803  
  1284.0000    -23.6559     10.4791      9.4637    104.0355     10.0006     69.2020      0.0595      2.4795    114.4829  
  1284.5000    -23.4112     10.6716      9.6060    102.6336      9.9965     73.6158      0.0568      2.4739    114.3124  
  1285.0000    -23.4074     10.8941      9.7483    101.0695      9.8996     76.2430      0.0374      2.4554    113.5942  
  1285.5000    -23.9232     11.1187      9.8906     99.4825      9.8307     75.2669      0.0507      2.4716    113.0425  
