~VERSION INFORMATION
 VERS.                           2.00:        CWLS LOG ASCII STANDARD - VERSION 2.00
 WRAP.                             NO:        ONE LINE PER DEPTH STEP
~WELL INFORMATION
#MNEM.UNIT                   DATA             INFORMATION
#----------             --------------        ------------------------------
 STRT.F                       75.0000:        START DEPTH
 STOP.F                     2534.0000:        STOP DEPTH
 STEP.F                        0.5000:        STEP VALUE
 NULL.                      -999.2500:        NULL VALUE
 COMP.                      HUSKY OIL:        COMPANY  
 LOC .                   14  22N  18W:        LOCATION   
 DATE.                       12/20/76:        LOG DATE 
 WELL.               SOUTH BARROW #13:        WELL     
 UWI .                   500232000800:        UNIQUE WELL ID 
 API .                   500232000800:        UNIQUE WELL IDENTIFIER 
 FLD .                   SOUTH BARROW:        FIELD    
 CNTY.                    NORTH SLOPE:        COUNTY  
 STAT.                         ALASKA:        STATE   
 CTRY.                            USA:        COUNTRY 
 OPER.                      HUSKY OIL:        OPERATOR  
 SRVC.                   SCHLUMBERGER:        SERVICE COMPANY 
 LAT .                         0.0000:        LATITUDE
 LON .                         0.0000:        LONGITUDE
 DIGS.               CENTER LINE DATA:        DIGITIZING COMPANY 
~CURVE INFORMATION      
#MNEM        .UNIT         API CODE           CURVE DESCRIPTION
#-----------------      --------------        ------------------------------
 DEPT        .F                      :        1  DEPTH
 SP          .MV                     :        2  
 ILD         .OHMM                   :        3  
 LL8         .OHMM                   :        4  
 CILD        .MMHO                   :        5  
 ILM         .OHMM                   :        6  
 GR          .GAPI                   :        7  
 CALI        .IN                     :        8  
 DRHO        .G/C3                   :        9  
 RHOB        .G/C3                   :        10 
 NPHI        .%                      :        11 
 DPHI        .%                      :        12 
 DT          .US/F                   :        13 
~PARAMETER INFORMATION       
#MNEM.UNIT                  VALUE             DESCRIPTION OF MNEMONIC
#---------             ---------------        ------------------------------
 EKB .F                       40.0000:        KELLY BUSHING
 TD  .F                     1139.0000:        TOTAL DEPTH
 BHT .F                        0.0000:        BOTTOM HOLE TEMPERATURE
 BS  .                        14.7500:        BIT SIZE
 FD  .                        10.3000:        FLUID DENSITY
 CSIZ.                        20.0000:        CASING SIZE
 CBD .F                       65.0000:        CASING DRILLER 1
 CBL .F                       75.0000:        CASING LOGGER 1
 DFT .                  Miscellaneous:        TYPE FLUID IN HOLE
 DFV .                        34.0000:        VISCOSITY
 DFPH.                         8.5000:        PH
 DFL .                        10.2000:        FLUID LOSS
 RMS .                         5.3200:        RM
 MST .F                       55.0000:        RM MEAS. TEMP.
 RMF .                         3.8000:        RMF
 MFST.F                       55.0000:        RMF MEAS. TEMP.
 RMC .                         6.0000:        RMC
 MCST.F                       55.0000:        RMC MEAS. TEMP.
~OTHER INFORMATION
~A    DEPTH          SP         ILD         LL8        CILD         ILM          GR        CALI        DRHO        RHOB        NPHI        DPHI          DT  
# ...
  2140.5000    -32.7544     11.8544     52.3022   -999.2500     14.9230     32.0056     10.5369      0.0383      2.4150     37.7481     13.1618    105.6227  
  2141.0000    -32.5854     12.0673     53.9958   -999.2500     13.4114     35.0587     10.3442      0.0434      2.4090     37.6815     11.7393    106.5100  
  2141.5000    -31.7003     11.6823     20.6267   -999.2500     12.1563     40.6616     10.1514      0.0550      2.4487     37.6148      9.0509    107.6170  
  2142.0000    -31.2606     11.2580     12.0864   -999.2500     11.4895     45.6822     10.1986      0.0419      2.4800     37.5482      7.8010    109.2455  
  2142.5000    -33.1261     10.8491     11.4263   -999.2500     10.8594     47.8519     10.3473      0.0253      2.5184     37.1433      6.0028    109.7251  
  2143.0000    -33.1277     10.3499     11.8603   -999.2500     10.2638     49.4330     10.3445     -0.0049      2.5345     37.0456      3.9830    109.3038  
  2143.5000    -31.6387      9.8043     11.6280   -999.2500      9.7021     51.1783     10.3815      0.0122      2.5666     37.2442      6.4992    108.4410  
  2144.0000    -31.4583      9.2875     11.8624   -999.2500      9.4375     53.0415     10.5378      0.0349      2.5614     37.6669      8.5633    108.5635  
  2144.5000    -31.8652      8.7980     12.3135   -999.2500      9.1801     52.8423     10.6932      0.0361      2.5233     37.5362      8.4930    108.7908  
  2145.0000    -32.2984      8.4201     12.2091   -999.2500      8.9297     52.9868     10.6943      0.0514      2.5226     37.5884      9.0768    109.1452  
  2145.5000    -32.4428      8.5207     11.6740   -999.2500      8.8473     53.4056     10.8041      0.0648      2.5162     37.4440      9.4725    110.9649  
  2146.0000    -32.1954      8.6225     11.0119   -999.2500      8.9159     53.7634     10.9796      0.0727      2.5048     36.7149     10.9318    112.0940  
  2146.5000    -31.8935      8.7254     10.9996   -999.2500      9.0203     51.9471     11.0302      0.0526      2.4947     35.6730     11.9544    110.8288  
  2147.0000    -31.4385      8.8296     11.3148   -999.2500      9.1259     50.1212     10.9937      0.0341      2.4699     34.5607     11.6119    109.1221  
  2147.5000    -30.6702      8.9351     11.7639   -999.2500      9.1498     49.7379     11.1761      0.0133      2.4631     33.8020     10.9468    107.6266  
  2148.0000    -29.5583      8.8427     11.7830   -999.2500      9.1335     51.1331     11.2863      0.0140      2.4722     33.7761     10.6156    106.6144  
  2148.5000    -29.4776      8.8733     11.3388   -999.2500      9.1173     50.0279     11.3597      0.0190      2.4851     34.2737     11.1589    107.6120  
  2149.0000    -29.9441      8.9717     10.8106   -999.2500      9.1036     49.1378     11.3413      0.0179      2.4811     35.0111     10.7604    108.9136  
  2149.5000    -30.4257      9.1125     10.8003   -999.2500      9.4092     49.4138     11.3230      0.0253      2.4774     35.1420      8.8848    109.0183  
  2150.0000    -31.6896      9.3640     11.1880   -999.2500      9.7164     49.6898     11.5425      0.0730      2.4785     35.2290      6.3625    108.8909  
  2150.5000    -31.4100      9.6226     11.5378   -999.2500      9.8643     50.7006     11.5762      0.0899      2.5345     35.3402      7.1953    107.6592  
  2151.0000    -31.3341      9.8734     11.7256   -999.2500      9.9566     51.8483     11.3054      0.0603      2.5528     35.0210      9.4134    106.2290  
  2151.5000    -31.3249      9.8463     12.0381   -999.2500      9.9621     51.8329     11.1357      0.0374      2.5359     34.5323     10.9011    104.9372  
  2152.0000    -31.0772      9.8193     12.1830   -999.2500      9.9676     50.9514     11.2932      0.0233      2.4993     34.0435     11.7053    104.0477  
  2152.5000    -30.9279      9.7924     12.2787   -999.2500      9.9731     50.5847     11.2253      0.0115      2.4745     33.9405     11.7994    104.4850  
  2153.0000    -30.7140      9.7655     12.2596   -999.2500      9.9785     51.2652     11.1574      0.0086      2.4695     34.7599      9.8880    105.1159  
  2153.5000    -30.4161      9.7387     11.8891   -999.2500      9.9840     51.6646     11.0895      0.0180      2.4770     35.1397      9.2645    105.3904  
  2154.0000    -30.1956      9.7120     11.1911   -999.2500      9.9895     50.9774     11.0365      0.0383      2.4956     35.0453      8.9906    105.2446  
  2154.5000    -29.9651      9.6854     11.2078   -999.2500      9.9950     50.2902     11.0086      0.0447      2.5027     35.6996      9.6290    104.7907  
  2155.0000    -30.0464      9.6589     12.0622   -999.2500     10.0005     50.9246     10.9807      0.0388      2.5079     36.5989     10.3273    104.3130  
  2155.5000    -30.1877      9.6324     12.5676   -999.2500     10.0060     52.4818     10.9649      0.0343      2.4985     37.4983     11.2515    104.4967  
  2156.0000    -29.6769      9.6060     12.3345   -999.2500     10.0115     54.1415     10.9969      0.0225      2.4853     38.3976     11.8440    105.3018  
  2156.5000    -28.3194      9.5796     12.0696   -999.2500     10.0171     53.4014     11.0290      0.0107      2.4702     38.9304     10.8137    106.1702  
  2157.0000    -29.4866      9.5534     11.9105   -999.2500     10.0226     51.4687     11.0610      0.0411      2.4685     38.4138     10.6178    106.9608  
  2157.5000    -30.3245      9.5359     11.7200   -999.2500     10.0281     50.5206     11.1276      0.0574      2.4828     37.8725     10.9779    107.1602  
  2158.0000    -30.3274      9.5765     11.7363   -999.2500     10.0336     50.1510     11.2520      0.0488      2.4811     37.3312     11.3777    106.9892  
  2158.5000    -30.2865      9.6174     12.0058   -999.2500     10.0368     49.5641     11.3764      0.0326      2.4773     37.2727     12.0297    106.7303  
  2159.0000    -29.9437      9.6584     12.5116   -999.2500     10.0381     50.2588     11.5008      0.0188      2.4691     37.5225     11.6659    106.3625  
  2159.5000    -29.9411      9.6996     12.5224   -999.2500     10.0393     51.2907     11.6252      0.0133      2.4644     37.7722     10.4742    106.1213  
  2160.0000    -30.0444      9.7409     12.2460   -999.2500     10.0406     52.2568     11.6177      0.0315      2.4773     37.9337      8.9356    106.1920  
  2160.5000    -30.0783      9.7825     11.9921   -999.2500     10.0418     53.6026     11.4597      0.0510      2.5064     37.5808      8.4625    106.2321  
  2161.0000    -29.7128      9.8242     11.6847   -999.2500     10.0431     54.8742     11.3360      0.0709      2.5229     37.2279      8.9831    106.1838  
  2161.5000    -29.5996      9.8661     11.5791   -999.2500     10.0443     54.8287     11.3983      0.0583      2.5158     36.8859      9.9121    106.2541  
  2162.0000    -28.8374      9.9082     11.9017   -999.2500     10.1055     52.9153     11.2684      0.0434      2.5054     36.2717     10.2972    105.9469  
  2162.5000    -27.6577      9.9504     12.4755   -999.2500     10.1718     50.5410     11.1216      0.0319      2.4845     35.6868      9.2194    105.3179  
  2163.0000    -27.1665      9.9928     13.0696   -999.2500     10.2386     49.3513     10.9749      0.0383      2.4969     35.3952      8.2602    104.3961  
  2163.5000    -27.8855     10.0355     13.2043   -999.2500     10.3058     50.3466     10.9752      0.0414      2.5172     35.4275      8.6758    103.4750  
  2164.0000    -28.0753     10.1507     12.9488   -999.2500     10.3734     49.4856     11.1012      0.0460      2.5266     35.8007      9.0092    103.4661  
  2164.5000    -28.0942     10.2335     12.8262   -999.2500     10.4279     50.3344     11.0949      0.0399      2.5147     36.1740      9.4071    103.5719  
  2165.0000    -28.3028     10.2099     12.9120   -999.2500     10.4518     52.1637     11.0381      0.0339      2.5052     35.9502      9.5605    103.5305  
  2165.5000    -28.6602     10.2194     12.8252   -999.2500     10.4758     52.6022     11.0404      0.0355      2.5004     35.3187      9.4878    103.6482  
