~VERSION INFORMATION
 VERS.                           2.00:        CWLS LOG ASCII STANDARD - VERSION 2.00
 WRAP.                             NO:        ONE LINE PER DEPTH STEP
~WELL INFORMATION
#MNEM.UNIT                   DATA             INFORMATION
#----------             --------------        ------------------------------
 STRT.F                     1244.0000:        START DEPTH
 STOP.F                     2340.0000:        STOP DEPTH
 STEP.F                        0.5000:        STEP VALUE
 NULL.                      -999.2500:        NULL VALUE
 COMP.        U.S. NAVY DEPT NP & OSR:        COMPANY  
 LOC .                   14  22N  18W:        LOCATION   
 DATE.                        3/16/73:        LOG DATE 
 WELL.               SOUTH BARROW #10:        WELL     
 UWI .                   500232000400:        UNIQUE WELL ID 
 API .                   500232000400:        UNIQUE WELL IDENTIFIER 
 FLD .                   SOUTH BARROW:        FIELD    
 CNTY.                         NPR #4:        COUNTY  
 STAT.                         ALASKA:        STATE   
 CTRY.                            USA:        COUNTRY 
 OPER.        U.S. NAVY DEPT NP & OSR:        OPERATOR  
 SRVC.                   SCHLUMBERGER:        SERVICE COMPANY 
 LAT .                         0.0000:        LATITUDE
 LON .                         0.0000:        LONGITUDE
 DIGS.               CENTER LINE DATA:        DIGITIZING COMPANY 
~CURVE INFORMATION      
#MNEM        .UNIT         API CODE           CURVE DESCRIPTION
#-----------------      --------------        ------------------------------
 DEPT        .F                      :        1  DEPTH
 SP          .MV                     :        2  
 LL8         .OHMM                   :        3  
 ILD         .OHMM                   :        4  
 CILD        .MMHO                   :        5  
 DT          .US/F                   :        6  
~PARAMETER INFORMATION       
#MNEM.UNIT                  VALUE             DESCRIPTION OF MNEMONIC
#---------             ---------------        ------------------------------
 EKB .F                       38.0000:        KELLY BUSHING
 TD  .F                     2349.0000:        TOTAL DEPTH
 BHT .F                       60.0000:        BOTTOM HOLE TEMPERATURE
 BS  .                         9.6250:        BIT SIZE
 FD  .                        10.6000:        FLUID DENSITY
 CSIZ.                        10.7500:        CASING SIZE
 CBD .F                     1240.0000:        CASING DRILLER 1
 CBL .F                     1244.0000:        CASING LOGGER 1
 DFT .                  Miscellaneous:        TYPE FLUID IN HOLE
 DFV .                        15.0000:        VISCOSITY
 DFPH.                        11.0000:        PH
 DFL .                         1.8000:        FLUID LOSS
 RMS .                         1.1900:        RM
 MST .F                       55.0000:        RM MEAS. TEMP.
 RMF .                         0.8500:        RMF
 MFST.F                       55.0000:        RMF MEAS. TEMP.
 RMC .                         1.2000:        RMC
 MCST.F                       55.0000:        RMC MEAS. TEMP.
~OTHER INFORMATION
~A    DEPTH          SP         LL8         ILD        CILD          DT  
# ...
  1789.0000    -20.5717     12.5789     10.6015     94.0659    105.2816  
  1789.5000    -20.5717     12.3840     10.3767     95.5121    107.1553  
  1790.0000    -20.3303     12.2650     10.1461     97.4850    109.0857  
  1790.5000    -20.5707     12.2261     10.0298     98.8444    109.2162  
  1791.0000    -20.5730     12.3016      9.9350     99.3452    108.7872  
  1791.5000    -20.6453     12.5500     10.0384     98.4286    108.3556  
  1792.0000    -21.0088     12.8821     10.1689     96.6968    108.2663  
  1792.5000    -21.3011     13.2991     10.3173     94.4507    108.6613  
  1793.0000    -21.5508     13.7295     10.8158     92.1167    109.1894  
  1793.5000    -21.5920     13.9419     11.0305     90.1472    108.7886  
  1794.0000    -21.5257     14.0745     11.2550     88.7967    107.2705  
  1794.5000    -21.3323     14.2670     11.3638     87.6826    106.2060  
  1795.0000    -21.4143     14.3009     11.5509     86.4758    103.9375  
  1795.5000    -21.4911     14.1642     11.6244     85.5920    102.8187  
  1796.0000    -21.4877     13.9437     11.6697     85.5000    101.9247  
  1796.5000    -21.4632     13.7144     11.6507     85.9388    103.5431  
  1797.0000    -21.5628     13.5221     11.5006     86.5346    104.2015  
  1797.5000    -21.6418     13.5207     11.3370     88.0268    104.4513  
  1798.0000    -21.5302     13.5819     11.1908     89.1083    104.8529  
  1798.5000    -21.3111     13.4729     11.0505     89.8255    105.4743  
  1799.0000    -21.1450     13.1173     10.8699     91.0138    106.0569  
  1799.5000    -21.2011     12.8948     10.6768     92.5801    106.2521  
  1800.0000    -21.3085     12.7833     10.5793     93.7073    106.3137  
  1800.5000    -21.3894     12.6816     10.4717     94.7945    106.0935  
  1801.0000    -21.4488     12.6041     10.3641     95.5281    105.5833  
  1801.5000    -21.7567     12.5412     10.2565     96.2617    106.5674  
  1802.0000    -22.0900     12.4462     10.1490     96.9953    107.8409  
  1802.5000    -22.6591     12.3857     10.0414     97.7289    108.4924  
  1803.0000    -23.2332     12.3973      9.9319     98.4626    108.3175  
  1803.5000    -23.3883     12.4412      9.7635     99.1962    107.2208  
  1804.0000    -23.1827     12.5053      9.7917     99.9298    106.4048  
  1804.5000    -22.9264     12.5343      9.8254    100.7802    105.3854  
  1805.0000    -22.7832     12.4611      9.8660    101.7004    106.2194  
  1805.5000    -22.5342     12.1519      9.8206    102.6207    107.1137  
  1806.0000    -22.2230     11.8588      9.5933    103.7083    108.0045  
  1806.5000    -21.8088     11.7250      9.4195    105.1957    109.1880  
  1807.0000    -21.3949     11.6725      9.2584    106.1346    107.1295  
  1807.5000    -21.0488     11.5671      9.2132    106.0782    106.7214  
  1808.0000    -20.8446     11.3296      9.1852    106.6587    107.8598  
  1808.5000    -20.3499     11.0300      9.1150    107.4952    109.5694  
  1809.0000    -20.3373     10.9125      8.9714    109.0405    111.3542  
  1809.5000    -20.3591     10.9671      8.8427    110.2945    112.8950  
  1810.0000    -20.3597     11.0692      8.8061    110.7527    112.8057  
  1810.5000    -20.3273     11.1661      8.8079    110.8896    112.0027  
  1811.0000    -20.3605     11.3074      8.8531    110.3232    112.7642  
  1811.5000    -20.3834     11.5212      8.9097    109.6713    113.4762  
  1812.0000    -20.4060     11.7147      8.9944    109.1893    113.1294  
  1812.5000    -20.4287     11.8178      9.0872    108.7074    112.2063  
  1813.0000    -20.4521     11.8633      9.1358    108.2254    111.7514  
  1813.5000    -20.4736     11.8010      9.1622    107.7434    111.5500  
  1814.0000    -20.4494     11.7513      9.1270    107.2614    110.2151  
  1814.5000    -20.3875     11.7364      9.0524    107.3692    109.0653  
  1815.0000    -20.3872     11.6576      9.1100    107.4221    109.7651  
  1815.5000    -20.3895     11.3710      9.0538    107.6811    110.3408  
  1816.0000    -20.5508     11.3053      8.9708    108.8992    111.6213  
  1816.5000    -20.6795     11.3927      8.9044    109.6600    112.6702  
  1817.0000    -20.6633     11.4860      8.8947    109.6326    112.3275  
  1817.5000    -20.5451     11.6281      8.9011    109.5000    112.7151  
  1818.0000    -19.7819     11.7255      8.9419    109.1845    114.4687  
  1818.5000    -19.2962     11.7237      8.9891    108.3968    113.1494  
  1819.0000    -19.2504     11.6614      8.9782    108.4233    111.7698  
  1819.5000    -19.6192     11.6834      8.9787    108.4733    111.2297  
  1820.0000    -19.7990     11.6803      9.0266    108.1436    110.0614  
  1820.5000    -19.7056     11.6771      9.0376    107.7724    109.5785  
  1821.0000    -19.6945     11.6379      9.0687    107.5566    109.7943  
  1821.5000    -19.6835     11.5987      9.0668    107.6299    111.0571  
  1822.0000    -19.5777     11.6269      9.0438    107.7443    112.5322  
  1822.5000    -19.2465     11.7211      9.0380    107.8366    112.1262  
  1823.0000    -19.4622     11.8113      9.0617    107.6587    111.7814  
  1823.5000    -19.5660     11.8197      9.0952    107.5000    111.4681  
  1824.0000    -19.1835     11.7542      9.0938    107.5233    111.1219  
  1824.5000    -18.9834     11.6065      9.0112    108.5031    110.9698  
  1825.0000    -18.6233     11.3645      8.8336    110.6958    110.9453  
  1825.5000    -18.3576     11.1087      8.6800    114.6514    111.0254  
  1826.0000    -18.5171     10.9032      8.4328    116.8690    111.4520  
  1826.5000    -18.6108     10.7740      8.1478    119.0867    112.2297  
  1827.0000    -18.3953     10.7863      8.0124    121.3043    113.7152  
  1827.5000    -18.0889     10.8420      7.9547    122.2728    114.6215  
  1828.0000    -18.2399     10.9904      7.9493    120.7275    115.2404  
  1828.5000    -18.7507     11.1803      7.9808    121.5485    118.0668  
  1829.0000    -19.2948     11.5112      8.0311    120.6215    120.6020  
  1829.5000    -19.6500     11.8068      8.1483    119.2948    121.3812  
  1830.0000    -19.6620     12.0057      8.2973    116.2055    119.9351  
  1830.5000    -19.7543     12.0887      8.5031    114.2902    118.1823  
  1831.0000    -19.9818     12.0253      8.6885    112.3377    117.8899  
  1831.5000    -20.1006     11.8387      8.8198    111.0146    118.8920  
  1832.0000    -19.5799     11.6355      8.8189    111.0408    118.2829  
  1832.5000    -19.0818     11.5440      8.7899    111.7904    117.6862  
  1833.0000    -19.0737     11.4977      8.7144    112.5619    118.1029  
  1833.5000    -19.4171     11.5200      8.6029    113.3916    118.7610  
  1834.0000    -20.1070     11.5556      8.5762    113.8476    122.2802  
  1834.5000    -20.7777     11.6123      8.5832    113.5811    122.4483  
  1835.0000    -21.0702     11.6343      8.5766    113.6086    118.6349  
  1835.5000    -21.0141     11.6979      8.5625    113.8252    114.8581  
  1836.0000    -20.5556     11.7146      8.5660    113.6278    112.8928  
  1836.5000    -19.9746     11.6623      8.5593    113.8507    111.9377  
  1837.0000    -19.4564     11.5074      8.5270    114.4742    111.7392  
  1837.5000    -19.4865     11.3374      8.4124    115.9054    112.0377  
  1838.0000    -19.9121     11.1916      8.3116    117.2225    112.4961  
  1838.5000    -19.7853     11.1315      8.1828    118.8688    113.0612  
  1839.0000    -19.7264     11.0174      8.0451    120.4995    114.5895  
  1839.5000    -19.7059     10.9005      7.9096    122.0965    114.9734  
  1840.0000    -19.5327     10.7896      7.8071    124.0205    117.0535  
  1840.5000    -19.2929     10.6948      7.7463    125.5479    118.6074  
  1841.0000    -18.9980     10.6311      7.6199    126.1559    118.8211  
  1841.5000    -18.9038     10.6345      7.6423    126.4021    118.8489  
  1842.0000    -18.7032     10.6559      7.6581    126.3098    118.9946  
  1842.5000    -17.8444     10.6427      7.6834    125.9474    119.1457  
  1843.0000    -16.7618     10.6958      7.6773    125.7226    119.2274  
