~VERSION INFORMATION
 VERS.                           2.00:        CWLS LOG ASCII STANDARD - VERSION 2.00
 WRAP.                             NO:        ONE LINE PER DEPTH STEP
~WELL INFORMATION
#MNEM.UNIT                   DATA             INFORMATION
#----------             --------------        ------------------------------
 STRT.F                      101.0000:        START DEPTH
 STOP.F                     3666.0000:        STOP DEPTH
 STEP.F                        0.5000:        STEP VALUE
 NULL.                      -999.2500:        NULL VALUE
 COMP.     USGS/NPR HUSKY OIL COMPANY:        COMPANY
 LOC .                      9 20N 19W:        LOCATION
 DATE.                       12/30/79:        LOG DATE
 WELL.           WALAKPA TEST WELL #1:        WELL
 UWI .                   500232001300:        UNIQUE WELL ID
 API .                   500232001300:        UNIQUE WELL IDENTIFIER
 FLD .                        WILDCAT:        FIELD
 CNTY.                    NORTH SLOPE:        COUNTY
 STAT.                         ALASKA:        STATE
 CTRY.                            USA:        COUNTRY
 OPER.     USGS/NPR HUSKY OIL COMPANY:        OPERATOR
 SRVC.                   SCHLUMBERGER:        SERVICE COMPANY
 LAT .                         0.0000:        LATITUDE
 LON .                         0.0000:        LONGITUDE
 DIGS.               CENTER LINE DATA:        DIGITIZING COMPANY
~CURVE INFORMATION      
#MNEM        .UNIT         API CODE           CURVE DESCRIPTION
#-----------------      --------------        ------------------------------
 DEPT        .F                      :        1  DEPTH
 GR          .GAPI                   :        2  
 CALI        .IN                     :        3  
 RHOB        .G/C3                   :        4  
 DRHO        .G/C3                   :        5  
 NPHI        .%                      :        6  
 DT          .US/F                   :        7  
 SP          .MV                     :        8  
 ILD         .OHMM                   :        9  
 ILM         .OHMM                   :        10 
 LL8         .OHMM                   :        11 
 SFL         .OHMM                   :        12 
~PARAMETER INFORMATION
#MNEM.UNIT                  VALUE             DESCRIPTION OF MNEMONIC
#---------             ---------------        ------------------------------
 EKB .F                       50.0000:        KELLY BUSHING
 TD  .F                     3672.0000:        TOTAL DEPTH
 BHT .F                       80.0000:        BOTTOM HOLE TEMPERATURE
 BS  .                        12.2500:        BIT SIZE
 FD  .                         9.9000:        FLUID DENSITY
 CSIZ.                        13.3750:        CASING SIZE
 CBD .F                      100.0000:        CASING DRILLER 1
 CBL .F                      106.0000:        CASING LOGGER 1
 DFT .                             99:        TYPE FLUID IN HOLE
 DFV .                        45.0000:        VISCOSITY
 DFPH.                         8.0000:        PH
 DFL .                        23.0000:        FLUID LOSS
 RMS .                         5.9200:        RM
 MST .F                       58.0000:        RM MEAS. TEMP.
 RMF .                         6.2200:        RMF
 MFST.F                       57.0000:        RMF MEAS. TEMP.
 RMC .                         7.0500:        RMC
 MCST.F                       57.0000:        RMC MEAS. TEMP.
~OTHER INFORMATION
~A    DEPTH          GR        CALI        RHOB        DRHO        NPHI          DT          SP         ILD         ILM         LL8         SFL 
# ...
  2453.0000     78.4558      8.8978      2.4584      0.0268     26.0762     84.1749    -31.5989     10.8724      9.9689   -999.2500     11.5041 
  2453.5000     76.2223      8.8969      2.4490      0.0173     26.1872     82.3828    -32.0526     11.0739     10.1891   -999.2500     11.7035 
  2454.0000     75.4511      8.8961      2.4185      0.0054     26.4664     82.7669    -32.5063     11.3982     10.3536   -999.2500     11.9255 
  2454.5000     75.3718      8.8952      2.3928      0.0194     27.1082     83.5780    -32.9822     11.6677     10.3067   -999.2500     12.0289 
  2455.0000     75.3137      8.8943      2.3896      0.0533     27.6604     83.8976    -33.4972     11.5463     10.1346   -999.2500     12.1040 
  2455.5000     75.2556      8.8934      2.4021      0.1062     28.2678     84.9142    -34.2162     11.2672     10.0335   -999.2500     11.8848 
  2456.0000     75.2081      8.8925      2.3540      0.1295     29.7959     86.9145    -34.8168     10.7694     10.0686   -999.2500     11.6065 
  2456.5000     75.1258      8.8916      2.3098      0.1027     32.4693     87.5778    -35.3280     10.4841      9.9782   -999.2500     11.3147 
  2457.0000     73.9029      8.8907      2.3085      0.0551     33.8875     88.5209    -35.0309     10.2764      9.8943   -999.2500     11.0303 
  2457.5000     71.8606      8.8898      2.3347      0.0175     31.7044     88.5703    -34.3308     10.3009      9.8112   -999.2500     10.7530 
  2458.0000     70.0562      8.9124      2.4133      0.0126     29.7041     83.3109    -33.8806     10.3255      9.7288   -999.2500     10.7374 
  2458.5000     72.7633      8.9232      2.4441      0.0065     28.7170     83.6727    -33.4739     10.3502      9.6470   -999.2500     11.0135 
  2459.0000     77.5340      8.9036      2.4488      0.0054     27.7299     83.5040    -32.9895     10.3749      9.5660   -999.2500     11.2967 
  2459.5000     83.2216      8.9183      2.4553      0.0060     27.0365     84.7531    -32.7395     10.3997      9.5037   -999.2500     11.4577 
  2460.0000     88.8542      8.9114      2.4558      0.0115     26.7171     85.1786    -32.7083     10.4245      9.4882   -999.2500     11.3315 
  2460.5000     87.3182      8.8966      2.4220      0.0060     26.2778     85.6542    -32.6116     10.4494      9.4727   -999.2500     11.2067 
  2461.0000     86.3672      8.9173      2.4081      0.0076     25.9153     86.1824    -32.1510     10.4743      9.4572   -999.2500     11.0591 
  2461.5000     86.3229      8.9486      2.4127      0.0113     26.1702     86.3307    -31.7531     10.4712      9.4417   -999.2500     10.8746 
  2462.0000     85.4673      8.9104      2.4070      0.0149     26.9106     87.0224    -31.8397     10.3958      9.4263   -999.2500     10.8187 
  2462.5000     83.1195      8.9344      2.4160      0.0214     27.6324     87.6643    -31.9734     10.3209      9.4024   -999.2500     10.9355 
  2463.0000     80.7648      8.9521      2.4364      0.0345     29.0219     87.1803    -32.5659     10.2534      9.3779   -999.2500     11.0536 
  2463.5000     80.9217      8.9446      2.4480      0.0386     30.8142     87.2938    -33.0211     10.1991      9.3533   -999.2500     11.1729 
  2464.0000     82.1266      8.9172      2.4757      0.0166     33.0322     86.9463    -33.5029     10.2079      9.4308   -999.2500     11.2989 
  2464.5000     80.2159      8.9261      2.5173      0.0262     34.6339     85.9949    -33.8869     10.3125      9.8176   -999.2500     11.5744 
  2465.0000     78.9285      8.9332      2.5772      0.0426     35.1977     83.9539    -33.7671     10.4181     10.0239   -999.2500     11.9429 
  2465.5000     81.7741      8.9121      2.5690      0.0139     35.6561     83.2148    -33.4459     10.5249     10.0750   -999.2500     12.3231 
  2466.0000     88.6528      8.9051      2.5981      0.0106     34.7797     80.5202    -32.4922     10.6328     10.0601   -999.2500     12.6208 
  2466.5000     93.7558      8.9098      2.6348      0.0092     32.2323     82.0575    -32.4956     10.4674      9.5464   -999.2500     11.5815 
  2467.0000     96.2373      8.9144      2.6451     -0.0029     31.4266     85.2236    -32.7096     10.2242      9.0589   -999.2500     10.6133 
  2467.5000     97.0994      8.9288      2.6546      0.0048     32.4937     85.3140    -32.4539      9.9867      8.5963   -999.2500      9.9460 
  2468.0000     97.7559      8.9494      2.6735      0.0227     33.6388     86.5638    -32.3517      9.7546      8.1573   -999.2500      9.6681 
  2468.5000     97.5990      8.9572      2.6288      0.0230     35.6132     89.2880    -32.3918      9.5280      7.8544   -999.2500      9.5506 
  2469.0000     96.2087      8.9438      2.5672      0.0439     36.9896     88.8204    -32.7687      9.3067      8.0506   -999.2500      9.6437 
  2469.5000     91.5472      8.9662      2.5422      0.1190     37.7127     89.1700    -33.7708      9.2975      8.3301   -999.2500      9.7378 
  2470.0000     85.1942      8.9661      2.4277      0.1320     38.4357     91.1940    -34.8503      9.3984      8.6192   -999.2500     10.2048 
  2470.5000     78.0165      8.9620      2.3220      0.0273     39.1310     88.4507    -35.9298      9.5003      8.8524   -999.2500     11.0962 
  2471.0000     72.0860      8.9611      2.3973      0.0083     38.1390     87.2864    -37.3457      9.6034      9.0759   -999.2500     10.9517 
  2471.5000     66.5376      8.9519      2.4550      0.0195     36.3571     85.7890    -38.2128      9.7076      9.3049   -999.2500     10.5557 
  2472.0000     63.1045      8.9428      2.4738      0.0362     33.1255     83.5871    -39.4337      9.8129      9.1529   -999.2500     10.2360 
  2472.5000     64.4006      8.9529      2.4501      0.0293     30.1104     81.6890    -39.6739      9.9439      8.7988   -999.2500     10.0357 
  2473.0000     64.6008      8.9666      2.4611      0.0259     28.1402     79.5514    -39.6099     10.1297      9.0040   -999.2500     10.3128 
  2473.5000     65.8207      8.9652      2.4810      0.0136     27.2466     75.7639    -39.1636     10.3188      9.5915   -999.2500     10.8746 
  2474.0000     68.1438      8.9556      2.5015      0.0003     26.6446     74.2151    -37.3328     10.4829      9.9857   -999.2500     12.7648 
  2474.5000     73.2211      8.9585      2.5235      0.0030     25.1670     76.2407    -35.4869     10.6458     10.2372   -999.2500     20.0104 
  2475.0000     77.3238      8.9547      2.5127      0.0137     23.5448     78.6565    -34.4906     10.6111     10.1164   -999.2500     30.5272 
  2475.5000     78.3637      8.9468      2.4930      0.0212     22.3323     81.6561    -33.7309     10.4694      9.9743   -999.2500     21.5783 
  2476.0000     77.4100      8.9233      2.4565      0.0208     23.2293     83.8806    -32.9990     10.3219      9.8338   -999.2500     13.2508 
  2476.5000     75.4254      8.9801      2.4469      0.0177     23.9921     84.3654    -32.5528     10.1764      9.6952   -999.2500     11.2983 
  2477.0000     75.1809      8.9553      2.4438      0.0178     24.9818     84.6355    -32.6542     10.0330      9.5585   -999.2500     10.0747 
  2477.5000     76.3971      8.9401      2.4398      0.0174     25.6977     84.8802    -32.8512      9.8916      9.4238   -999.2500      9.7487 
  2478.0000     78.8501      8.9498      2.4385      0.0163     26.4135     85.6417    -33.3070      9.7522      9.2910   -999.2500      9.5775 
  2478.5000     80.3363      8.9643      2.4377      0.0191     27.0737     86.1754    -33.7584      9.6648      9.2270   -999.2500      9.4895 
  2479.0000     81.7164      8.9339      2.4271      0.0186     27.2543     86.4644    -33.9203      9.6648      9.2270   -999.2500      9.4658 
  2479.5000     82.1323      8.9503      2.4056      0.0198     27.5611     87.3743    -33.9018      9.6648      9.2270   -999.2500      9.6987 
  2480.0000     81.8514      8.9141      2.4044      0.0245     27.9110     86.9795    -33.6850      9.6919      9.2328   -999.2500      9.9374 
  2480.5000     81.9012      8.9211      2.4372      0.0171     28.4443     85.9111    -33.4554      9.8314      9.3660   -999.2500     10.1819 
