~VERSION INFORMATION
 VERS.                           2.00:        CWLS LOG ASCII STANDARD - VERSION 2.00
 WRAP.                             NO:        ONE LINE PER DEPTH STEP
~WELL INFORMATION
#MNEM.UNIT                   DATA             INFORMATION
#----------             --------------        ------------------------------
 STRT.F                       98.0000:        START DEPTH
 STOP.F                     2124.0000:        STOP DEPTH
 STEP.F                        0.5000:        STEP VALUE
 NULL.                      -999.2500:        NULL VALUE
 COMP.          USGS/NPR-A OPERATIONS:        COMPANY  
 LOC .                   24  22N  17W:        LOCATION   
 DATE.                        10/5/80:        LOG DATE 
 WELL.               SOUTH BARROW #18:        WELL     
 UWI .                   500232001700:        UNIQUE WELL ID 
 API .                   500232001700:        UNIQUE WELL IDENTIFIER 
 FLD .                   SOUTH BARROW:        FIELD    
 CNTY.                    NORTH SLOPE:        COUNTY  
 STAT.                         ALASKA:        STATE   
 CTRY.                            USA:        COUNTRY 
 OPER.          USGS/NPR-A OPERATIONS:        OPERATOR  
 SRVC.                   SCHLUMBERGER:        SERVICE COMPANY 
 LAT .                         0.0000:        LATITUDE
 LON .                         0.0000:        LONGITUDE
 DIGS.               CENTER LINE DATA:        DIGITIZING COMPANY 
~CURVE INFORMATION      
#MNEM        .UNIT         API CODE           CURVE DESCRIPTION
#-----------------      --------------        ------------------------------
 DEPT        .F                      :        1  DEPTH
 CALI        .IN                     :        2  
 GR          .GAPI                   :        3  
 NPHI        .%                      :        4  
 RHOB        .G/C3                   :        5  
 DRHO        .G/C3                   :        6  
 DT          .US/F                   :        7  
 SP          .MV                     :        8  
 ILD         .OHMM                   :        9  
 ILM         .OHMM                   :        10 
 SFL         .OHMM                   :        11 
 LLD         .OHMM                   :        12 
 LLS         .OHMM                   :        13 
 MSFL        .OHMM                   :        14 
~PARAMETER INFORMATION       
#MNEM.UNIT                  VALUE             DESCRIPTION OF MNEMONIC
#---------             ---------------        ------------------------------
 EKB .F                       30.0000:        KELLY BUSHING
 TD  .F                     2125.0000:        TOTAL DEPTH
 BHT .F                        0.0000:        BOTTOM HOLE TEMPERATURE
 BS  .                         8.5000:        BIT SIZE
 FD  .                        10.3000:        FLUID DENSITY
 CSIZ.                         9.6250:        CASING SIZE
 CBD .F                     1519.0000:        CASING DRILLER 1
 CBL .F                     1520.0000:        CASING LOGGER 1
 DFT .                  Miscellaneous:        TYPE FLUID IN HOLE
 DFV .                        47.0000:        VISCOSITY
 DFPH.                         8.5000:        PH
 DFL .                        14.0000:        FLUID LOSS
 RMS .                         0.1600:        RM
 MST .F                       43.0000:        RM MEAS. TEMP.
 RMF .                         0.1100:        RMF
 MFST.F                       43.0000:        RMF MEAS. TEMP.
 RMC .                         0.1200:        RMC
 MCST.F                       43.0000:        RMC MEAS. TEMP.
~OTHER INFORMATION
~A    DEPTH        CALI          GR        NPHI        RHOB        DRHO          DT          SP         ILD         ILM         SFL         LLD         LLS        MSFL  
# ...
  1970.0000     10.5989     70.7419     27.6006      2.4602      0.0197     94.4805   -999.2500   -999.2500   -999.2500   -999.2500     13.3566     10.7135      8.5259  
  1970.5000     10.2839     72.5609     28.3838      2.4586      0.0290     93.5461   -999.2500   -999.2500   -999.2500   -999.2500     13.3068     11.0332     10.1609  
  1971.0000      9.8383     74.1298     28.2641      2.4508      0.0220     93.4039   -999.2500   -999.2500   -999.2500   -999.2500     13.5867     11.3624     11.0779  
  1971.5000      9.7180     75.0163     27.2415      2.4578      0.0175     85.2703   -999.2500   -999.2500   -999.2500   -999.2500     13.8724     11.7015     11.5090  
  1972.0000      9.6776     75.3141     26.8575      2.4827      0.0269     93.1423   -999.2500   -999.2500   -999.2500   -999.2500     14.0481     11.7818     11.5691  
  1972.5000      9.6496     75.2401     26.3301      2.5059      0.0428     75.9232   -999.2500   -999.2500   -999.2500   -999.2500     14.0438     11.6961     11.4804  
  1973.0000      9.6233     75.7482     26.6163      2.4955      0.0238     79.4550   -999.2500   -999.2500   -999.2500   -999.2500     14.0212     11.6109     11.4851  
  1973.5000      9.6051     75.7441     26.9031      2.4829      0.0149     92.5264   -999.2500   -999.2500   -999.2500   -999.2500     13.9640     11.5999     11.6298  
  1974.0000      9.5810     74.6224     27.1420      2.4840      0.0192     93.0393   -999.2500   -999.2500   -999.2500   -999.2500     14.2190     11.6589     12.1356  
  1974.5000      9.5726     73.7052     27.1292      2.4915      0.0221     93.7047   -999.2500   -999.2500   -999.2500   -999.2500     14.4251     11.8093     11.6047  
  1975.0000      9.5596     72.7148     26.7426      2.4833      0.0204     94.5583   -999.2500   -999.2500   -999.2500   -999.2500     14.4496     12.2020     10.4641  
  1975.5000      9.5379     71.3962     26.8321      2.4812      0.0172     95.5361   -999.2500   -999.2500   -999.2500   -999.2500     14.6296     12.4626      9.4481  
  1976.0000      9.5143     70.6931     26.8902      2.4683      0.0166     97.3869   -999.2500   -999.2500   -999.2500   -999.2500     14.4052     12.5131      8.5706  
  1976.5000      9.4915     70.3779     26.5692      2.4571      0.0164    100.0534   -999.2500   -999.2500   -999.2500   -999.2500     13.9953     11.9212      7.3832  
  1977.0000      9.4789     69.5961     25.9163      2.4548      0.0236    101.6959   -999.2500   -999.2500   -999.2500   -999.2500     13.6254     11.6098      7.4135  
  1977.5000      9.4596     67.7275     25.5722      2.4559      0.0426     97.2890   -999.2500   -999.2500   -999.2500   -999.2500     13.4010     11.2630      8.7789  
  1978.0000      9.4270     65.0878     25.4175      2.4573      0.0629    100.1449   -999.2500   -999.2500   -999.2500   -999.2500     12.8059     11.0952      9.4528  
  1978.5000      9.5592     63.4688     25.9412      2.4264      0.0557     97.2141   -999.2500   -999.2500   -999.2500   -999.2500     13.2526     11.3466     10.5396  
  1979.0000      9.8177     63.2454     27.1583      2.4108      0.0310     98.5611   -999.2500   -999.2500   -999.2500   -999.2500     13.8666     11.6038     11.2268  
  1979.5000      9.8843     63.5207     27.4780      2.4526      0.0512    153.0284   -999.2500   -999.2500   -999.2500   -999.2500     14.1246     11.8668     11.6765  
  1980.0000      9.7386     63.5300     27.9005      2.4303     -0.0002     95.7637   -999.2500   -999.2500   -999.2500   -999.2500     14.3979     12.1358     11.6329  
  1980.5000      9.8120     65.8096     28.5046      2.4082      0.0015     97.1223   -999.2500   -999.2500   -999.2500   -999.2500     14.0813     12.0516     10.5717  
  1981.0000      9.8049     67.9172     27.9066      2.4312      0.0086     97.8927   -999.2500   -999.2500   -999.2500   -999.2500     13.8722     11.7715      8.2311  
  1981.5000      9.5650     68.6379     26.8824      2.4561      0.0213     92.4816   -999.2500   -999.2500   -999.2500   -999.2500     13.5319     11.4980      6.2041  
  1982.0000      9.5529     69.3221     26.1005      2.4701      0.0298     84.6599   -999.2500   -999.2500   -999.2500   -999.2500     13.3439     11.1354      6.2450  
  1982.5000      9.5695     67.3491     25.6924      2.4587      0.0322     96.2844   -999.2500   -999.2500   -999.2500   -999.2500     13.4090     11.0851      8.6763  
  1983.0000      9.5709     64.5059     26.0007      2.4477      0.0306     95.0493   -999.2500   -999.2500   -999.2500   -999.2500     13.5206     11.0986     10.4218  
  1983.5000      9.5916     62.9995     26.3809      2.4334      0.0220     95.8147   -999.2500   -999.2500   -999.2500   -999.2500     13.4141     11.5373      9.5122  
  1984.0000      9.7410     63.3733     26.3218      2.4317      0.0285     90.2793   -999.2500   -999.2500   -999.2500   -999.2500     13.2375     11.3584      7.9099  
  1984.5000      9.9540     63.6349     25.5663      2.4424      0.0417    101.8118   -999.2500   -999.2500   -999.2500   -999.2500     12.9720     11.1809      6.5989  
  1985.0000      9.7910     62.9250     24.8763      2.4452      0.0578     97.6755   -999.2500   -999.2500   -999.2500   -999.2500     12.8384     11.1466      6.1153  
  1985.5000      9.6625     61.0048     24.8775      2.4362      0.0655    101.2585   -999.2500   -999.2500   -999.2500   -999.2500     12.9237     11.2734      6.1852  
  1986.0000      9.8329     57.8396     25.3772      2.3937      0.0718     99.1474   -999.2500   -999.2500   -999.2500   -999.2500     12.9759     11.2544      5.9645  
  1986.5000     10.2425     55.7552     26.3891      2.3894      0.0964     98.1020   -999.2500   -999.2500   -999.2500   -999.2500     13.0149     11.0656      4.6545  
  1987.0000      9.9431     54.2950     26.9048      2.3928      0.1075     74.5129   -999.2500   -999.2500   -999.2500   -999.2500     13.1419     11.1564      5.7737  
  1987.5000      9.8479     53.7636     27.1101      2.3977      0.1171    101.2260   -999.2500   -999.2500   -999.2500   -999.2500     13.4660     11.3486      8.8309  
  1988.0000      9.7007     55.8122     27.0482      2.4050      0.1007    100.3004   -999.2500   -999.2500   -999.2500   -999.2500     13.8355     11.8912     10.0797  
  1988.5000      9.9432     57.2280     27.2848      2.3923      0.0628    100.7649   -999.2500   -999.2500   -999.2500   -999.2500     14.2068     12.0541     10.5022  
  1989.0000     10.0254     57.4099     28.3349      2.3941      0.0300     98.5825   -999.2500   -999.2500   -999.2500   -999.2500     14.0526     11.9954     10.3473  
  1989.5000      9.7293     57.4997     27.7995      2.4168      0.0459     74.1803   -999.2500   -999.2500   -999.2500   -999.2500     13.9000     11.9371     10.0897  
  1990.0000      9.5681     58.4064     27.2093      2.4232      0.0454     96.6245   -999.2500   -999.2500   -999.2500   -999.2500     13.7342     11.8938      9.3576  
  1990.5000      9.4580     59.8280     26.8491      2.3912      0.0212    100.0905   -999.2500   -999.2500   -999.2500   -999.2500     13.8178     11.8679      7.9658  
  1991.0000      9.4569     60.5294     26.7025      2.3876      0.0118     89.2043   -999.2500   -999.2500   -999.2500   -999.2500     14.0291     12.0554      7.2698  
  1991.5000      9.4417     60.8147     26.3428      2.4077      0.0122    104.0289   -999.2500   -999.2500   -999.2500   -999.2500     14.1230     12.2849      8.9174  
  1992.0000      9.3573     61.3056     26.8449      2.4262      0.0242    105.1202   -999.2500   -999.2500   -999.2500   -999.2500     13.6510     11.6520     10.8481  
  1992.5000      9.3518     62.4605     27.5831      2.4228      0.0300    102.6891   -999.2500   -999.2500   -999.2500   -999.2500     13.0133     10.7405     10.1112  
  1993.0000      9.4067     61.1139     27.9166      2.4039      0.0069    106.7292   -999.2500   -999.2500   -999.2500   -999.2500     12.4054     10.6873      9.5117  
  1993.5000      9.3351     60.0633     28.0575      2.3979      0.0026     77.1325   -999.2500   -999.2500   -999.2500   -999.2500     12.3399     10.9035     10.1349  
