~VERSION INFORMATION
 VERS.                           2.00:        CWLS LOG ASCII STANDARD - VERSION 2.00
 WRAP.                             NO:        ONE LINE PER DEPTH STEP
~WELL INFORMATION
#MNEM.UNIT                   DATA             INFORMATION
#----------             --------------        ------------------------------
 STRT.F                      999.0000:        START DEPTH
 STOP.F                     2350.0000:        STOP DEPTH
 STEP.F                        0.5000:        STEP VALUE
 NULL.                      -999.2500:        NULL VALUE
 COMP.             UNITED STATES NAVY:        COMPANY  
 LOC .                   14  22N  18W:        LOCATION   
 DATE.                        3/19/68:        LOG DATE 
 WELL.                SOUTH BARROW #7:        WELL     
 UWI .                   500232000100:        UNIQUE WELL ID 
 API .                   500232000100:        UNIQUE WELL IDENTIFIER 
 FLD .                   SOUTH BARROW:        FIELD    
 CNTY.                         NPR #4:        COUNTY  
 STAT.                         ALASKA:        STATE   
 CTRY.                            USA:        COUNTRY 
 OPER.             UNITED STATES NAVY:        OPERATOR  
 SRVC.                   SCHLUMBERGER:        SERVICE COMPANY 
 LAT .                         0.0000:        LATITUDE
 LON .                         0.0000:        LONGITUDE
 DIGS.               CENTER LINE DATA:        DIGITIZING COMPANY 
~CURVE INFORMATION      
#MNEM        .UNIT         API CODE           CURVE DESCRIPTION
#-----------------      --------------        ------------------------------
 DEPT        .F                      :        1  DEPTH
 SP          .MV                     :        2  
 ILD         .OHMM                   :        3  
 ASN         .OHMM                   :        4  
 CILD        .OHMM                   :        5  
 CALI        .IN                     :        6  
 DT          .US/F                   :        7  
~PARAMETER INFORMATION       
#MNEM.UNIT                  VALUE             DESCRIPTION OF MNEMONIC
#---------             ---------------        ------------------------------
 EKB .F                       36.0000:        KELLY BUSHING
 TD  .F                     2351.0000:        TOTAL DEPTH
 BHT .F                        0.0000:        BOTTOM HOLE TEMPERATURE
 BS  .                         9.6250:        BIT SIZE
 FD  .                        76.5000:        FLUID DENSITY
 CSIZ.                        10.7500:        CASING SIZE
 CBD .F                      998.0000:        CASING DRILLER 1
 CBL .F                      999.0000:        CASING LOGGER 1
 DFT .                            Gel:        TYPE FLUID IN HOLE
 DFV .                        45.0000:        VISCOSITY
 DFPH.                         9.5000:        PH
 DFL .                         7.0000:        FLUID LOSS
 RMS .                         5.4300:        RM
 MST .F                       42.0000:        RM MEAS. TEMP.
 RMF .                         5.1700:        RMF
 MFST.F                       59.0000:        RMF MEAS. TEMP.
 RMC .                         5.0900:        RMC
 MCST.F                       56.0000:        RMC MEAS. TEMP.
~OTHER INFORMATION
~A    DEPTH          SP         ILD         ASN        CILD        CALI          DT  
# ...
  1422.0000    -48.9497      7.4143      7.6842    130.1429      9.5464    115.4592  
  1422.5000    -48.9799      7.3754      7.6862    131.6851      9.5556    115.0099  
  1423.0000    -49.6871      7.3252      7.7504    133.2010      9.5729    116.7784  
  1423.5000    -50.6683      7.2797      7.7715    134.8168      9.5902    118.9678  
  1424.0000    -51.3315      7.2193      7.7433    136.3029      9.6075    120.8473  
  1424.5000    -51.5145      7.1769      7.6678    137.0991      9.6248    123.0896  
  1425.0000    -51.0454      7.1948      7.6004    135.8678      9.6422    124.2388  
  1425.5000    -50.5819      7.1834      7.5667    134.8330      9.6595    124.2084  
  1426.0000    -50.1198      7.2024      7.5579    134.1514      9.6710    122.9655  
  1426.5000    -49.8536      7.1965      7.5649    134.0852      9.6772    120.9263  
  1427.0000    -49.8037      7.2340      7.6056    134.0273      9.6843    120.1277  
  1427.5000    -49.7644      7.2996      7.6623    133.4208      9.6814    120.4957  
  1428.0000    -49.7019      7.3717      7.7349    132.6156      9.6732    122.3178  
  1428.5000    -49.6943      7.4152      7.7816    131.3553      9.6701    123.8878  
  1429.0000    -49.7365      7.4685      7.7940    130.0300      9.6753    124.4041  
  1429.5000    -49.8259      7.4551      7.7835    129.2839      9.6896    122.9382  
  1430.0000    -49.9975      7.4293      7.7887    129.6680      9.6924    121.6945  
  1430.5000    -50.2414      7.4603      7.8254    129.7771      9.6962    121.0932  
  1431.0000    -50.3547      7.5365      7.8862    129.2135      9.6993    121.0612  
  1431.5000    -50.4616      7.5612      7.9243    128.6333      9.7058    121.2125  
  1432.0000    -50.5196      7.5840      7.9545    128.1542      9.7090    121.1019  
  1432.5000    -50.5517      7.6097      7.9507    128.1644      9.7116    120.7217  
  1433.0000    -50.4590      7.5258      7.9140    128.9833      9.7094    120.2568  
  1433.5000    -50.3615      7.4219      7.8362    130.4769      9.7074    120.2353  
  1434.0000    -50.3471      7.3003      7.7349    132.6387      9.6977    120.1866  
  1434.5000    -50.1879      7.1596      7.6226    135.0584      9.7010    120.0418  
  1435.0000    -50.0287      7.0444      7.5346    138.1331      9.7024    119.8525  
  1435.5000    -49.8585      6.9387      7.4798    140.8052      9.6960    119.7726  
  1436.0000    -49.6041      6.8275      7.3655    143.0693      9.6902    119.8438  
  1436.5000    -49.5821      6.6692      7.1758    145.7026      9.6838    120.9297  
  1437.0000    -49.8184      6.5044      6.9879    148.6717      9.6775    121.6464  
  1437.5000    -49.8492      6.3882      6.8859    151.6910      9.6625    122.1247  
  1438.0000    -49.8800      6.2840      6.7773    154.8651      9.6458    122.7884  
  1438.5000    -49.8814      6.1795      6.6639    157.5087      9.6291    124.2031  
  1439.0000    -49.8466      6.1168      6.5719    159.2592      9.6124    125.5315  
  1439.5000    -49.8224      6.0455      6.5126    160.6779      9.5956    127.8456  
  1440.0000    -49.7571      6.0065      6.4837    162.1575      9.5789    129.3252  
  1440.5000    -49.7339      5.9888      6.4606    163.0479      9.5734    130.0246  
  1441.0000    -49.6339      5.9745      6.4394    162.4960      9.5725    130.7684  
  1441.5000    -48.8224      5.9860      6.4098    162.5000      9.5717    131.4486  
  1442.0000    -48.5687      5.9388      6.3737    162.6357      9.5708    132.1617  
  1442.5000    -48.3366      5.9282      6.3538    163.0118      9.5700    132.5067  
  1443.0000    -48.2409      5.9142      6.3680    163.9102      9.5691    132.0523  
  1443.5000    -48.2216      5.8909      6.3777    165.1175      9.5707    131.8413  
  1444.0000    -48.3703      5.8660      6.3286    166.0967      9.5705    132.3579  
  1444.5000    -48.7501      5.8215      6.2821    166.4859      9.5631    132.7374  
  1445.0000    -48.8215      5.8328      6.2937    166.5717      9.5601    132.9482  
  1445.5000    -48.7876      5.8976      6.3851    166.3489      9.5604    132.8394  
  1446.0000    -48.6195      5.9402      6.4323    165.6248      9.5607    131.4097  
  1446.5000    -48.4086      5.9335      6.4138    164.7396      9.5610    130.7322  
  1447.0000    -48.0852      5.9500      6.3617    162.7818      9.5613    130.8762  
  1447.5000    -47.8284      6.0830      6.3853    159.8537      9.5616    130.9254  
  1448.0000    -47.7517      6.2131      6.5562    157.1695      9.5619    130.8382  
  1448.5000    -47.6166      6.3481      6.7575    155.9652      9.5622    130.5692  
  1449.0000    -47.2139      6.4365      6.9206    155.6522      9.5621    130.4996  
  1449.5000    -47.0862      6.5438      7.0625    155.2062      9.5652    130.5325  
  1450.0000    -47.4812      6.5974      7.2265    153.0162      9.5641    130.4436  
  1450.5000    -48.2725      6.5769      7.0809    150.1782      9.5686    129.7596  
  1451.0000    -49.1653      6.5478      6.9540    148.5316      9.5734    126.7472  
  1451.5000    -49.8387      6.5191      6.8665    147.8844      9.5781    122.5105  
  1452.0000    -50.3982      6.5352      6.8507    147.5709      9.5828    119.5099  
  1452.5000    -50.3300      6.5814      6.8757    147.3974      9.5876    118.3784  
  1453.0000    -50.1074      6.5975      6.9137    147.0123      9.5923    118.7672  
  1453.5000    -49.5573      6.6351      6.9538    146.5590      9.5970    120.6308  
  1454.0000    -48.8202      6.6965      7.0102    145.3924      9.6018    123.2610  
  1454.5000    -48.1508      6.7140      7.0406    144.5725      9.6065    124.9422  
  1455.0000    -47.5211      6.7479      7.0244    144.2359      9.6112    126.1771  
  1455.5000    -47.1437      6.7236      7.0186    144.0194      9.6160    126.2564  
  1456.0000    -47.0064      6.6892      7.0094    144.3562      9.6207    125.2645  
  1456.5000    -47.3723      6.6629      7.0045    146.0027      9.6312    123.9513  
  1457.0000    -47.6357      6.6200      7.0036    147.1697      9.6418    123.7463  
  1457.5000    -47.7359      6.5742      6.9766    148.1463      9.6524    123.9919  
  1458.0000    -47.7013      6.5276      6.8601    148.8998      9.6630    124.5433  
  1458.5000    -47.6804      6.4627      6.7447    148.3672      9.6635    125.2129  
  1459.0000    -47.6355      6.5009      6.7289    147.8345      9.6551    125.9131  
  1459.5000    -47.5264      6.5431      6.8251    147.7573      9.6440    126.3923  
  1460.0000    -47.5970      6.6406      6.9809    147.2866      9.6425    127.4992  
  1460.5000    -47.8660      6.7942      7.1311    146.2481      9.6408    128.7444  
  1461.0000    -48.1015      6.9946      7.2612    141.3467      9.6417    129.8567  
  1461.5000    -48.3347      7.1810      7.4504    136.8264      9.6414    130.4684  
  1462.0000    -48.5508      7.4426      7.7492    133.4296      9.6477    129.8067  
  1462.5000    -48.6670      7.6971      8.0317    130.5831      9.6579    127.4464  
  1463.0000    -48.9317      7.8913      8.2217    127.0289      9.6693    125.5243  
  1463.5000    -49.3631      8.1084      8.3590    122.5134      9.6748    124.8690  
  1464.0000    -50.1575      8.3142      8.5495    119.3971      9.6811    124.3129  
  1464.5000    -51.0859      8.5528      8.8751    117.7349      9.6869    123.3474  
  1465.0000    -52.5471      8.8367      9.2480    115.8796      9.6994    120.3457  
  1465.5000    -52.7978      8.9733      9.4719    113.8380      9.7087    117.2053  
  1466.0000    -51.4833      8.9219      9.4444    113.4245      9.7012    114.4415  
  1466.5000    -49.9214      8.7876      9.2367    113.7306      9.6927    114.6096  
  1467.0000    -48.8501      8.6532      8.9610    113.4650      9.6887    115.3124  
  1467.5000    -48.4387      8.6322      8.8095    113.1264      9.6865    115.3741  
  1468.0000    -47.9727      8.7062      8.8804    113.5139      9.6815    115.9098  
  1468.5000    -47.4158      8.8075      9.0460    114.0156      9.6774    117.3436  
