~VERSION INFORMATION
 VERS.                           2.00:        CWLS LOG ASCII STANDARD - VERSION 2.00
 WRAP.                             NO:        ONE LINE PER DEPTH STEP
~WELL INFORMATION
#MNEM.UNIT                   DATA             INFORMATION
#----------             --------------        ------------------------------
 STRT.F                       50.0000:        START DEPTH
 STOP.F                     2158.0000:        STOP DEPTH
 STEP.F                        0.5000:        STEP VALUE
 NULL.                      -999.2500:        NULL VALUE
 COMP.              HUSKY OIL COMPANY:        COMPANY  
 LOC .                   25  22N  17W:        LOCATION   
 DATE.                        2-19-77:        LOG DATE 
 WELL.               SOUTH BARROW #14:        WELL     
 UWI .                   500232000900:        UNIQUE WELL ID 
 API .                   500232000900:        UNIQUE WELL IDENTIFIER 
 FLD .               SOUTH BARROW GAS:        FIELD    
 CNTY.                    NORTH SLOPE:        COUNTY  
 STAT.                         ALASKA:        STATE   
 CTRY.                            USA:        COUNTRY 
 OPER.              HUSKY OIL COMPANY:        OPERATOR  
 SRVC.                   SCHLUMBERGER:        SERVICE COMPANY 
 LAT .                         0.0000:        LATITUDE
 LON .                         0.0000:        LONGITUDE
 DIGS.               CENTER LINE DATA:        DIGITIZING COMPANY 
~CURVE INFORMATION      
#MNEM        .UNIT         API CODE           CURVE DESCRIPTION
#-----------------      --------------        ------------------------------
 DEPT        .F                      :        1  DEPTH
 LLS         .OHMM                   :        2  
 LLD         .OHMM                   :        3  
 SP          .MV                     :        4  
 ILD         .OHMM                   :        5  
 ILM         .OHMM                   :        6  
 LL8         .OHMM                   :        7  
 CALI        .IN                     :        8  
 GR          .GAPI                   :        9  
 NPHI        .%                      :        10 
 DPHI        .%                      :        11 
 RHOB        .G/C3                   :        12 
 DRHO        .G/C3                   :        13 
 DT          .US/F                   :        14 
~PARAMETER INFORMATION       
#MNEM.UNIT                  VALUE             DESCRIPTION OF MNEMONIC
#---------             ---------------        ------------------------------
 EKB .F                       31.0000:        KELLY BUSHING
 TD  .F                     1042.0000:        TOTAL DEPTH
 BHT .F                       62.0000:        BOTTOM HOLE TEMPERATURE
 BS  .                         6.0000:        BIT SIZE
 FD  .                        10.7000:        FLUID DENSITY
 CSIZ.                         7.0000:        CASING SIZE
 CBD .F                     1947.0000:        CASING DRILLER 1
 CBL .F                     1946.0000:        CASING LOGGER 1
 DFT .                  Miscellaneous:        TYPE FLUID IN HOLE
 DFV .                        50.0000:        VISCOSITY
 DFPH.                        10.0000:        PH
 DFL .                         0.0000:        FLUID LOSS
 RMS .                         0.1500:        RM
 MST .F                       50.0000:        RM MEAS. TEMP.
 RMF .                         0.1600:        RMF
 MFST.F                       61.0000:        RMF MEAS. TEMP.
 RMC .                         0.0000:        RMC
 MCST.F                        0.0000:        RMC MEAS. TEMP.
~OTHER INFORMATION
~A    DEPTH         LLS         LLD          SP         ILD         ILM         LL8        CALI          GR        NPHI        DPHI        RHOB        DRHO          DT  
# ...
  1706.0000   -999.2500   -999.2500    -45.1051     11.3544     11.5802     14.2509      8.3282    148.0650     44.2593     16.7478      2.4082      0.0130    115.3172  
  1706.5000   -999.2500   -999.2500    -45.0362     11.4738     11.7042     14.2698      8.3668    138.7312     43.3873     15.3823      2.3888      0.0042    116.2410  
  1707.0000   -999.2500   -999.2500    -45.1008     11.5628     11.7884     14.8229      8.3874    134.3934     43.7506     15.8736      2.4173      0.0312    115.9387  
  1707.5000   -999.2500   -999.2500    -45.1908     11.6339     11.8610     15.9333      8.4188    134.5397     44.9403     15.9418      2.4081      0.0421    115.0582  
  1708.0000   -999.2500   -999.2500    -45.5087     11.4743     11.7135     16.5055      8.3695    137.3499     46.2144     14.4086      2.3746      0.0250    114.2061  
  1708.5000   -999.2500   -999.2500    -45.8731     11.1518     11.4349     16.2717      8.3477    143.2319     46.4275     16.2599      2.3710      0.0159    113.8081  
  1709.0000   -999.2500   -999.2500    -46.4618     10.6789     10.9653     15.4532      8.3248    148.0845     45.5231     17.4616      2.3723      0.0097    114.2607  
  1709.5000   -999.2500   -999.2500    -47.0850     10.1724     10.4642     14.5928      8.2914    141.7872     43.1588     17.6782      2.4040      0.0212    115.7281  
  1710.0000   -999.2500   -999.2500    -47.3856      9.6808      9.9583     13.5885      8.3852    128.8043     40.4005     17.1121      2.4651      0.0550    117.1809  
  1710.5000   -999.2500   -999.2500    -47.4617      9.2129      9.4768     12.1308      8.4775    115.3370     39.0126     14.5516      2.4463      0.0584    116.4212  
  1711.0000   -999.2500   -999.2500    -47.0782      8.7676      9.0186     11.1089      8.4762    104.2283     38.3478     11.4046      2.4367      0.0518    115.2007  
  1711.5000   -999.2500   -999.2500    -46.5667      8.5051      8.7171     10.3635      8.3941     97.6440     38.3589     12.9543      2.3963      0.0361    112.3890  
  1712.0000   -999.2500   -999.2500    -46.2476      8.8248      9.0448     10.4735      8.3444     94.5641     39.6473     13.8347      2.3700      0.0335    108.4456  
  1712.5000   -999.2500   -999.2500    -46.2640      9.1565      9.3848     11.1739      8.4089     94.0828     41.2088     16.0513      2.3596      0.0320    107.6778  
  1713.0000   -999.2500   -999.2500    -46.6815      9.5007      9.7375     12.4070      8.4021     91.6081     42.4277     17.5947      2.3806      0.0496    107.9844  
  1713.5000   -999.2500   -999.2500    -47.3409      9.8579     10.0981     14.8144      8.4048     88.8505     43.0868     17.8515      2.3914      0.0491    108.4937  
  1714.0000   -999.2500   -999.2500    -48.3420     10.1977     10.4436     16.7546      8.3682     83.4847     43.3156     16.8396      2.3952      0.0378    108.8828  
  1714.5000   -999.2500   -999.2500    -49.1164     10.5462     10.8051     15.1456      8.3239     79.7062     41.5558     16.1695      2.4018      0.0294    107.6181  
  1715.0000   -999.2500   -999.2500    -49.5828     10.9932     11.2895     13.3426      8.2928     79.1193     38.1476     16.0286      2.4010      0.0343    105.4398  
  1715.5000   -999.2500   -999.2500    -49.8502     11.4860     11.7955     13.1218      8.2776     78.1939     35.7637     15.7522      2.3933      0.0342    101.8914  
  1716.0000   -999.2500   -999.2500    -49.9114     11.6331     11.8902     13.4062      8.2800     77.6729     34.2460     15.7314      2.3830      0.0352     97.4404  
  1716.5000   -999.2500   -999.2500    -49.9356     11.3495     11.6003     13.5216      8.2919     77.9756     34.1722     16.2045      2.4042      0.0460     95.8320  
  1717.0000   -999.2500   -999.2500    -50.1000     11.0728     11.3175     13.4038      8.3005     78.1734     34.4313     17.0119      2.4283      0.0544     95.9502  
  1717.5000   -999.2500   -999.2500    -50.2105     10.8029     11.0416     13.3907      8.3003     77.1826     34.8268     15.4786      2.3839      0.0302     97.0976  
  1718.0000   -999.2500   -999.2500    -49.6856     10.5395     10.7724     13.3090      8.3000     76.0543     35.3041     14.2664      2.3968      0.0363     98.8545  
  1718.5000   -999.2500   -999.2500    -49.7612     10.4396     10.6460     13.1676      8.2984     74.5256     35.8156     16.6953      2.4093      0.0483     99.8907  
  1719.0000   -999.2500   -999.2500    -49.4056     10.6501     10.9283     12.7084      8.3006     74.1995     36.1426     15.9588      2.3949      0.0243     97.8055  
  1719.5000   -999.2500   -999.2500    -48.8819     11.0959     11.3858     12.1293      8.3022     74.6034     36.4215     15.8995      2.3829      0.0392     88.5795  
  1720.0000   -999.2500   -999.2500    -48.4442     11.5604     11.8625     11.8846      8.3196     72.7343     37.1919     16.4285      2.3876      0.0680     99.3655  
  1720.5000   -999.2500   -999.2500    -48.8910     12.0444     12.3591     15.7630      8.4430     70.1299     38.9338     14.9223      2.3891      0.0804     92.8320  
  1721.0000   -999.2500   -999.2500    -49.2562     12.3371     12.8765     20.6911      8.4332     69.5253     40.0534     14.0731      2.4357      0.0844     91.2354  
  1721.5000   -999.2500   -999.2500    -49.3750     11.2490     11.7466     21.8567      8.3796     68.5846     39.1707     12.7944      2.4388      0.0650    116.4412  
  1722.0000   -999.2500   -999.2500    -49.0501     10.2569     10.7105     17.3571      8.3363     64.3931     32.3644     12.2201      2.4136      0.0473     97.0373  
  1722.5000   -999.2500   -999.2500    -48.3974      9.3523      9.7659     10.4983      8.3453     67.7125     28.5784     13.5311      2.4466      0.0582     94.3250  
  1723.0000   -999.2500   -999.2500    -47.9795      8.5274      8.9046      8.1956      8.4036     74.1995     29.6101     14.7719      2.4796      0.0775     91.6110  
  1723.5000   -999.2500   -999.2500    -47.4433      7.8134      8.1421      7.9856      8.4037     83.7906     33.3313     12.5348      2.4647      0.0482     89.2522  
  1724.0000   -999.2500   -999.2500    -47.2342      7.1641      7.4654      8.0963      8.3967     92.9482     38.0058      9.5582      2.4401      0.0219     91.9931  
  1724.5000   -999.2500   -999.2500    -47.2620      6.5231      6.8095      8.2085      8.3745     96.7581     43.4887     12.0149      2.4383      0.0299    102.8740  
  1725.0000   -999.2500   -999.2500    -47.3329      6.3157      6.4565      8.3203      8.4086     97.2770     46.2138     12.8121      2.4414      0.0480    109.0190  
  1725.5000   -999.2500   -999.2500    -47.3124      6.2306      6.3524      8.4205      8.4005     97.8700     46.7063     13.4004      2.4406      0.0381    115.1933  
  1726.0000   -999.2500   -999.2500    -47.2863      6.1649      6.2889      8.5218      8.3307     99.7619     46.8327     13.3580      2.4391      0.0345    118.8519  
  1726.5000   -999.2500   -999.2500    -47.3119      6.1192      6.2388      8.5560      8.2779    102.1017     45.1143     13.2370      2.4539      0.0403    120.3381  
  1727.0000   -999.2500   -999.2500    -47.3352      6.0921      6.2119      8.2382      8.3431    100.5595     44.7819     13.1338      2.4782      0.0563    120.4304  
  1727.5000   -999.2500   -999.2500    -47.4299      6.0643      6.1824      8.0457      8.3403     97.6119     44.9448     12.2416      2.4567      0.0596    118.8356  
  1728.0000   -999.2500   -999.2500    -47.4534      6.0488      6.1672      7.9506      8.3704     97.0869     46.4844     10.4713      2.4185      0.0391    116.8297  
  1728.5000   -999.2500   -999.2500    -47.4632      6.0204      6.1384      7.8978      8.5063     99.4940     48.2661     12.9071      2.4033      0.0250    117.1465  
  1729.0000   -999.2500   -999.2500    -47.4355      5.9757      6.0927      7.8543      8.4434     99.7594     48.6591     14.8129      2.4119      0.0228    117.4120  
  1729.5000   -999.2500   -999.2500    -47.3529      5.9910      6.1077      7.8397      8.3250     99.9328     48.6229     15.6496      2.4276      0.0456    119.3121  
