~VERSION INFORMATION
 VERS.                           2.00:        CWLS LOG ASCII STANDARD - VERSION 2.00
 WRAP.                             NO:        ONE LINE PER DEPTH STEP
~WELL INFORMATION
#MNEM.UNIT                   DATA             INFORMATION
#----------             --------------        ------------------------------
 STRT.F                       96.0000:        START DEPTH
 STOP.F                     2280.0000:        STOP DEPTH
 STEP.F                        0.5000:        STEP VALUE
 NULL.                      -999.2500:        NULL VALUE
 COMP.    USGS/NPR HUSKY OIL OPERATOR:        COMPANY  
 LOC .                   23  22N  17W:        LOCATION   
 DATE.                        9/11/80:        LOG DATE 
 WELL.               SOUTH BARROW #15:        WELL     
 UWI .                   500232001600:        UNIQUE WELL ID 
 API .                   500232001600:        UNIQUE WELL IDENTIFIER 
 FLD .                   SOUTH BARROW:        FIELD    
 CNTY.                    NORTH SLOPE:        COUNTY  
 STAT.                         ALASKA:        STATE   
 CTRY.                            USA:        COUNTRY 
 OPER.    USGS/NPR HUSKY OIL OPERATOR:        OPERATOR  
 SRVC.                   SCHLUMBERGER:        SERVICE COMPANY 
 LAT .                         0.0000:        LATITUDE
 LON .                         0.0000:        LONGITUDE
 DIGS.               CENTER LINE DATA:        DIGITIZING COMPANY 
~CURVE INFORMATION      
#MNEM        .UNIT         API CODE           CURVE DESCRIPTION
#-----------------      --------------        ------------------------------
 DEPT        .F                      :        1  DEPTH
 CALI        .IN                     :        2  
 GR          .GAPI                   :        3  
 RHOB        .G/C3                   :        4  
 DRHO        .G/C3                   :        5  
 NPHI        .%                      :        6  
 DT          .US/F                   :        7  
 SP          .MV                     :        8  
 ILD         .OHMM                   :        9  
 ILM         .OHMM                   :        10 
 SFL         .OHMM                   :        11 
 LLD         .OHMM                   :        12 
 LLS         .OHMM                   :        13 
 MSFL        .OHMM                   :        14 
~PARAMETER INFORMATION       
#MNEM.UNIT                  VALUE             DESCRIPTION OF MNEMONIC
#---------             ---------------        ------------------------------
 EKB .F                       30.0000:        KELLY BUSHING
 TD  .F                     2279.0000:        TOTAL DEPTH
 BHT .F                        0.0000:        BOTTOM HOLE TEMPERATURE
 BS  .                         8.5000:        BIT SIZE
 FD  .                        10.3000:        FLUID DENSITY
 CSIZ.                         9.6250:        CASING SIZE
 CBD .F                     1514.0000:        CASING DRILLER 1
 CBL .F                     1520.0000:        CASING LOGGER 1
 DFT .                  Miscellaneous:        TYPE FLUID IN HOLE
 DFV .                        43.0000:        VISCOSITY
 DFPH.                         0.0000:        PH
 DFL .                         0.0000:        FLUID LOSS
 RMS .                         0.1800:        RM
 MST .F                       48.0000:        RM MEAS. TEMP.
 RMF .                         0.1400:        RMF
 MFST.F                       48.0000:        RMF MEAS. TEMP.
 RMC .                         0.0000:        RMC
 MCST.F                        0.0000:        RMC MEAS. TEMP.
~OTHER INFORMATION
~A    DEPTH        CALI          GR        RHOB        DRHO        NPHI          DT          SP         ILD         ILM         SFL         LLD         LLS        MSFL  
# ...
  1560.0000     12.5470     85.0194      2.2952      0.0032     44.4137    128.6325   -999.2500   -999.2500   -999.2500   -999.2500      9.8564      7.2178      4.0538  
  1560.5000     13.1203     85.3510      2.3014      0.0037     43.5969    124.7547   -999.2500   -999.2500   -999.2500   -999.2500     10.0672      7.3449      3.8331  
  1561.0000     13.8761     83.8132      2.3265      0.0216     42.6375    115.0899   -999.2500   -999.2500   -999.2500   -999.2500     10.2910      7.2880      3.8765  
  1561.5000     13.9566     81.6934      2.3121      0.0207     41.8758    111.2976   -999.2500   -999.2500   -999.2500   -999.2500     10.9873      7.2315      4.2395  
  1562.0000     13.9946     81.8516      2.3090      0.0124     41.7408    112.3554   -999.2500   -999.2500   -999.2500   -999.2500     10.3738      7.1754      4.7792  
  1562.5000     13.9162     84.2690      2.3132      0.0048     42.0046    114.3679   -999.2500   -999.2500   -999.2500   -999.2500      9.6248      7.1300      5.0976  
  1563.0000     13.0779     85.9373      2.3253      0.0015     42.1537    114.6211   -999.2500   -999.2500   -999.2500   -999.2500      9.4018      7.0793      5.1258  
  1563.5000     13.0677     86.0805      2.3289      0.0005     42.1895    113.3469   -999.2500   -999.2500   -999.2500   -999.2500      9.3113      7.0881      5.4003  
  1564.0000     12.2639     84.2494      2.3358      0.0046     42.2341    112.5086   -999.2500   -999.2500   -999.2500   -999.2500      9.2295      7.1720      5.9889  
  1564.5000     12.3751     84.0586      2.3440      0.0132     42.5045    113.3854   -999.2500   -999.2500   -999.2500   -999.2500      9.4429      7.2570      5.9203  
  1565.0000     13.3726     84.0345      2.3574      0.0344     42.1700    114.6055   -999.2500   -999.2500   -999.2500   -999.2500      9.6521      7.3508      5.1601  
  1565.5000     12.9822     84.6293      2.3598      0.0174     41.0783    114.6009   -999.2500   -999.2500   -999.2500   -999.2500      9.6521      7.4566      4.4072  
  1566.0000     11.9252     85.9655      2.3495      0.0207     41.5025    114.2020   -999.2500   -999.2500   -999.2500   -999.2500      9.5766      7.5218      4.8866  
  1566.5000     11.2312     87.7573      2.3413      0.0350     42.6866    113.6836   -999.2500   -999.2500   -999.2500   -999.2500      9.4672      7.4839      5.3355  
  1567.0000     10.9000     87.7265      2.3088      0.0541     44.4955    114.2498   -999.2500   -999.2500   -999.2500   -999.2500      9.5017      7.4422      5.3167  
  1567.5000     11.0844     86.4736      2.2737      0.0829     45.0811    115.4564   -999.2500   -999.2500   -999.2500   -999.2500      9.5363      7.4319      5.2563  
  1568.0000     11.5793     85.6970      2.1995      0.0966     44.2676    116.2535   -999.2500   -999.2500   -999.2500   -999.2500      9.6064      7.4654      5.4076  
  1568.5000     11.9560     86.1839      2.1847      0.0405     42.8747    115.5672   -999.2500   -999.2500   -999.2500   -999.2500      9.6457      7.7633      5.5122  
  1569.0000     11.8563     85.8013      2.2401      0.0299     42.3705    116.9914   -999.2500   -999.2500   -999.2500   -999.2500      9.6142      7.8409      5.3541  
  1569.5000     11.2434     84.9030      2.3045      0.0579     42.0020    116.6348   -999.2500   -999.2500   -999.2500   -999.2500      9.5150      8.0114      5.5056  
  1570.0000     10.4640     84.7882      2.3101      0.0742     41.7253    117.0780   -999.2500   -999.2500   -999.2500   -999.2500      9.4717      8.0245      5.8880  
  1570.5000     10.6803     84.7831      2.2882      0.0912     42.0642    115.7001   -999.2500   -999.2500   -999.2500   -999.2500      9.4590      7.8909      6.1771  
  1571.0000     10.7455     84.7795      2.2558      0.0806     43.7778    114.3705   -999.2500   -999.2500   -999.2500   -999.2500      9.5432      7.8342      6.0550  
  1571.5000     11.2353     83.4226      2.2302      0.0879     45.1341    117.1193   -999.2500   -999.2500   -999.2500   -999.2500      9.6221      7.7370      5.6112  
  1572.0000     11.5343     81.1588      2.2065      0.1000     44.1386    115.8610   -999.2500   -999.2500   -999.2500   -999.2500      9.6229      7.5706      5.4287  
  1572.5000     11.9423     80.0316      2.1922      0.0762     42.8608    115.2545   -999.2500   -999.2500   -999.2500   -999.2500      9.6339      7.7766      6.1216  
  1573.0000     11.7774     79.6444      2.1958      0.0572     39.9129    114.8006   -999.2500   -999.2500   -999.2500   -999.2500      9.8357      7.9882      6.1791  
  1573.5000     11.4266     79.1331      2.2235      0.0344     38.2310    114.5418   -999.2500   -999.2500   -999.2500   -999.2500     10.5094      9.2437      5.9989  
  1574.0000     11.3345     78.6163      2.2624      0.0246     37.4120    114.9450   -999.2500   -999.2500   -999.2500   -999.2500     12.7804     10.7067      5.5787  
  1574.5000     11.0780     75.0696      2.2837      0.0269     36.4518    114.3281   -999.2500   -999.2500   -999.2500   -999.2500     15.9011     12.1946      4.8888  
  1575.0000     11.0116     69.4260      2.2222      0.0341     37.5803    113.4036   -999.2500   -999.2500   -999.2500   -999.2500     17.0211     12.9314      3.4160  
  1575.5000     11.2454     64.5447      2.1606      0.0196     40.9205    113.8899   -999.2500   -999.2500   -999.2500   -999.2500     16.4786     12.4473      2.8005  
  1576.0000     12.0149     66.0579      2.0948      0.0535     44.0038    114.1849   -999.2500   -999.2500   -999.2500   -999.2500     13.7075     10.6002      3.1070  
  1576.5000     13.0066     69.9268      2.0389      0.0675     45.5582    115.1300   -999.2500   -999.2500   -999.2500   -999.2500     11.3005      8.4689      3.2643  
  1577.0000     14.2576     73.6583      2.0482      0.0481     45.2571    117.5994   -999.2500   -999.2500   -999.2500   -999.2500      9.8903      7.8964      3.2097  
  1577.5000     14.8644     76.6427      2.1287      0.0440     44.8405    117.9782   -999.2500   -999.2500   -999.2500   -999.2500      9.2637      7.4184      3.3797  
  1578.0000     13.4431     78.5253      2.2197      0.0825     44.3591    117.2603   -999.2500   -999.2500   -999.2500   -999.2500      9.0183      7.4242      4.3372  
  1578.5000     11.9120     78.7367      2.1561      0.0601     41.8061    115.0435   -999.2500   -999.2500   -999.2500   -999.2500      9.4663      7.7969      5.6083  
  1579.0000     11.9827     79.4910      2.1561      0.0895     39.6343    112.9278   -999.2500   -999.2500   -999.2500   -999.2500     10.0948      8.1401      5.4016  
  1579.5000     12.0974     82.3492      2.1815      0.0343     38.1354    110.8885   -999.2500   -999.2500   -999.2500   -999.2500     10.1113      8.0986      4.7929  
  1580.0000     12.3555     85.5485      2.2371      0.0217     37.5117    115.1348   -999.2500   -999.2500   -999.2500   -999.2500      9.8006      7.9328      4.7933  
  1580.5000     12.1171     89.4317      2.2796      0.0444     37.6604    129.1016   -999.2500   -999.2500   -999.2500   -999.2500      9.7729      7.9547      5.1804  
  1581.0000     11.6341     89.5861      2.2956      0.0413     37.0589    128.2417   -999.2500   -999.2500   -999.2500   -999.2500     10.0919      7.9324      4.6822  
  1581.5000     12.8979     86.8010      2.2986      0.0330     36.2870    128.3205   -999.2500   -999.2500   -999.2500   -999.2500     10.1405      8.0087      3.8154  
  1582.0000     12.6561     83.4985      2.3159      0.0641     36.6286    126.1030   -999.2500   -999.2500   -999.2500   -999.2500     10.1886      8.1530      3.2998  
  1582.5000     12.9964     84.9899      2.3278      0.0847     37.2387    114.5970   -999.2500   -999.2500   -999.2500   -999.2500     10.3194      8.2342      3.9674  
  1583.0000     12.7798     86.4727      2.3032      0.0918     38.5052    111.0536   -999.2500   -999.2500   -999.2500   -999.2500     10.4426      8.3266      4.5765  
  1583.5000     12.9409     86.9778      2.2658      0.1136     40.3476    113.5311   -999.2500   -999.2500   -999.2500   -999.2500     10.3985      8.3855      4.5951  
