~VERSION INFORMATION
 VERS.                           2.00:        CWLS LOG ASCII STANDARD - VERSION 2.00
 WRAP.                             NO:        ONE LINE PER DEPTH STEP
~WELL INFORMATION
#MNEM.UNIT                   DATA             INFORMATION
#----------             --------------        ------------------------------
 STRT.F                       68.0000:        START DEPTH
 STOP.F                     2380.0000:        STOP DEPTH
 STEP.F                        0.5000:        STEP VALUE
 NULL.                      -999.2500:        NULL VALUE
 COMP.                     USGS/NPR-A:        COMPANY  
 LOC .                   30  22N  16W:        LOCATION   
 DATE.                        3/18/78:        LOG DATE 
 WELL.               SOUTH BARROW #17:        WELL     
 UWI .                   500232001100:        UNIQUE WELL ID 
 API .                   500232001100:        UNIQUE WELL IDENTIFIER 
 FLD .                   SOUTH BARROW:        FIELD    
 CNTY.                     NOTH SLOPE:        COUNTY  
 STAT.                         ALASKA:        STATE   
 CTRY.                            USA:        COUNTRY 
 OPER.                     USGS/NPR-A:        OPERATOR  
 SRVC.                   SCHLUMBERGER:        SERVICE COMPANY 
 LAT .                         0.0000:        LATITUDE
 LON .                         0.0000:        LONGITUDE
 DIGS.               CENTER LINE DATA:        DIGITIZING COMPANY 
~CURVE INFORMATION      
#MNEM        .UNIT         API CODE           CURVE DESCRIPTION
#-----------------      --------------        ------------------------------
 DEPT        .F                      :        1  DEPTH
 CALI        .IN                     :        2  
 GR          .GAPI                   :        3  
 NPHI        .%                      :        4  
 RHOB        .G/C3                   :        5  
 DRHO        .G/C3                   :        6  
 DT          .US/F                   :        7  
 SP          .MV                     :        8  
 ILD         .OHMM                   :        9  
 ILM         .OHMM                   :        10 
 LL8         .OHMM                   :        11 
 LLD         .OHMM                   :        12 
 LLS         .OHMM                   :        13 
~PARAMETER INFORMATION       
#MNEM.UNIT                  VALUE             DESCRIPTION OF MNEMONIC
#---------             ---------------        ------------------------------
 EKB .F                       33.0000:        KELLY BUSHING
 TD  .F                     2382.0000:        TOTAL DEPTH
 BHT .F                        0.0000:        BOTTOM HOLE TEMPERATURE
 BS  .                         8.5000:        BIT SIZE
 FD  .                        10.8000:        FLUID DENSITY
 CSIZ.                         9.6250:        CASING SIZE
 CBD .F                     1512.0000:        CASING DRILLER 1
 CBL .F                     1512.0000:        CASING LOGGER 1
 DFT .                  Miscellaneous:        TYPE FLUID IN HOLE
 DFV .                        43.0000:        VISCOSITY
 DFPH.                         8.5000:        PH
 DFL .                         4.0000:        FLUID LOSS
 RMS .                         0.0760:        RM
 MST .F                       60.0000:        RM MEAS. TEMP.
 RMF .                         0.0000:        RMF
 MFST.F                        0.0000:        RMF MEAS. TEMP.
 RMC .                         0.1640:        RMC
 MCST.F                       55.0000:        RMC MEAS. TEMP.
~OTHER INFORMATION
~A    DEPTH        CALI          GR        NPHI        RHOB        DRHO          DT          SP         ILD         ILM         LL8         LLD         LLS  
# ...
  2184.5000      8.5242     61.7053     28.1590      2.5045     -0.0086     86.9888     40.6094   -999.2500   -999.2500   -999.2500     45.2205     21.2198  
  2185.0000      8.5050     60.8352     27.1365      2.5161      0.0068     86.2691     40.6447   -999.2500   -999.2500   -999.2500     43.8256     22.7428  
  2185.5000      8.4859     61.1560     26.0520      2.5354      0.0247     86.4942     40.6518   -999.2500   -999.2500   -999.2500     41.0201     22.0870  
  2186.0000      8.4668     63.6657     26.5997      2.5415      0.0352     87.5509     40.6593   -999.2500   -999.2500   -999.2500     36.6422     20.4156  
  2186.5000      8.4770     65.6370     27.4454      2.5571      0.0448     88.6625     40.6430   -999.2500   -999.2500   -999.2500     33.5220     19.1436  
  2187.0000      8.5063     66.8780     28.5779      2.5434      0.0312     89.2235     40.6400   -999.2500   -999.2500   -999.2500     32.5112     18.3682  
  2187.5000      8.5357     68.3047     28.2662      2.5300      0.0146     89.5765     40.6164   -999.2500   -999.2500   -999.2500     33.4529     18.6681  
  2188.0000      8.5596     67.3578     29.4397      2.5250      0.0062     89.6276     40.6515   -999.2500   -999.2500   -999.2500     34.6453     18.9798  
  2188.5000      8.5724     66.3559     30.4820      2.5171      0.0003     89.6190     40.6343   -999.2500   -999.2500   -999.2500     35.1436     19.1342  
  2189.0000      8.5761     66.5833     31.0918      2.5143     -0.0003     89.4973     40.6072   -999.2500   -999.2500   -999.2500     36.5501     19.1026  
  2189.5000      8.5751     66.0704     29.9989      2.5148      0.0045     89.3498     40.6278   -999.2500   -999.2500   -999.2500     38.3509     18.7917  
  2190.0000      8.5738     65.4360     27.7260      2.5113      0.0099     89.3895     40.6114   -999.2500   -999.2500   -999.2500     35.3118     18.2683  
  2190.5000      8.5753     66.4890     27.3953      2.5082      0.0183     89.8029     40.5963   -999.2500   -999.2500   -999.2500     32.3375     17.8824  
  2191.0000      8.5740     67.7437     28.3690      2.5218      0.0359     89.7140     40.6306   -999.2500   -999.2500   -999.2500     32.0740     17.7638  
  2191.5000      8.5729     68.1494     30.4424      2.5314      0.0458     89.4564     40.6311   -999.2500   -999.2500   -999.2500     32.6651     17.9389  
  2192.0000      8.5925     67.9543     30.7408      2.5310      0.0341     88.8795     40.6327   -999.2500   -999.2500   -999.2500     35.9302     19.0039  
  2192.5000      8.5792     68.4218     30.2825      2.5295      0.0250     88.2414     40.6395   -999.2500   -999.2500   -999.2500     39.4165     20.3981  
  2193.0000      8.5781     68.9461     28.9005      2.5323      0.0135     88.2128     40.6424   -999.2500   -999.2500   -999.2500     40.4141     21.2978  
  2193.5000      8.5774     69.1235     28.2499      2.5171      0.0076     88.4669     40.6454   -999.2500   -999.2500   -999.2500     39.5831     21.2054  
  2194.0000      8.5852     69.9494     27.4850      2.5086      0.0031     89.0824     40.6493   -999.2500   -999.2500   -999.2500     40.3928     21.4474  
  2194.5000      8.5933     71.9167     27.4588      2.5099      0.0051     88.9487     40.6428   -999.2500   -999.2500   -999.2500     41.6941     21.7953  
  2195.0000      8.5820     72.6967     27.9457      2.5055      0.0059     88.5768     40.6262   -999.2500   -999.2500   -999.2500     42.8491     22.1482  
  2195.5000      8.5776     72.6496     27.5641      2.5051      0.0027     88.3374     40.6506   -999.2500   -999.2500   -999.2500     43.4771     22.3307  
  2196.0000      8.5822     74.1009     26.8669      2.4927     -0.0002     88.2110     40.6505   -999.2500   -999.2500   -999.2500     42.8445     23.5476  
  2196.5000      8.5798     79.4113     28.1375      2.4843     -0.0002     89.2644     40.6296   -999.2500   -999.2500   -999.2500     42.2863     21.9509  
  2197.0000      8.5780     87.1702     29.6405      2.4845      0.0016     90.4989     40.6372   -999.2500   -999.2500   -999.2500     39.7393     20.4375  
  2197.5000      8.5780     98.2259     31.6306      2.5032      0.0150     92.6333     40.6488   -999.2500   -999.2500   -999.2500     35.8909     19.1975  
  2198.0000      8.5829     57.6691     34.2092      2.5316      0.0258     95.5028     40.6480   -999.2500   -999.2500   -999.2500     31.6507     17.2624  
  2198.5000      8.6070     59.3393     37.6310      2.5173      0.0365     97.9687     40.6308   -999.2500   -999.2500   -999.2500     27.5512     15.1333  
  2199.0000      8.6342     60.3142     39.9027      2.5204      0.0288    100.5237     40.6444   -999.2500   -999.2500   -999.2500     22.2968     13.3694  
  2199.5000      8.6613     61.2892     40.3190      2.5010      0.0246    102.5218     40.6156   -999.2500   -999.2500   -999.2500     19.7264     12.1208  
  2200.0000      8.6852     62.2641     40.7327      2.4910      0.0222    104.2968     40.6284   -999.2500   -999.2500   -999.2500     16.2236     11.4927  
  2200.5000      8.6922     62.8186     39.3475      2.4955      0.0209    102.9479     40.6509   -999.2500   -999.2500   -999.2500     16.7791     10.8971  
  2201.0000      8.6993     61.8327     37.9468      2.5110      0.0380    100.9501     40.6662   -999.2500   -999.2500   -999.2500     18.6155     11.5384  
  2201.5000      8.7063     60.4571     36.2796      2.5219      0.0478     97.8850     40.6518   -999.2500   -999.2500   -999.2500     22.2606     13.2514  
  2202.0000      8.7133     59.0394     34.1409      2.5119      0.0369     94.9927     40.6183   -999.2500   -999.2500   -999.2500     26.2171     14.7090  
  2202.5000      8.7203     56.7682     33.6689      2.5353      0.0376     92.9155     40.6496   -999.2500   -999.2500   -999.2500     29.8967     16.0236  
  2203.0000      8.7273     55.1695     34.2173      2.5413      0.0464     91.8846     40.6693   -999.2500   -999.2500   -999.2500     30.5677     16.3905  
  2203.5000      8.7344     55.1189     35.2562      2.5437      0.0378     91.2275     40.6448   -999.2500   -999.2500   -999.2500     30.6436     16.8687  
  2204.0000      8.7414     55.9382     35.9136      2.5516      0.0344     91.1171     40.6314   -999.2500   -999.2500   -999.2500     31.6397     17.3609  
  2204.5000      8.7473     56.5568     33.2087      2.5588      0.0526     91.6409     40.6377   -999.2500   -999.2500   -999.2500     32.6107     17.5140  
  2205.0000      8.7417     57.2685     35.8541      2.5628      0.0500     92.4141     40.6576   -999.2500   -999.2500   -999.2500     28.4677     17.1209  
  2205.5000      8.7361     58.3344     35.2074      2.5465      0.0402     93.4015     40.6407   -999.2500   -999.2500   -999.2500     26.7147     16.7366  
  2206.0000      8.7305     59.7937     35.8541      2.5643      0.0586     94.5581     40.6351   -999.2500   -999.2500   -999.2500     26.0533     16.3610  
  2206.5000      8.7249     60.9219     36.2057      2.5637      0.0548     93.1808     40.6642   -999.2500   -999.2500   -999.2500     28.0331     16.3329  
  2207.0000      8.7193     61.8689     36.4580      2.5215      0.0369     92.3458     40.6807   -999.2500   -999.2500   -999.2500     28.8837     16.8891  
  2207.5000      8.7138     62.4891     36.8481      2.4984      0.0320     91.3433     40.6640   -999.2500   -999.2500   -999.2500     28.4360     17.4642  
  2208.0000      8.7082     62.4198     37.2741      2.5059      0.0446     91.2925     40.6484   -999.2500   -999.2500   -999.2500     29.2633     18.0589  
  2208.5000      8.7026     61.1543     37.7937      2.5168      0.0487     90.8408     40.6555   -999.2500   -999.2500   -999.2500     30.2184     18.4396  
  2209.0000      5.8680     60.0976     38.6903      2.5276      0.0476     90.0575     40.6627   -999.2500   -999.2500   -999.2500     30.4869     18.4378  
  2209.5000      5.8541     60.4861     38.3343      2.5385      0.0309     89.4199     40.6699   -999.2500   -999.2500   -999.2500     30.5237     18.4360  
