~VERSION INFORMATION
 VERS.                           2.00:        CWLS LOG ASCII STANDARD - VERSION 2.00
 WRAP.                             NO:        ONE LINE PER DEPTH STEP
~WELL INFORMATION
#MNEM.UNIT                   DATA             INFORMATION
#----------             --------------        ------------------------------
 STRT.F                      101.0000:        START DEPTH
 STOP.F                     3666.0000:        STOP DEPTH
 STEP.F                        0.5000:        STEP VALUE
 NULL.                      -999.2500:        NULL VALUE
 COMP.     USGS/NPR HUSKY OIL COMPANY:        COMPANY
 LOC .                      9 20N 19W:        LOCATION
 DATE.                       12/30/79:        LOG DATE
 WELL.           WALAKPA TEST WELL #1:        WELL
 UWI .                   500232001300:        UNIQUE WELL ID
 API .                   500232001300:        UNIQUE WELL IDENTIFIER
 FLD .                        WILDCAT:        FIELD
 CNTY.                    NORTH SLOPE:        COUNTY
 STAT.                         ALASKA:        STATE
 CTRY.                            USA:        COUNTRY
 OPER.     USGS/NPR HUSKY OIL COMPANY:        OPERATOR
 SRVC.                   SCHLUMBERGER:        SERVICE COMPANY
 LAT .                         0.0000:        LATITUDE
 LON .                         0.0000:        LONGITUDE
 DIGS.               CENTER LINE DATA:        DIGITIZING COMPANY
~CURVE INFORMATION      
#MNEM        .UNIT         API CODE           CURVE DESCRIPTION
#-----------------      --------------        ------------------------------
 DEPT        .F                      :        1  DEPTH
 GR          .GAPI                   :        2  
 CALI        .IN                     :        3  
 RHOB        .G/C3                   :        4  
 DRHO        .G/C3                   :        5  
 NPHI        .%                      :        6  
 DT          .US/F                   :        7  
 SP          .MV                     :        8  
 ILD         .OHMM                   :        9  
 ILM         .OHMM                   :        10 
 LL8         .OHMM                   :        11 
 SFL         .OHMM                   :        12 
~PARAMETER INFORMATION
#MNEM.UNIT                  VALUE             DESCRIPTION OF MNEMONIC
#---------             ---------------        ------------------------------
 EKB .F                       50.0000:        KELLY BUSHING
 TD  .F                     3672.0000:        TOTAL DEPTH
 BHT .F                       80.0000:        BOTTOM HOLE TEMPERATURE
 BS  .                        12.2500:        BIT SIZE
 FD  .                         9.9000:        FLUID DENSITY
 CSIZ.                        13.3750:        CASING SIZE
 CBD .F                      100.0000:        CASING DRILLER 1
 CBL .F                      106.0000:        CASING LOGGER 1
 DFT .                             99:        TYPE FLUID IN HOLE
 DFV .                        45.0000:        VISCOSITY
 DFPH.                         8.0000:        PH
 DFL .                        23.0000:        FLUID LOSS
 RMS .                         5.9200:        RM
 MST .F                       58.0000:        RM MEAS. TEMP.
 RMF .                         6.2200:        RMF
 MFST.F                       57.0000:        RMF MEAS. TEMP.
 RMC .                         7.0500:        RMC
 MCST.F                       57.0000:        RMC MEAS. TEMP.
~OTHER INFORMATION
~A    DEPTH          GR        CALI        RHOB        DRHO        NPHI          DT          SP         ILD         ILM         LL8         SFL 
# ...
  1753.0000    102.5426     12.5969      2.4761      0.0322     35.1549    103.7935    -45.6209     10.3049      9.2569     13.4189   -999.2500 
  1753.5000    102.7394     12.5934      2.4701      0.0225     35.2007    102.7831    -45.4525     10.2598      9.2218     13.8144   -999.2500 
  1754.0000    103.0150     12.5903      2.4790      0.0233     34.6928    101.0035    -45.4579     10.1501      9.0649     14.6721   -999.2500 
  1754.5000    104.3610     12.5782      2.4917      0.0276     34.2828    101.5488    -45.4815     10.0611      8.9278     13.7013   -999.2500 
  1755.0000    105.5019     12.5582      2.5179      0.0410     34.9165    103.1939    -45.2152     10.0320      8.7787     12.6130   -999.2500 
  1755.5000    105.9462     12.5482      2.5245      0.0285     35.9322    103.7768    -45.0084     10.0067      8.6802     12.1712   -999.2500 
  1756.0000    105.0058     12.5668      2.5429      0.0562     36.5241    103.7197    -45.5244      9.9908      8.6774     12.1990   -999.2500 
  1756.5000    102.9245     12.5922      2.5239      0.0336     36.3625    101.4042    -46.5066     10.0527      8.8452     12.3218   -999.2500 
  1757.0000     99.2178     12.6102      2.4832      0.0244     36.1100     95.4062    -47.7976     10.0785      9.0211     12.3832   -999.2500 
  1757.5000     95.0949     12.6488      2.4807      0.0253     36.6012     83.4462    -48.3617     10.0102      9.3096     12.6708   -999.2500 
  1758.0000     93.3569     12.6544      2.4789      0.0251     36.7710     76.7906    -48.3441      9.9298      9.5406     14.2448   -999.2500 
  1758.5000     93.1285     12.6753      2.4952      0.0342     36.8876     74.0338    -48.1791      9.8614      9.3598     17.0842   -999.2500 
  1759.0000     94.1792     12.6949      2.4977      0.0540     37.4927     77.4459    -47.6274     10.0707      9.1164     15.6800   -999.2500 
  1759.5000     95.7428     12.7402      2.4827      0.0301     38.6373     87.0268    -46.9851     10.1044      8.9666     13.0198   -999.2500 
  1760.0000     97.2608     12.7857      2.4590      0.0127     39.5091     97.7426    -46.4205     10.0943      8.7232     11.8980   -999.2500 
  1760.5000     98.4476     12.7677      2.4661      0.0120     39.4135    101.4757    -45.8188     10.0293      8.6318     12.0930   -999.2500 
  1761.0000     98.9030     12.7447      2.4734      0.0158     38.8332    103.1719    -45.1014      9.7927      8.5274     12.4785   -999.2500 
  1761.5000     99.4113     12.7095      2.4785      0.0346     37.7237    103.5497    -44.9485      9.5661      8.3610     12.4032   -999.2500 
  1762.0000    100.5247     12.6679      2.5136      0.0499     36.6343    101.2397    -44.7568      9.3447      8.2374     12.2284   -999.2500 
  1762.5000    100.5503     12.6486      2.5237      0.0381     35.4779     97.8460    -44.4239      9.2042      8.1794     12.1584   -999.2500 
  1763.0000     97.7960     12.6569      2.5238      0.0449     32.3743    100.3618    -43.6193      9.2735      8.2217     12.2082   -999.2500 
  1763.5000     93.2775     12.6788      2.5316      0.0443     32.8667    103.6483    -43.4767      9.3434      8.2760     12.2220   -999.2500 
  1764.0000     93.8314     12.6626      2.5370      0.0345     35.0743    105.2562    -44.2558      9.4138      8.4578     12.9342   -999.2500 
  1764.5000     96.6281     12.6267      2.5391      0.0204     36.4166    105.6460    -44.6739      9.4847      8.5030     14.0386   -999.2500 
  1765.0000     98.1863     12.6157      2.5671      0.0337     36.4187    105.6791    -44.8400      9.5304      8.4863     14.1409   -999.2500 
  1765.5000     99.4347     12.6162      2.5800      0.0650     35.6396    105.7896    -45.1475      9.5221      8.4287     13.3821   -999.2500 
  1766.0000    101.1607     12.6679      2.5367      0.0438     34.8605    106.1811    -45.1585      9.5139      8.3645     12.9966   -999.2500 
  1766.5000    102.2826     12.7026      2.4942      0.0217     35.0620    107.0693    -45.0365      9.5056      8.2846     12.8334   -999.2500 
  1767.0000    101.0624     12.6878      2.5219      0.0525     35.7371    107.6881    -44.8543      9.4974      8.1445     12.4840   -999.2500 
  1767.5000     99.6331     12.6957      2.5430      0.0677     36.1279    107.0942    -44.6560      9.5789      8.1584     11.9973   -999.2500 
  1768.0000     99.7305     12.7158      2.5245      0.0558     36.4748    105.0953    -44.5751      9.5845      8.2322     11.8168   -999.2500 
  1768.5000    101.3826     12.7191      2.5297      0.0754     36.8455    104.2227    -44.7000      9.7877      8.3035     12.0454   -999.2500 
  1769.0000    102.1504     12.7258      2.5439      0.0956     37.5242    103.4919    -44.9258      9.9452      8.4500     12.5010   -999.2500 
  1769.5000    102.3385     12.7311      2.5513      0.0939     38.0375    102.8866    -45.0147     10.0197      8.6358     13.1903   -999.2500 
  1770.0000    103.0279     12.7252      2.5135      0.0461     38.0778    102.0886    -44.9671     10.1266      8.6887     13.0690   -999.2500 
  1770.5000    101.3026     12.7165      2.4790      0.0354     37.5274    102.4807    -45.1650     10.1984      9.0869     12.9996   -999.2500 
  1771.0000    100.0852     12.6995      2.4785      0.0271     36.6464    102.6683    -45.4985     10.2428      9.2200     13.8669   -999.2500 
  1771.5000     99.4444     12.6967      2.4824      0.0249     37.2542    102.8558    -45.8320     10.2983      9.2275     14.4617   -999.2500 
  1772.0000     99.0505     12.6796      2.4933      0.0469     37.9375    105.1535    -45.9642     10.2278      9.0765     14.0825   -999.2500 
  1772.5000     96.9255     12.6563      2.5182      0.0640     37.4640    106.2617    -45.6479     10.1895      8.9422     13.2169   -999.2500 
  1773.0000     93.5056     12.6924      2.5253      0.0594     36.6241    107.3577    -45.2012     10.1680      8.8059     12.7722   -999.2500 
  1773.5000     90.4327     12.7378      2.5071      0.0365     36.1982    108.0155    -44.6925     10.0445      8.6922     12.5830   -999.2500 
  1774.0000     85.5322     12.7097      2.5282      0.0315     36.7705    107.9844    -44.1307      9.8798      8.4854     12.5682   -999.2500 
  1774.5000     76.8663     12.6800      2.5095      0.0208     37.1021    107.5110    -43.6950      9.7859      8.4144     12.4201   -999.2500 
  1775.0000     65.8450     12.6502      2.4728      0.0165     37.0807    106.8965    -43.5165      9.6930      8.4170     12.0762   -999.2500 
  1775.5000     56.9033     12.6207      2.4853      0.0285     37.2941    106.5494    -43.6834      9.6009      8.5126     12.1450   -999.2500 
  1776.0000     66.7055     12.6313      2.4955      0.0303     37.2904    106.6961    -44.0832      9.5309      8.6123     12.6073   -999.2500 
  1776.5000     84.4577     12.6420      2.4904      0.0211     36.9972    107.0967    -44.4734      9.4674      8.6241     13.1622   -999.2500 
  1777.0000     53.1688     12.6525      2.4990      0.0170     37.7196    107.4353    -44.8492      9.4042      8.4684     13.5608   -999.2500 
  1777.5000     53.1018     12.6499      2.4914      0.0068     38.5429    107.4029    -44.8917      9.3514      8.2030     14.0822   -999.2500 
  1778.0000     53.1963     12.6473      2.4852      0.0115     37.7400    106.9447    -45.3748      9.3057      7.9252     13.2976   -999.2500 
  1778.5000     53.5757     12.6447      2.5007      0.0177     36.9409    106.3910    -45.9415      9.2603      7.8403     11.9950   -999.2500 
  1779.0000     54.1234     12.6421      2.5302      0.0230     36.3468    105.9621    -46.1107      9.2151      7.8845     11.1002   -999.2500 
  1779.5000     54.0880     12.6395      2.5532      0.0278     35.8748    105.7197    -45.8154      9.1925      8.0477     11.3317   -999.2500 
  1780.0000     53.5421     12.6370      2.5525      0.0252     58.5822    105.4833    -45.5212      9.2273      8.2753     12.9025   -999.2500 
  1780.5000     53.2663   -999.2500   -999.2500   -999.2500     59.0303    105.0976    -45.1611      9.2622      8.2840     13.8028   -999.2500 
