~VERSION INFORMATION
 VERS.                           2.00:        CWLS LOG ASCII STANDARD - VERSION 2.00
 WRAP.                             NO:        ONE LINE PER DEPTH STEP
~WELL INFORMATION
#MNEM.UNIT                   DATA             INFORMATION
#----------             --------------        ------------------------------
 STRT.F                       96.0000:        START DEPTH
 STOP.F                     2280.0000:        STOP DEPTH
 STEP.F                        0.5000:        STEP VALUE
 NULL.                      -999.2500:        NULL VALUE
 COMP.    USGS/NPR HUSKY OIL OPERATOR:        COMPANY  
 LOC .                   23  22N  17W:        LOCATION   
 DATE.                        9/11/80:        LOG DATE 
 WELL.               SOUTH BARROW #15:        WELL     
 UWI .                   500232001600:        UNIQUE WELL ID 
 API .                   500232001600:        UNIQUE WELL IDENTIFIER 
 FLD .                   SOUTH BARROW:        FIELD    
 CNTY.                    NORTH SLOPE:        COUNTY  
 STAT.                         ALASKA:        STATE   
 CTRY.                            USA:        COUNTRY 
 OPER.    USGS/NPR HUSKY OIL OPERATOR:        OPERATOR  
 SRVC.                   SCHLUMBERGER:        SERVICE COMPANY 
 LAT .                         0.0000:        LATITUDE
 LON .                         0.0000:        LONGITUDE
 DIGS.               CENTER LINE DATA:        DIGITIZING COMPANY 
~CURVE INFORMATION      
#MNEM        .UNIT         API CODE           CURVE DESCRIPTION
#-----------------      --------------        ------------------------------
 DEPT        .F                      :        1  DEPTH
 CALI        .IN                     :        2  
 GR          .GAPI                   :        3  
 RHOB        .G/C3                   :        4  
 DRHO        .G/C3                   :        5  
 NPHI        .%                      :        6  
 DT          .US/F                   :        7  
 SP          .MV                     :        8  
 ILD         .OHMM                   :        9  
 ILM         .OHMM                   :        10 
 SFL         .OHMM                   :        11 
 LLD         .OHMM                   :        12 
 LLS         .OHMM                   :        13 
 MSFL        .OHMM                   :        14 
~PARAMETER INFORMATION       
#MNEM.UNIT                  VALUE             DESCRIPTION OF MNEMONIC
#---------             ---------------        ------------------------------
 EKB .F                       30.0000:        KELLY BUSHING
 TD  .F                     2279.0000:        TOTAL DEPTH
 BHT .F                        0.0000:        BOTTOM HOLE TEMPERATURE
 BS  .                         8.5000:        BIT SIZE
 FD  .                        10.3000:        FLUID DENSITY
 CSIZ.                         9.6250:        CASING SIZE
 CBD .F                     1514.0000:        CASING DRILLER 1
 CBL .F                     1520.0000:        CASING LOGGER 1
 DFT .                  Miscellaneous:        TYPE FLUID IN HOLE
 DFV .                        43.0000:        VISCOSITY
 DFPH.                         0.0000:        PH
 DFL .                         0.0000:        FLUID LOSS
 RMS .                         0.1800:        RM
 MST .F                       48.0000:        RM MEAS. TEMP.
 RMF .                         0.1400:        RMF
 MFST.F                       48.0000:        RMF MEAS. TEMP.
 RMC .                         0.0000:        RMC
 MCST.F                        0.0000:        RMC MEAS. TEMP.
~OTHER INFORMATION
~A    DEPTH        CALI          GR        RHOB        DRHO        NPHI          DT          SP         ILD         ILM         SFL         LLD         LLS        MSFL  
# ...
  1800.0000      9.9552     89.2000      1.9918      0.0443     40.3141    106.7965   -999.2500   -999.2500   -999.2500   -999.2500      9.9872      9.0508      6.1581  
  1800.5000     11.3244     86.2025      1.9764      0.0777     38.4614    105.8367   -999.2500   -999.2500   -999.2500   -999.2500     10.0089      9.5649      8.5796  
  1801.0000     11.0675     80.6276      2.0414      0.0643     33.2597    106.6548   -999.2500   -999.2500   -999.2500   -999.2500     14.3897     11.3984     11.8419  
  1801.5000     11.0003     75.8498      2.1265      0.0493     26.8346    106.9573   -999.2500   -999.2500   -999.2500   -999.2500     22.0939     14.0818     15.3417  
  1802.0000     10.4713     73.0009      2.2035      0.0063     26.8227    107.6197   -999.2500   -999.2500   -999.2500   -999.2500     17.3367     15.4140     12.7144  
  1802.5000     10.1321     75.8977      2.2511     -0.0155     30.6994    109.6619   -999.2500   -999.2500   -999.2500   -999.2500     15.8258     14.8984      7.0257  
  1803.0000      8.9012     80.1953      2.2519      0.0028     35.6143    110.2910   -999.2500   -999.2500   -999.2500   -999.2500     12.9732     11.6818      7.1383  
  1803.5000      8.7315     86.0534      2.2215      0.0676     38.3899    106.4110   -999.2500   -999.2500   -999.2500   -999.2500     10.5175      9.4843      8.5781  
  1804.0000      9.2295     89.3212      2.1516      0.1037     39.2232    103.1366   -999.2500   -999.2500   -999.2500   -999.2500     10.3227      9.4427      8.5480  
  1804.5000     10.8715     86.9600      2.1096      0.1042     40.0565    102.4330   -999.2500   -999.2500   -999.2500   -999.2500     10.7007      9.4862      7.1406  
  1805.0000     10.9978     86.4906      2.1256      0.0955     40.8540    102.9448   -999.2500   -999.2500   -999.2500   -999.2500     10.3363      9.3098      7.5782  
  1805.5000     11.1900     87.0773      2.1185      0.0934     39.6028    108.0364   -999.2500   -999.2500   -999.2500   -999.2500      9.8136      9.1515      8.2460  
  1806.0000     11.8374     88.2559      2.0977      0.1128     38.6849    122.2605   -999.2500   -999.2500   -999.2500   -999.2500     10.8523      9.0796      8.5031  
  1806.5000     11.5157     88.4051      2.0791      0.1256     37.8497    111.3938   -999.2500   -999.2500   -999.2500   -999.2500      9.6082      9.1009      8.3313  
  1807.0000     11.2426     88.4400      2.0909      0.1242     38.5698    107.5678   -999.2500   -999.2500   -999.2500   -999.2500      9.6252      9.0336      8.3634  
  1807.5000     10.8011     89.6047      2.0836      0.1108     40.2087     98.0462   -999.2500   -999.2500   -999.2500   -999.2500     10.3116      9.2402      8.6067  
  1808.0000     11.5514     92.5567      2.0412      0.1048     41.0852     95.3850   -999.2500   -999.2500   -999.2500   -999.2500     11.4008      9.5166      8.9378  
  1808.5000     10.5425     97.2498      2.0068      0.1016     40.9045     97.2431   -999.2500   -999.2500   -999.2500   -999.2500     11.0519      9.7554      9.2571  
  1809.0000      9.7039     99.1170      2.0333      0.1091     38.7111    102.1968   -999.2500   -999.2500   -999.2500   -999.2500     11.0291      9.8043      9.4619  
  1809.5000      9.6218     95.5698      2.1137      0.1469     38.2218    106.5204   -999.2500   -999.2500   -999.2500   -999.2500     11.4260      9.8535      9.3495  
  1810.0000     10.1678     90.7488      2.1868      0.1639     39.4157    111.1805   -999.2500   -999.2500   -999.2500   -999.2500     11.4561      9.7942      7.8377  
  1810.5000     11.0509     88.8435      2.2450      0.1775     40.5369    106.7243   -999.2500   -999.2500   -999.2500   -999.2500     11.2294      9.6112      6.6993  
  1811.0000     12.0383     90.2917      2.2142      0.1636     39.6890    107.3014   -999.2500   -999.2500   -999.2500   -999.2500     10.8349      9.3324      7.9080  
  1811.5000     11.5219     91.8052      2.1886      0.1538     38.3880    109.3659   -999.2500   -999.2500   -999.2500   -999.2500     10.7339      9.1095      8.2545  
  1812.0000     11.2081     92.7342      2.1642      0.1191     38.3909    107.7357   -999.2500   -999.2500   -999.2500   -999.2500     11.1252      9.1966      6.3728  
  1812.5000     11.4417     92.1396      2.2444      0.1119     38.7010    106.7912   -999.2500   -999.2500   -999.2500   -999.2500     10.4470      9.4356      5.6163  
  1813.0000     12.6700     92.3340      2.2607      0.1105     37.3532    106.8957   -999.2500   -999.2500   -999.2500   -999.2500     10.6750      9.7226      4.9577  
  1813.5000     12.2994     93.2128      2.2614      0.0879     36.2688    107.3136   -999.2500   -999.2500   -999.2500   -999.2500     11.6159     10.0573      8.0144  
  1814.0000     11.8173     94.1295      2.2844      0.1101     36.0539    107.9000   -999.2500   -999.2500   -999.2500   -999.2500     12.1387     10.0596     10.0182  
  1814.5000     11.3197     94.7412      2.2952      0.1361     36.7000    106.2379   -999.2500   -999.2500   -999.2500   -999.2500     11.6819      9.8723     10.0447  
  1815.0000      8.9391     94.6088      2.2375      0.1153     37.0160    105.2561   -999.2500   -999.2500   -999.2500   -999.2500     11.5043      9.5518      9.3350  
  1815.5000      9.9568     94.1126      2.1528      0.0979     37.4034    103.6883   -999.2500   -999.2500   -999.2500   -999.2500     12.0442      9.3246      8.4865  
  1816.0000     11.3174     93.1761      2.0576      0.1012     37.9120    103.2561   -999.2500   -999.2500   -999.2500   -999.2500     11.3145      9.2693      7.6273  
  1816.5000     12.6812     90.8718      2.0621      0.1136     39.1752    103.4601   -999.2500   -999.2500   -999.2500   -999.2500     10.2534      9.2423      8.0187  
  1817.0000     12.3202     88.3184      2.0890      0.1048     38.7229    105.1859   -999.2500   -999.2500   -999.2500   -999.2500      9.7945      9.7370      9.4968  
  1817.5000     11.8007     85.6726      2.1384      0.0989     36.8486    105.8851   -999.2500   -999.2500   -999.2500   -999.2500     12.7512     11.0991     11.5948  
  1818.0000     11.4023     81.1120      2.1980      0.0802     32.4193    106.0562   -999.2500   -999.2500   -999.2500   -999.2500     17.4100     14.9853     17.7685  
  1818.5000     11.8306     74.5775      2.2511      0.0386     29.4808    105.6507   -999.2500   -999.2500   -999.2500   -999.2500     21.3077     19.6628     25.5159  
  1819.0000     10.1150     68.8704      2.2639     -0.0168     30.2781    102.7471   -999.2500   -999.2500   -999.2500   -999.2500     21.3379     17.2590     16.1468  
  1819.5000      8.4768     72.9449      2.2756      0.0066     35.5549     99.6106   -999.2500   -999.2500   -999.2500   -999.2500     17.5043     13.4027     11.6120  
  1820.0000      8.2171     82.3610      2.2533      0.0583     37.7281    100.3912   -999.2500   -999.2500   -999.2500   -999.2500     12.8317     10.6965      9.5636  
  1820.5000      9.1388     91.1922      2.2118      0.1214     38.8051    113.7395   -999.2500   -999.2500   -999.2500   -999.2500     11.3438     10.2354      9.4176  
  1821.0000     10.7386     95.0536      2.1194      0.1231     38.5769    118.5865   -999.2500   -999.2500   -999.2500   -999.2500     12.3850     10.2030      9.7206  
  1821.5000     10.7829     96.3914      2.0885      0.1230     37.3021    108.9814   -999.2500   -999.2500   -999.2500   -999.2500     11.5533      9.9553     10.2499  
  1822.0000     10.3263     94.6070      2.0675      0.1212     37.9937    108.5305   -999.2500   -999.2500   -999.2500   -999.2500     10.4597      9.7206     10.0111  
  1822.5000     10.5865     94.6442      2.1081      0.1166     39.3915    108.5462   -999.2500   -999.2500   -999.2500   -999.2500     10.1220      9.4859      8.2647  
  1823.0000     11.5289     94.1193      2.1338      0.1241     40.3624    109.4694   -999.2500   -999.2500   -999.2500   -999.2500      9.9352      9.2466      6.8955  
  1823.5000     12.2570     93.0729      2.1347      0.1322     40.7260    127.3316   -999.2500   -999.2500   -999.2500   -999.2500      9.8830      9.1125      7.9425  
