~VERSION INFORMATION
 VERS.                           2.00:        CWLS LOG ASCII STANDARD - VERSION 2.00
 WRAP.                             NO:        ONE LINE PER DEPTH STEP
~WELL INFORMATION
#MNEM.UNIT                   DATA             INFORMATION
#----------             --------------        ------------------------------
 STRT.F                       78.0000:        START DEPTH
 STOP.F                     2392.0000:        STOP DEPTH
 STEP.F                        0.5000:        STEP VALUE
 NULL.                      -999.2500:        NULL VALUE
 COMP.              U.S.G.S./NPR -  A:        COMPANY  
 LOC .                    1  22N  18W:        LOCATION   
 DATE.                        2/14/78:        LOG DATE 
 WELL.               SOUTH BARROW #16:        WELL     
 UWI .                   500232001000:        UNIQUE WELL ID 
 API .                   500232001000:        UNIQUE WELL IDENTIFIER 
 FLD .                   SOUTH BARROW:        FIELD    
 CNTY.                    NORTH SLOPE:        COUNTY  
 STAT.                         ALASKA:        STATE   
 CTRY.                            USA:        COUNTRY 
 OPER.              U.S.G.S./NPR -  A:        OPERATOR  
 SRVC.                   SCHLUMBERGER:        SERVICE COMPANY 
 LAT .                         0.0000:        LATITUDE
 LON .                         0.0000:        LONGITUDE
 DIGS.               CENTER LINE DATA:        DIGITIZING COMPANY 
~CURVE INFORMATION      
#MNEM        .UNIT         API CODE           CURVE DESCRIPTION
#-----------------      --------------        ------------------------------
 DEPT        .F                      :        1  DEPTH
 CALI        .IN                     :        2  
 GR          .GAPI                   :        3  
 RHOB        .G/C3                   :        4  
 DRHO        .G/C3                   :        5  
 NPHI        .%                      :        6  
 DT          .US/F                   :        7  
 SP          .MV                     :        8  
 ILD         .OHMM                   :        9  
 ILM         .OHMM                   :        10 
 LL8         .OHMM                   :        11 
 LLD         .OHMM                   :        12 
 LLS         .OHMM                   :        13 
~PARAMETER INFORMATION       
#MNEM.UNIT                  VALUE             DESCRIPTION OF MNEMONIC
#---------             ---------------        ------------------------------
 EKB .F                       30.0000:        KELLY BUSHING
 TD  .F                     2399.0000:        TOTAL DEPTH
 BHT .F                       73.0000:        BOTTOM HOLE TEMPERATURE
 BS  .                         8.5000:        BIT SIZE
 FD  .                        11.0000:        FLUID DENSITY
 CSIZ.                         8.5000:        CASING SIZE
 CBD .F                     1489.0000:        CASING DRILLER 1
 CBL .F                     1487.0000:        CASING LOGGER 1
 DFT .                  Miscellaneous:        TYPE FLUID IN HOLE
 DFV .                        52.0000:        VISCOSITY
 DFPH.                         8.5000:        PH
 DFL .                         8.0000:        FLUID LOSS
 RMS .                         0.0210:        RM
 MST .F                       58.0000:        RM MEAS. TEMP.
 RMF .                         0.0130:        RMF
 MFST.F                       52.0000:        RMF MEAS. TEMP.
 RMC .                         0.0170:        RMC
 MCST.F                       56.0000:        RMC MEAS. TEMP.
~OTHER INFORMATION
~A    DEPTH        CALI          GR        RHOB        DRHO        NPHI          DT          SP         ILD         ILM         LL8         LLD         LLS  
# ...
  2373.0000      7.7757     44.2776      2.4478      0.0088     10.0112    107.4690    -30.1881   -999.2500   -999.2500   -999.2500      0.2889      0.2926  
  2373.5000      7.7630     42.6743      2.4430      0.0081      9.8537    114.3444    -30.1644   -999.2500   -999.2500   -999.2500      0.3585      0.3630  
  2374.0000      7.7552     41.6217      2.4332      0.0003      9.5798    113.5908    -30.1830   -999.2500   -999.2500   -999.2500      0.4514      0.4406  
  2374.5000      7.7475     41.4888      2.4306     -0.0041      9.3060    101.2372    -30.1924   -999.2500   -999.2500   -999.2500      0.4147      0.4223  
  2375.0000      7.7299     42.9448      2.4387      0.0009      8.7086     98.1889    -30.1762   -999.2500   -999.2500   -999.2500      0.3303      0.3438  
  2375.5000      7.7087     44.3879      2.4250      0.0012      8.5062    104.3384    -30.1988   -999.2500   -999.2500   -999.2500      0.2791      0.2799  
  2376.0000      7.6963     45.4841      2.4065      0.0014      7.6048     97.7099    -30.1951   -999.2500   -999.2500   -999.2500      0.2277      0.2317  
  2376.5000      7.6850     44.9034      2.3907      0.0023      6.0409     89.1004    -30.1686   -999.2500   -999.2500   -999.2500      0.2294      0.2365  
  2377.0000      7.6806     43.5712      2.3601      0.0031      3.1506     88.9696    -30.1592   -999.2500   -999.2500   -999.2500      0.2668      0.2655  
  2377.5000      7.6742     42.9637      2.3569      0.0039      0.4751     88.1074    -30.1743   -999.2500   -999.2500   -999.2500      0.2802      0.2756  
  2378.0000      7.6626     43.5787      2.3798      0.0044      0.0244     86.1447    -30.1808   -999.2500   -999.2500   -999.2500      0.2261      0.2417  
  2378.5000      7.6788     44.5649      2.3910      0.0041   -999.2500     82.5957    -30.1622   -999.2500   -999.2500   -999.2500      0.2161      0.2144  
  2379.0000      7.7336     45.5539      2.3883      0.0038   -999.2500     77.6574    -30.1674   -999.2500   -999.2500   -999.2500      0.2171      0.2148  
  2379.5000      7.7606     46.6517      2.3755      0.0035   -999.2500     75.3427    -30.1632   -999.2500   -999.2500   -999.2500      0.2152      0.2152  
  2380.0000      7.7615     46.8339      2.3640      0.0034   -999.2500     73.0279    -30.1576   -999.2500   -999.2500   -999.2500      0.2183      0.2157  
  2380.5000      7.7612     45.4411      2.3552      0.0035   -999.2500     73.8608    -30.1487   -999.2500   -999.2500   -999.2500      0.2166      0.2158  
  2381.0000      7.7457     44.5299      2.3620      0.0044   -999.2500     75.6046    -29.9032   -999.2500   -999.2500   -999.2500      0.2184      0.2158  
  2381.5000      7.7512     44.5478      2.3794      0.0079   -999.2500     77.3484    -28.4599   -999.2500   -999.2500   -999.2500      0.2540      0.2636  
  2382.0000      7.7311     44.9065      2.4029      0.0114   -999.2500     77.3915     -9.2479   -999.2500   -999.2500   -999.2500      0.5040      0.6538  
  2382.5000      7.7034     44.9557      2.4397      0.0134   -999.2500     77.3972   -999.2500   -999.2500   -999.2500   -999.2500   -999.2500   -999.2500  
  2383.0000      7.7001     44.9513      2.4573      0.0116   -999.2500     77.4029   -999.2500   -999.2500   -999.2500   -999.2500   -999.2500   -999.2500  
  2383.5000      7.6862     44.7561      2.4731      0.0075   -999.2500     77.4086   -999.2500   -999.2500   -999.2500   -999.2500   -999.2500   -999.2500  
  2384.0000      7.6722     44.1954      2.4818      0.0014   -999.2500     77.4143   -999.2500   -999.2500   -999.2500   -999.2500   -999.2500   -999.2500  
  2384.5000      7.6699     43.4309      2.4795     -0.0054   -999.2500     77.4200   -999.2500   -999.2500   -999.2500   -999.2500   -999.2500   -999.2500  
  2385.0000      7.6734     42.4558      2.4709     -0.0077   -999.2500     77.4257   -999.2500   -999.2500   -999.2500   -999.2500   -999.2500   -999.2500  
  2385.5000      7.6747     41.9038      2.4596      0.0040   -999.2500     77.4314   -999.2500   -999.2500   -999.2500   -999.2500   -999.2500   -999.2500  
  2386.0000      7.6765     42.4556      2.4294     -0.0041   -999.2500     77.4371   -999.2500   -999.2500   -999.2500   -999.2500   -999.2500   -999.2500  
  2386.5000      7.6691     43.3753      2.4004     -0.0049   -999.2500     77.4428   -999.2500   -999.2500   -999.2500   -999.2500   -999.2500   -999.2500  
  2387.0000      7.6283     43.3970      2.3927     -0.0029   -999.2500     77.4485   -999.2500   -999.2500   -999.2500   -999.2500   -999.2500   -999.2500  
  2387.5000      7.5874     43.3887      2.3909      0.0070   -999.2500     77.4542   -999.2500   -999.2500   -999.2500   -999.2500   -999.2500   -999.2500  
  2388.0000      7.5957     43.9478      2.3917      0.0251   -999.2500     77.4599   -999.2500   -999.2500   -999.2500   -999.2500   -999.2500   -999.2500  
  2388.5000      7.6388     44.2863      2.3757      0.0196   -999.2500     77.4657   -999.2500   -999.2500   -999.2500   -999.2500   -999.2500   -999.2500  
  2389.0000      7.6477     44.3081      2.3573      0.0026   -999.2500     77.4714   -999.2500   -999.2500   -999.2500   -999.2500   -999.2500   -999.2500  
  2389.5000      7.5877     44.3103      2.3542     -0.0050   -999.2500     77.4771   -999.2500   -999.2500   -999.2500   -999.2500   -999.2500   -999.2500  
  2390.0000      7.5730     43.9445      2.3532     -0.0108   -999.2500     77.4828   -999.2500   -999.2500   -999.2500   -999.2500   -999.2500   -999.2500  
  2390.5000      7.6007     43.4257      2.3446     -0.0100   -999.2500   -999.2500   -999.2500   -999.2500   -999.2500   -999.2500   -999.2500   -999.2500  
  2391.0000      7.5812     43.3321      2.3393     -0.0008   -999.2500   -999.2500   -999.2500   -999.2500   -999.2500   -999.2500   -999.2500   -999.2500  
  2391.5000      7.5088     44.2565      2.3427      0.0106   -999.2500   -999.2500   -999.2500   -999.2500   -999.2500   -999.2500   -999.2500   -999.2500  
  2392.0000      7.4708     45.4866      2.3602      0.0242   -999.2500   -999.2500   -999.2500   -999.2500   -999.2500   -999.2500   -999.2500   -999.2500  
