~VERSION INFORMATION
 VERS.                           2.00:        CWLS LOG ASCII STANDARD - VERSION 2.00
 WRAP.                             NO:        ONE LINE PER DEPTH STEP
~WELL INFORMATION
#MNEM.UNIT                   DATA             INFORMATION
#----------             --------------        ------------------------------
 STRT.F                       96.0000:        START DEPTH
 STOP.F                     2280.0000:        STOP DEPTH
 STEP.F                        0.5000:        STEP VALUE
 NULL.                      -999.2500:        NULL VALUE
 COMP.    USGS/NPR HUSKY OIL OPERATOR:        COMPANY  
 LOC .                   23  22N  17W:        LOCATION   
 DATE.                        9/11/80:        LOG DATE 
 WELL.               SOUTH BARROW #15:        WELL     
 UWI .                   500232001600:        UNIQUE WELL ID 
 API .                   500232001600:        UNIQUE WELL IDENTIFIER 
 FLD .                   SOUTH BARROW:        FIELD    
 CNTY.                    NORTH SLOPE:        COUNTY  
 STAT.                         ALASKA:        STATE   
 CTRY.                            USA:        COUNTRY 
 OPER.    USGS/NPR HUSKY OIL OPERATOR:        OPERATOR  
 SRVC.                   SCHLUMBERGER:        SERVICE COMPANY 
 LAT .                         0.0000:        LATITUDE
 LON .                         0.0000:        LONGITUDE
 DIGS.               CENTER LINE DATA:        DIGITIZING COMPANY 
~CURVE INFORMATION      
#MNEM        .UNIT         API CODE           CURVE DESCRIPTION
#-----------------      --------------        ------------------------------
 DEPT        .F                      :        1  DEPTH
 CALI        .IN                     :        2  
 GR          .GAPI                   :        3  
 RHOB        .G/C3                   :        4  
 DRHO        .G/C3                   :        5  
 NPHI        .%                      :        6  
 DT          .US/F                   :        7  
 SP          .MV                     :        8  
 ILD         .OHMM                   :        9  
 ILM         .OHMM                   :        10 
 SFL         .OHMM                   :        11 
 LLD         .OHMM                   :        12 
 LLS         .OHMM                   :        13 
 MSFL        .OHMM                   :        14 
~PARAMETER INFORMATION       
#MNEM.UNIT                  VALUE             DESCRIPTION OF MNEMONIC
#---------             ---------------        ------------------------------
 EKB .F                       30.0000:        KELLY BUSHING
 TD  .F                     2279.0000:        TOTAL DEPTH
 BHT .F                        0.0000:        BOTTOM HOLE TEMPERATURE
 BS  .                         8.5000:        BIT SIZE
 FD  .                        10.3000:        FLUID DENSITY
 CSIZ.                         9.6250:        CASING SIZE
 CBD .F                     1514.0000:        CASING DRILLER 1
 CBL .F                     1520.0000:        CASING LOGGER 1
 DFT .                  Miscellaneous:        TYPE FLUID IN HOLE
 DFV .                        43.0000:        VISCOSITY
 DFPH.                         0.0000:        PH
 DFL .                         0.0000:        FLUID LOSS
 RMS .                         0.1800:        RM
 MST .F                       48.0000:        RM MEAS. TEMP.
 RMF .                         0.1400:        RMF
 MFST.F                       48.0000:        RMF MEAS. TEMP.
 RMC .                         0.0000:        RMC
 MCST.F                        0.0000:        RMC MEAS. TEMP.
~OTHER INFORMATION
~A    DEPTH        CALI          GR        RHOB        DRHO        NPHI          DT          SP         ILD         ILM         SFL         LLD         LLS        MSFL  
# ...
  1704.0000     10.0905     90.9548      2.1571      0.0837     43.6304    109.0939   -999.2500   -999.2500   -999.2500   -999.2500     11.5646      8.6736      8.3320  
  1704.5000     11.0743     89.5905      2.0891      0.0626     41.4400    109.5256   -999.2500   -999.2500   -999.2500   -999.2500     14.3986      9.0114      7.8409  
  1705.0000     12.1364     88.7450      2.1207      0.0208     40.1252    110.0654   -999.2500   -999.2500   -999.2500   -999.2500     10.9869      9.2702      7.1044  
  1705.5000     10.2538     87.5392      2.1643     -0.0158     40.8327    110.4149   -999.2500   -999.2500   -999.2500   -999.2500      9.3373      9.2702      7.0858  
  1706.0000     10.1777     89.3316      2.1428     -0.0050     41.8683    112.1569   -999.2500   -999.2500   -999.2500   -999.2500     17.5672      9.0644      6.8842  
  1706.5000     10.5192     91.7310      2.0958      0.0217     42.3937    111.9687   -999.2500   -999.2500   -999.2500   -999.2500      9.7249      8.6625      6.0327  
  1707.0000     10.7435     93.4831      2.0393      0.0537     41.6740    110.8362   -999.2500   -999.2500   -999.2500   -999.2500      8.9222      8.3760      6.6149  
  1707.5000     11.2013     93.6948      2.0430      0.0648     41.3395    110.1758   -999.2500   -999.2500   -999.2500   -999.2500      9.2343      8.5414      7.4876  
  1708.0000     11.5691     91.3127      2.1106      0.0923     41.2992    110.6185   -999.2500   -999.2500   -999.2500   -999.2500     10.0766      9.0687      8.1445  
  1708.5000     11.3805     88.7015      2.1710      0.1196     40.4162    111.3764   -999.2500   -999.2500   -999.2500   -999.2500      9.9737      9.4500      8.8591  
  1709.0000     10.5491     86.8351      2.1828      0.1175     38.3147    112.3414   -999.2500   -999.2500   -999.2500   -999.2500      9.8555      9.6482      9.4260  
  1709.5000      9.9287     85.8361      2.1894      0.1086     36.1047    112.4738   -999.2500   -999.2500   -999.2500   -999.2500     10.9941      9.7363      9.4964  
  1710.0000     10.7141     85.2342      2.1900      0.1011     35.4585    111.2146   -999.2500   -999.2500   -999.2500   -999.2500     11.8623      9.6391      8.9348  
  1710.5000     11.0252     85.8158      2.1689      0.0705     35.2886    109.8295   -999.2500   -999.2500   -999.2500   -999.2500      9.8787      9.4446      8.3720  
  1711.0000     10.3837     86.7844      2.1875      0.0813     35.3680    109.4337   -999.2500   -999.2500   -999.2500   -999.2500     10.4250      9.1871      8.1645  
  1711.5000      9.8727     86.9312      2.2922      0.1395     35.5142    109.5052   -999.2500   -999.2500   -999.2500   -999.2500     11.7151      9.4663      8.1482  
  1712.0000     10.8421     87.0359      2.2320      0.1334     36.7084    110.7342   -999.2500   -999.2500   -999.2500   -999.2500     10.8726      9.6223      8.2401  
  1712.5000     10.9214     87.5482      2.1204      0.1076     38.2872    111.8102   -999.2500   -999.2500   -999.2500   -999.2500     10.3443      9.5234      7.7158  
  1713.0000     10.9332     87.0949      2.0851      0.0938     40.3547    111.7719   -999.2500   -999.2500   -999.2500   -999.2500     11.7482      9.4241      6.7900  
  1713.5000     11.0681     84.8784      2.1144      0.1214     41.0884    111.5427   -999.2500   -999.2500   -999.2500   -999.2500     10.3183      9.3756      7.1243  
  1714.0000     11.5930     82.7315      2.1711      0.1434     40.6520    110.8749   -999.2500   -999.2500   -999.2500   -999.2500     12.0216      9.5944      8.3903  
  1714.5000     10.5702     81.4168      2.2316      0.1548     38.1144    110.4672   -999.2500   -999.2500   -999.2500   -999.2500     13.8888     10.0147      9.7181  
  1715.0000     10.5541     80.2811      2.2643      0.1496     35.0419    110.0031   -999.2500   -999.2500   -999.2500   -999.2500     12.7726     11.5294     11.8156  
  1715.5000     11.1021     76.8230      2.2912      0.1119     31.8837    108.7155   -999.2500   -999.2500   -999.2500   -999.2500     15.7132     13.6693     16.6783  
  1716.0000     10.5144     71.1584      2.3217      0.0725     29.7673    107.7916   -999.2500   -999.2500   -999.2500   -999.2500     18.7181     15.0083     17.8023  
  1716.5000     10.2538     70.5865      2.3434      0.0306     31.0339    107.3325   -999.2500   -999.2500   -999.2500   -999.2500     20.1900     12.9364     13.1506  
  1717.0000      9.9424     76.3031      2.3447      0.0330     33.9807    108.4120   -999.2500   -999.2500   -999.2500   -999.2500     22.6950     10.7802      9.4788  
  1717.5000      9.3080     81.2589      2.3285      0.0494     36.7223    109.0436   -999.2500   -999.2500   -999.2500   -999.2500     10.8063      9.1971      8.0670  
  1718.0000      9.9595     84.0111      2.2993      0.1246     38.2244    109.1901   -999.2500   -999.2500   -999.2500   -999.2500     10.1052      8.5206      7.5910  
  1718.5000     10.9106     83.8000      2.2595      0.1792     38.9503    108.8224   -999.2500   -999.2500   -999.2500   -999.2500      9.6988      8.4672      7.2066  
  1719.0000     10.6729     84.0745      2.1884      0.1476     39.9300    109.0901   -999.2500   -999.2500   -999.2500   -999.2500      9.7835      8.6516      7.1671  
  1719.5000     11.0041     85.0931      2.1792      0.1241     39.7411    110.2035   -999.2500   -999.2500   -999.2500   -999.2500     11.6630      8.9163      7.7612  
  1720.0000     11.3776     87.3806      2.1451      0.1093     39.0104    111.4338   -999.2500   -999.2500   -999.2500   -999.2500     12.8400      9.1892      8.4115  
  1720.5000     11.7200     89.7232      2.1170      0.0937     38.5336    108.7673   -999.2500   -999.2500   -999.2500   -999.2500     14.7269      9.3800      8.9587  
  1721.0000     11.8723     90.1961      2.0987      0.0994     37.7434    112.1134   -999.2500   -999.2500   -999.2500   -999.2500     17.7050      9.4734      9.0023  
  1721.5000     10.6447     90.3601      2.1201      0.1162     36.7135    113.5780   -999.2500   -999.2500   -999.2500   -999.2500     12.3461      9.3785      8.9992  
  1722.0000     10.5400     91.3102      2.1448      0.1189     36.7355    111.0866   -999.2500   -999.2500   -999.2500   -999.2500     11.1618      9.3828      8.8019  
  1722.5000     10.3027     90.2870      2.1529      0.1169     37.8246    110.0681   -999.2500   -999.2500   -999.2500   -999.2500     11.5146      9.6443      8.3307  
  1723.0000     10.1139     89.6575      2.1304      0.1205     39.0483    108.0960   -999.2500   -999.2500   -999.2500   -999.2500     12.1274     10.0153      8.0404  
  1723.5000     10.7692     89.2340      2.1357      0.1120     40.2785    106.3778   -999.2500   -999.2500   -999.2500   -999.2500     12.4975     10.1421      6.9249  
  1724.0000     10.5871     90.0376      2.1593      0.1110     41.5578    108.0986   -999.2500   -999.2500   -999.2500   -999.2500      9.9084      9.6669      6.2189  
  1724.5000     10.4150     90.5190      2.1596      0.1146     42.0693    108.8945   -999.2500   -999.2500   -999.2500   -999.2500      9.9970      9.0347      7.0710  
  1725.0000     10.9734     89.8956      2.1522      0.0859     42.5636    107.4553   -999.2500   -999.2500   -999.2500   -999.2500     11.7986      9.0023      8.0397  
  1725.5000     10.3274     88.5645      2.1897      0.0413     42.4366    107.1718   -999.2500   -999.2500   -999.2500   -999.2500     11.6592      9.5486      9.1412  
  1726.0000     11.0362     87.1706      2.3477      0.0396     40.0332    106.8640   -999.2500   -999.2500   -999.2500   -999.2500     11.8599     10.3821     10.3619  
  1726.5000     10.6090     85.3776      2.4353      0.0523     37.1590    106.9464   -999.2500   -999.2500   -999.2500   -999.2500     18.0342     11.0959     11.3739  
  1727.0000      9.6402     82.4787      2.4570      0.0127     35.6372    108.5595   -999.2500   -999.2500   -999.2500   -999.2500     13.3002     11.1122     11.5240  
  1727.5000     10.1880     81.5018      2.4614     -0.0049     35.7155    108.9942   -999.2500   -999.2500   -999.2500   -999.2500     11.7348     10.6048     11.0340  
