~VERSION INFORMATION
 VERS.                           2.00:        CWLS LOG ASCII STANDARD - VERSION 2.00
 WRAP.                             NO:        ONE LINE PER DEPTH STEP
~WELL INFORMATION
#MNEM.UNIT                   DATA             INFORMATION
#----------             --------------        ------------------------------
 STRT.F                       25.0000:        START DEPTH
 STOP.F                     4165.0000:        STOP DEPTH
 STEP.F                        0.5000:        STEP VALUE
 NULL.                      -999.2500:        NULL VALUE
 COMP.    USGS/NPR HUSKY OIL OPERATOR:        COMPANY
 LOC .                     21 21N 14W:        LOCATION
 DATE.                         3/3/80:        LOG DATE
 WELL.                 WEST  DEASE #1:        WELL
 UWI .                   500232001400:        UNIQUE WELL ID
 API .                   500232001400:        UNIQUE WELL IDENTIFIER
 FLD .                        WILDCAT:        FIELD
 CNTY.                    NORTH SLOPE:        COUNTY
 STAT.                         ALASKA:        STATE
 CTRY.                            USA:        COUNTRY
 OPER.    USGS/NPR HUSKY OIL OPERATOR:        OPERATOR
 SRVC.                   SCHLUMBERGER:        SERVICE COMPANY
 LAT .                         0.0000:        LATITUDE
 LON .                         0.0000:        LONGITUDE
 DIGS.               CENTER LINE DATA:        DIGITIZING COMPANY
~CURVE INFORMATION      
#MNEM        .UNIT         API CODE           CURVE DESCRIPTION
#-----------------      --------------        ------------------------------
 DEPT        .F                      :        1  DEPTH
 SP          .MV                     :        2  
 LLD         .OHMM                   :        3  
 LLS         .OHMM                   :        4  
 MSFL        .OHMM                   :        5  
 CALI        .IN                     :        6  
 RHOB        .G/C3                   :        7  
 DRHO        .G/C3                   :        8  
 NPHI        .%                      :        9  
 GR          .GAPI                   :        10 
 DT          .US/F                   :        11 
~PARAMETER INFORMATION
#MNEM.UNIT                  VALUE             DESCRIPTION OF MNEMONIC
#---------             ---------------        ------------------------------
 EKB .F                       24.0000:        KELLY BUSHING
 TD  .F                     4173.0000:        TOTAL DEPTH
 BHT .F                       85.0000:        BOTTOM HOLE TEMPERATURE
 BS  .                        12.2500:        BIT SIZE
 FD  .                        10.4000:        FLUID DENSITY
 CSIZ.                        13.3750:        CASING SIZE
 CBD .F                      288.0000:        CASING DRILLER 1
 CBL .F                      292.0000:        CASING LOGGER 1
 DFT .                             99:        TYPE FLUID IN HOLE
 DFV .                        52.0000:        VISCOSITY
 DFPH.                         8.0000:        PH
 DFL .                         7.5000:        FLUID LOSS
 RMS .                         0.1250:        RM
 MST .F                       35.0000:        RM MEAS. TEMP.
 RMF .                         0.1440:        RMF
 MFST.F                       44.0000:        RMF MEAS. TEMP.
 RMC .                         0.2360:        RMC
 MCST.F                       36.0000:        RMC MEAS. TEMP.
~OTHER INFORMATION
~A    DEPTH          SP         LLD         LLS        MSFL        CALI        RHOB        DRHO        NPHI          GR          DT 
# ...
  1062.0000   -135.9721      7.8041      5.5097      0.7276     14.4327      2.3866      0.1479     50.5852     67.2482    118.1829 
  1062.5000   -136.2464      7.9787      5.6367      1.0716     14.3649      2.4378      0.1483     49.7907     67.7109    122.5285 
  1063.0000   -136.3847      7.7701      5.5003      1.3183     14.3075      2.4642      0.1541     47.5876     67.0138    123.3302 
  1063.5000   -136.1846      7.6357      5.2702      1.2632     14.3308      2.4454      0.1862     45.3899     66.2925    123.7375 
  1064.0000   -136.0161      7.5784      5.2774      0.9637     14.3475      2.4653      0.2332     45.6006     65.4085    123.7135 
  1064.5000   -135.9156      7.6522      5.4394      1.1289     14.5191      2.4009      0.1566     47.5926     64.5972    123.6896 
  1065.0000   -136.2179      7.8478      5.6374      1.4317     14.2695      2.3806      0.1351     49.5926     64.0313    121.9290 
  1065.5000   -135.7820      7.7156      5.7310      1.5661     14.0837      2.4423      0.1980     49.3508     63.4654    118.1088 
  1066.0000   -135.8932      7.1804      5.2218      1.0335     14.0446      2.4271      0.1678     47.9250     62.9283    112.9722 
  1066.5000   -135.9545      6.8188      4.9598      1.0976     14.0026      2.4109      0.1691     46.4632     62.4576    117.8748 
  1067.0000   -135.8486      6.7111      4.8837      0.7787     14.0026      2.4341      0.2102     44.8450     62.2596    119.1190 
  1067.5000   -135.9361      6.7338      4.7368      1.2924     14.0610      2.4058      0.2363     44.8892     62.2705    117.3818 
  1068.0000   -135.8191      6.7287      4.9141      2.3419     14.1777      2.3798      0.2318     47.5515     63.3014    121.4458 
  1068.5000   -135.8386      6.9652      5.0234      1.5388     14.2486      2.3593      0.2140     50.3722     64.5713    117.9436 
  1069.0000   -136.0411      6.9298      4.9892      2.6486     14.3040      2.3494      0.1749     51.5081     66.4319    117.6612 
  1069.5000   -135.5968      6.8900      4.9810      2.4323     14.3358      2.3422      0.1455     50.6011     68.4002    119.0693 
  1070.0000   -135.6691      6.7939      5.0272      1.4447     14.3259      2.3465      0.1261     49.8092     68.6038    117.3178 
  1070.5000   -135.8742      6.9392      5.0372      1.2082     14.3094      2.3618      0.1082     49.2107     68.9788    116.4219 
  1071.0000   -136.2389      7.1476      5.1228      1.5876     14.2586      2.4273      0.1315     48.0393     69.5197    116.9197 
  1071.5000   -135.8269      7.2850      5.3190      1.9199     14.2409      2.4456      0.1442     47.5348     70.1456    117.5373 
  1072.0000   -135.6964      7.2437      5.3605      2.1067     14.2766      2.4498      0.1505     47.3921     70.4200    119.4893 
  1072.5000   -136.3379      7.2027      5.3297      1.6606     14.3372      2.4440      0.1336     47.2673     69.9261    121.6209 
  1073.0000   -136.4148      7.0626      5.1665      1.1362     14.3575      2.4509      0.1162     46.6275     68.2972    121.9369 
  1073.5000   -136.5858      6.6669      5.0143      1.9670     14.3557      2.4401      0.1213     46.3302     66.6859    123.5869 
  1074.0000   -136.3541      6.8862      4.9223      1.5133     14.3455      2.4337      0.1623     46.4421     65.5971    118.8197 
  1074.5000   -136.5048      6.8498      4.9240      1.3832     14.3336      2.4236      0.1898     47.3527     65.5721    117.3475 
  1075.0000   -136.4022      6.9240      5.0512      1.5779     14.3166      2.3616      0.1692     49.2324     65.4712    117.5293 
  1075.5000   -136.4212      7.2052      5.2751      1.9852     14.2987      2.3425      0.1499     51.5117     65.2639    116.5031 
  1076.0000   -136.0254      7.3239      5.6180      2.8694     14.2731      2.3675      0.1644     51.5121     64.7591    116.7881 
  1076.5000   -136.2947      7.6963      5.6444      3.2560     14.2852      2.3746      0.1732     51.3773     64.4124    113.5932 
  1077.0000   -136.8813      7.3031      5.3957      3.4952     14.2953      2.3783      0.1463     51.7107     64.7446    117.0940 
  1077.5000   -136.3874      7.1805      5.3013      2.3873     14.2758      2.3991      0.1593     51.7434     65.6554    118.7541 
  1078.0000   -136.1149      7.5088      5.2171      1.5554     14.2292      2.4335      0.1756     50.8912     67.1085    119.6750 
  1078.5000   -136.6086      7.2224      5.1171      1.6819     14.1799      2.4014      0.1358     49.7006     67.1460    121.3817 
  1079.0000   -136.7142      7.2082      5.2319      1.7092     14.1704      2.3901      0.1096     49.2747     66.4934    118.5998 
  1079.5000   -137.0200      7.3151      5.2621      1.3320     14.2059      2.3845      0.1284     48.9429     66.0739    116.3774 
  1080.0000   -136.8264      7.6360      5.3435      1.6837     14.2762      2.3891      0.1837     48.1902     65.8132    119.4680 
  1080.5000   -136.6328      7.5730      5.3966      1.4641     14.3452      2.3431      0.2024     46.8638     65.5156    116.3485 
  1081.0000   -137.1489      7.6619      5.4434      1.2116     14.4039      2.2979      0.2159     48.4555     64.9050    114.4815 
  1081.5000   -136.7829      7.5652      5.4088      1.6915     14.4845      2.2825      0.2085     50.8959     64.8120    113.3663 
  1082.0000   -136.4631      7.4697      5.3333      3.1071     14.5655      2.2904      0.2082     52.6101     64.9264    110.5520 
  1082.5000   -137.2631      7.3754      5.3007      3.1818     14.6437      2.3109      0.1771     52.8193     65.1636    109.4949 
  1083.0000   -136.8703      7.3824      5.2613      2.2464     14.6405      2.3350      0.1228     52.1464     64.5618    110.1953 
  1083.5000   -136.9928      7.4331      5.2704      1.9943     14.5581      2.3941      0.1224     50.6067     63.9909    111.3271 
  1084.0000   -136.6276      7.5197      5.3186      1.2720     14.5340      2.4635      0.1655     47.6422     64.1840    112.5209 
  1084.5000   -136.8311      7.5411      5.2544      1.9476     14.5027      2.4355      0.1537     48.6239     64.3064    116.0798 
  1085.0000   -136.4458      7.5169      5.3459      2.2629     14.4411      2.4275      0.1413     50.6340     63.7601    120.0172 
  1085.5000   -136.2528      7.6891      5.4817      1.9101     14.3978      2.4611      0.1728     49.9737     62.7826    117.5495 
  1086.0000   -135.8071      7.8960      5.5156      3.2274     14.4184      2.4782      0.1912     47.8135     61.3069    115.3417 
  1086.5000   -136.3242      7.6820      5.4944      2.7510     14.4561      2.4589      0.1821     47.3494     59.9158    110.5981 
  1087.0000   -136.2713      7.1000      5.2753      2.0548     14.4909      2.3867      0.1378     48.9258     60.0050    107.1862 
  1087.5000   -136.1376      6.9910      4.9600      1.9261     14.5096      2.3728      0.1296     49.7034     61.0338    106.3118 
  1088.0000   -136.0908      6.7078      4.8103      3.5677     14.5436      2.3930      0.1712     49.7471     62.6648    108.6858 
  1088.5000   -136.1181      6.6067      4.8818      3.0215     14.5867      2.3981      0.1690     49.7998     64.1961    109.8052 
  1089.0000   -136.2830      6.8541      4.9483      2.4823     14.5707      2.4140      0.1649     50.5946     64.8238    111.4995 
  1089.5000   -135.9028      6.9247      4.9396      1.6049     14.4751      2.4100      0.1184     50.2741     64.6747    114.4792 
  1090.0000   -136.1097      7.0141      5.0168      2.7389     14.3422      2.4371      0.0986     49.4177     64.4875    121.0867 
  1090.5000   -136.3180      7.0442      5.0630      1.6464     14.2154      2.4563      0.0971     48.5899     64.3003    122.8164 
  1091.0000   -136.0694      7.0979      5.0420      1.2335     14.2240      2.4676      0.1153     48.1399     63.1593    124.1450 
  1091.5000   -135.9601      7.1598      5.0389      0.8177     14.2883      2.4556      0.1271     47.8547     61.5114    125.6901 
  1092.0000   -135.9219      7.1694      5.0685      1.1098     14.2746      2.4399      0.1329     47.9287     59.2708    120.1362 
