~VERSION INFORMATION
 VERS.                           2.00:        CWLS LOG ASCII STANDARD - VERSION 2.00
 WRAP.                             NO:        ONE LINE PER DEPTH STEP
~WELL INFORMATION
#MNEM.UNIT                   DATA             INFORMATION
#----------             --------------        ------------------------------
 STRT.F                     1260.0000:        START DEPTH
 STOP.F                     2340.0000:        STOP DEPTH
 STEP.F                        0.5000:        STEP VALUE
 NULL.                      -999.2500:        NULL VALUE
 COMP.        U.S.NAVY DEEPT NP & OSR:        COMPANY  
 LOC .                  144  22N 18W UPM:        LOCATION   
 DATE.                        2/24/74:        LOG DATE 
 WELL.               SOUTH BARROW #11:        WELL     
 UWI .                    50023200500:        UNIQUE WELL ID 
 API .                    50023200500:        UNIQUE WELL IDENTIFIER 
 FLD .                   SOUTH BARROW:        FIELD    
 CNTY.                          NPR-4:        COUNTY  
 STAT.                         ALASKA:        STATE   
 CTRY.                            USA:        COUNTRY 
 OPER.        U.S.NAVY DEEPT NP & OSR:        OPERATOR  
 SRVC.                   SCHLUMBERGER:        SERVICE COMPANY 
 LAT .                         0.0000:        LATITUDE
 LON .                         0.0000:        LONGITUDE
 DIGS.               CENTER LINE DATA:        DIGITIZING COMPANY 
~CURVE INFORMATION      
#MNEM        .UNIT         API CODE           CURVE DESCRIPTION
#-----------------      --------------        ------------------------------
 DEPT        .F                      :        1  DEPTH
 CALI        .IN                     :        2  
 GR          .GAPI                   :        3  
 RHOB        .G/C3                   :        4  
 NPHI        .%                      :        5  
 DPHI        .%                      :        6  
 SP          .MV                     :        7  
 LL8         .OHMM                   :        8  
 ILD         .OHMM                   :        9  
 CILD        .MMHO                   :        10 
 DT          .US/F                   :        11 
~PARAMETER INFORMATION       
#MNEM.UNIT                  VALUE             DESCRIPTION OF MNEMONIC
#---------             ---------------        ------------------------------
 EKB .F                       36.0000:        KELLY BUSHING
 TD  .F                     2350.0000:        TOTAL DEPTH
 BHT .F                       60.0000:        BOTTOM HOLE TEMPERATURE
 BS  .                         9.6250:        BIT SIZE
 FD  .                        10.8000:        FLUID DENSITY
 CSIZ.                        10.7500:        CASING SIZE
 CBD .F                     1267.0000:        CASING DRILLER 1
 CBL .F                     1267.0000:        CASING LOGGER 1
 DFT .      Salt Water-Lignosulfonate:        TYPE FLUID IN HOLE
 DFV .                        52.0000:        VISCOSITY
 DFPH.                         9.0000:        PH
 DFL .                         4.2000:        FLUID LOSS
 RMS .                         1.8800:        RM
 MST .F                       50.0000:        RM MEAS. TEMP.
 RMF .                         1.1500:        RMF
 MFST.F                       63.0000:        RMF MEAS. TEMP.
 RMC .                         1.5000:        RMC
 MCST.F                       50.0000:        RMC MEAS. TEMP.
~OTHER INFORMATION
~A    DEPTH        CALI          GR        RHOB        NPHI        DPHI          SP         LL8         ILD        CILD          DT  
# ...
  1860.0000     10.4360     94.5848      2.3838     37.4966     16.2019    -21.3878      9.8919      9.0694    109.1855    111.8738  
  1860.5000     10.3591     93.4573      2.3803     37.9193     16.2840    -21.6884      9.8692      9.0285    109.7472    109.2496  
  1861.0000     10.4973     93.5056      2.3748     38.9353     16.5581    -21.6006      9.7833      8.9050    110.6840    108.9357  
  1861.5000     10.5704     94.0011      2.3694     39.9958     16.7499    -21.5388      9.6287      8.8470    111.6568    108.6421  
  1862.0000     10.3441     95.7676      2.3689     40.5720     16.8347    -21.6719      9.4742      8.7592    112.4065    108.2697  
  1862.5000     10.3826     97.4147      2.3688     39.5978     16.8952    -21.9376      9.3074      8.6714    114.0548    107.9360  
  1863.0000     10.2689     98.0642      2.3691     39.5043     16.9004    -22.2105      9.0987      8.5837    116.1028    107.8187  
  1863.5000     10.1654     98.3252      2.3836     41.3838     16.5876    -22.5365      8.8900      8.4959    117.8072    108.1973  
  1864.0000     10.1379     99.3057      2.4000     42.7630     15.6892    -22.8645      8.6813      8.4081    119.7470    108.2364  
  1864.5000     10.1191    101.3833      2.4042     46.0909     14.9254    -23.0071      8.5761      8.3127    121.6481    108.7585  
  1865.0000     10.1437    102.0228      2.3995     46.6437     15.0755    -22.9444      8.5782      8.2143    122.3375    108.7646  
  1865.5000     10.2046    101.9441      2.3918     46.7824     15.6972    -22.8287      8.5804      8.1160    122.4058    108.0175  
  1866.0000     10.2605    100.8646      2.3744     45.9610     16.3935    -22.3671      8.5825      8.0176    122.0148    106.3850  
  1866.5000     10.3464     98.3766      2.3771     43.6416     16.7458    -21.8297      8.5992      7.9975    121.3708    106.4255  
  1867.0000     10.5221     96.1665      2.3880     41.7220     16.2558    -21.5002      8.6747      8.0596    120.6490    106.9064  
  1867.5000     10.5836     94.0406      2.3981     40.8764     15.5107    -21.4091      8.7502      8.1217    120.2032    107.5122  
  1868.0000     10.6393     91.7381      2.4015     40.5395     14.8609    -21.2306      8.8266      8.1838    120.1636    108.2605  
  1868.5000     10.5816     93.9025      2.3991     40.2345     15.2595    -21.0110      8.9073      8.2339    119.7922    108.5695  
  1869.0000     10.4275     95.3113      2.3969     40.0286     15.0979    -20.9107      8.9880      8.2536    119.6201    108.3240  
  1869.5000     10.4447     96.2133      2.3971     39.6257     15.1502    -20.8144      9.0687      8.2733    119.7177    107.9763  
  1870.0000     10.4462     96.9191      2.3914     39.0965     15.7311    -20.7488      9.0702      8.2930    119.8085    107.4567  
  1870.5000     10.4330     96.5434      2.3787     39.0193     16.2410    -20.7392      9.0666      8.3127    119.7545    107.0916  
  1871.0000     10.4594     96.2987      2.3788     39.6912     16.3869    -21.3693      9.0879      8.3052    119.9958    107.1051  
  1871.5000     10.3920     96.5848      2.3809     40.9317     16.3058    -21.7364      9.1169      8.2731    120.3518    107.2627  
  1872.0000     10.4015     96.3933      2.3827     42.7276     16.2570    -22.0443      9.1546      8.2410    119.7035    107.7606  
  1872.5000     10.3963     93.5375      2.3779     44.0854     16.5084    -22.3621      9.2655      8.5544    117.6780    108.3498  
  1873.0000     10.3997     90.4312      2.3735     43.8802     16.7485    -22.8250      9.6254      9.1054    113.1244    109.0472  
  1873.5000     10.6601     86.1217      2.3747     40.7664     16.7002    -23.3690     10.6449      9.7813    105.9847    110.3504  
  1874.0000     10.5435     79.6914      2.3648     39.0537     17.2228    -24.2772     11.9661     10.8118     97.8311    113.1952  
  1874.5000     10.4399     72.5796      2.3436     38.0165     18.8054    -25.6291     14.2185     11.9104     88.3999    111.4471  
  1875.0000     10.4383     67.0531      2.2930     36.8820     21.2943    -26.9084     17.3491     13.0723     81.2742    105.7175  
  1875.5000     10.3524     60.7776      2.2391     34.3078     24.2465    -27.9722     20.6302     14.5767     73.7735    100.3940  
  1876.0000     10.1361     57.0778      2.2010     30.5086     27.8769    -28.9559     23.3380     16.2821     66.5550    107.1744  
  1876.5000     10.1697     56.6533      2.1679     25.1428     30.1171    -29.9941     23.5914     17.9530     61.0100    130.3355  
  1877.0000     10.2042     58.2790      2.1243     26.5476     32.4709    -30.6624     21.2517     18.2142     59.1409    150.1182  
  1877.5000     10.2375     60.0638      2.0773     28.6468     34.6232    -31.1783     18.1890     16.8729     61.6352    150.9095  
  1878.0000     10.2571     62.8205      2.0122     31.2397     44.9761    -31.5303     15.6154     15.4758     67.2594    160.0509  
  1878.5000     10.6175     65.0319      1.6915     34.7155     56.0698    -31.8475     13.9834     14.1991     72.3071    155.4635  
  1879.0000     12.2156     64.1853      1.5226     43.5879     59.7106    -32.2600     13.2662     13.2188     76.1510    135.0584  
  1879.5000     14.3607     62.1789      1.4272     52.5487     68.5960    -32.6804     12.7527     12.5908     79.9333    118.0113  
  1880.0000     14.8157     59.9459      1.4152     56.0587     69.9475    -32.8405     12.9111     12.6490     81.5044    129.6198  
  1880.5000     14.1508     60.0205      1.4566     55.9345     67.3812    -32.8350     13.3540     13.1808     81.1527    113.9842  
  1881.0000     14.1848     61.7003      1.4998     53.6610     64.9359    -32.7105     14.8167     14.1532     77.3916     73.3362  
  1881.5000     13.4581     64.1638      1.5497     50.7001     62.1486    -32.5924     16.4758     15.1985     72.6655     63.7316  
  1882.0000     12.7314     66.6695      1.7138     47.7761     54.7349    -32.3217     18.4966     16.2501     67.0409     58.7496  
  1882.5000     12.0047     69.9665      1.8437     44.9209     47.3212    -32.1270     19.4002     17.3017     63.0415     66.9173  
  1883.0000     11.3410     73.0375      1.9279     42.4711     41.8203    -31.8252     19.5205     17.7123     62.0745     88.1705  
  1883.5000     11.5549     74.7311      2.0386     39.3829     39.5053    -31.2647     18.4473     17.0366     63.6119    104.4968  
  1884.0000     11.4781     75.8698      2.0909     36.2947     36.8387    -30.3613     16.5725     15.5846     65.1494     52.4897  
  1884.5000     10.7955     77.5912      2.1602     35.1532     32.6783    -29.5501     14.5197     14.1490     69.4903     49.9806  
  1885.0000     11.2085     81.8805      2.2158     35.4127     28.4450    -28.5740     12.5292     12.7133     75.6732     50.0257  
  1885.5000     11.9702     87.5989      2.2931     36.4921     25.5956    -27.4082     11.4588     11.2777     83.3364     50.0709  
  1886.0000     10.9989     92.6457      2.3601     37.8360     21.8741    -26.0386     10.3884      9.9529     93.8231    131.1076  
  1886.5000     10.3141     95.8128      2.4131     40.3135     17.9770    -25.0925      9.9002      9.5633    102.6935    142.1254  
  1887.0000     10.2671     96.2917      2.4088     42.7181     13.7640    -24.5347      9.4711      9.1738    109.9891    153.1431  
  1887.5000     10.2586     96.2352      2.3954     43.4952     14.6193    -23.9770      9.3992      8.7842    114.7373    156.8477  
  1888.0000     10.1899     96.8044      2.3848     43.2123     15.6090    -23.3353      9.3273      8.3946    118.1202    144.5722  
  1888.5000     10.1289     98.1483      2.3826     42.6964     16.1269    -22.9566      9.2554      8.3194    120.1680    133.0515  
  1889.0000     10.1534     99.1719      2.3906     42.3210     15.9500    -22.5846      9.1884      8.2481    121.1873    124.6928  
  1889.5000     10.2152     99.7392      2.4044     43.9889     15.5387    -22.1491      9.1222      8.1952    121.8691    116.6502  
