~VERSION INFORMATION
 VERS.                           2.00:        CWLS LOG ASCII STANDARD - VERSION 2.00
 WRAP.                             NO:        ONE LINE PER DEPTH STEP
~WELL INFORMATION
#MNEM.UNIT                   DATA             INFORMATION
#----------             --------------        ------------------------------
 STRT.F                     1088.0000:        START DEPTH
 STOP.F                     2449.0000:        STOP DEPTH
 STEP.F                        0.5000:        STEP VALUE
 NULL.                      -999.2500:        NULL VALUE
 COMP.             UNITED STATES NAVY:        COMPANY  
 LOC .                   11  22N  18W:        LOCATION   
 DATE.                         4/7/70:        LOG DATE 
 WELL.                    GAS WELL #9:        WELL     
 UWI .                   500232000300:        UNIQUE WELL ID 
 API .                   500232000300:        UNIQUE WELL IDENTIFIER 
 FLD .                   SOUTH BARROW:        FIELD    
 CNTY.                   POINT BARROW:        COUNTY  
 STAT.                         ALASKA:        STATE   
 CTRY.                            USA:        COUNTRY 
 OPER.             UNITED STATES NAVY:        OPERATOR  
 SRVC.                   SCHLUMBERGER:        SERVICE COMPANY 
 LAT .                         0.0000:        LATITUDE
 LON .                         0.0000:        LONGITUDE
 DIGS.               CENTER LINE DATA:        DIGITIZING COMPANY 
~CURVE INFORMATION      
#MNEM        .UNIT         API CODE           CURVE DESCRIPTION
#-----------------      --------------        ------------------------------
 DEPT        .F                      :        1  DEPTH
 SP          .MV                     :        2  
 ASN         .OHMM                   :        3  
 ILD         .OHMM                   :        4  
 CILD        .MMHO                   :        5  
 CALI        .IN                     :        6  
 GR          .GAPI                   :        7  
 DRHO        .G/C3                   :        8  
 RHOB        .G/C3                   :        9  
 DT          .US/F                   :        10 
~PARAMETER INFORMATION       
#MNEM.UNIT                  VALUE             DESCRIPTION OF MNEMONIC
#---------             ---------------        ------------------------------
 EKB .F                       29.0000:        KELLY BUSHING
 TD  .F                     2450.0000:        TOTAL DEPTH
 BHT .F                       75.0000:        BOTTOM HOLE TEMPERATURE
 BS  .                         8.6250:        BIT SIZE
 FD  .                        10.7000:        FLUID DENSITY
 CSIZ.                         9.6250:        CASING SIZE
 CBD .F                     1100.0000:        CASING DRILLER 1
 CBL .F                     1102.0000:        CASING LOGGER 1
 DFT .                            Gel:        TYPE FLUID IN HOLE
 DFV .                        45.0000:        VISCOSITY
 DFPH.                         8.8000:        PH
 DFL .                         3.8000:        FLUID LOSS
 RMS .                         2.7500:        RM
 MST .F                       60.0000:        RM MEAS. TEMP.
 RMF .                         2.3600:        RMF
 MFST.F                       60.0000:        RMF MEAS. TEMP.
 RMC .                         3.7800:        RMC
 MCST.F                       60.0000:        RMC MEAS. TEMP.
~OTHER INFORMATION
~A    DEPTH          SP         ASN         ILD        CILD        CALI          GR        DRHO        RHOB          DT  
# ...
  2045.0000    -11.2955     11.5277      9.0015    107.3619     11.3468     68.9788      0.0868      2.3753    102.5616  
  2045.5000    -11.9393     11.5870      9.1515    105.9353     11.0566     68.3138      0.1146      2.3852    101.2232  
  2046.0000    -12.3718     11.4772      9.2965    104.7167     10.6891     67.3111      0.1260      2.3873    100.9797  
  2046.5000    -12.4111     11.4942      9.3802    103.4701     10.4705     67.4591      0.0799      2.3412    102.3060  
  2047.0000    -11.7519     11.6782      9.6624    101.4671     10.4112     66.9436      0.0494      2.3383    105.8768  
  2047.5000    -11.2103     11.9906      9.9265     98.1880     10.2087     65.0316      0.0665      2.3824    107.5089  
  2048.0000    -11.3811     12.5740     10.6953     93.3334     10.1959     64.1655      0.0746      2.3883    104.4336  
  2048.5000    -11.1492     13.3687     11.6540     84.2415     10.5565     66.2098      0.0647      2.3734    104.1051  
  2049.0000    -11.2103     14.1959     13.0168     76.1287     10.8005     69.3142      0.0668      2.3933    103.4969  
  2049.5000    -12.3213     16.1522     14.3097     69.4611     10.2288     68.1557      0.0694      2.4178    102.8542  
  2050.0000    -14.1209     18.7238     15.6025     65.7277      9.2142     61.8012      0.0536      2.4256    102.6339  
  2050.5000    -17.1782     21.6939     15.9447     63.5885      9.1710     55.0009      0.0378      2.3877    103.2520  
  2051.0000    -21.0606     23.6434     15.8076     64.1243      9.4097     49.1520      0.0224      2.3462    102.7598  
  2051.5000    -22.9015     22.6539     15.4538     65.4981      9.1995     44.4786      0.0114      2.2976    102.7120  
  2052.0000    -21.4330     19.5882     14.7239     68.1157      8.7959     44.0568      0.0081      2.2725    102.1418  
  2052.5000    -18.9577     17.2152     13.7242     73.5933      8.6972     48.3523      0.0155      2.2632    101.0683  
  2053.0000    -16.5910     15.0717     12.4886     80.7410      8.6669     54.0201      0.0409      2.2640    102.7883  
  2053.5000    -15.3804     13.7293     11.3445     87.3121      8.9398     62.8798      0.0820      2.2687    104.9949  
  2054.0000    -14.5593     12.8510     10.4784     95.2807      9.4702     67.6012      0.1348      2.2553    104.9804  
  2054.5000    -13.9505     12.4244      9.6911    100.9698     10.3087     70.3948      0.1450      2.2199    102.9543  
  2055.0000    -13.5284     12.0315      9.3773    104.4728     10.5599     68.5558      0.1229      2.2083    103.2772  
  2055.5000    -13.4459     11.7084      9.2190    106.1148     10.8230     68.3269      0.1014      2.2006    103.2381  
  2056.0000    -13.8730     11.4765      9.1655    106.6910     10.3738     69.8049      0.0661      2.1820    103.1703  
  2056.5000    -13.1980     11.3535      9.1760    105.7390      9.5177     71.9444      0.0362      2.1769    103.2833  
  2057.0000    -12.1751     11.2602      9.1234    106.5526      9.1295     72.2128      0.0394      2.1492    103.6535  
  2057.5000    -11.4795     11.0985      8.9623    107.8612      9.4786     70.0860      0.0739      2.1202    104.0584  
  2058.0000    -11.8030     10.9212      8.8266    109.6218     10.3641     67.8815      0.0355      2.0758    104.6103  
  2058.5000    -12.0290     10.7912      8.7245    110.6439     11.8438     67.4126      0.0086      2.0978    104.9129  
  2059.0000    -12.4241     10.7249      8.6600    110.7984     12.2996     69.0854      0.0272      2.1578    104.9129  
  2059.5000    -12.8469     10.7511      8.6696    110.7845     12.1665     70.6127      0.0322      2.1791    104.7623  
  2060.0000    -12.7955     10.7553      8.7101    110.5882     11.7882     72.4357      0.0289      2.1661    104.5187  
  2060.5000    -12.7134     10.6651      8.7552    110.2276     11.7261     73.9399      0.0657      2.2028    104.4153  
  2061.0000    -12.9241     10.3378      8.7404    110.0336     12.2291     74.6836      0.1143      2.2192    104.5654  
  2061.5000    -13.1558     10.2962      8.7856    110.3613     12.3910     74.2593      0.1148      2.1937    104.6182  
  2062.0000    -13.4290     10.3283      8.6366    111.9069     11.8588     71.0237      0.0904      2.1633    104.6340  
  2062.5000    -13.4573     10.3179      8.4732    113.7428     11.1351     73.1800      0.0839      2.1493    104.6618  
  2063.0000    -13.1486     10.2765      8.2947    115.5198     10.6141     74.6118      0.0918      2.1288    104.6323  
  2063.5000    -12.9836     10.2440      8.2508    116.0823     10.3342     74.9525      0.0766      2.1342    104.6028  
  2064.0000    -13.0885     10.3275      8.3498    115.2355      9.9159     75.2728      0.0662      2.1792    104.7442  
  2064.5000    -13.4496     10.1120      8.4201    114.0535      9.5814     71.2443      0.0679      2.2032    105.1586  
  2065.0000    -14.0638     10.0840      8.5225    113.4278      9.9528     68.2457      0.0867      2.1962    105.8177  
  2065.5000    -14.2704     10.0511      8.5352    112.9655     10.5072     68.7437      0.1201      2.2000    106.1197  
  2066.0000    -14.4117     10.2351      8.5558    112.1579     10.1878     69.2801      0.1461      2.2370    106.0463  
  2066.5000    -14.3691     10.5465      8.6858    110.9805     10.0823     69.6863      0.1223      2.3102    104.9118  
  2067.0000    -14.0383     10.7488      8.8799    108.9307     10.6046     70.0469      0.1287      2.3773    104.0576  
  2067.5000    -13.8285     10.8062      9.0917    106.6088     10.7773     68.9799      0.1187      2.3686    103.7042  
  2068.0000    -13.9920     10.7741      9.2337    104.1864     10.4833     68.5799      0.1118      2.3409    103.7053  
  2068.5000    -14.0143     10.8085      9.3541    103.0533     10.2128     69.6001      0.1165      2.3183    103.8439  
  2069.0000    -13.9028     10.9332      9.4635    102.4392     10.0293     70.5543      0.1023      2.2975    103.5557  
  2069.5000    -13.6043     11.0579      9.4306    102.7536     10.0149     71.2307      0.0994      2.3242    103.1419  
  2070.0000    -12.8616     11.0556      9.3785    104.0184     10.2538     71.7832      0.1262      2.3699    103.1533  
  2070.5000    -12.2475     11.0519      9.3437    104.2827     10.7843     70.2311      0.1252      2.3614    103.1451  
  2071.0000    -12.3463     11.1389      9.3861    103.3146     11.8899     70.0877      0.1105      2.3550    102.8795  
  2071.5000    -12.3573     11.2815      9.4397    102.5610     11.2628     72.2028      0.0970      2.3504    102.5880  
  2072.0000    -12.1162     11.3639      9.5146    102.3195     10.6949     73.0992      0.0752      2.3427    102.5021  
  2072.5000    -11.1405     11.4350      9.6049    101.7715     10.5936     71.7866      0.0602      2.3067    102.8271  
  2073.0000    -10.8403     11.4951      9.7230    101.1368     10.7515     71.7685      0.0700      2.2853    102.9418  
  2073.5000    -10.9772     11.5897      9.7741    101.0345     11.1039     71.5922      0.0629      2.2547    102.7104  
  2074.0000    -11.0439     11.6722      9.7349    101.1443     11.2086     70.7036      0.0403      2.2326    102.0510  
  2074.5000    -10.9029     11.6861      9.7129    101.1643     11.1169     68.5696      0.0441      2.2481    101.8643  
  2075.0000    -10.7662     11.6500      9.7221    101.0305     11.1848     69.1824      0.0503      2.2666    102.0720  
  2075.5000    -10.4358     11.6387      9.7345    100.6001     11.2507     71.2341      0.0503      2.2650    102.3678  
  2076.0000    -10.4604     11.7052     10.0093     98.8552     11.1159     73.1001      0.0557      2.2730    102.2515  
  2076.5000    -10.4237     11.9211     10.3081     96.2670     10.9210     72.4622      0.0743      2.2870    102.1788  
  2077.0000    -10.5060     12.3306     10.6416     91.3843     10.9421     70.3926      0.0908      2.3015    102.2248  
  2077.5000    -10.6376     12.8948     11.4687     83.5958     11.4035     69.2818      0.1355      2.3571    102.9602  
