~VERSION INFORMATION
 VERS.                           2.00:        CWLS LOG ASCII STANDARD - VERSION 2.00
 WRAP.                             NO:        ONE LINE PER DEPTH STEP
~WELL INFORMATION
#MNEM.UNIT                   DATA             INFORMATION
#----------             --------------        ------------------------------
 STRT.F                      151.0000:        START DEPTH
 STOP.F                     2726.0000:        STOP DEPTH
 STEP.F                        0.5000:        STEP VALUE
 NULL.                      -999.2500:        NULL VALUE
 COMP.                      U.S. NAVY:        COMPANY  
 WELL.                     IKO BAY #1:        WELL     
 FLD .                        WILDCAT:        FIELD    
 LOC .                   16  21N  16W:        LOCATION   
 CNTY.                    NORTH SLOPE:        COUNTY  
 STAT.                         ALASKA:        STATE   
 CTRY.                            USA:        COUNTRY 
 DATE.                         2/8/75:        LOG DATE 
 API .                   502790000000:        UNIQUE WELL IDENTIFIER 
 OPER.                      U.S. NAVY:        OPERATOR  
 SRVC.                            440:        SERVICE COMPANY 
 UWI .                   502790000000:        UNIQUE WELL ID 
 LAT .                         0.0000:        LATITUDE
 LON .                         0.0000:        LONGITUDE
 DIGS.                             65:        DIGITIZING COMPANY 
~CURVE INFORMATION      
#MNEM.UNIT                 API CODE           CURVE DESCRIPTION
#---------              --------------        ------------------------------
 DEPT.F                              :        1  DEPTH
 SP  .MV                             :        2
 ILD .OHMM                           :        3
 LL8 .OHMM                           :        4
 ILM .OHMM                           :        5
 RHOB.G/C3                           :        6
 DRHO.G/C3                           :        7
 CALI.IN                             :        8
 GR  .GAPI                           :        9
 NPHI.%                              :       10
 DT  .US/F                           :       11
~PARAMETER INFORMATION       
#MNEM.UNIT                  VALUE             DESCRIPTION OF MNEMONIC
#---------             ---------------        ------------------------------
 EKB .F                        0.0000:        KELLY BUSHING
 TD  .F                     2731.0000:        TOTAL DEPTH
 BHT .F                             0.0000:        BOTTOM HOLE TEMPERATURE
 BS  .                             14.7500:        BIT SIZE
 FD  .                              0.0000:        FLUID DENSITY
 CSIZ.                             16.0000:        CASING SIZE
 CBD .F                           149.0000:        CASING DRILLER 1
 CBL .F                           152.0000:        CASING LOGGER 1
 DFT .                            Gel:        TYPE FLUID IN HOLE
 DFV .                              0.0000:        VISCOSITY
 DFPH.                              0.0000:        PH
 DFL .                              0.0000:        FLUID LOSS
 RMS .                              0.3000:        RM
 MST .F                       49.0000:        RM MEAS. TEMP.
 RMF .                              0.2300:        RMF
 MFST.F                       49.0000:        RMF MEAS. TEMP.
 RMC .                              0.4600:        RMC
 MCST.F                       49.0000:        RMC MEAS. TEMP.
 UWI .                   502790000000:        UNIQUE WELL ID
~OTHER INFORMATION
~A    DEPTH          SP         ILD         LL8         ILM        RHOB        DRHO        CALI          GR        NPHI          DT  
# ...
  2701.0000    -72.7663     12.9021     24.1436     14.4073      2.6010     -0.0067      9.7095     89.4680     37.3988     78.3134  
  2701.5000    -73.1859     14.5925     22.8866     16.5066      2.6020     -0.0066      9.7118     94.0076     36.1896     76.8194  
  2702.0000    -73.5159     16.5043     20.5279     18.9119      2.6050     -0.0052      9.7008    100.0802     30.2988     74.3565  
  2702.5000    -73.8023     18.6666     26.8452     21.9783      2.6080     -0.0027      9.6515    100.3682     25.4811     71.6019  
  2703.0000    -73.9925     20.5596     35.5433     25.8951      2.6179      0.0024      9.6343     91.2784     24.1730     69.6851  
  2703.5000    -73.8732     22.5516     45.5919     30.5100      2.6456      0.0101      9.6183     74.6079     24.2598     67.8537  
  2704.0000    -73.3063     24.7365     54.3752     35.9473      2.6906      0.0363      9.5910     58.8758     24.6369     65.3660  
  2704.5000    -72.6653     27.1332     64.4851     42.3358      2.6694      0.0284      9.5172     61.8673     24.9463     62.8179  
  2705.0000    -71.8818     29.7621     81.7665     49.8401      2.6461      0.0242      9.4811     95.8477     24.9904     61.0233  
  2705.5000    -71.0955     32.5489     94.7586     58.6747      2.5902      0.0153      9.5095   -999.2500     24.7374     60.4980  
  2706.0000    -70.2783     35.5306    103.6530     70.5684      2.5498      0.0116      9.5043   -999.2500     24.0932     61.2458  
  2706.5000    -69.5036     38.7855    100.2945     86.4898      2.5652      0.0079      9.3063   -999.2500     23.0780     63.2562  
  2707.0000    -69.5266     41.5095     91.0662    171.6311      2.6349      0.0178      8.4513   -999.2500     21.0488     63.4785  
  2707.5000    -70.2256     42.5953     91.5085    235.5512      2.7086      0.0403      8.0947   -999.2500     19.9253     63.1800  
  2708.0000    -70.5418     43.7095    112.6121    267.8267      2.7112      0.0444      7.5919   -999.2500     18.6010     61.9679  
  2708.5000    -70.8372     45.2901    218.6091    304.5246      2.7156      0.0241      7.4520   -999.2500     17.3790     60.1825  
  2709.0000    -71.0504     47.2224    169.3129    226.3687      2.7499      0.0341      7.4330   -999.2500     18.5426     60.1136  
  2709.5000    -70.9732     49.2372    130.7722    186.6051      2.7254      0.0393      7.4265   -999.2500     19.9676     60.1705  
  2710.0000    -70.8462     51.3380    129.9399    161.3095      2.7064      0.0263      7.4182   -999.2500     20.2784     59.7257  
  2710.5000    -70.7172     54.1130    136.7586    149.9858      2.7322      0.0260      7.4014   -999.2500     20.1238     59.2039  
  2711.0000    -70.5882     53.6268    138.7775    139.4570      2.7109      0.0259      7.3799   -999.2500     19.9915     58.9027  
  2711.5000    -70.4592     52.0011    139.8331    131.5168      2.6991      0.0287      7.3711   -999.2500     20.1151     58.6790  
  2712.0000    -70.4159     49.9806    139.9383    125.1621      2.6619      0.0195      7.3671   -999.2500     20.3283     58.5718  
  2712.5000    -70.5529     49.0445    139.4361    119.1145      2.5974      0.0046      7.3599   -999.2500     20.4811     58.6357  
  2713.0000    -70.9789     48.9882    138.8894    113.8448      2.5678      0.0020      7.3555   -999.2500     20.5331     58.8756  
  2713.5000    -71.3736     49.0683    138.2573    111.4177      2.5766      0.0171      7.3458   -999.2500     20.5304     59.0661  
  2714.0000    -71.4882     49.4438    133.6212    110.7413      2.6618      0.0316      7.3414   -999.2500     20.5104     58.8640  
  2714.5000    -71.2434     49.8222    125.2104    111.1341      2.7135      0.0442      7.3393   -999.2500     20.5568     58.4782  
  2715.0000    -70.8886     50.2035    123.9124    109.0474      2.7243      0.0546      7.3278   -999.2500     20.8524     58.4407  
  2715.5000    -70.4524     50.2694    128.5141    103.2801      2.7393      0.0657      7.3282   -999.2500     21.1415     58.4731  
  2716.0000    -69.9839     50.2266    136.5811     97.8178      2.7457      0.0771      7.3250   -999.2500     21.4246     58.4670  
  2716.5000    -69.1811     50.1838    143.8381     92.6444      2.7316      0.0663      7.3221   -999.2500     21.4968     58.5603  
  2717.0000    -67.6677     50.1410    145.3169     88.6380      2.7323      0.0532      7.3152   -999.2500     21.8368     58.4982  
  2717.5000    -65.8773     50.0983    143.2732     96.4933      2.7388      0.0559      7.2929   -999.2500     21.4649     58.4291  
  2718.0000    -66.1109     49.6982    136.6075    105.0447      2.7143      0.0556      7.2870   -999.2500     20.6374     58.4240  
  2718.5000    -67.9526     49.2243    127.0069    114.3539      2.6949      0.0382      7.2887   -999.2500     20.4352     58.4258  
  2719.0000    -68.2177     48.7549    121.4064    120.1217      2.7176      0.0525      7.2736   -999.2500     20.5382     58.4065  
  2719.5000    -67.5445     48.2900    116.1043    115.7394      2.7456      0.0706      7.2603   -999.2500     20.7577     58.4077  
  2720.0000    -66.2690     47.9036    111.7949    111.5168      2.7600      0.0758      7.2683   -999.2500     20.7425     58.4437  
  2720.5000    -65.2292     48.0373    111.7498    111.2973      2.7564      0.0809      7.2658   -999.2500     20.7928     58.4659  
  2721.0000    -65.5926     48.1714    112.0613    116.3683      2.7469      0.0768      7.2405   -999.2500     20.7457     58.4747  
  2721.5000    -65.4613     48.3058    114.9465    126.2882      2.7396      0.0923      7.1969   -999.2500     20.4216     58.4792  
  2722.0000    -64.4392     48.4406    117.9061    140.7242      2.7374      0.1186      7.0696   -999.2500     18.6623     58.4821  
  2722.5000    -63.1930     48.5758    119.2244    156.8104      2.7392      0.1093      6.9928   -999.2500     16.0935     58.4679  
  2723.0000    -62.7981     48.7114    119.2445    162.0248      2.7188      0.1014      6.9176   -999.2500     11.3960     58.4721  
  2723.5000   -999.2500   -999.2500   -999.2500   -999.2500      2.7060      0.0950      6.8500   -999.2500      6.7981     58.4637  
  2724.0000   -999.2500   -999.2500   -999.2500   -999.2500      2.6617      0.0829      6.8291   -999.2500     15.0626     58.4452  
  2724.5000   -999.2500   -999.2500   -999.2500   -999.2500      2.6234      0.0756      6.7918   -999.2500     22.2164     58.4268  
  2725.0000   -999.2500   -999.2500   -999.2500   -999.2500      2.5845      0.0661      6.6044   -999.2500     24.8941     58.4083  
  2725.5000   -999.2500   -999.2500   -999.2500   -999.2500      2.5623      0.0647      6.2346   -999.2500     25.2350   -999.2500  
  2726.0000   -999.2500   -999.2500   -999.2500   -999.2500      2.5849      0.0883      6.0281   -999.2500     25.3499   -999.2500  
