~VERSION INFORMATION
 VERS.                           2.00:        CWLS LOG ASCII STANDARD - VERSION 2.00
 WRAP.                             NO:        ONE LINE PER DEPTH STEP
~WELL INFORMATION
#MNEM.UNIT                   DATA             INFORMATION
#----------             --------------        ------------------------------
 STRT.F                       52.0000:        START DEPTH
 STOP.F                     2296.0000:        STOP DEPTH
 STEP.F                        0.5000:        STEP VALUE
 NULL.                      -999.2500:        NULL VALUE
 COMP.                     USGS/NPR-A:        COMPANY  
 LOC .                   23  22N  17W:        LOCATION   
 DATE.                        4/30/78:        LOG DATE 
 WELL.               SOUTH BARROW #19:        WELL     
 UWI .                   500232001200:        UNIQUE WELL ID 
 API .                   500232001200:        UNIQUE WELL IDENTIFIER 
 FLD .                   SOUTH BARROW:        FIELD    
 CNTY.                    NORTH SLOPE:        COUNTY  
 STAT.                         ALASKA:        STATE   
 CTRY.                            USA:        COUNTRY 
 OPER.                     USGS/NPR-A:        OPERATOR  
 SRVC.                   SCHLUMBERGER:        SERVICE COMPANY 
 LAT .                         0.0000:        LATITUDE
 LON .                         0.0000:        LONGITUDE
 DIGS.               CENTER LINE DATA:        DIGITIZING COMPANY 
~CURVE INFORMATION      
#MNEM        .UNIT         API CODE           CURVE DESCRIPTION
#-----------------      --------------        ------------------------------
 DEPT        .F                      :        1  DEPTH
 GR          .GAPI                   :        2  
 CALI        .IN                     :        3  
 RHOB        .G/C3                   :        4  
 DRHO        .G/C3                   :        5  
 NPHI        .%                      :        6  
 DT          .US/F                   :        7  
 SP          .MV                     :        8  
 ILD         .OHMM                   :        9  
 ILM         .OHMM                   :        10 
 LL8         .OHMM                   :        11 
 LLD         .OHMM                   :        12 
 LLS         .OHMM                   :        13 
 MSFL        .OHMM                   :        14 
~PARAMETER INFORMATION       
#MNEM.UNIT                  VALUE             DESCRIPTION OF MNEMONIC
#---------             ---------------        ------------------------------
 EKB .F                       30.0000:        KELLY BUSHING
 TD  .F                     2300.0000:        TOTAL DEPTH
 BHT .F                      173.0000:        BOTTOM HOLE TEMPERATURE
 BS  .                         8.5000:        BIT SIZE
 FD  .                        11.6000:        FLUID DENSITY
 CSIZ.                         9.6250:        CASING SIZE
 CBD .F                     1491.0000:        CASING DRILLER 1
 CBL .F                     1490.0000:        CASING LOGGER 1
 DFT .                  Miscellaneous:        TYPE FLUID IN HOLE
 DFV .                        46.0000:        VISCOSITY
 DFPH.                         8.5000:        PH
 DFL .                         6.0000:        FLUID LOSS
 RMS .                         0.1090:        RM
 MST .F                       58.0000:        RM MEAS. TEMP.
 RMF .                         0.0720:        RMF
 MFST.F                       61.0000:        RMF MEAS. TEMP.
 RMC .                         0.3000:        RMC
 MCST.F                       70.0000:        RMC MEAS. TEMP.
~OTHER INFORMATION
~A    DEPTH          GR        CALI        RHOB        DRHO        NPHI          DT          SP         ILD         ILM         LL8         LLD         LLS        MSFL  
# ...
  1396.0000     84.3075     12.1543   -999.2500   -999.2500   -999.2500     86.7388    -41.2000      8.1708      7.4243      9.1691   -999.2500   -999.2500   -999.2500  
  1396.5000     85.6583     12.1711   -999.2500   -999.2500   -999.2500    122.3482    -41.3728      8.1965      7.5245      9.2620   -999.2500   -999.2500   -999.2500  
  1397.0000     87.7006     12.1747   -999.2500   -999.2500   -999.2500    125.8502    -41.6461      8.2223      7.7500      9.3559   -999.2500   -999.2500   -999.2500  
  1397.5000     89.1323     12.1868   -999.2500   -999.2500   -999.2500    137.6804    -41.9744      8.3037      7.9823      9.4507   -999.2500   -999.2500   -999.2500  
  1398.0000     88.1700     12.1636   -999.2500   -999.2500   -999.2500    142.0748    -42.4609      8.3863      8.0809      9.6301   -999.2500   -999.2500   -999.2500  
  1398.5000     85.3302     12.2038   -999.2500   -999.2500   -999.2500    140.4213    -42.9490      8.4697      8.0590     10.0044   -999.2500   -999.2500   -999.2500  
  1399.0000     82.8727     12.2298   -999.2500   -999.2500   -999.2500    136.3274    -42.9224      8.5539      8.0120     10.3758   -999.2500   -999.2500   -999.2500  
  1399.5000     82.2169     12.2467   -999.2500   -999.2500   -999.2500    118.3519    -42.5179      8.5831      7.9653      9.8564   -999.2500   -999.2500   -999.2500  
  1400.0000     83.8330     12.2205   -999.2500   -999.2500   -999.2500    105.3053    -42.3936      8.5824      7.9189      9.3630   -999.2500   -999.2500   -999.2500  
  1400.5000     85.9488     12.1993   -999.2500   -999.2500   -999.2500    111.4985    -42.2911      8.5817      7.8728      8.8943   -999.2500   -999.2500   -999.2500  
  1401.0000     86.7628     12.2110   -999.2500   -999.2500   -999.2500    120.7830    -42.0634      8.5810      7.8269      8.7585   -999.2500   -999.2500   -999.2500  
  1401.5000     85.7342     12.2244   -999.2500   -999.2500   -999.2500    122.0785    -41.8137      8.5804      7.7813      8.8472   -999.2500   -999.2500   -999.2500  
  1402.0000     83.6139     12.2226   -999.2500   -999.2500   -999.2500    121.5876    -41.7619      8.4901      7.7359      8.9369   -999.2500   -999.2500   -999.2500  
  1402.5000     83.7843     12.2182   -999.2500   -999.2500   -999.2500    121.5081    -41.8808      8.3858      7.6908      9.0274   -999.2500   -999.2500   -999.2500  
  1403.0000     84.1354     12.1935   -999.2500   -999.2500   -999.2500    121.9745    -41.9510      8.2828      7.6923      9.1315   -999.2500   -999.2500   -999.2500  
  1403.5000     84.9542     12.1725   -999.2500   -999.2500   -999.2500    122.4407    -41.8831      8.2279      7.6977      9.2807   -999.2500   -999.2500   -999.2500  
  1404.0000     85.7568     12.1588   -999.2500   -999.2500   -999.2500    123.2775    -41.4351      8.1792      7.7032      9.4323   -999.2500   -999.2500   -999.2500  
  1404.5000     85.5740     12.1498   -999.2500   -999.2500   -999.2500    121.9209    -40.7722      8.1575      7.7087      9.4697   -999.2500   -999.2500   -999.2500  
  1405.0000     84.5923     12.1533   -999.2500   -999.2500   -999.2500    120.4605    -40.5095      8.1721      7.7141      9.5030   -999.2500   -999.2500   -999.2500  
  1405.5000     84.2660     12.1582   -999.2500   -999.2500   -999.2500    119.1863    -40.1323      8.1867      7.7196      9.3299   -999.2500   -999.2500   -999.2500  
  1406.0000     84.5170     12.1606   -999.2500   -999.2500   -999.2500    117.9862    -39.9177      8.2014      7.7251      9.1309   -999.2500   -999.2500   -999.2500  
  1406.5000     84.7121     12.1616   -999.2500   -999.2500   -999.2500    119.3310    -39.7347      8.2058      7.7305      8.9360   -999.2500   -999.2500   -999.2500  
  1407.0000     84.3074     12.1565   -999.2500   -999.2500   -999.2500    120.3166    -39.5731      8.1895      7.7303      8.6678   -999.2500   -999.2500   -999.2500  
  1407.5000     83.7525     12.1323   -999.2500   -999.2500   -999.2500    121.2316    -39.6990      8.1732      7.7187      8.9816   -999.2500   -999.2500   -999.2500  
  1408.0000     84.2595     12.1189   -999.2500   -999.2500   -999.2500    121.8840    -40.0120      8.1570      7.7071      9.5990   -999.2500   -999.2500   -999.2500  
  1408.5000     85.2653     12.1021   -999.2500   -999.2500   -999.2500    121.5249    -40.3793      8.1408      7.6955      9.3946   -999.2500   -999.2500   -999.2500  
  1409.0000     85.6655     12.0853   -999.2500   -999.2500   -999.2500    119.7680    -40.4484      8.1246      7.6839      9.1284   -999.2500   -999.2500   -999.2500  
  1409.5000     84.8517     12.0685   -999.2500   -999.2500   -999.2500    118.2981    -40.4902      8.1085      7.6723      8.8698   -999.2500   -999.2500   -999.2500  
  1410.0000     83.3955     12.0620   -999.2500   -999.2500   -999.2500    117.4630    -40.5770      8.0923      7.6608      8.9163   -999.2500   -999.2500   -999.2500  
  1410.5000     82.9554     12.0613   -999.2500   -999.2500   -999.2500    117.8665    -40.6296      8.1151      7.6493      9.0106   -999.2500   -999.2500   -999.2500  
  1411.0000     82.0928     12.0579   -999.2500   -999.2500   -999.2500    118.3801    -40.6340      8.1393      7.6377      9.2164   -999.2500   -999.2500   -999.2500  
  1411.5000     81.8920     12.0595   -999.2500   -999.2500   -999.2500    119.2297    -40.6446      8.1636      7.6319      9.4599   -999.2500   -999.2500   -999.2500  
  1412.0000     82.9332     12.0797   -999.2500   -999.2500   -999.2500    118.6689    -40.8616      8.1880      7.6484      9.5858   -999.2500   -999.2500   -999.2500  
  1412.5000     85.0079     12.0771   -999.2500   -999.2500   -999.2500    118.8060    -40.7539      8.2125      7.6648      9.2919   -999.2500   -999.2500   -999.2500  
  1413.0000     86.5777     12.0711   -999.2500   -999.2500   -999.2500    118.7385    -40.8265      8.2371      7.6814      9.0070   -999.2500   -999.2500   -999.2500  
  1413.5000     87.0374     12.0731   -999.2500   -999.2500   -999.2500    118.1417    -41.1727      8.2617      7.6979      8.8139   -999.2500   -999.2500   -999.2500  
  1414.0000     87.0395     12.0746   -999.2500   -999.2500   -999.2500    117.0908    -41.5249      8.2322      7.7145      9.1113   -999.2500   -999.2500   -999.2500  
  1414.5000     87.2522     12.0754   -999.2500   -999.2500   -999.2500    116.9176    -41.5117      8.1667      7.7311      9.4188   -999.2500   -999.2500   -999.2500  
  1415.0000     88.3800     12.1177   -999.2500   -999.2500   -999.2500    117.4179    -41.2218      8.1017      7.7684      9.7367   -999.2500   -999.2500   -999.2500  
  1415.5000     88.7998     12.1504   -999.2500   -999.2500   -999.2500    118.2363    -40.8041      8.0373      7.7892      9.7639   -999.2500   -999.2500   -999.2500  
  1416.0000     86.9767     12.1052   -999.2500   -999.2500   -999.2500    117.9909    -40.1454      8.0258      7.8096      9.6063   -999.2500   -999.2500   -999.2500  
  1416.5000     83.1185     12.0256   -999.2500   -999.2500   -999.2500    116.6448    -39.4589      8.1242      7.8300      9.4202   -999.2500   -999.2500   -999.2500  
  1417.0000     79.8751     12.0385   -999.2500   -999.2500   -999.2500    115.4490    -39.3662      8.2239      7.8505      9.1840   -999.2500   -999.2500   -999.2500  
  1417.5000     79.1181     12.0444   -999.2500   -999.2500   -999.2500    115.4700    -39.2824      8.3248      7.8710      9.0983   -999.2500   -999.2500   -999.2500  
  1418.0000     81.0839     12.0842   -999.2500   -999.2500   -999.2500    116.6192    -39.2767      8.4270      7.8915      9.0983   -999.2500   -999.2500   -999.2500  
  1418.5000     83.1402     12.1100   -999.2500   -999.2500   -999.2500    117.4753    -39.5314      8.5303      7.9122      9.0983   -999.2500   -999.2500   -999.2500  
  1419.0000     83.6980     12.1280   -999.2500   -999.2500   -999.2500    118.5349    -39.6245      8.6350      7.9328      9.0983   -999.2500   -999.2500   -999.2500  
  1419.5000     84.0699     12.2645   -999.2500   -999.2500   -999.2500    116.7029    -39.2873      8.7409      7.9536      9.2854   -999.2500   -999.2500   -999.2500  
