~VERSION INFORMATION
 VERS.                           2.00:        CWLS LOG ASCII STANDARD - VERSION 2.00
 WRAP.                             NO:        ONE LINE PER DEPTH STEP
~WELL INFORMATION
#MNEM.UNIT                   DATA             INFORMATION
#----------             --------------        ------------------------------
 STRT.F                     1088.0000:        START DEPTH
 STOP.F                     2449.0000:        STOP DEPTH
 STEP.F                        0.5000:        STEP VALUE
 NULL.                      -999.2500:        NULL VALUE
 COMP.             UNITED STATES NAVY:        COMPANY  
 LOC .                   11  22N  18W:        LOCATION   
 DATE.                         4/7/70:        LOG DATE 
 WELL.                    GAS WELL #9:        WELL     
 UWI .                   500232000300:        UNIQUE WELL ID 
 API .                   500232000300:        UNIQUE WELL IDENTIFIER 
 FLD .                   SOUTH BARROW:        FIELD    
 CNTY.                   POINT BARROW:        COUNTY  
 STAT.                         ALASKA:        STATE   
 CTRY.                            USA:        COUNTRY 
 OPER.             UNITED STATES NAVY:        OPERATOR  
 SRVC.                   SCHLUMBERGER:        SERVICE COMPANY 
 LAT .                         0.0000:        LATITUDE
 LON .                         0.0000:        LONGITUDE
 DIGS.               CENTER LINE DATA:        DIGITIZING COMPANY 
~CURVE INFORMATION      
#MNEM        .UNIT         API CODE           CURVE DESCRIPTION
#-----------------      --------------        ------------------------------
 DEPT        .F                      :        1  DEPTH
 SP          .MV                     :        2  
 ASN         .OHMM                   :        3  
 ILD         .OHMM                   :        4  
 CILD        .MMHO                   :        5  
 CALI        .IN                     :        6  
 GR          .GAPI                   :        7  
 DRHO        .G/C3                   :        8  
 RHOB        .G/C3                   :        9  
 DT          .US/F                   :        10 
~PARAMETER INFORMATION       
#MNEM.UNIT                  VALUE             DESCRIPTION OF MNEMONIC
#---------             ---------------        ------------------------------
 EKB .F                       29.0000:        KELLY BUSHING
 TD  .F                     2450.0000:        TOTAL DEPTH
 BHT .F                       75.0000:        BOTTOM HOLE TEMPERATURE
 BS  .                         8.6250:        BIT SIZE
 FD  .                        10.7000:        FLUID DENSITY
 CSIZ.                         9.6250:        CASING SIZE
 CBD .F                     1100.0000:        CASING DRILLER 1
 CBL .F                     1102.0000:        CASING LOGGER 1
 DFT .                            Gel:        TYPE FLUID IN HOLE
 DFV .                        45.0000:        VISCOSITY
 DFPH.                         8.8000:        PH
 DFL .                         3.8000:        FLUID LOSS
 RMS .                         2.7500:        RM
 MST .F                       60.0000:        RM MEAS. TEMP.
 RMF .                         2.3600:        RMF
 MFST.F                       60.0000:        RMF MEAS. TEMP.
 RMC .                         3.7800:        RMC
 MCST.F                       60.0000:        RMC MEAS. TEMP.
~OTHER INFORMATION
~A    DEPTH          SP         ASN         ILD        CILD        CALI          GR        DRHO        RHOB          DT  
# ...
  1715.0000    -19.5319     11.0287     10.2143     98.0107      9.5442     85.1348      0.0629      2.4451    112.4860  
  1715.5000    -21.1287     11.0240     10.1629     98.3210      9.5348     82.7282      0.0662      2.4454    112.7084  
  1716.0000    -21.1747     10.9490     10.1115     98.3521      9.5265     77.5656      0.0643      2.4408    113.3286  
  1716.5000    -20.8535     10.8210     10.0601     99.1345      9.5275     73.6025      0.0619      2.4291    113.8895  
  1717.0000    -21.0677     10.5293      9.9063    100.2335      9.5258     72.6853      0.0597      2.4154    113.4748  
  1717.5000    -21.3305     10.2944      9.7031    101.6568      9.4691     73.6548      0.0666      2.4300    111.6452  
  1718.0000    -21.3298     10.5568      9.4999    103.5548      9.4556     75.8629      0.0801      2.4461    108.5560  
  1718.5000    -21.4208     10.7630      9.2751    105.6446      9.4431     74.9659      0.0947      2.4702    106.8420  
  1719.0000    -21.8925     10.8033      9.0376    106.5673      9.4420     72.5702      0.0966      2.4910    107.3304  
  1719.5000    -22.3921     10.6159      8.8958    107.9572      9.4315     70.8615      0.0763      2.4733    108.1563  
  1720.0000    -22.5661     10.2663      8.7342    111.2307      9.4786     71.8869      0.0902      2.4889    108.6410  
  1720.5000    -21.4679      9.9500      8.5716    112.2771      9.5017     73.0913      0.1001      2.5012    108.8409  
  1721.0000    -20.5043      9.8250      8.5774    112.1928      9.5061     74.3644      0.0752      2.4880    108.9499  
  1721.5000    -19.8022      9.8480      8.5990    111.4807      9.5239     75.2820      0.0735      2.4866    109.2272  
  1722.0000    -19.4926     10.0355      8.6997    110.8110      9.5426     73.5566      0.0568      2.4842    109.5175  
  1722.5000    -19.5132     10.3010      8.7557    109.9750      9.5463     71.3279      0.0645      2.4730    108.8590  
  1723.0000    -19.1706     10.5763      8.8780    108.5090      9.5148     70.2911      0.0475      2.4532    107.2871  
  1723.5000    -18.6128     10.8642      9.0490    106.8990      9.4943     67.5596      0.0434      2.4493    105.5144  
  1724.0000    -19.0619     11.0723      9.1687    105.0632      9.4791     66.3115      0.0528      2.4600    104.6458  
  1724.5000    -19.7538     11.2073      9.3594    103.2881      9.4846     66.8282      0.0664      2.4771    104.9169  
  1725.0000    -19.8359     11.2054      9.4750    102.2662      9.4880     66.8551      0.0851      2.4983    105.2717  
  1725.5000    -19.8917     11.1590      9.5762    101.5135      9.4416     68.1788      0.0862      2.4959    105.6635  
  1726.0000    -20.2015     11.2037      9.6381    101.1816      9.3564     68.9597      0.0794      2.4898    105.8952  
  1726.5000    -20.4466     11.3226      9.6637    101.3490      9.2996     68.2681      0.0750      2.4780    105.9232  
  1727.0000    -20.8005     11.3885      9.5902    102.1226      9.2741     69.1577      0.0701      2.4673    105.4559  
  1727.5000    -21.5770     11.4542      9.4894    102.8961      9.2623     69.9019      0.0648      2.4606    103.5418  
  1728.0000    -22.1914     11.4267      9.3558    103.7555      9.2012     69.0427      0.0493      2.4409    102.3465  
  1728.5000    -21.8562     11.3098      9.2223    104.6754      9.1310     67.6585      0.0561      2.4483    102.9726  
  1729.0000    -21.2985     11.1246      9.2002    105.6792      9.1323     67.8021      0.0679      2.4715    104.3567  
  1729.5000    -20.8200     10.8422      9.1202    106.8764      9.1747     69.3779      0.0781      2.4789    105.5724  
  1730.0000    -20.6452     10.4918      9.0223    107.3459      9.2456     71.9678      0.0873      2.4770    107.7046  
  1730.5000    -20.3595     10.2191      8.9780    108.1803      9.3155     73.0878      0.0823      2.4699    109.2213  
  1731.0000    -20.2541     10.1476      9.0247    108.1678      9.3736     75.1098      0.0762      2.4676    110.2883  
  1731.5000    -20.7393     10.2559      8.9402    107.9274      9.4096     76.6705      0.0758      2.4703    110.8020  
  1732.0000    -21.9793     10.4429      8.9820    108.0122      9.4294     78.1147      0.0741      2.4772    110.1540  
  1732.5000    -21.0052     10.7379      8.9907    108.0721      9.4317     77.1971      0.0707      2.4689    108.9813  
  1733.0000    -21.4849     10.9959      9.0157    107.5024      9.4054     74.6312      0.0494      2.4408    107.5335  
  1733.5000    -23.2112     11.2260      9.0849    106.8773      9.3094     70.1907      0.0542      2.4366    107.0479  
  1734.0000    -24.3959     11.3291      9.1669    106.4186      9.1363     67.0679      0.0532      2.4194    106.4548  
  1734.5000    -23.3949     11.2585      9.1851    105.6796      8.9787     67.7786      0.0526      2.4119    106.1246  
  1735.0000    -22.9344     11.0314      9.0866    106.4507      8.9020     67.9178      0.0678      2.4304    105.8874  
  1735.5000    -22.7342     10.8972      9.0365    107.6040      8.9384     67.3035      0.0554      2.4199    105.6357  
  1736.0000    -22.2711     10.8052      8.9400    108.8411      8.8735     67.2213      0.0545      2.4243    106.1962  
  1736.5000    -22.1976     10.5717      8.8278    109.8684      8.8326     69.4762      0.0703      2.4362    106.9664  
  1737.0000    -21.8126     10.4207      8.6915    111.6029      8.9204     73.4378      0.0915      2.4681    108.1373  
  1737.5000    -19.5151     10.0399      8.5338    113.1314      9.0234     75.5585      0.0911      2.4844    109.9929  
  1738.0000    -18.2113     10.0195      8.4104    115.1287      9.1514     77.2940      0.0778      2.4752    111.4576  
  1738.5000    -18.2404      9.9991      8.2572    116.6668      9.2705     77.2374      0.0651      2.4769    112.4085  
  1739.0000    -18.3890      9.9787      8.1013    118.2258      9.3291     76.7663      0.0735      2.4908    113.3279  
  1739.5000    -18.8300      9.9229      8.0250    119.4869      9.3567     74.6381      0.0908      2.5045    113.9850  
  1740.0000    -18.7293      9.8558      7.9425    121.1815      9.3601     72.0437      0.0973      2.5036    114.6468  
  1740.5000    -19.0001      9.8048      7.8411    122.5412      9.3628     74.1502      0.0951      2.5033    114.9183  
  1741.0000    -19.3169      9.7611      7.7701    123.6367      9.3718     76.7084      0.0946      2.5123    114.4545  
  1741.5000    -19.0483      9.7288      7.7202    124.4769      9.3871     77.6265      0.0914      2.5108    113.9123  
  1742.0000    -19.1784      9.6900      7.7453    124.5804      9.4041     78.2046      0.0690      2.4936    113.4132  
  1742.5000    -19.7786      9.6540      7.7565    124.2161      9.4227     80.0756      0.0493      2.4527    113.4246  
  1743.0000    -19.3166      9.6225      7.8142    123.4776      9.4298     82.3257      0.0462      2.4447    113.6650  
  1743.5000    -17.9146      9.5964      7.7762    122.8654      9.4399     79.9987      0.0579      2.4509    114.0796  
  1744.0000    -16.1579      9.6229      7.7311    122.6527      9.4374     76.1694      0.0789      2.4744    114.6926  
  1744.5000    -16.5184      9.9111      7.6861    123.5257      9.4266     73.2428      0.0756      2.4750    113.8004  
  1745.0000    -17.0583      9.8136      7.6410    125.0981      9.4105     71.3904      0.0651      2.4505    111.5335  
  1745.5000    -18.8511     10.1174      7.4757    126.8785      9.3770     69.8297      0.0503      2.4302    109.0849  
  1746.0000    -22.1326     10.4211      7.4603    128.5161      9.3171     67.9879      0.0437      2.4054    106.1090  
  1746.5000    -26.4157     10.6434      7.4109    129.2955      9.2138     65.4225      0.0270      2.3814    104.1685  
  1747.0000    -29.7848     10.3613      7.4078    129.4444      9.0422     62.3517      0.0196      2.3556    104.5509  
  1747.5000    -31.9054      9.5171      7.4267    129.2047      8.9693     61.0502      0.0180      2.3494    106.3103  
