~VERSION INFORMATION
 VERS.                           2.00:        CWLS LOG ASCII STANDARD - VERSION 2.00
 WRAP.                             NO:        ONE LINE PER DEPTH STEP
~WELL INFORMATION
#MNEM.UNIT                   DATA             INFORMATION
#----------             --------------        ------------------------------
 STRT.F                       98.0000:        START DEPTH
 STOP.F                     2124.0000:        STOP DEPTH
 STEP.F                        0.5000:        STEP VALUE
 NULL.                      -999.2500:        NULL VALUE
 COMP.          USGS/NPR-A OPERATIONS:        COMPANY  
 LOC .                   24  22N  17W:        LOCATION   
 DATE.                        10/5/80:        LOG DATE 
 WELL.               SOUTH BARROW #18:        WELL     
 UWI .                   500232001700:        UNIQUE WELL ID 
 API .                   500232001700:        UNIQUE WELL IDENTIFIER 
 FLD .                   SOUTH BARROW:        FIELD    
 CNTY.                    NORTH SLOPE:        COUNTY  
 STAT.                         ALASKA:        STATE   
 CTRY.                            USA:        COUNTRY 
 OPER.          USGS/NPR-A OPERATIONS:        OPERATOR  
 SRVC.                   SCHLUMBERGER:        SERVICE COMPANY 
 LAT .                         0.0000:        LATITUDE
 LON .                         0.0000:        LONGITUDE
 DIGS.               CENTER LINE DATA:        DIGITIZING COMPANY 
~CURVE INFORMATION      
#MNEM        .UNIT         API CODE           CURVE DESCRIPTION
#-----------------      --------------        ------------------------------
 DEPT        .F                      :        1  DEPTH
 CALI        .IN                     :        2  
 GR          .GAPI                   :        3  
 NPHI        .%                      :        4  
 RHOB        .G/C3                   :        5  
 DRHO        .G/C3                   :        6  
 DT          .US/F                   :        7  
 SP          .MV                     :        8  
 ILD         .OHMM                   :        9  
 ILM         .OHMM                   :        10 
 SFL         .OHMM                   :        11 
 LLD         .OHMM                   :        12 
 LLS         .OHMM                   :        13 
 MSFL        .OHMM                   :        14 
~PARAMETER INFORMATION       
#MNEM.UNIT                  VALUE             DESCRIPTION OF MNEMONIC
#---------             ---------------        ------------------------------
 EKB .F                       30.0000:        KELLY BUSHING
 TD  .F                     2125.0000:        TOTAL DEPTH
 BHT .F                        0.0000:        BOTTOM HOLE TEMPERATURE
 BS  .                         8.5000:        BIT SIZE
 FD  .                        10.3000:        FLUID DENSITY
 CSIZ.                         9.6250:        CASING SIZE
 CBD .F                     1519.0000:        CASING DRILLER 1
 CBL .F                     1520.0000:        CASING LOGGER 1
 DFT .                  Miscellaneous:        TYPE FLUID IN HOLE
 DFV .                        47.0000:        VISCOSITY
 DFPH.                         8.5000:        PH
 DFL .                        14.0000:        FLUID LOSS
 RMS .                         0.1600:        RM
 MST .F                       43.0000:        RM MEAS. TEMP.
 RMF .                         0.1100:        RMF
 MFST.F                       43.0000:        RMF MEAS. TEMP.
 RMC .                         0.1200:        RMC
 MCST.F                       43.0000:        RMC MEAS. TEMP.
~OTHER INFORMATION
~A    DEPTH        CALI          GR        NPHI        RHOB        DRHO          DT          SP         ILD         ILM         SFL         LLD         LLS        MSFL  
# ...
  2090.0000      8.9139     58.2657     24.9996      2.4209      0.0133     87.0935   -999.2500   -999.2500   -999.2500   -999.2500     14.9999     13.2288      8.5315  
  2090.5000      8.7868     57.7208     25.7313      2.4029      0.0199     85.7483   -999.2500   -999.2500   -999.2500   -999.2500     13.9364     12.2577      6.8716  
  2091.0000      8.7974     58.1092     26.7131      2.3980      0.0333     81.3411   -999.2500   -999.2500   -999.2500   -999.2500     13.0017     11.6834      6.8328  
  2091.5000      8.7681     58.1738     27.5439      2.3982      0.0440     76.9238   -999.2500   -999.2500   -999.2500   -999.2500     12.2184     11.5644      7.3434  
  2092.0000      8.7264     58.0066     28.2052      2.4008      0.0392     73.9942   -999.2500   -999.2500   -999.2500   -999.2500     11.8729     11.6431      7.3759  
  2092.5000      8.7462     58.3223     28.3548      2.4026      0.0358     72.8919   -999.2500   -999.2500   -999.2500   -999.2500     12.2059     12.1775      7.1091  
  2093.0000      8.7924     58.3163     28.2679      2.4402      0.0576     76.1933   -999.2500   -999.2500   -999.2500   -999.2500     13.7631     13.0321      7.6118  
  2093.5000      8.8620     57.6860     27.7953      2.4542      0.0434     80.9382   -999.2500   -999.2500   -999.2500   -999.2500     14.6392     13.9619     10.0191  
  2094.0000      8.8123     57.9433     27.1712      2.4632      0.0181     83.3774   -999.2500   -999.2500   -999.2500   -999.2500     15.5711     15.0088     13.9370  
  2094.5000      8.7790     60.0119     25.9570      2.5102      0.0289     84.5978   -999.2500   -999.2500   -999.2500   -999.2500     16.5622     15.3599     15.0587  
  2095.0000      8.8583     63.7324     23.9112      2.5345      0.0464     85.2967   -999.2500   -999.2500   -999.2500   -999.2500     17.4088     15.2314     15.0270  
  2095.5000      8.9500     68.1704     23.3235      2.5315      0.0463     86.9906   -999.2500   -999.2500   -999.2500   -999.2500     17.6022     15.1043     14.9476  
  2096.0000      9.0311     70.9280     23.6516      2.5208      0.0419     89.7172   -999.2500   -999.2500   -999.2500   -999.2500     17.5554     15.0225     14.8653  
  2096.5000      9.1308     71.9492     24.3663      2.5101      0.0335     88.2511   -999.2500   -999.2500   -999.2500   -999.2500     17.5088     14.9412     14.7760  
  2097.0000      9.1614     72.9589     25.5135      2.5084      0.0311     87.8492   -999.2500   -999.2500   -999.2500   -999.2500     17.2729     14.8603     14.8010  
  2097.5000      9.1898     75.8002     26.3992      2.5072      0.0420     88.7419   -999.2500   -999.2500   -999.2500   -999.2500     17.1339     14.7799     14.8259  
  2098.0000      9.1753     80.1878     27.0216      2.4993      0.0393     89.7295   -999.2500   -999.2500   -999.2500   -999.2500     17.1666     15.0034     14.7687  
  2098.5000      9.1720     88.8745     27.6353      2.4872      0.0377     90.6148   -999.2500   -999.2500   -999.2500   -999.2500     16.9996     15.1751     14.1241  
  2099.0000      9.1769     94.8235     27.7599      2.4813      0.0400     91.5382   -999.2500   -999.2500   -999.2500   -999.2500     16.3883     14.8835     12.4230  
  2099.5000      9.1647     92.9432     27.6103      2.4780      0.0443     90.3803   -999.2500   -999.2500   -999.2500   -999.2500     15.5891     14.5974     11.5981  
  2100.0000      9.1437     84.9261     27.5411      2.4503      0.0454     88.0985   -999.2500   -999.2500   -999.2500   -999.2500     13.9620     14.3955     11.0712  
  2100.5000      9.1206   -999.2500     27.4720      2.4233      0.0435     85.5406   -999.2500   -999.2500   -999.2500   -999.2500     12.8573     14.2087     10.2333  
  2101.0000      9.1207   -999.2500     27.4028      2.4119      0.0402     84.2999   -999.2500   -999.2500   -999.2500   -999.2500     12.9189     14.1705     10.8130  
  2101.5000      9.0561   -999.2500     27.3442      2.4130      0.0401     83.4432   -999.2500   -999.2500   -999.2500   -999.2500     15.1826     14.2763     13.4801  
  2102.0000      8.9915   -999.2500     27.2409      2.4263      0.0378     82.3439   -999.2500   -999.2500   -999.2500   -999.2500     16.1479     14.6948     15.2074  
  2102.5000      9.0003   -999.2500     27.0120      2.4462      0.0317     83.0786   -999.2500   -999.2500   -999.2500   -999.2500     16.9802     15.1256     15.2997  
  2103.0000      9.0785   -999.2500     26.5412      2.4797      0.0391     84.0738   -999.2500   -999.2500   -999.2500   -999.2500     17.8555     15.6534     15.3925  
  2103.5000      9.1576   -999.2500     26.0715      2.4958      0.0244     84.6379   -999.2500   -999.2500   -999.2500   -999.2500     18.7325     16.3805     15.2237  
  2104.0000      9.1691   -999.2500     25.7528      2.5128      0.0280     84.8142   -999.2500   -999.2500   -999.2500   -999.2500     19.2374     17.1142     14.4613  
  2104.5000      9.1627   -999.2500     25.8651      2.5057      0.0440     84.8332   -999.2500   -999.2500   -999.2500   -999.2500     19.7559     17.7511     14.0700  
  2105.0000      9.1883   -999.2500     26.3628      2.5077      0.0555     84.9399   -999.2500   -999.2500   -999.2500   -999.2500     19.9720     17.6114     14.5890  
  2105.5000      9.1828   -999.2500     27.5460      2.5120      0.0543     85.4090   -999.2500   -999.2500   -999.2500   -999.2500     20.0399     17.4593     15.4470  
  2106.0000      9.0987   -999.2500     27.2622      2.5090      0.0516     85.7793   -999.2500   -999.2500   -999.2500   -999.2500     19.8332     17.2866     15.5202  
  2106.5000      8.9527   -999.2500     27.0054      2.5009      0.0334     86.0038   -999.2500   -999.2500   -999.2500   -999.2500     19.6286     17.2044     15.3441  
  2107.0000      8.9033   -999.2500     26.2617      2.4757      0.0435     86.2282   -999.2500   -999.2500   -999.2500   -999.2500     19.2030     17.0628     15.6643  
  2107.5000      8.9592   -999.2500     25.3752      2.4832      0.0486     86.5921   -999.2500   -999.2500   -999.2500   -999.2500     18.7395     16.7812     15.7920  
  2108.0000      9.0198   -999.2500     23.9146      2.4746      0.0227     87.1157   -999.2500   -999.2500   -999.2500   -999.2500     18.2094     16.5207     15.7516  
  2108.5000      9.0804   -999.2500     22.4480      2.4596      0.0226     86.9461   -999.2500   -999.2500   -999.2500   -999.2500     17.6672     16.2642     15.3456  
  2109.0000      9.1503   -999.2500     22.1006      2.4661      0.0227     86.4632   -999.2500   -999.2500   -999.2500   -999.2500     17.6202     16.3308     15.2505  
  2109.5000      9.2171   -999.2500     22.1294      2.4849      0.0366     85.9761   -999.2500   -999.2500   -999.2500   -999.2500     17.9643     16.8734     16.7622  
  2110.0000      9.2475   -999.2500     22.1376      2.4961      0.0468     86.4236   -999.2500   -999.2500   -999.2500   -999.2500     18.4039     17.4341     18.2561  
  2110.5000      9.2632   -999.2500     22.1835      2.4716      0.0268     87.2369   -999.2500   -999.2500   -999.2500   -999.2500     18.7859     17.8567     17.3433  
  2111.0000      9.2560   -999.2500     22.1964      2.4632      0.0125     87.4142   -999.2500   -999.2500   -999.2500   -999.2500     18.6803     17.5780     16.4761  
  2111.5000      9.2147   -999.2500     22.2098      2.4627      0.0115     87.5045   -999.2500   -999.2500   -999.2500   -999.2500     18.3509     16.8937     15.6523  
  2112.0000      9.2183   -999.2500     22.2175      2.4849      0.0281     87.5688   -999.2500   -999.2500   -999.2500   -999.2500     18.0617     16.6737     15.3040  
  2112.5000      9.1747   -999.2500     22.2273      2.5241      0.0465     87.6800   -999.2500   -999.2500   -999.2500   -999.2500   -999.2500   -999.2500   -999.2500  
  2113.0000      9.1655   -999.2500     22.2075      2.5289      0.0466     88.3021   -999.2500   -999.2500   -999.2500   -999.2500   -999.2500   -999.2500   -999.2500  
  2113.5000      9.1643   -999.2500     22.2069      2.5339      0.0606     88.8997   -999.2500   -999.2500   -999.2500   -999.2500   -999.2500   -999.2500   -999.2500  
