~VERSION INFORMATION
 VERS.                           2.00:        CWLS LOG ASCII STANDARD - VERSION 2.00
 WRAP.                             NO:        ONE LINE PER DEPTH STEP
~WELL INFORMATION
#MNEM.UNIT                   DATA             INFORMATION
#----------             --------------        ------------------------------
 STRT.F                     1088.0000:        START DEPTH
 STOP.F                     2449.0000:        STOP DEPTH
 STEP.F                        0.5000:        STEP VALUE
 NULL.                      -999.2500:        NULL VALUE
 COMP.             UNITED STATES NAVY:        COMPANY  
 LOC .                   11  22N  18W:        LOCATION   
 DATE.                         4/7/70:        LOG DATE 
 WELL.                    GAS WELL #9:        WELL     
 UWI .                   500232000300:        UNIQUE WELL ID 
 API .                   500232000300:        UNIQUE WELL IDENTIFIER 
 FLD .                   SOUTH BARROW:        FIELD    
 CNTY.                   POINT BARROW:        COUNTY  
 STAT.                         ALASKA:        STATE   
 CTRY.                            USA:        COUNTRY 
 OPER.             UNITED STATES NAVY:        OPERATOR  
 SRVC.                   SCHLUMBERGER:        SERVICE COMPANY 
 LAT .                         0.0000:        LATITUDE
 LON .                         0.0000:        LONGITUDE
 DIGS.               CENTER LINE DATA:        DIGITIZING COMPANY 
~CURVE INFORMATION      
#MNEM        .UNIT         API CODE           CURVE DESCRIPTION
#-----------------      --------------        ------------------------------
 DEPT        .F                      :        1  DEPTH
 SP          .MV                     :        2  
 ASN         .OHMM                   :        3  
 ILD         .OHMM                   :        4  
 CILD        .MMHO                   :        5  
 CALI        .IN                     :        6  
 GR          .GAPI                   :        7  
 DRHO        .G/C3                   :        8  
 RHOB        .G/C3                   :        9  
 DT          .US/F                   :        10 
~PARAMETER INFORMATION       
#MNEM.UNIT                  VALUE             DESCRIPTION OF MNEMONIC
#---------             ---------------        ------------------------------
 EKB .F                       29.0000:        KELLY BUSHING
 TD  .F                     2450.0000:        TOTAL DEPTH
 BHT .F                       75.0000:        BOTTOM HOLE TEMPERATURE
 BS  .                         8.6250:        BIT SIZE
 FD  .                        10.7000:        FLUID DENSITY
 CSIZ.                         9.6250:        CASING SIZE
 CBD .F                     1100.0000:        CASING DRILLER 1
 CBL .F                     1102.0000:        CASING LOGGER 1
 DFT .                            Gel:        TYPE FLUID IN HOLE
 DFV .                        45.0000:        VISCOSITY
 DFPH.                         8.8000:        PH
 DFL .                         3.8000:        FLUID LOSS
 RMS .                         2.7500:        RM
 MST .F                       60.0000:        RM MEAS. TEMP.
 RMF .                         2.3600:        RMF
 MFST.F                       60.0000:        RMF MEAS. TEMP.
 RMC .                         3.7800:        RMC
 MCST.F                       60.0000:        RMC MEAS. TEMP.
~OTHER INFORMATION
~A    DEPTH          SP         ASN         ILD        CILD        CALI          GR        DRHO        RHOB          DT  
# ...
  1352.0000    -24.1207     12.2504      9.7291     99.7168      9.1574     68.8116      0.0244      2.4124    109.4421  
  1352.5000    -24.3204     12.5668      9.7274     99.6375      9.1460     68.8344      0.0295      2.4233    109.2613  
  1353.0000    -25.8387     12.9251      9.7257     99.7457      9.1285     64.5391      0.0385      2.4279    108.2461  
  1353.5000    -28.3619     13.3875      9.7234     99.6461      9.1093     61.8535      0.0470      2.4231    107.9946  
  1354.0000    -29.8541     13.6909      9.7058     99.9769      9.1029     59.4937      0.0531      2.4154    107.7423  
  1354.5000    -30.4736     13.8491      9.6881    100.5807      9.1022     59.6667      0.0606      2.4153    107.8664  
  1355.0000    -30.2582     14.0038      9.6633    101.0756      9.1056     59.6147      0.0550      2.4103    108.3388  
  1355.5000    -30.4619     14.2916      9.6601    101.9255      9.1034     57.8384      0.0431      2.3949    108.7045  
  1356.0000    -32.1103     14.8091      9.6187    102.5141      9.1059     55.1058      0.0438      2.3757    109.2558  
  1356.5000    -34.0438     13.8086      9.5773    102.5769      9.1122     54.6478      0.0445      2.3530    109.6176  
  1357.0000    -34.6697     12.8594      9.5359    102.5769      9.1178     54.5889      0.0302      2.3347    109.4772  
  1357.5000    -32.0370     12.5420      9.4945    102.5769      9.1148     55.1467      0.0430      2.3507    109.0667  
  1358.0000    -27.8270     12.5198      9.4037    103.0849      9.1550     57.6215      0.0466      2.3834    108.8158  
  1358.5000    -25.9998     12.7005      9.4761    103.5778      9.2209     60.5887      0.0493      2.4145    108.2795  
  1359.0000    -27.7411     12.9660      9.5049    103.7018      9.3118     60.5625      0.0268      2.4136    107.9098  
  1359.5000    -30.3185     13.2086      9.4395    104.1273      9.2892     58.0159      0.0226      2.4068    107.9783  
  1360.0000    -31.9335     13.3375      9.3004    105.5882      9.2015     54.4502      0.0371      2.4023    107.3006  
  1360.5000    -32.0960     13.3195      9.0610    107.2025      9.1529     52.3382      0.0434      2.4109    106.3259  
  1361.0000    -32.1838     13.0916      8.9950    108.6245      9.1542     52.0091      0.0457      2.4165    107.3935  
  1361.5000    -30.7566     12.3234      8.9044    109.3631      9.1477     51.9120      0.0438      2.3945    110.0413  
  1362.0000    -27.7616     11.4554      8.8442    109.7898      9.1622     54.4830      0.0388      2.3809    112.7793  
  1362.5000    -23.9906     10.8981      8.8210    110.2759      9.1972     60.2355      0.0381      2.3974    114.4873  
  1363.0000    -22.3552     10.6133      8.7371    110.7833      9.2417     66.2831      0.0468      2.4121    115.0143  
  1363.5000    -22.0325     10.6541      8.7319    111.2907      9.2705     68.3354      0.0507      2.4218    114.8080  
  1364.0000    -22.0641     10.7798      8.7207    111.5098      9.2726     68.2767      0.0345      2.4171    114.2517  
  1364.5000    -22.6275     11.0268      8.7084    111.0206      9.2819     67.8160      0.0403      2.4345    113.5292  
  1365.0000    -23.4968     11.4002      8.7884    110.0079      9.2952     67.5889      0.0437      2.4408    112.5600  
  1365.5000    -24.7240     11.7683      8.9152    108.6498      9.2416     65.7356      0.0495      2.4309    111.2816  
  1366.0000    -25.9243     11.8927      9.1407    106.5963      9.1964     61.2404      0.0561      2.4281    111.5628  
  1366.5000    -26.0484     11.8276      9.3765    103.8162      9.1704     58.1425      0.0514      2.4149    111.8261  
  1367.0000    -24.2716     11.7388      9.5432    102.0992      9.1773     60.2100      0.0311      2.3957    111.6974  
  1367.5000    -23.4807     11.8672      9.6140    101.3351      9.2102     64.3335      0.0469      2.4187    111.2540  
  1368.0000    -23.0397     12.1680      9.5323    101.4637      9.2114     65.4194      0.0585      2.4371    109.4035  
  1368.5000    -23.4304     12.4360      9.5213    101.7983      9.2423     63.6592      0.0453      2.4291    107.5738  
  1369.0000    -23.4841     12.5560      9.4272    102.0976      9.2419     63.3482      0.0315      2.4269    107.5876  
  1369.5000    -22.8913     12.3579      9.4030    102.3300      9.2730     64.4999      0.0195      2.4314    108.9900  
  1370.0000    -22.7027     11.8749      9.3681    103.6437      9.2836     64.4429      0.0285      2.4392    111.0221  
  1370.5000    -22.7108     11.2668      9.2066    103.9602      9.2604     64.3147      0.0364      2.4299    113.4137  
  1371.0000    -22.3075     10.8154      9.3032    104.4592      9.2825     64.6648      0.0351      2.4153    115.0572  
  1371.5000    -22.5815     10.6768      9.2000    105.2650      9.3023     66.2084      0.0325      2.4169    115.3089  
  1372.0000    -22.9532     10.8593      9.1092    105.8753      9.3274     67.4379      0.0428      2.4312    114.5131  
  1372.5000    -22.5816     11.0007      9.1259    106.1177      9.3429     67.6165      0.0568      2.4378    113.7956  
  1373.0000    -23.0124     11.0703      9.1253    106.2437      9.4412     67.2294      0.0702      2.4597    112.9692  
  1373.5000    -24.0076     11.0604      9.1693    105.5265      9.4982     66.6376      0.0629      2.4628    112.2013  
  1374.0000    -24.6967     11.1342      9.2361    104.7045      9.4059     64.2424      0.0548      2.4516    111.5080  
  1374.5000    -23.9721     11.2165      9.4016    103.0944      9.3695     63.5370      0.0579      2.4449    111.1915  
  1375.0000    -22.7789     11.2280      9.5473    101.5189      9.3612     65.0145      0.0544      2.4341    111.7388  
  1375.5000    -21.9596     11.2281      9.8195     99.4268      9.3865     66.1114      0.0395      2.4221    112.0592  
  1376.0000    -22.0915     11.2543      9.9896     97.4794      9.4194     67.6111      0.0375      2.4169    111.6861  
  1376.5000    -22.5400     11.5509     10.1839     95.8223      9.4420     68.7536      0.0554      2.4308    110.4783  
  1377.0000    -21.8763     11.8953     10.3634     94.5461      9.4376     68.9762      0.0604      2.4447    107.1156  
  1377.5000    -21.3968     12.3135     10.5396     92.3662      9.4339     66.5885      0.0418      2.4375    103.9786  
  1378.0000    -21.4674     12.6794     10.9435     89.2620      9.4111     64.7223      0.0344      2.4507    101.2427  
  1378.5000    -21.6418     12.9685     11.3579     86.3352      9.3865     64.2978      0.0350      2.4525     98.8063  
  1379.0000    -21.7034     12.9773     11.7447     83.4777      9.4366     64.2669      0.0261      2.4522     97.9758  
  1379.5000    -21.6571     13.0355     12.1416     81.2565      9.4989     63.8175      0.0231      2.4573     98.2158  
  1380.0000    -21.2961     13.2086     12.3495     79.5799      9.5304     63.0073      0.0283      2.4672     99.8559  
  1380.5000    -20.3708     13.3818     12.5574     78.5966      9.6559     64.5057      0.0380      2.4794    100.7720  
  1381.0000    -19.5283     13.5550     12.6757     78.4963      9.7679     64.6990      0.0541      2.4950    100.4747  
  1381.5000    -18.3167     13.6964     12.7191     78.3959      9.8048     63.9336      0.0381      2.4894    100.3427  
  1382.0000    -17.5275     13.7350     12.7626     78.1423      9.7916     63.3993      0.0305      2.4716    100.2086  
  1382.5000    -17.7290     13.7736     12.6986     78.3548      9.7142     64.7519      0.0295      2.4717    100.9785  
  1383.0000    -18.7920     13.6877     12.5853     78.7920      9.6314     64.6937      0.0360      2.4852    101.8022  
  1383.5000    -19.7395     13.5985     12.5588     79.2678      9.7214     64.2901      0.0372      2.4766    102.6888  
  1384.0000    -20.2446     13.6727     12.4734     79.5313      9.8645     66.3607      0.0197      2.4466    103.7592  
  1384.5000    -20.6049     13.6503     12.4177     79.5216      9.7912     63.7636      0.0132      2.4325    104.9243  
