~VERSION INFORMATION
 VERS.                           2.00:        CWLS LOG ASCII STANDARD - VERSION 2.00
 WRAP.                             NO:        ONE LINE PER DEPTH STEP
~WELL INFORMATION
#MNEM.UNIT                   DATA             INFORMATION
#----------             --------------        ------------------------------
 STRT.F                     1244.0000:        START DEPTH
 STOP.F                     2340.0000:        STOP DEPTH
 STEP.F                        0.5000:        STEP VALUE
 NULL.                      -999.2500:        NULL VALUE
 COMP.        U.S. NAVY DEPT NP & OSR:        COMPANY  
 LOC .                   14  22N  18W:        LOCATION   
 DATE.                        3/16/73:        LOG DATE 
 WELL.               SOUTH BARROW #10:        WELL     
 UWI .                   500232000400:        UNIQUE WELL ID 
 API .                   500232000400:        UNIQUE WELL IDENTIFIER 
 FLD .                   SOUTH BARROW:        FIELD    
 CNTY.                         NPR #4:        COUNTY  
 STAT.                         ALASKA:        STATE   
 CTRY.                            USA:        COUNTRY 
 OPER.        U.S. NAVY DEPT NP & OSR:        OPERATOR  
 SRVC.                   SCHLUMBERGER:        SERVICE COMPANY 
 LAT .                         0.0000:        LATITUDE
 LON .                         0.0000:        LONGITUDE
 DIGS.               CENTER LINE DATA:        DIGITIZING COMPANY 
~CURVE INFORMATION      
#MNEM        .UNIT         API CODE           CURVE DESCRIPTION
#-----------------      --------------        ------------------------------
 DEPT        .F                      :        1  DEPTH
 SP          .MV                     :        2  
 LL8         .OHMM                   :        3  
 ILD         .OHMM                   :        4  
 CILD        .MMHO                   :        5  
 DT          .US/F                   :        6  
~PARAMETER INFORMATION       
#MNEM.UNIT                  VALUE             DESCRIPTION OF MNEMONIC
#---------             ---------------        ------------------------------
 EKB .F                       38.0000:        KELLY BUSHING
 TD  .F                     2349.0000:        TOTAL DEPTH
 BHT .F                       60.0000:        BOTTOM HOLE TEMPERATURE
 BS  .                         9.6250:        BIT SIZE
 FD  .                        10.6000:        FLUID DENSITY
 CSIZ.                        10.7500:        CASING SIZE
 CBD .F                     1240.0000:        CASING DRILLER 1
 CBL .F                     1244.0000:        CASING LOGGER 1
 DFT .                  Miscellaneous:        TYPE FLUID IN HOLE
 DFV .                        15.0000:        VISCOSITY
 DFPH.                        11.0000:        PH
 DFL .                         1.8000:        FLUID LOSS
 RMS .                         1.1900:        RM
 MST .F                       55.0000:        RM MEAS. TEMP.
 RMF .                         0.8500:        RMF
 MFST.F                       55.0000:        RMF MEAS. TEMP.
 RMC .                         1.2000:        RMC
 MCST.F                       55.0000:        RMC MEAS. TEMP.
~OTHER INFORMATION
~A    DEPTH          SP         LL8         ILD        CILD          DT  
# ...
  2007.0000    -23.6326     23.9676     18.4126     56.2719    114.2166  
  2007.5000    -23.0372     18.7719     16.6599     60.8962    114.4293  
  2008.0000    -22.3187     15.1202     14.7291     69.3941    115.4489  
  2008.5000    -21.4452     12.9236     12.6465     81.1037    118.0955  
  2009.0000    -20.7139     11.4708     10.4631     94.6525    119.8305  
  2009.5000    -20.3952      9.8993      8.8006    106.2497    120.9180  
  2010.0000    -20.2254      9.5021      8.1286    120.6880    122.7932  
  2010.5000    -20.1130      9.2213      7.5008    129.5137    117.8053  
  2011.0000    -20.3199      9.1333      7.0792    134.9789    115.9079  
  2011.5000    -20.5268      9.0414      6.9669    137.2554    117.3591  
  2012.0000    -20.6904      8.8896      6.8937    139.5319    119.7326  
  2012.5000    -20.6685      8.7378      6.8204    141.0033    123.5002  
  2013.0000    -20.6208      8.5860      6.7471    142.3204    120.3483  
  2013.5000    -20.7068      8.4574      6.7355    142.8920    118.6183  
  2014.0000    -20.8822      8.5112      6.7561    142.7138    115.3180  
  2014.5000    -21.2061      8.4048      6.7767    142.0001    115.9448  
  2015.0000    -21.6829      8.2715      6.7973    141.1051    117.0855  
  2015.5000    -21.9581      8.1221      6.7380    141.9565    119.9992  
  2016.0000    -21.7076      8.1282      6.6599    144.7999    125.0001  
  2016.5000    -21.2651      7.9494      6.5817    147.2023    126.4872  
  2017.0000    -20.9475      7.9661      6.5362    148.0300    126.6218  
  2017.5000    -20.9593      8.0448      6.5009    147.8212    126.6791  
  2018.0000    -21.0849      8.1537      6.5546    146.8276    126.7731  
  2018.5000    -20.8635      8.2104      6.4812    146.0687    126.9858  
  2019.0000    -20.4926      8.2401      6.7029    145.5971    128.1078  
  2019.5000    -20.5825      8.3014      6.6915    145.5208    127.1657  
  2020.0000    -20.2562      8.4371      6.6932    143.9902    124.4767  
  2020.5000    -20.0177      8.6620      6.7148    142.3303    119.5886  
  2021.0000    -20.3214      8.8641      6.8583    140.0043    116.0971  
  2021.5000    -20.3627      8.9594      7.0173    137.0902    115.6065  
  2022.0000    -20.5933      8.9179      7.1374    135.0607    116.0085  
  2022.5000    -20.6378      8.9427      7.2074    134.3437    116.4267  
  2023.0000    -20.6300      9.1449      7.2192    133.6635    116.6926  
  2023.5000    -20.6617      9.4629      7.3181    132.1982    116.2936  
  2024.0000    -20.5787      9.7098      7.3778    129.5430    115.4743  
  2024.5000    -20.4909      9.8631      7.5953    127.3108    114.9062  
  2025.0000    -20.5225      9.8725      7.6364    125.7116    114.6178  
  2025.5000    -20.5730      9.8727      7.6776    125.2250    113.7656  
  2026.0000    -20.6229      9.8645      7.7187    125.4035    112.8621  
  2026.5000    -20.5926      9.7855      7.7192    125.9599    112.0220  
  2027.0000    -20.5445      9.6393      7.6799    126.4605    111.2011  
  2027.5000    -20.5286      9.3813      7.5881    127.8042    110.5937  
  2028.0000    -20.7294      9.1839      7.4705    130.3248    110.0112  
  2028.5000    -21.0066      9.0615      7.3024    132.5916    110.0566  
  2029.0000    -21.2954      9.0191      7.1760    134.9174    111.7397  
  2029.5000    -21.8039      9.0364      7.0570    136.2919    112.2639  
  2030.0000    -22.0184      9.1515      7.0461    136.4689    112.3181  
  2030.5000    -21.7547      9.2882      7.0837    135.7452    112.1900  
  2031.0000    -21.4612      9.4085      7.1592    134.5463    111.9384  
  2031.5000    -20.9761      9.4701      7.2442    133.4714    111.8852  
  2032.0000    -21.1058      9.4218      7.3292    132.3596    111.7995  
  2032.5000    -21.3254      9.4160      7.3364    132.1208    111.6139  
  2033.0000    -21.6462      9.3677      7.3043    132.0395    111.6334  
  2033.5000    -21.6582      9.3414      7.2959    132.2877    111.5514  
  2034.0000    -21.3486      9.3151      7.2932    132.7146    110.8842  
  2034.5000    -21.0914      9.3685      7.2835    132.6571    110.5099  
  2035.0000    -20.8111      9.6436      7.3159    132.0000    110.9223  
  2035.5000    -20.7475      9.8241      7.3800    130.7986    111.9230  
  2036.0000    -20.9262     10.3392      7.5380    127.9308    112.7558  
  2036.5000    -21.1425     11.0527      7.9047    123.9051    113.2009  
  2037.0000    -21.4649     11.6245      8.1812    120.3102    113.4529  
  2037.5000    -22.0112     11.9137      8.4578    115.9452    113.1933  
  2038.0000    -22.1815     11.8977      8.7343    113.5433    111.5247  
  2038.5000    -21.6514     12.1824      9.0108    111.4965    108.2668  
  2039.0000    -20.9654     12.2304      9.2023    109.4235    101.1512  
  2039.5000    -20.5803     12.1690      9.3619    107.3075     97.0518  
  2040.0000    -20.1601     11.6492      9.4543    106.1700     95.9323  
  2040.5000    -19.7164     11.1307      9.2782    106.2485     99.4822  
  2041.0000    -19.1181     10.7210      9.0948    108.3841    104.1383  
  2041.5000    -18.3545     10.5663      8.8486    111.3677    108.4547  
  2042.0000    -18.0783     10.4760      8.6340    113.9355    109.6994  
  2042.5000    -18.4384     10.3020      8.4756    115.8837    107.6613  
  2043.0000    -18.5346     10.1483      8.3112    117.6090    106.6772  
  2043.5000    -18.1835     10.0225      8.2264    119.0204    107.4990  
  2044.0000    -18.4202      9.9281      8.1164    120.3438    108.7303  
  2044.5000    -19.2810      9.8214      8.0177    121.5166    109.3184  
  2045.0000    -19.9185      9.7969      7.9749    122.2079    109.6564  
  2045.5000    -20.3541      9.7834      7.9335    122.8140    109.6078  
  2046.0000    -20.5094      9.7789      7.9148    123.0968    110.0562  
  2046.5000    -20.2415      9.7953      7.9017    123.1000    110.4754  
  2047.0000    -19.6644      9.8010      7.8970    122.8604    110.5577  
  2047.5000    -19.0867      9.9260      7.9378    122.5851    110.7159  
  2048.0000    -18.4507     10.0774      8.0387    121.4631    111.0344  
  2048.5000    -17.7789     10.2717      8.2209    119.5233    110.8834  
  2049.0000    -17.2435     10.5654      8.4844    115.7465    110.5988  
  2049.5000    -17.1098     10.9838      8.7480    111.3496    110.3475  
  2050.0000    -17.4657     11.4881      9.1274    106.4947    110.1216  
  2050.5000    -17.9380     11.9244      9.5086    102.3558    109.8174  
  2051.0000    -18.2742     11.8965      9.8043    100.4041    107.6640  
  2051.5000    -18.7051     11.8969      9.8665     99.7625    106.6246  
  2052.0000    -19.6164     11.5255      9.8676    100.1832    105.7424  
  2052.5000    -20.6182     11.1432      9.7983    101.4847    102.9094  
  2053.0000    -20.8965     10.7697      9.5896    104.4659    102.0984  
  2053.5000    -20.7992     10.3963      9.3325    106.1523    103.4606  
  2054.0000    -20.6273     10.0229      9.0340    109.5764    106.3382  
  2054.5000    -20.5963      9.8304      8.7356    111.9911    109.3417  
  2055.0000    -20.5653      9.7618      8.4154    117.1046    111.7778  
  2055.5000    -20.6161      9.6932      8.0974    120.7777    111.5270  
  2056.0000    -20.5370      9.6246      7.8570    124.6227    110.4006  
  2056.5000    -20.4216      9.5780      7.7319    125.9710    109.7897  
  2057.0000    -20.3953      9.6832      7.6811    126.3920    109.4058  
  2057.5000    -20.2751      9.6474      7.6990    126.3179    108.8434  
  2058.0000    -20.0722      9.5104      7.6754    126.8216    110.2033  
  2058.5000    -19.8693      9.3411      7.5792    128.0088    112.0012  
  2059.0000    -19.6866      9.3758      7.4729    129.8079    112.3026  
  2059.5000    -19.5372      9.4942      7.4235    130.7533    112.3628  
  2060.0000    -19.4394      9.6829      7.4576    130.2256    112.4168  
  2060.5000    -19.6242      9.9154      7.5789    128.3680    112.5851  
  2061.0000    -19.7752     10.1310      7.7903    125.2438    112.7523  
