~VERSION INFORMATION
 VERS.                           2.00:        CWLS LOG ASCII STANDARD - VERSION 2.00
 WRAP.                             NO:        ONE LINE PER DEPTH STEP
~WELL INFORMATION
#MNEM.UNIT                   DATA             INFORMATION
#----------             --------------        ------------------------------
 STRT.F                      999.0000:        START DEPTH
 STOP.F                     2350.0000:        STOP DEPTH
 STEP.F                        0.5000:        STEP VALUE
 NULL.                      -999.2500:        NULL VALUE
 COMP.             UNITED STATES NAVY:        COMPANY  
 LOC .                   14  22N  18W:        LOCATION   
 DATE.                        3/19/68:        LOG DATE 
 WELL.                SOUTH BARROW #7:        WELL     
 UWI .                   500232000100:        UNIQUE WELL ID 
 API .                   500232000100:        UNIQUE WELL IDENTIFIER 
 FLD .                   SOUTH BARROW:        FIELD    
 CNTY.                         NPR #4:        COUNTY  
 STAT.                         ALASKA:        STATE   
 CTRY.                            USA:        COUNTRY 
 OPER.             UNITED STATES NAVY:        OPERATOR  
 SRVC.                   SCHLUMBERGER:        SERVICE COMPANY 
 LAT .                         0.0000:        LATITUDE
 LON .                         0.0000:        LONGITUDE
 DIGS.               CENTER LINE DATA:        DIGITIZING COMPANY 
~CURVE INFORMATION      
#MNEM        .UNIT         API CODE           CURVE DESCRIPTION
#-----------------      --------------        ------------------------------
 DEPT        .F                      :        1  DEPTH
 SP          .MV                     :        2  
 ILD         .OHMM                   :        3  
 ASN         .OHMM                   :        4  
 CILD        .OHMM                   :        5  
 CALI        .IN                     :        6  
 DT          .US/F                   :        7  
~PARAMETER INFORMATION       
#MNEM.UNIT                  VALUE             DESCRIPTION OF MNEMONIC
#---------             ---------------        ------------------------------
 EKB .F                       36.0000:        KELLY BUSHING
 TD  .F                     2351.0000:        TOTAL DEPTH
 BHT .F                        0.0000:        BOTTOM HOLE TEMPERATURE
 BS  .                         9.6250:        BIT SIZE
 FD  .                        76.5000:        FLUID DENSITY
 CSIZ.                        10.7500:        CASING SIZE
 CBD .F                      998.0000:        CASING DRILLER 1
 CBL .F                      999.0000:        CASING LOGGER 1
 DFT .                            Gel:        TYPE FLUID IN HOLE
 DFV .                        45.0000:        VISCOSITY
 DFPH.                         9.5000:        PH
 DFL .                         7.0000:        FLUID LOSS
 RMS .                         5.4300:        RM
 MST .F                       42.0000:        RM MEAS. TEMP.
 RMF .                         5.1700:        RMF
 MFST.F                       59.0000:        RMF MEAS. TEMP.
 RMC .                         5.0900:        RMC
 MCST.F                       56.0000:        RMC MEAS. TEMP.
~OTHER INFORMATION
~A    DEPTH          SP         ILD         ASN        CILD        CALI          DT  
# ...
  1704.0000    -32.6253     11.3040     11.9353     92.9239     10.0502    106.2211  
  1704.5000    -32.5990     11.2728     11.9936     93.1245     10.0817    106.1210  
  1705.0000    -32.4897     11.2899     12.0518     93.2720     10.0888    106.0209  
  1705.5000    -32.4196     11.3070     12.1101     93.1113     10.0818    106.5425  
  1706.0000    -32.3120     11.3241     12.1684     92.5732     10.0530    107.3630  
  1706.5000    -32.0458     11.3412     12.2266     93.4418     10.0277    108.1313  
  1707.0000    -32.1093     11.3583     12.2742     93.6186     10.0231    108.3174  
  1707.5000    -32.2433     11.3754     12.2772     93.3521     10.0479    108.3658  
  1708.0000    -32.1323     11.3926     12.2802     92.7734     10.0663    108.2611  
  1708.5000    -31.9230     11.4360     12.2832     92.3413     10.0828    108.1455  
  1709.0000    -31.4820     11.5881     12.2862     91.4750     10.0930    108.0377  
  1709.5000    -31.3317     11.7401     12.2892     90.3010     10.0908    107.9299  
  1710.0000    -31.5941     11.8921     12.2991     89.0483     10.0727    107.8221  
  1710.5000    -31.9100     12.0441     12.4459     88.0117     10.0264    107.8000  
  1711.0000    -32.5465     12.1961     12.5049     87.1606      9.9990    107.9435  
  1711.5000    -33.4516     12.3481     12.7027     86.3579      9.9863    108.1964  
  1712.0000    -34.2217     12.5001     12.7759     85.5540      9.9857    108.4210  
  1712.5000    -34.5635     12.6522     12.8258     85.0454      9.9724    108.5806  
  1713.0000    -34.6540     12.5838     12.8718     85.3684      9.9672    108.3109  
  1713.5000    -34.6322     12.4309     12.7458     85.9187      9.9876    107.9491  
  1714.0000    -34.5482     12.2779     12.5995     86.9269     10.0218    107.7184  
  1714.5000    -34.1485     12.1250     12.4942     88.3433     10.0267    107.5893  
  1715.0000    -33.5799     11.9720     12.2282     89.3867     10.0267    107.5371  
  1715.5000    -33.2593     11.8191     12.0550     90.5189     10.0210    107.4334  
  1716.0000    -33.0740     11.6661     11.8586     91.8259     10.0036    107.1252  
  1716.5000    -32.9754     11.5132     11.7530     92.9388      9.9810    105.7509  
  1717.0000    -32.8548     11.3603     11.7337     93.5235      9.9808    104.7118  
  1717.5000    -32.7343     11.2803     11.7042     93.8700      9.9958    103.6071  
  1718.0000    -32.5959     11.2945     11.7231     93.8904     10.0038    103.5037  
  1718.5000    -32.5795     11.3088     11.7709     93.9628     10.0083    104.3233  
  1719.0000    -32.7536     11.3231     11.8345     93.8817     10.0045    105.4625  
  1719.5000    -32.7781     11.3374     11.9029     93.4611      9.9885    106.4464  
  1720.0000    -32.7001     11.3517     11.9218     92.8122      9.9791    107.6401  
  1720.5000    -32.5906     11.3659     11.8729     93.3552      9.9715    108.3582  
  1721.0000    -32.4605     11.3802     11.8211     93.1718      9.9597    108.6979  
  1721.5000    -32.4217     11.3945     11.8252     92.8812      9.9509    108.7915  
  1722.0000    -32.4047     11.4088     11.8147     92.9025      9.9457    108.9106  
  1722.5000    -32.4796     11.4230     11.7910     92.9149      9.9404    108.8837  
  1723.0000    -32.7255     11.4373     11.8323     92.7657      9.9351    108.5735  
  1723.5000    -32.8768     11.4516     11.8635     92.5738      9.9298    108.3317  
  1724.0000    -33.2024     11.4659     11.8799     92.5217      9.9141    108.2443  
  1724.5000    -33.8007     11.4801     11.8666     92.7589      9.8909    108.2718  
  1725.0000    -34.8155     11.4944     11.7738     93.3335      9.8677    108.4746  
  1725.5000    -36.2191     11.5070     11.7431     94.2443      9.8445    108.3320  
  1726.0000    -39.3802     11.1607     11.9440     95.3801      9.8643    108.0905  
  1726.5000    -45.6114     10.7427     12.6059     97.9610      9.9085    107.8876  
  1727.0000    -55.7391     10.3154     13.4270    100.6403      9.8873    107.8511  
  1727.5000    -63.7965      9.9911     14.5388    104.0037      9.8536    108.0083  
  1728.0000    -66.1566      9.6838     15.3178    107.7183      9.8199    107.9789  
  1728.5000    -68.7257      9.3702     15.8827    110.9745      9.7862    107.9123  
  1729.0000    -70.3357      9.1399     16.0975    113.3671      9.7732    107.7657  
  1729.5000    -70.5051      9.0243     16.2145    114.9542      9.8078    107.1100  
  1730.0000    -69.9613      9.0114     16.1198    115.3107      9.8424    106.8414  
  1730.5000    -67.3798      9.1243     15.8508    114.5926      9.8486    106.6598  
  1731.0000    -61.3381      9.3390     15.2682    112.3155      9.7912    106.1289  
  1731.5000    -57.3261      9.6666     14.2313    108.6437      9.7339    105.0876  
  1732.0000    -47.3901     10.2049     13.1728    103.9457      9.6766    102.0604  
  1732.5000    -42.4918     10.8155     12.5692     98.8428      9.6192     99.8569  
  1733.0000    -38.5647     11.3481     12.3672     94.4332      9.5695     98.4850  
  1733.5000    -36.8393     11.9660     12.3521     89.6638      9.5646     98.4430  
  1734.0000    -35.9953     12.5839     12.6965     85.3756      9.5596     98.6344  
  1734.5000    -35.5376     12.9122     13.0600     83.1001      9.5547     98.7182  
  1735.0000    -35.2963     13.1069     13.2549     81.7482      9.5498     98.6403  
  1735.5000    -35.1763     13.1967     13.3695     81.2786      9.5449     98.5084  
  1736.0000    -34.9303     13.1980     13.3358     81.0705      9.5772     98.7191  
  1736.5000    -34.7868     13.1135     13.2692     80.9746      9.6350     99.4930  
  1737.0000    -34.6177     13.0290     13.1434     81.1369      9.6927    100.1832  
  1737.5000    -34.4668     12.9444     13.0972     81.3772      9.7969    101.0925  
  1738.0000    -34.2282     12.9384     13.0902     81.6275      9.9084    102.4617  
  1738.5000    -33.9452     13.0365     13.1464     81.9163     10.0070    103.6072  
  1739.0000    -33.5493     13.1346     13.1931     82.1200     10.0167    103.7525  
  1739.5000    -32.9877     13.2326     13.2947     82.0691     10.0266    102.7102  
  1740.0000    -32.5387     13.2390     13.3687     81.8622     10.0652    101.6408  
  1740.5000    -32.0757     13.1816     13.3714     81.7520     10.0950    101.2645  
  1741.0000    -31.6546     13.1242     13.2981     81.7269     10.0855    101.8003  
  1741.5000    -31.5584     13.0669     13.1852     81.9047     10.0917    103.3082  
  1742.0000    -31.8213     13.0095     13.1188     81.7794     10.0918    104.0359  
  1742.5000    -32.3125     12.9687     13.1211     81.5748     10.0588    104.3982  
  1743.0000    -32.6298     12.9882     13.1247     81.3255      9.9994    104.6484  
  1743.5000    -32.7655     13.0078     13.1653     81.0546      9.9499    104.5474  
  1744.0000    -32.4459     13.0274     13.2111     81.1311      9.9337    104.2773  
  1744.5000    -31.9688     13.0469     13.3031     81.0987      9.9560    104.0708  
  1745.0000    -31.4918     13.0665     13.3102     81.0209      9.9995    103.6927  
  1745.5000    -31.0149     13.0623     13.3246     81.4349     10.0165    103.4447  
  1746.0000    -30.9489     12.9789     13.2357     81.8042     10.0198    102.9880  
  1746.5000    -31.4792     12.8956     13.1200     82.2588     10.0172    102.9608  
  1747.0000    -31.7929     12.8123     13.0406     82.6549      9.9842    103.7433  
  1747.5000    -31.9587     12.7290     12.9202     83.0088      9.9234    104.9741  
  1748.0000    -31.9283     12.6457     12.8436     83.6341      9.8626    105.2656  
  1748.5000    -31.5885     12.5623     12.7705     84.0050      9.8019    104.7663  
  1749.0000    -31.4180     12.5108     12.8422     83.9258      9.7774    103.8810  
  1749.5000    -31.6436     12.7341     12.9602     83.2583      9.8827    102.8930  
  1750.0000    -31.5114     12.9575     13.1829     82.1362      9.9880    102.5657  
  1750.5000    -31.3111     13.1808     13.4154     80.9206      9.9784    102.7652  
