~VERSION INFORMATION
 VERS.                           2.00:        CWLS LOG ASCII STANDARD - VERSION 2.00
 WRAP.                             NO:        ONE LINE PER DEPTH STEP
~WELL INFORMATION
#MNEM.UNIT                   DATA             INFORMATION
#----------             --------------        ------------------------------
 STRT.F                      151.0000:        START DEPTH
 STOP.F                     2726.0000:        STOP DEPTH
 STEP.F                        0.5000:        STEP VALUE
 NULL.                      -999.2500:        NULL VALUE
 COMP.                      U.S. NAVY:        COMPANY  
 WELL.                     IKO BAY #1:        WELL     
 FLD .                        WILDCAT:        FIELD    
 LOC .                   16  21N  16W:        LOCATION   
 CNTY.                    NORTH SLOPE:        COUNTY  
 STAT.                         ALASKA:        STATE   
 CTRY.                            USA:        COUNTRY 
 DATE.                         2/8/75:        LOG DATE 
 API .                   502790000000:        UNIQUE WELL IDENTIFIER 
 OPER.                      U.S. NAVY:        OPERATOR  
 SRVC.                            440:        SERVICE COMPANY 
 UWI .                   502790000000:        UNIQUE WELL ID 
 LAT .                         0.0000:        LATITUDE
 LON .                         0.0000:        LONGITUDE
 DIGS.                             65:        DIGITIZING COMPANY 
~CURVE INFORMATION      
#MNEM.UNIT                 API CODE           CURVE DESCRIPTION
#---------              --------------        ------------------------------
 DEPT.F                              :        1  DEPTH
 SP  .MV                             :        2
 ILD .OHMM                           :        3
 LL8 .OHMM                           :        4
 ILM .OHMM                           :        5
 RHOB.G/C3                           :        6
 DRHO.G/C3                           :        7
 CALI.IN                             :        8
 GR  .GAPI                           :        9
 NPHI.%                              :       10
 DT  .US/F                           :       11
~PARAMETER INFORMATION       
#MNEM.UNIT                  VALUE             DESCRIPTION OF MNEMONIC
#---------             ---------------        ------------------------------
 EKB .F                        0.0000:        KELLY BUSHING
 TD  .F                     2731.0000:        TOTAL DEPTH
 BHT .F                             0.0000:        BOTTOM HOLE TEMPERATURE
 BS  .                             14.7500:        BIT SIZE
 FD  .                              0.0000:        FLUID DENSITY
 CSIZ.                             16.0000:        CASING SIZE
 CBD .F                           149.0000:        CASING DRILLER 1
 CBL .F                           152.0000:        CASING LOGGER 1
 DFT .                            Gel:        TYPE FLUID IN HOLE
 DFV .                              0.0000:        VISCOSITY
 DFPH.                              0.0000:        PH
 DFL .                              0.0000:        FLUID LOSS
 RMS .                              0.3000:        RM
 MST .F                       49.0000:        RM MEAS. TEMP.
 RMF .                              0.2300:        RMF
 MFST.F                       49.0000:        RMF MEAS. TEMP.
 RMC .                              0.4600:        RMC
 MCST.F                       49.0000:        RMC MEAS. TEMP.
 UWI .                   502790000000:        UNIQUE WELL ID
~OTHER INFORMATION
~A    DEPTH          SP         ILD         LL8         ILM        RHOB        DRHO        CALI          GR        NPHI          DT  
# ...
   181.0000    -68.9465     11.5602      8.7627   -999.2500   -999.2500   -999.2500     13.2558   -999.2500   -999.2500    150.0583  
   181.5000    -69.5581     11.9904     10.1006   -999.2500   -999.2500   -999.2500     12.6798   -999.2500   -999.2500    150.0654  
   182.0000    -69.7947     12.2143     11.3943   -999.2500   -999.2500   -999.2500     12.7370   -999.2500   -999.2500    150.0725  
   182.5000    -69.8640     12.2881     12.6880   -999.2500   -999.2500   -999.2500     12.9401   -999.2500   -999.2500    157.5141  
   183.0000    -69.5225     12.3618     13.9817   -999.2500   -999.2500   -999.2500     13.3894   -999.2500   -999.2500    169.6945  
   183.5000    -69.2742     12.3463     15.2754   -999.2500   -999.2500   -999.2500     13.8168   -999.2500   -999.2500    181.8750  
   184.0000    -69.1233     11.0089     16.6542   -999.2500   -999.2500   -999.2500     13.8697   -999.2500   -999.2500    183.3486  
   184.5000    -69.1134      9.6865     18.6301   -999.2500   -999.2500   -999.2500     13.8720   -999.2500   -999.2500    175.9342  
   185.0000    -69.2960      8.4673     20.6717   -999.2500   -999.2500   -999.2500     13.8775   -999.2500   -999.2500    179.3341  
   185.5000    -69.4785      8.1000     22.7134   -999.2500   -999.2500   -999.2500     13.8736   -999.2500   -999.2500    185.6129  
   186.0000    -69.6611      8.0167     24.4527   -999.2500   -999.2500   -999.2500     13.8661   -999.2500   -999.2500    183.6297  
   186.5000    -69.8436      8.2931     25.5993   -999.2500   -999.2500   -999.2500     13.8765   -999.2500   -999.2500    173.8468  
   187.0000    -69.9229      8.6798     26.7459   -999.2500   -999.2500   -999.2500     13.8733   -999.2500   -999.2500    164.6404  
   187.5000    -69.9832      8.9997     27.6764   -999.2500   -999.2500   -999.2500     13.8729   -999.2500   -999.2500    168.9984  
   188.0000    -70.3685      9.2272     28.0051   -999.2500   -999.2500   -999.2500     13.8530   -999.2500   -999.2500    177.4218  
   188.5000    -70.7029      9.4413     28.3338   -999.2500   -999.2500   -999.2500     13.8505   -999.2500   -999.2500    184.4001  
   189.0000    -70.8397      9.4438     28.6454   -999.2500   -999.2500   -999.2500     13.8475   -999.2500   -999.2500    190.0733  
   189.5000    -71.0208      9.4463     28.9211   -999.2500   -999.2500   -999.2500     13.8271   -999.2500   -999.2500    189.7752  
   190.0000    -71.5296      9.5239     29.1968   -999.2500   -999.2500   -999.2500     13.8085   -999.2500   -999.2500    181.9835  
   190.5000    -72.1706      9.9176     29.4725   -999.2500   -999.2500   -999.2500     13.7924   -999.2500   -999.2500    175.0965  
   191.0000    -72.9020     10.2534     29.7483   -999.2500   -999.2500   -999.2500     13.7633   -999.2500   -999.2500    179.4194  
   191.5000    -73.5289     10.6857     29.9166   -999.2500   -999.2500   -999.2500     13.7061   -999.2500   -999.2500    183.6578  
   192.0000    -74.0733     11.2391     29.8579   -999.2500   -999.2500   -999.2500     13.6725   -999.2500   -999.2500    178.1577  
   192.5000    -74.5585     11.1980     29.8121   -999.2500   -999.2500   -999.2500     13.6060   -999.2500   -999.2500    170.1901  
   193.0000    -75.0219     10.6903     29.7662   -999.2500   -999.2500   -999.2500     13.5106   -999.2500   -999.2500    167.5445  
   193.5000    -75.6545      9.8032     29.7204   -999.2500   -999.2500   -999.2500     13.5051   -999.2500   -999.2500    189.6043  
   194.0000    -75.6244      8.9880     29.6745   -999.2500   -999.2500   -999.2500     13.5524   -999.2500   -999.2500    182.7055  
   194.5000    -75.1822      8.8319     29.6287   -999.2500   -999.2500   -999.2500     13.6874   -999.2500   -999.2500    168.2183  
   195.0000    -74.3259      9.2777     29.5856   -999.2500   -999.2500   -999.2500     13.8308   -999.2500   -999.2500    153.7310  
   195.5000    -73.5253      9.6422     29.5851   -999.2500   -999.2500   -999.2500     13.9873   -999.2500   -999.2500    150.1467  
   196.0000    -73.1817     10.0399     29.5846   -999.2500   -999.2500   -999.2500     14.0278   -999.2500   -999.2500    150.7227  
   196.5000    -72.8077      9.5432     29.5851   -999.2500   -999.2500   -999.2500     14.0076   -999.2500   -999.2500    181.7283  
   197.0000    -72.3351      8.5358     29.8913   -999.2500   -999.2500   -999.2500     13.9874   -999.2500   -999.2500    196.7270  
   197.5000    -72.0905      7.9565     30.2021   -999.2500   -999.2500   -999.2500     13.9672   -999.2500   -999.2500    151.6021  
   198.0000    -72.2759      8.7079     31.2988   -999.2500   -999.2500   -999.2500     13.9597   -999.2500   -999.2500    149.9254  
   198.5000    -72.1837      9.1596     31.9405   -999.2500   -999.2500   -999.2500     13.9595   -999.2500   -999.2500    163.7792  
   199.0000    -72.0091      9.6410     32.5823   -999.2500   -999.2500   -999.2500     13.9592   -999.2500   -999.2500    196.8281  
   199.5000    -71.7122      9.8836     33.2240   -999.2500   -999.2500   -999.2500     13.9590   -999.2500   -999.2500    194.5168  
   200.0000    -71.4351      9.8272     33.8678   -999.2500   -999.2500   -999.2500     13.9588   -999.2500   -999.2500    193.4746  
   200.5000    -71.1579      9.7708     34.5226   -999.2500   -999.2500   -999.2500     13.9585   -999.2500   -999.2500    179.0691  
   201.0000    -70.8808      9.7412     35.1775   -999.2500   -999.2500   -999.2500     13.9583   -999.2500   -999.2500    163.4673  
   201.5000    -70.8007      9.7397     35.8323   -999.2500   -999.2500   -999.2500     13.9580   -999.2500   -999.2500    175.7817  
   202.0000    -70.6023      9.8077     36.4872   -999.2500   -999.2500   -999.2500     13.9578   -999.2500   -999.2500    190.7009  
   202.5000    -70.4783      9.8841     37.1421   -999.2500   -999.2500   -999.2500     13.9575   -999.2500   -999.2500    190.5343  
   203.0000    -70.5659      9.9719     37.6374   -999.2500   -999.2500   -999.2500     13.9573   -999.2500   -999.2500    189.2505  
   203.5000    -70.3010     10.1025     37.9355   -999.2500   -999.2500   -999.2500     13.9570   -999.2500   -999.2500    181.4594  
   204.0000    -69.7253     10.2885     38.1733   -999.2500   -999.2500   -999.2500     13.9568   -999.2500   -999.2500    181.3460  
   204.5000    -69.1497     10.4746     38.3860   -999.2500   -999.2500   -999.2500     13.9565   -999.2500   -999.2500    184.3188  
   205.0000    -68.8595     10.4148     38.0688   -999.2500   -999.2500   -999.2500     13.9563   -999.2500   -999.2500    184.9100  
   205.5000    -69.8793     10.3145     37.4989   -999.2500   -999.2500   -999.2500     13.9560   -999.2500   -999.2500    187.2020  
   206.0000    -71.7686     10.2142     36.9290   -999.2500   -999.2500   -999.2500     13.9558   -999.2500   -999.2500    189.7265  
   206.5000    -73.7480     10.1030     36.3592   -999.2500   -999.2500   -999.2500     13.9555   -999.2500   -999.2500    150.0414  
   207.0000    -74.9246     10.0651     36.1701   -999.2500   -999.2500   -999.2500     13.9553   -999.2500   -999.2500    150.0339  
   207.5000    -75.6572      9.9639     36.1193   -999.2500   -999.2500   -999.2500     13.9550   -999.2500   -999.2500    164.9507  
   208.0000    -76.5132      9.6114     36.0685   -999.2500   -999.2500   -999.2500     13.9548   -999.2500   -999.2500    171.1996  
   208.5000    -77.4694      9.2589     36.0177   -999.2500   -999.2500   -999.2500     13.9545   -999.2500   -999.2500    149.9318  
   209.0000    -78.2830      9.0946     35.9646   -999.2500   -999.2500   -999.2500     13.9543   -999.2500   -999.2500    149.9243  
   209.5000    -78.9235      9.2900     35.8880   -999.2500   -999.2500   -999.2500     13.9540   -999.2500   -999.2500    224.8489  
   210.0000    -79.5641      9.5587     35.8115   -999.2500   -999.2500   -999.2500     13.9538   -999.2500   -999.2500    217.9641  
   210.5000    -80.2046      9.9204     35.7349   -999.2500   -999.2500   -999.2500     13.9535   -999.2500   -999.2500    175.8553  
