~VERSION INFORMATION
 VERS.                           2.00:        CWLS LOG ASCII STANDARD - VERSION 2.00
 WRAP.                             NO:        ONE LINE PER DEPTH STEP
~WELL INFORMATION
#MNEM.UNIT                   DATA             INFORMATION
#----------             --------------        ------------------------------
 STRT.F                     1260.0000:        START DEPTH
 STOP.F                     2340.0000:        STOP DEPTH
 STEP.F                        0.5000:        STEP VALUE
 NULL.                      -999.2500:        NULL VALUE
 COMP.        U.S.NAVY DEEPT NP & OSR:        COMPANY  
 LOC .                  144  22N 18W UPM:        LOCATION   
 DATE.                        2/24/74:        LOG DATE 
 WELL.               SOUTH BARROW #11:        WELL     
 UWI .                    50023200500:        UNIQUE WELL ID 
 API .                    50023200500:        UNIQUE WELL IDENTIFIER 
 FLD .                   SOUTH BARROW:        FIELD    
 CNTY.                          NPR-4:        COUNTY  
 STAT.                         ALASKA:        STATE   
 CTRY.                            USA:        COUNTRY 
 OPER.        U.S.NAVY DEEPT NP & OSR:        OPERATOR  
 SRVC.                   SCHLUMBERGER:        SERVICE COMPANY 
 LAT .                         0.0000:        LATITUDE
 LON .                         0.0000:        LONGITUDE
 DIGS.               CENTER LINE DATA:        DIGITIZING COMPANY 
~CURVE INFORMATION      
#MNEM        .UNIT         API CODE           CURVE DESCRIPTION
#-----------------      --------------        ------------------------------
 DEPT        .F                      :        1  DEPTH
 CALI        .IN                     :        2  
 GR          .GAPI                   :        3  
 RHOB        .G/C3                   :        4  
 NPHI        .%                      :        5  
 DPHI        .%                      :        6  
 SP          .MV                     :        7  
 LL8         .OHMM                   :        8  
 ILD         .OHMM                   :        9  
 CILD        .MMHO                   :        10 
 DT          .US/F                   :        11 
~PARAMETER INFORMATION       
#MNEM.UNIT                  VALUE             DESCRIPTION OF MNEMONIC
#---------             ---------------        ------------------------------
 EKB .F                       36.0000:        KELLY BUSHING
 TD  .F                     2350.0000:        TOTAL DEPTH
 BHT .F                       60.0000:        BOTTOM HOLE TEMPERATURE
 BS  .                         9.6250:        BIT SIZE
 FD  .                        10.8000:        FLUID DENSITY
 CSIZ.                        10.7500:        CASING SIZE
 CBD .F                     1267.0000:        CASING DRILLER 1
 CBL .F                     1267.0000:        CASING LOGGER 1
 DFT .      Salt Water-Lignosulfonate:        TYPE FLUID IN HOLE
 DFV .                        52.0000:        VISCOSITY
 DFPH.                         9.0000:        PH
 DFL .                         4.2000:        FLUID LOSS
 RMS .                         1.8800:        RM
 MST .F                       50.0000:        RM MEAS. TEMP.
 RMF .                         1.1500:        RMF
 MFST.F                       63.0000:        RMF MEAS. TEMP.
 RMC .                         1.5000:        RMC
 MCST.F                       50.0000:        RMC MEAS. TEMP.
~OTHER INFORMATION
~A    DEPTH        CALI          GR        RHOB        NPHI        DPHI          SP         LL8         ILD        CILD          DT  
# ...
  2130.0000     10.2275    103.9176      2.4905     33.7935      9.8410    -15.4940     11.8221     10.9121     92.7604     94.0052  
  2130.5000     10.2188    104.7913      2.4965     33.6196      9.5059    -15.4757     11.7421     10.9080     93.4472     93.6545  
  2131.0000     10.2065    105.7320      2.4951     33.9653      9.4307    -15.4529     11.6621     10.8352     93.3934     93.9464  
  2131.5000     10.1946    106.0923      2.4792     35.0499      9.7529    -15.4046     11.5934     10.7237     93.4129     94.5719  
  2132.0000     10.2038    107.5372      2.4706     36.6823     10.4612    -15.4334     11.5745     10.6122     94.3359     95.4256  
  2132.5000     10.2175    110.3730      2.4672     39.0480     10.9362    -15.3724     11.5557     10.5008     95.2908     96.3052  
  2133.0000     10.2287    110.8715      2.4697     39.5726     10.8984    -15.1921     11.5369     10.3893     96.0271     96.4232  
  2133.5000     10.2169    109.9086      2.4742     39.4764     10.7622    -15.1643     11.5181     10.2778     96.4405     96.3914  
  2134.0000     10.2123    109.5760      2.4772     37.4973     10.5776    -15.3060     11.4939     10.1664     96.4200     96.4326  
  2134.5000     10.2332    109.1897      2.4739     35.7534     10.4684    -15.4890     11.4682     10.1227     96.1370     96.7916  
  2135.0000     10.2629    107.8886      2.4637     35.3630     10.8473    -15.5945     11.4424     10.0823     96.3714     97.6261  
  2135.5000     10.2485    107.4896      2.4531     36.4090     11.3340    -15.7813     11.4440     10.1880     96.5001     98.2897  
  2136.0000     10.2406    108.1649      2.4580     37.8163     11.3479    -15.8055     11.5380     10.1753     96.5006     98.4897  
  2136.5000     10.2375    108.4284      2.4560     38.9654     11.5561    -15.7063     11.6452     10.4975     95.6488     98.5390  
  2137.0000     10.2424    108.6986      2.4548     39.7059     11.5686    -15.5896     11.8047     10.7201     94.5145     98.5733  
  2137.5000     10.2287    108.5334      2.4559     39.6490     11.5834    -15.4892     11.9549     10.8483     92.9968     98.3724  
  2138.0000     10.2248    107.8076      2.4585     37.9322     11.4559    -15.3398     12.1975     10.9808     92.2115     97.7942  
  2138.5000     10.2239    107.1876      2.4615     36.3755     11.3005    -15.2114     12.4321     11.0820     91.5798     96.9345  
  2139.0000     10.2023    105.5410      2.4677     35.5643     10.9496    -15.0932     12.5935     11.2400     90.2657     95.8678  
  2139.5000     10.1893    103.9262      2.4829     35.2563     10.5600    -14.9573     12.7216     11.4242     88.9583     95.0509  
  2140.0000     10.1885    103.6872      2.4905     35.2197      9.3498    -14.7709     12.8139     11.6705     87.5919     94.4528  
  2140.5000     10.1925    105.8131      2.4919     35.1870      9.3853    -14.6365     12.9032     11.8072     86.5465     94.2594  
  2141.0000     10.1988    104.4369      2.4824     35.3635     10.0125    -14.6890     12.9839     11.9288     85.4994     94.3318  
  2141.5000     10.1961    103.1000      2.4726     35.8003     10.4327    -14.7887     13.0646     12.0504     84.4839     94.4623  
  2142.0000     10.1952    102.4016      2.4587     36.4204     11.1946    -14.9033     13.1453     12.2908     84.0212     94.2710  
  2142.5000     10.1965    101.4413      2.4565     37.0207     11.5135    -14.9778     13.2608     12.5554     82.7769     93.8786  
  2143.0000     10.2132    100.2750      2.4676     37.4658     11.3782    -15.0803     13.4886     12.9904     81.4220     93.2344  
  2143.5000     10.2178     99.1611      2.4686     37.7460     10.9334    -15.1667     13.5792     13.5758     79.7786     92.5828  
  2144.0000     10.2112     99.2260      2.4676     36.6423     10.8643    -15.4849     13.9689     14.1864     76.8390     91.7202  
  2144.5000     10.2002    100.0723      2.4661     35.1568     10.9358    -15.9905     14.6556     14.7137     73.4812     91.1942  
  2145.0000     10.1858    100.5370      2.4601     33.7283     11.2404    -16.7785     15.3686     15.0504     70.7911     90.8653  
  2145.5000     10.1759     99.4547      2.4470     33.1132     11.9940    -17.9561     16.2179     15.3542     69.1832     90.7519  
  2146.0000     10.1567     96.6191      2.4267     32.4492     13.7429    -19.7883     17.3183     15.6580     68.2022     90.7773  
  2146.5000     10.1053     92.1361      2.3986     31.8052     15.0804    -21.2163     17.8878     15.7876     67.4568     91.1353  
  2147.0000     10.0438     87.4339      2.3732     30.8245     16.3820    -20.5038     17.6840     15.7488     67.2757     91.1866  
  2147.5000     10.0162     84.6479      2.3641     28.0837     17.5801    -18.7969     16.9909     15.5798     67.2988     90.8301  
  2148.0000     10.0513     88.2222      2.3923     24.4728     16.9457    -17.0451     16.0089     15.3559     67.8573     90.2263  
  2148.5000     10.1356     95.4490      2.4521     26.5258     14.1932    -16.0526     15.5190     14.8894     69.3959     89.7351  
  2149.0000     10.2060    100.4274      2.4797     30.2238     10.3436    -15.5836     14.9450     14.4228     71.4149     89.6352  
  2149.5000     10.2300    101.8114      2.4818     32.4414      9.9690    -15.4401     14.6184     14.1803     73.7193     89.9358  
  2150.0000     10.2292    100.8544      2.4734     33.0168     10.3762    -15.2943     14.6303     13.9452     75.2707     90.5078  
  2150.5000     10.2183     99.9259      2.4758     33.3845     10.2529    -15.1376     14.7102     13.8441     76.1305     90.4647  
  2151.0000     10.2241     99.6100      2.4842     33.0898      9.8378    -15.0361     14.8693     13.9857     75.2311     90.2564  
  2151.5000     10.2367     99.8094      2.4889     31.9199      9.3935    -15.1559     15.2437     14.5514     73.3060     89.8571  
  2152.0000     10.2423     99.4789      2.4824     30.9606      9.3514    -15.4393     15.9400     15.4299     70.2231     89.4021  
  2152.5000     10.2456     97.5817      2.4796     30.3023      9.9362    -15.7625     16.8803     16.5522     67.0092     88.9396  
  2153.0000     10.2414     95.7861      2.4840     30.2862      9.9563    -16.1874     17.9389     16.7807     64.7529     88.1758  
  2153.5000     10.2387     94.0961      2.4850     30.2979      9.8055    -16.5380     18.6708     16.7271     64.3372     87.0062  
  2154.0000     10.2330     92.1738      2.4839     29.4704      9.7434    -16.7780     18.5502     16.4371     65.4872     84.8134  
  2154.5000     10.2221     90.0284      2.4885     27.9902      9.6738    -16.7807     17.9240     15.9557     66.9208     82.4460  
  2155.0000     10.2130     90.3381      2.4923     25.1389      9.4758    -16.4761     16.9396     15.3645     68.7899     81.0473  
  2155.5000     10.2060     94.2072      2.4877     24.6696      9.5567    -15.9944     15.3074     14.6722     71.3517     81.9283  
  2156.0000     10.2056    100.9117      2.4808     26.6274      9.8188    -15.4741     14.1971     13.9799     74.3711     85.6774  
  2156.5000     10.2117    109.0899      2.4854     30.2599      9.9175    -15.1184     13.4836     13.2876     78.0148     90.5171  
  2157.0000     10.2379    117.0110      2.5010     34.2679      9.7262    -14.9855     13.1301     12.5953     81.5564     95.3073  
  2157.5000     10.2385    124.3872      2.4925     38.2276      8.5987    -14.7900     13.1053     11.9030     85.4332     99.5087  
  2158.0000     10.2169    131.2157      2.4764     41.1434      9.8127    -14.6408     13.1095     11.3888     89.0079    102.1975  
  2158.5000     10.2004    136.5142      2.4741     43.4405     10.5242    -14.5882     13.2308     10.9488     92.0834    103.9007  
  2159.0000     10.2011    139.3835      2.4738     43.9138     10.5135    -14.6156     13.2987     10.7399     93.5970    104.6151  
  2159.5000     10.1797    140.1582      2.4702     44.3241     10.5851    -14.6521     13.1541     10.5679     94.4954    104.7322  
