~VERSION INFORMATION
 VERS.                           2.00:        CWLS LOG ASCII STANDARD - VERSION 2.00
 WRAP.                             NO:        ONE LINE PER DEPTH STEP
~WELL INFORMATION
#MNEM.UNIT                   DATA             INFORMATION
#----------             --------------        ------------------------------
 STRT.F                     1260.0000:        START DEPTH
 STOP.F                     2340.0000:        STOP DEPTH
 STEP.F                        0.5000:        STEP VALUE
 NULL.                      -999.2500:        NULL VALUE
 COMP.        U.S.NAVY DEEPT NP & OSR:        COMPANY  
 LOC .                  144  22N 18W UPM:        LOCATION   
 DATE.                        2/24/74:        LOG DATE 
 WELL.               SOUTH BARROW #11:        WELL     
 UWI .                    50023200500:        UNIQUE WELL ID 
 API .                    50023200500:        UNIQUE WELL IDENTIFIER 
 FLD .                   SOUTH BARROW:        FIELD    
 CNTY.                          NPR-4:        COUNTY  
 STAT.                         ALASKA:        STATE   
 CTRY.                            USA:        COUNTRY 
 OPER.        U.S.NAVY DEEPT NP & OSR:        OPERATOR  
 SRVC.                   SCHLUMBERGER:        SERVICE COMPANY 
 LAT .                         0.0000:        LATITUDE
 LON .                         0.0000:        LONGITUDE
 DIGS.               CENTER LINE DATA:        DIGITIZING COMPANY 
~CURVE INFORMATION      
#MNEM        .UNIT         API CODE           CURVE DESCRIPTION
#-----------------      --------------        ------------------------------
 DEPT        .F                      :        1  DEPTH
 CALI        .IN                     :        2  
 GR          .GAPI                   :        3  
 RHOB        .G/C3                   :        4  
 NPHI        .%                      :        5  
 DPHI        .%                      :        6  
 SP          .MV                     :        7  
 LL8         .OHMM                   :        8  
 ILD         .OHMM                   :        9  
 CILD        .MMHO                   :        10 
 DT          .US/F                   :        11 
~PARAMETER INFORMATION       
#MNEM.UNIT                  VALUE             DESCRIPTION OF MNEMONIC
#---------             ---------------        ------------------------------
 EKB .F                       36.0000:        KELLY BUSHING
 TD  .F                     2350.0000:        TOTAL DEPTH
 BHT .F                       60.0000:        BOTTOM HOLE TEMPERATURE
 BS  .                         9.6250:        BIT SIZE
 FD  .                        10.8000:        FLUID DENSITY
 CSIZ.                        10.7500:        CASING SIZE
 CBD .F                     1267.0000:        CASING DRILLER 1
 CBL .F                     1267.0000:        CASING LOGGER 1
 DFT .      Salt Water-Lignosulfonate:        TYPE FLUID IN HOLE
 DFV .                        52.0000:        VISCOSITY
 DFPH.                         9.0000:        PH
 DFL .                         4.2000:        FLUID LOSS
 RMS .                         1.8800:        RM
 MST .F                       50.0000:        RM MEAS. TEMP.
 RMF .                         1.1500:        RMF
 MFST.F                       63.0000:        RMF MEAS. TEMP.
 RMC .                         1.5000:        RMC
 MCST.F                       50.0000:        RMC MEAS. TEMP.
~OTHER INFORMATION
~A    DEPTH        CALI          GR        RHOB        NPHI        DPHI          SP         LL8         ILD        CILD          DT  
# ...
  1530.0000     10.1825     89.0578      2.4232     31.7212     14.5438    -32.3623     12.8188     12.3427     80.6013     97.4283  
  1530.5000     10.1933     89.5955      2.4249     31.2599     13.4150    -31.8220     12.5986     12.1977     81.1661     97.7425  
  1531.0000     10.1723     90.7980      2.4112     33.1243     13.9268    -31.2732     12.3923     12.0527     82.6274     97.3878  
  1531.5000     10.1638     93.1983      2.4051     34.9941     14.5466    -31.0264     12.2133     11.8912     83.7524     98.0267  
  1532.0000     10.2148     95.0996      2.4146     36.6347     14.7196    -30.8073     11.9107     11.7026     84.7966     99.4329  
  1532.5000     10.2528     96.2172      2.4255     37.3797     14.5584    -30.3887     11.6626     11.5141     85.7955    101.4979  
  1533.0000     10.2951     96.0230      2.4264     38.2755     13.8594    -29.9660     11.4971     11.3255     86.7490    103.2486  
  1533.5000     10.3244     95.2153      2.4172     38.6064     13.7364    -29.7955     11.3408     11.4014     87.6285    104.2426  
  1534.0000     10.3156     94.5601      2.4080     38.2193     14.6095    -29.6907     11.2408     11.4778     88.3440    105.2335  
  1534.5000     10.2534     94.7529      2.3975     37.6496     15.4613    -29.7492     11.2100     11.5543     88.7150    106.2256  
  1535.0000     10.1896     94.2711      2.3821     37.2757     16.3312    -29.6552     11.4069     11.6308     87.7809    106.1474  
  1535.5000     10.1359     92.1169      2.3746     36.6272     16.6327    -29.5679     11.5607     11.8392     86.5277    105.4469  
  1536.0000     10.0379     89.1636      2.3722     35.9349     16.6302    -29.4873     11.8892     12.0685     84.5525    104.2376  
  1536.5000      9.9356     86.7467      2.3828     34.5763     16.4307    -29.6663     12.2178     12.3548     82.8404    101.9117  
  1537.0000      9.9402     83.9978      2.3993     33.3600     15.5202    -29.8292     12.5905     12.6558     81.3481     99.8595  
  1537.5000     10.0235     81.9504      2.4110     32.1900     14.7422    -29.9681     12.9234     12.9568     79.9166     98.4077  
  1538.0000     10.0767     80.4074      2.4142     31.8126     14.5876    -30.5581     13.1462     13.2578     78.5530     97.2646  
  1538.5000     10.1240     82.2232      2.4253     31.3345     13.6720    -30.3482     13.4230     13.5588     76.9634     96.4565  
  1539.0000     10.1512     83.2541      2.4442     31.2467     12.7220    -29.9636     13.6407     13.8042     75.4241     95.6485  
  1539.5000     10.1770     82.6413      2.4491     31.8759     12.1489    -29.7807     13.7238     14.0027     74.6841     94.8934  
  1540.0000     10.1650     81.9776      2.4461     32.5126     11.9592    -29.4938     13.7882     14.2012     74.1620     94.4455  
  1540.5000     10.1545     83.2704      2.4439     32.8800     12.2697    -29.2503     13.8853     14.3709     73.9324     94.1278  
  1541.0000     10.1577     84.7964      2.4461     32.9870     12.2226    -28.9187     14.0039     14.4886     73.0858     94.0577  
  1541.5000     10.1582     85.6946      2.4533     32.9680     12.0912    -28.5595     14.1087     14.6064     72.2925     94.0201  
  1542.0000     10.1597     84.8198      2.4445     32.6283     12.1690    -28.2915     14.2779     14.7240     71.7962     93.8463  
  1542.5000     10.1623     82.9070      2.4386     31.9393     12.5612    -28.0310     14.4251     14.7690     71.1485     93.6725  
  1543.0000     10.1698     81.6276      2.4365     31.3317     12.8858    -27.9127     14.4444     14.7506     70.9622     93.1401  
  1543.5000     10.1684     80.7849      2.4275     31.0498     13.1894    -27.9612     14.3775     14.5360     71.1619     92.0239  
  1544.0000     10.1819     81.3270      2.4232     31.0449     13.5786    -28.2599     14.2414     14.3211     72.0378     91.7432  
  1544.5000     10.1997     83.3081      2.4189     31.1588     13.9333    -28.6962     14.0304     14.1062     72.9724     92.7881  
  1545.0000     10.1710     84.7168      2.4138     31.2138     14.1293    -29.3145     13.7847     13.8913     73.7938     93.6193  
  1545.5000     10.1287     84.5854      2.4037     30.9929     14.6025    -29.8274     13.5235     13.7129     74.9524     94.6548  
  1546.0000     10.1411     84.0431      2.4003     30.1388     14.8741    -30.5034     13.3744     13.6262     76.4300     95.4749  
  1546.5000     10.1536     83.4352      2.4038     29.4698     15.1907    -30.9947     13.2242     13.5577     77.6824     96.1623  
  1547.0000     10.1557     83.0902      2.4161     29.2395     14.5173    -31.3871     13.1851     13.5389     78.5155     96.1401  
  1547.5000     10.1910     83.9863      2.4370     30.2696     13.8696    -31.3843     13.3564     13.5886     77.9113     95.9746  
  1548.0000     10.1962     85.1270      2.4570     31.1546     12.5641    -30.7737     13.5154     13.6382     76.7076     95.2470  
  1548.5000     10.2039     85.7245      2.4608     31.6403     11.6298    -30.0103     13.7144     13.7863     75.4638     94.3313  
  1549.0000     10.2066     85.1343      2.4575     31.3382     11.6787    -29.2843     13.9450     14.0915     74.2447     93.4198  
  1549.5000     10.2084     83.9252      2.4590     31.3242     11.7529    -28.4853     14.0735     14.3968     72.6876     92.4792  
  1550.0000     10.2179     83.3914      2.4581     31.6503     11.8100    -27.9734     14.2020     14.7020     71.2506     91.5849  
  1550.5000     10.2296     83.5102      2.4537     31.9921     11.8757    -27.5873     14.3186     15.0072     70.0684     91.3325  
  1551.0000     10.2344     83.8035      2.4428     32.3804     12.3982    -27.4335     14.1842     15.3062     69.6330     91.5107  
  1551.5000     10.2387     84.7323      2.4277     32.9457     13.1101    -27.2961     14.0498     15.2848     69.1499     92.1319  
  1552.0000     10.2616     87.1954      2.4158     33.6534     14.0232    -27.2789     13.8407     15.2469     69.5198     93.0920  
  1552.5000     10.2723     89.5026      2.4026     34.6377     14.7943    -27.3857     13.6168     15.1354     69.9121     93.8243  
  1553.0000     10.2703     89.7388      2.4002     35.2197     14.8880    -27.3105     13.4469     14.9875     70.5056     94.5865  
  1553.5000     10.2881     90.3558      2.4062     35.4205     14.6013    -27.2427     13.2754     14.8172     71.3762     95.2714  
  1554.0000     10.3048     91.7006      2.4155     35.6213     14.0391    -27.2018     12.9666     14.4408     73.4923     96.0804  
  1554.5000     10.2825     93.7918      2.4125     36.5422     14.1817    -27.1702     12.5683     13.8659     76.0610     96.3819  
  1555.0000     10.2670     94.7842      2.4018     37.6018     14.7254    -27.1440     12.2041     13.2910     79.0075     96.3807  
  1555.5000     10.2859     95.5507      2.3937     38.9778     15.3600    -27.2743     11.8399     12.7160     81.7500     96.4593  
  1556.0000     10.2896     96.1154      2.3906     39.8349     15.8401    -27.8372     11.4758     12.1411     84.7748     97.2647  
  1556.5000     10.2641     96.2410      2.3960     40.1029     15.2613    -28.4271     11.1116     11.6763     87.2801     99.9790  
  1557.0000     10.2340     96.0378      2.4003     39.4404     15.1117    -28.8399     10.7491     11.4047     88.5144    103.9038  
  1557.5000     10.2195     96.1046      2.4096     38.5922     14.9782    -28.9534     10.6723     11.1681     90.5122    106.3729  
  1558.0000     10.2325     96.7755      2.4224     37.8412     14.3051    -29.0181     10.5414     11.0119     92.9000    107.7405  
  1558.5000     10.2761     98.1417      2.4237     37.7798     13.5489    -29.0828     10.4633     10.8972     95.3680    107.6957  
  1559.0000     10.3150     98.9268      2.4170     38.2615     13.9652    -29.1475     10.4759     10.9125     95.7146    107.4206  
  1559.5000     10.3367     99.0007      2.4024     39.0597     14.6734    -29.1489     10.5152     10.9278     95.6564    106.8408  
