~VERSION INFORMATION
 VERS.                           2.00:        CWLS LOG ASCII STANDARD - VERSION 2.00
 WRAP.                             NO:        ONE LINE PER DEPTH STEP
~WELL INFORMATION
#MNEM.UNIT                   DATA             INFORMATION
#----------             --------------        ------------------------------
 STRT.F                      101.0000:        START DEPTH
 STOP.F                     3666.0000:        STOP DEPTH
 STEP.F                        0.5000:        STEP VALUE
 NULL.                      -999.2500:        NULL VALUE
 COMP.     USGS/NPR HUSKY OIL COMPANY:        COMPANY
 LOC .                      9 20N 19W:        LOCATION
 DATE.                       12/30/79:        LOG DATE
 WELL.           WALAKPA TEST WELL #1:        WELL
 UWI .                   500232001300:        UNIQUE WELL ID
 API .                   500232001300:        UNIQUE WELL IDENTIFIER
 FLD .                        WILDCAT:        FIELD
 CNTY.                    NORTH SLOPE:        COUNTY
 STAT.                         ALASKA:        STATE
 CTRY.                            USA:        COUNTRY
 OPER.     USGS/NPR HUSKY OIL COMPANY:        OPERATOR
 SRVC.                   SCHLUMBERGER:        SERVICE COMPANY
 LAT .                         0.0000:        LATITUDE
 LON .                         0.0000:        LONGITUDE
 DIGS.               CENTER LINE DATA:        DIGITIZING COMPANY
~CURVE INFORMATION      
#MNEM        .UNIT         API CODE           CURVE DESCRIPTION
#-----------------      --------------        ------------------------------
 DEPT        .F                      :        1  DEPTH
 GR          .GAPI                   :        2  
 CALI        .IN                     :        3  
 RHOB        .G/C3                   :        4  
 DRHO        .G/C3                   :        5  
 NPHI        .%                      :        6  
 DT          .US/F                   :        7  
 SP          .MV                     :        8  
 ILD         .OHMM                   :        9  
 ILM         .OHMM                   :        10 
 LL8         .OHMM                   :        11 
 SFL         .OHMM                   :        12 
~PARAMETER INFORMATION
#MNEM.UNIT                  VALUE             DESCRIPTION OF MNEMONIC
#---------             ---------------        ------------------------------
 EKB .F                       50.0000:        KELLY BUSHING
 TD  .F                     3672.0000:        TOTAL DEPTH
 BHT .F                       80.0000:        BOTTOM HOLE TEMPERATURE
 BS  .                        12.2500:        BIT SIZE
 FD  .                         9.9000:        FLUID DENSITY
 CSIZ.                        13.3750:        CASING SIZE
 CBD .F                      100.0000:        CASING DRILLER 1
 CBL .F                      106.0000:        CASING LOGGER 1
 DFT .                             99:        TYPE FLUID IN HOLE
 DFV .                        45.0000:        VISCOSITY
 DFPH.                         8.0000:        PH
 DFL .                        23.0000:        FLUID LOSS
 RMS .                         5.9200:        RM
 MST .F                       58.0000:        RM MEAS. TEMP.
 RMF .                         6.2200:        RMF
 MFST.F                       57.0000:        RMF MEAS. TEMP.
 RMC .                         7.0500:        RMC
 MCST.F                       57.0000:        RMC MEAS. TEMP.
~OTHER INFORMATION
~A    DEPTH          GR        CALI        RHOB        DRHO        NPHI          DT          SP         ILD         ILM         LL8         SFL 
# ...
  1053.0000     84.9125     13.7334      2.5056      0.0487     31.0404    105.2995    -59.0522     15.0737     12.0666     18.7017   -999.2500 
  1053.5000     85.1077     13.8631      2.5182      0.0522     31.2203    104.0411    -59.9031     15.5258     12.2346     17.7570   -999.2500 
  1054.0000     85.3030     13.9739      2.5278      0.0676     32.1829    103.9622    -61.9860     16.0023     12.5745     16.9099   -999.2500 
  1054.5000     85.7783     13.9072      2.5353      0.0684     33.4092    104.6984    -62.5971     16.1861     12.9772     17.5171   -999.2500 
  1055.0000     86.3605     14.0303      2.5210      0.0501     34.7547    105.0969    -62.3718     16.1425     13.1826     17.9655   -999.2500 
  1055.5000     86.9427     14.1065      2.4969      0.0289     33.7794    105.5799    -61.9722     16.0414     13.0614     17.7362   -999.2500 
  1056.0000     87.6263     13.8407      2.4810      0.0182     34.1999    105.9827    -61.9136     15.9409     12.9524     16.8895   -999.2500 
  1056.5000     88.3275     13.9020      2.4804      0.0255     34.8373    105.1308    -62.0023     15.7540     12.8342     16.2067   -999.2500 
  1057.0000     88.2702     13.9612      2.4774      0.0285     34.6956    106.3727    -61.6629     15.3552     12.7646     16.0893   -999.2500 
  1057.5000     87.9979     13.8377      2.4694      0.0179     34.2989    107.9751    -61.2758     15.1111     12.5829     16.8943   -999.2500 
  1058.0000     87.7255     13.7684      2.4666      0.0153     33.7373    109.1619    -61.6016     14.8962     12.1941     16.4330   -999.2500 
  1058.5000     87.4531     13.8056      2.4638      0.0127     33.3638    110.7887    -61.8098     14.6844     11.7399     15.9880   -999.2500 
  1059.0000     87.8088     13.7953      2.4628      0.0112     32.9411    111.7124    -62.6896     14.4756     11.3787     15.5579   -999.2500 
  1059.5000     88.5304     13.7510      2.4622      0.0092     31.4802    111.7495    -64.0562     14.2814     11.1493     15.1394   -999.2500 
  1060.0000     89.2521     13.6911      2.4606      0.0084     31.5177    110.4872    -65.8097     14.1295     11.0757     14.7748   -999.2500 
  1060.5000     90.2394     13.6516      2.4578      0.0078     31.5552    107.6114    -66.2786     14.0235     11.6031     15.3489   -999.2500 
  1061.0000     91.4001     13.8751      2.4682      0.0108     31.2452    104.7880    -66.0243     14.1549     11.7924     16.0886   -999.2500 
  1061.5000     92.5505     13.8843      2.4976      0.0183     30.8571    104.6597    -65.9667     14.3445     11.8424     17.2091   -999.2500 
  1062.0000     92.8116     13.8809      2.4952      0.0280     31.0941    105.5938    -66.7546     14.5789     11.8386     16.3241   -999.2500 
  1062.5000     91.0907     13.9742      2.5018      0.0393     31.5799    107.0460    -67.6799     14.8172     11.9143     15.4527   -999.2500 
  1063.0000     89.9333     13.9508      2.4981      0.0275     31.5601    107.9801    -67.6746     15.0594     12.1711     15.4161   -999.2500 
  1063.5000     90.6039     13.9268      2.4928      0.0246     30.7897    107.8350    -66.6262     15.2209     12.3591     15.8190   -999.2500 
  1064.0000     91.6736     13.8420      2.4868      0.0303     30.9400    106.9439    -65.7003     15.3794     12.3310     16.0867   -999.2500 
  1064.5000     92.8344     13.8485      2.4617      0.0156     31.1001    105.9524    -64.8980     15.5377     12.5045     15.9634   -999.2500 
  1065.0000     92.3937     13.9155      2.4930      0.0368     31.4624    105.0376    -64.1423     15.6820     12.7581     16.0262   -999.2500 
  1065.5000     92.5965     13.8403      2.5345      0.0621     31.8811    102.9615    -62.9475     15.8276     12.8889     17.5649   -999.2500 
  1066.0000     93.9890     13.8587      2.5258      0.0536     31.7255    103.4509    -63.0649     15.9746     12.9093     17.6737   -999.2500 
  1066.5000     93.3421     14.0524      2.5137      0.0417     31.1181    104.6496    -63.2079     16.0964     12.9325     17.0074   -999.2500 
  1067.0000     90.7859     14.1266      2.5290      0.0609     30.2440    105.2095    -63.0148     16.0290     13.0397     16.8395   -999.2500 
  1067.5000     89.3978     13.9542      2.5378      0.0700     29.4302    105.6014    -62.8590     15.9620     13.1087     17.1127   -999.2500 
  1068.0000     90.2446     14.0858      2.4986      0.0303     30.1938    105.4683    -63.1019     15.8951     13.1093     17.3027   -999.2500 
  1068.5000     90.8519     14.2631      2.4829      0.0169     31.1707    105.0548    -63.3932     15.8286     13.0656     17.1462   -999.2500 
  1069.0000     91.4496     14.0755      2.4824      0.0218     32.3296    104.6424    -63.2520     15.7624     13.1238     16.8521   -999.2500 
  1069.5000     92.5189     13.8074      2.4838      0.0327     31.9832    104.1565    -63.2253     15.5939     13.0524     16.8859   -999.2500 
  1070.0000     93.7404     13.7469      2.4731      0.0256     31.8751    104.7080    -63.4489     15.4105     12.9102     16.9345   -999.2500 
  1070.5000     93.8765     13.6319      2.4677      0.0326     33.2575    107.0707    -63.6382     15.2293     12.5927     16.7189   -999.2500 
  1071.0000     92.9197     13.7046      2.4608      0.0385     34.5375    110.6921    -64.0096     15.0502     12.2495     16.1194   -999.2500 
  1071.5000     90.5642     13.6951      2.4511      0.0460     35.0998    113.7808    -64.8796     14.8732     11.8005     15.5414   -999.2500 
  1072.0000     88.1450     13.9281      2.4422      0.0481     35.3350    114.4951    -66.3498     14.2194     11.5054     14.9841   -999.2500 
  1072.5000     87.2133     13.8300      2.4387      0.0473     35.5792    114.0907    -67.6062     13.5335     11.3412     14.6148   -999.2500 
  1073.0000     86.8155     13.5320      2.4298      0.0303     35.8507    112.5368    -68.3889     13.5500     11.4273     14.5416   -999.2500 
  1073.5000     86.6964     13.7472      2.4692      0.0456     36.0539    110.8756    -67.1223     13.6456     11.4509     14.5199   -999.2500 
  1074.0000     87.1315     13.7498      2.4905      0.0500     36.6420    110.4937    -66.2355     13.9320     11.3481     14.6335   -999.2500 
  1074.5000     87.5665     13.8564      2.4713      0.0461     35.6345    113.2726    -65.6754     14.0773     11.1903     14.4951   -999.2500 
  1075.0000     89.0803     13.9051      2.4680      0.0474     34.7116    117.4844    -66.3938     14.0051     11.0511     14.2095   -999.2500 
  1075.5000     91.4566     14.4475      2.4912      0.0723     32.9639    120.3692    -67.1281     14.0029     10.9819     13.9650   -999.2500 
  1076.0000     91.0511     14.0040      2.4709      0.0623     32.3771    119.6151    -67.8409     14.0165     11.0740     13.9044   -999.2500 
  1076.5000     90.3250     13.9845      2.4549      0.0503     33.1419    116.5924    -68.5520     14.1961     11.2121     13.9912   -999.2500 
  1077.0000     92.1845     14.0361      2.4476      0.0282     33.7314    114.1677    -68.1624     14.4300     11.3522     14.1546   -999.2500 
  1077.5000     93.6862     13.6958      2.4563      0.0287     34.0397    111.1220    -66.9238     14.7706     11.5077     14.5931   -999.2500 
  1078.0000     94.0607     13.5719      2.4784      0.0444     34.4386    108.3296    -66.3037     14.9138     11.6525     14.8773   -999.2500 
  1078.5000     94.0325     13.4820      2.4981      0.0639     34.5618    109.5349    -65.1106     14.8071     11.7395     15.0893   -999.2500 
  1079.0000     93.7542     13.4129      2.5022      0.0687     34.1673    111.0495    -64.1559     14.5752     11.6098     15.1885   -999.2500 
  1079.5000     93.1824     13.3747      2.5001      0.0605     34.6025    112.5096    -63.9550     14.1622     11.3498     14.9017   -999.2500 
  1080.0000     93.8365     13.3623      2.4641      0.0279     35.0742    114.5070    -64.3313     13.7063     10.6971     14.0557   -999.2500 
  1080.5000     95.9409     13.3553      2.4870      0.0561     35.0585    115.8599    -64.7552     13.1675     10.5241     13.3189   -999.2500 
