~VERSION INFORMATION
 VERS.                           2.00:        CWLS LOG ASCII STANDARD - VERSION 2.00
 WRAP.                             NO:        ONE LINE PER DEPTH STEP
~WELL INFORMATION
#MNEM.UNIT                   DATA             INFORMATION
#----------             --------------        ------------------------------
 STRT.F                     1260.0000:        START DEPTH
 STOP.F                     2340.0000:        STOP DEPTH
 STEP.F                        0.5000:        STEP VALUE
 NULL.                      -999.2500:        NULL VALUE
 COMP.        U.S.NAVY DEEPT NP & OSR:        COMPANY  
 LOC .                  144  22N 18W UPM:        LOCATION   
 DATE.                        2/24/74:        LOG DATE 
 WELL.               SOUTH BARROW #11:        WELL     
 UWI .                    50023200500:        UNIQUE WELL ID 
 API .                    50023200500:        UNIQUE WELL IDENTIFIER 
 FLD .                   SOUTH BARROW:        FIELD    
 CNTY.                          NPR-4:        COUNTY  
 STAT.                         ALASKA:        STATE   
 CTRY.                            USA:        COUNTRY 
 OPER.        U.S.NAVY DEEPT NP & OSR:        OPERATOR  
 SRVC.                   SCHLUMBERGER:        SERVICE COMPANY 
 LAT .                         0.0000:        LATITUDE
 LON .                         0.0000:        LONGITUDE
 DIGS.               CENTER LINE DATA:        DIGITIZING COMPANY 
~CURVE INFORMATION      
#MNEM        .UNIT         API CODE           CURVE DESCRIPTION
#-----------------      --------------        ------------------------------
 DEPT        .F                      :        1  DEPTH
 CALI        .IN                     :        2  
 GR          .GAPI                   :        3  
 RHOB        .G/C3                   :        4  
 NPHI        .%                      :        5  
 DPHI        .%                      :        6  
 SP          .MV                     :        7  
 LL8         .OHMM                   :        8  
 ILD         .OHMM                   :        9  
 CILD        .MMHO                   :        10 
 DT          .US/F                   :        11 
~PARAMETER INFORMATION       
#MNEM.UNIT                  VALUE             DESCRIPTION OF MNEMONIC
#---------             ---------------        ------------------------------
 EKB .F                       36.0000:        KELLY BUSHING
 TD  .F                     2350.0000:        TOTAL DEPTH
 BHT .F                       60.0000:        BOTTOM HOLE TEMPERATURE
 BS  .                         9.6250:        BIT SIZE
 FD  .                        10.8000:        FLUID DENSITY
 CSIZ.                        10.7500:        CASING SIZE
 CBD .F                     1267.0000:        CASING DRILLER 1
 CBL .F                     1267.0000:        CASING LOGGER 1
 DFT .      Salt Water-Lignosulfonate:        TYPE FLUID IN HOLE
 DFV .                        52.0000:        VISCOSITY
 DFPH.                         9.0000:        PH
 DFL .                         4.2000:        FLUID LOSS
 RMS .                         1.8800:        RM
 MST .F                       50.0000:        RM MEAS. TEMP.
 RMF .                         1.1500:        RMF
 MFST.F                       63.0000:        RMF MEAS. TEMP.
 RMC .                         1.5000:        RMC
 MCST.F                       50.0000:        RMC MEAS. TEMP.
~OTHER INFORMATION
~A    DEPTH        CALI          GR        RHOB        NPHI        DPHI          SP         LL8         ILD        CILD          DT  
# ...
  1800.0000     10.2222    182.9790      2.3116     49.1396     20.5462    -20.0123      7.9332      6.2874    152.7927    120.1831  
  1800.5000     10.2084    180.6134      2.3323     48.8179     20.0102    -20.0658      8.1591      6.3289    151.4232    122.2869  
  1801.0000     10.1187    176.5314      2.3511     47.6958     18.8450    -20.4258      8.3889      6.4940    147.5496    123.7626  
  1801.5000     10.0412    164.5000      2.3609     44.9246     17.5881    -20.7990      8.7803      6.9345    141.6951    122.3064  
  1802.0000      9.9700    146.1139      2.3420     42.8521     18.4125    -21.3388      9.2236      7.3887    133.4498    120.3038  
  1802.5000     10.2074    125.4261      2.3251     40.5577     19.6043    -21.9542      9.7275      7.7142    127.1358    119.2250  
  1803.0000     11.0080    105.5007      2.3160     37.1543     19.8784    -22.1049     10.0210      8.0727    121.2710    118.5349  
  1803.5000     11.7431     97.8315      2.3025     33.0428     20.5602    -21.9264     10.2343      8.5708    115.9413    116.5400  
  1804.0000     10.8360     99.2317      2.2688     32.9071     23.3723    -21.6273     10.3516      8.8921    111.2118    112.3618  
  1804.5000     10.6505    102.3243      2.2313     35.3715     24.9315    -21.4426     10.1821      9.0940    108.7827    108.8003  
  1805.0000     10.6924    104.9665      2.2112     37.1714     26.1293    -21.2643     10.0125      9.2154    108.3761    105.9079  
  1805.5000     10.7787    106.3970      2.2348     37.8449     26.3194    -21.2640      9.8719      9.1370    108.8438    104.5836  
  1806.0000     10.7886    105.7489      2.2698     37.9267     24.3329    -21.6825      9.7518      9.0585    109.3493    104.6332  
  1806.5000     10.6678    105.0290      2.2940     37.5479     22.4408    -22.0381      9.6317      8.9800    109.6358    105.0765  
  1807.0000     10.7083    106.2134      2.3038     36.6932     21.0850    -22.1427      9.5527      8.9015    110.5091    105.9135  
  1807.5000     10.7134    104.7506      2.3138     36.6448     20.8389    -22.0565      9.5534      8.8231    110.8286    107.0523  
  1808.0000     10.7809    102.9912      2.3061     36.4102     20.7656    -21.8876      9.5541      8.8979    110.4080    107.7708  
  1808.5000     11.5683    100.2067      2.3000     35.7735     20.8303    -21.5852      9.5548      9.0350    109.4798    106.7972  
  1809.0000     10.9940     96.1002      2.2959     35.8046     21.0955    -20.9573      9.6239      9.1720    107.9875    105.7700  
  1809.5000     10.8071     91.5139      2.2753     36.0521     21.4257    -20.8480      9.7390      9.3091    107.5278    106.8967  
  1810.0000     11.4107     90.5536      2.2510     36.2040     23.2106    -20.7473      9.8391      9.4653    106.7386    106.9771  
  1810.5000     11.7155     89.8094      2.2351     35.9329     24.0076    -20.6879      9.8958      9.6243    103.9303    106.8915  
  1811.0000     11.8524     88.8989      2.2285     36.0496     25.3295    -20.6995      9.9736      9.6995    102.8447    106.3838  
  1811.5000     11.9721     88.1597      2.2305     36.7946     25.4680    -20.7249     10.0554      9.7709    102.2171    104.8289  
  1812.0000     11.7948     88.0629      2.2350     38.0953     25.1104    -20.7839      9.9875      9.8729    102.0206    103.6713  
  1812.5000     11.9678     88.1344      2.2335     38.7089     25.1736    -20.8198      9.9900      9.9169    101.9269    103.8799  
  1813.0000     11.9165     88.0327      2.2152     38.9609     25.8114    -20.8854     10.0111      9.8824    101.9352    104.2309  
  1813.5000     11.8835     88.3359      2.2090     39.2468     26.6916    -21.3811      9.9395      9.8479    101.6970    104.7628  
  1814.0000     11.8241     90.5537      2.2232     39.6018     26.2555    -21.5266      9.9114      9.8134    101.2720    105.7016  
  1814.5000     11.8746     90.2525      2.2322     39.5008     25.4265    -21.6134      9.9538      9.7789    100.7332    103.5067  
  1815.0000     11.8410     88.7890      2.2344     38.9147     25.2194    -21.5510     10.0311      9.7967    100.5464    103.3288  
  1815.5000     11.6473     87.0203      2.2260     38.2110     26.8398    -21.4110     10.1676      9.8667    100.7757    104.2631  
  1816.0000     11.5273     86.4174      2.1940     37.3379     27.9575    -21.4077     10.1994      9.9367    100.6512    105.5292  
  1816.5000     11.1745     87.3401      2.1929     36.6761     28.2401    -21.5151     10.2629     10.0067    100.1208    105.3846  
  1817.0000     11.0718     88.8897      2.2411     36.3800     25.2053    -21.6737     10.2999     10.0768     99.5798    104.8787  
  1817.5000     11.4296     89.6348      2.2752     36.3201     23.2403    -21.7241     10.3067     10.1468     99.1084    103.5896  
  1818.0000     11.3312     89.2594      2.2800     36.3726     22.3808    -21.5849     10.3062     10.2168     98.9014    102.2603  
  1818.5000     11.3900     89.1040      2.2672     36.4368     23.2696    -21.3163     10.3193     10.2178     98.2041    102.8445  
  1819.0000     11.4431     88.9399      2.2490     36.6082     24.1276    -21.0176     10.3475     10.2153     97.6560    103.4699  
  1819.5000     11.4365     88.8019      2.2462     36.9960     24.3515    -20.8931     10.4090     10.2776     97.1480    104.0879  
  1820.0000     11.4156     88.6361      2.2414     36.8382     24.8214    -21.2136     10.5267     10.3651     96.6740    104.6067  
  1820.5000     11.4090     88.5091      2.2233     36.6018     26.0275    -21.7463     10.6210     10.4544     96.0374    105.2012  
  1821.0000     11.5494     88.1748      2.2110     36.0830     26.6312    -22.0580     10.7121     10.5438     95.0652    105.2521  
  1821.5000     11.7553     88.2188      2.2062     35.5083     26.8607    -22.2479     10.8444     10.6332     94.6389    104.6680  
  1822.0000     11.9263     88.3969      2.2032     35.0504     27.2208    -22.5260     11.0361     10.6876     93.1732    103.0598  
  1822.5000     11.7347     88.6589      2.2070     35.3035     26.9817    -22.8115     11.0913     10.7194     92.2024    101.9339  
  1823.0000     11.3170     89.3808      2.2110     35.9531     26.6750    -22.9981     11.1003     10.7108     92.6048    101.6252  
  1823.5000     11.3305     89.9034      2.2232     36.8106     26.1058    -22.9486     11.0017     10.6324     92.9624    101.9103  
  1824.0000     11.3616     89.1699      2.2348     37.3357     25.5678    -22.6359     10.8335     10.5286     93.8280    102.5893  
  1824.5000     11.3311     87.9922      2.2457     37.6464     24.8094    -22.3710     10.5988     10.3614     95.6158    102.8456  
  1825.0000     11.3930     87.0195      2.2477     38.1850     24.5525    -22.1720     10.5385     10.2667     97.1384    102.7945  
  1825.5000     11.6530     86.3721      2.2272     38.6535     25.6624    -21.7796     10.4894     10.1853     98.2697    102.8456  
  1826.0000     11.9176     87.3212      2.2022     38.9611     26.7020    -21.4751     10.4170     10.1038     98.7709    103.3262  
  1826.5000     12.2089     89.2112      2.2041     38.9876     27.0836    -21.3130     10.3672     10.0224     98.9923    103.5453  
  1827.0000     12.1975     91.5095      2.2287     39.0049     26.5044    -21.1777     10.3897     10.0667     98.4716    103.6154  
  1827.5000     11.9808     91.0940      2.2454     39.1977     25.1493    -21.3617     10.4827     10.1346     97.6592    103.8987  
  1828.0000     11.4895     89.2212      2.2505     39.3548     24.4993    -21.4979     10.6675     10.3435     95.8292    103.9421  
  1828.5000     10.9991     86.1781      2.2534     39.5343     24.0107    -21.5227     10.9307     10.6359     94.8270    103.9758  
  1829.0000     10.6463     85.3050      2.2999     38.7627     23.0040    -21.4454     11.1546     10.9013     94.1692    104.0289  
  1829.5000     10.3144     85.2719      2.3743     37.7326     20.5495    -21.3434     11.3653     11.0430     92.5540    103.8360  
