~VERSION INFORMATION
 VERS.                           2.00:        CWLS LOG ASCII STANDARD - VERSION 2.00
 WRAP.                             NO:        ONE LINE PER DEPTH STEP
~WELL INFORMATION
#MNEM.UNIT                   DATA             INFORMATION
#----------             --------------        ------------------------------
 STRT.F                       96.0000:        START DEPTH
 STOP.F                     2280.0000:        STOP DEPTH
 STEP.F                        0.5000:        STEP VALUE
 NULL.                      -999.2500:        NULL VALUE
 COMP.    USGS/NPR HUSKY OIL OPERATOR:        COMPANY  
 LOC .                   23  22N  17W:        LOCATION   
 DATE.                        9/11/80:        LOG DATE 
 WELL.               SOUTH BARROW #15:        WELL     
 UWI .                   500232001600:        UNIQUE WELL ID 
 API .                   500232001600:        UNIQUE WELL IDENTIFIER 
 FLD .                   SOUTH BARROW:        FIELD    
 CNTY.                    NORTH SLOPE:        COUNTY  
 STAT.                         ALASKA:        STATE   
 CTRY.                            USA:        COUNTRY 
 OPER.    USGS/NPR HUSKY OIL OPERATOR:        OPERATOR  
 SRVC.                   SCHLUMBERGER:        SERVICE COMPANY 
 LAT .                         0.0000:        LATITUDE
 LON .                         0.0000:        LONGITUDE
 DIGS.               CENTER LINE DATA:        DIGITIZING COMPANY 
~CURVE INFORMATION      
#MNEM        .UNIT         API CODE           CURVE DESCRIPTION
#-----------------      --------------        ------------------------------
 DEPT        .F                      :        1  DEPTH
 CALI        .IN                     :        2  
 GR          .GAPI                   :        3  
 RHOB        .G/C3                   :        4  
 DRHO        .G/C3                   :        5  
 NPHI        .%                      :        6  
 DT          .US/F                   :        7  
 SP          .MV                     :        8  
 ILD         .OHMM                   :        9  
 ILM         .OHMM                   :        10 
 SFL         .OHMM                   :        11 
 LLD         .OHMM                   :        12 
 LLS         .OHMM                   :        13 
 MSFL        .OHMM                   :        14 
~PARAMETER INFORMATION       
#MNEM.UNIT                  VALUE             DESCRIPTION OF MNEMONIC
#---------             ---------------        ------------------------------
 EKB .F                       30.0000:        KELLY BUSHING
 TD  .F                     2279.0000:        TOTAL DEPTH
 BHT .F                        0.0000:        BOTTOM HOLE TEMPERATURE
 BS  .                         8.5000:        BIT SIZE
 FD  .                        10.3000:        FLUID DENSITY
 CSIZ.                         9.6250:        CASING SIZE
 CBD .F                     1514.0000:        CASING DRILLER 1
 CBL .F                     1520.0000:        CASING LOGGER 1
 DFT .                  Miscellaneous:        TYPE FLUID IN HOLE
 DFV .                        43.0000:        VISCOSITY
 DFPH.                         0.0000:        PH
 DFL .                         0.0000:        FLUID LOSS
 RMS .                         0.1800:        RM
 MST .F                       48.0000:        RM MEAS. TEMP.
 RMF .                         0.1400:        RMF
 MFST.F                       48.0000:        RMF MEAS. TEMP.
 RMC .                         0.0000:        RMC
 MCST.F                        0.0000:        RMC MEAS. TEMP.
~OTHER INFORMATION
~A    DEPTH        CALI          GR        RHOB        DRHO        NPHI          DT          SP         ILD         ILM         SFL         LLD         LLS        MSFL  
# ...
  1656.0000     13.0550     93.8291      2.2269      0.0068     39.7687    107.0940   -999.2500   -999.2500   -999.2500   -999.2500      9.0576      7.8436      4.5682  
  1656.5000     13.5314     93.7383      2.2674      0.0151     37.6927    108.1135   -999.2500   -999.2500   -999.2500   -999.2500      9.6280      8.2716      5.0981  
  1657.0000     13.0530     91.3261      2.2932      0.0152     36.2175    109.5548   -999.2500   -999.2500   -999.2500   -999.2500     10.3296      8.7318      6.1066  
  1657.5000     12.4897     90.3748      2.3066      0.0222     35.4370    110.4898   -999.2500   -999.2500   -999.2500   -999.2500     11.1102      8.9413      6.2337  
  1658.0000     12.1019     89.7258      2.3356      0.0657     36.1088    109.3825   -999.2500   -999.2500   -999.2500   -999.2500     11.1193      8.9525      4.9431  
  1658.5000     12.3780     89.1675      2.3559      0.1107     36.7283    108.4632   -999.2500   -999.2500   -999.2500   -999.2500     10.7511      8.9690      5.0917  
  1659.0000     12.6170     88.7664      2.3399      0.1440     36.6610    106.8063   -999.2500   -999.2500   -999.2500   -999.2500     10.4120      8.9971      5.4952  
  1659.5000     11.2209     88.3403      2.3084      0.1420     35.8936    104.7106   -999.2500   -999.2500   -999.2500   -999.2500     10.5996      9.0097      5.5957  
  1660.0000     10.7020     86.5057      2.2951      0.1185     35.8577    106.7172   -999.2500   -999.2500   -999.2500   -999.2500     10.3292      8.9680      5.4726  
  1660.5000     11.0528     84.6678      2.2948      0.0947     36.8274    112.3684   -999.2500   -999.2500   -999.2500   -999.2500     10.2350      8.7348      5.5317  
  1661.0000     11.2735     84.2474      2.2962      0.0952     38.4725    110.9769   -999.2500   -999.2500   -999.2500   -999.2500     10.3063      8.6720      5.8222  
  1661.5000     11.9917     83.9959      2.2879      0.1152     40.1004    110.4651   -999.2500   -999.2500   -999.2500   -999.2500     10.1893      8.6622      6.6456  
  1662.0000     12.6009     82.4690      2.2711      0.1025     39.3047    109.1376   -999.2500   -999.2500   -999.2500   -999.2500      9.8040      8.8961      7.7928  
  1662.5000     11.7554     80.4719      2.2581      0.0764     38.4290    110.6154   -999.2500   -999.2500   -999.2500   -999.2500      9.9996      9.6508      8.9359  
  1663.0000     11.3646     74.4215      2.2709      0.0752     37.9030    109.1791   -999.2500   -999.2500   -999.2500   -999.2500     11.7979     12.6199     10.7638  
  1663.5000     11.2348     66.3735      2.2939      0.1186     36.2549    106.4100   -999.2500   -999.2500   -999.2500   -999.2500     14.2187     17.0108     14.4672  
  1664.0000     11.4779     60.0205      2.3127      0.0841     33.9737    104.8924   -999.2500   -999.2500   -999.2500   -999.2500     20.5557     22.9295     16.0703  
  1664.5000     11.5009     56.0484      2.3254      0.0153     31.7799    107.6613   -999.2500   -999.2500   -999.2500   -999.2500     32.9071     30.9075     15.6621  
  1665.0000     10.4881     52.8229      2.3564     -0.0118     30.0454    109.1246   -999.2500   -999.2500   -999.2500   -999.2500     46.7196     34.3194     14.1502  
  1665.5000      9.6050     51.2087      2.3865      0.0002     28.4479    106.9905   -999.2500   -999.2500   -999.2500   -999.2500     45.8455     34.1376     13.2343  
  1666.0000      9.5227     52.7605      2.3675      0.0082     27.6475    105.6625   -999.2500   -999.2500   -999.2500   -999.2500     40.8493     29.4190     12.1482  
  1666.5000      9.7210     56.4775      2.3472      0.0056     27.9152    109.4070   -999.2500   -999.2500   -999.2500   -999.2500     30.7792     23.0628     10.5566  
  1667.0000      9.6005     60.9819      2.3277     -0.0006     29.9382    111.7012   -999.2500   -999.2500   -999.2500   -999.2500     17.5099     16.7155      8.0742  
  1667.5000      9.4560     67.7727      2.2998     -0.0050     33.0664    112.8306   -999.2500   -999.2500   -999.2500   -999.2500     13.1113     12.1014      5.3826  
  1668.0000      9.4542     75.2744      2.2953      0.0067     37.4528    110.3917   -999.2500   -999.2500   -999.2500   -999.2500     10.9690     10.0731      3.3429  
  1668.5000      9.5453     80.5220      2.3018      0.0467     39.8623    108.3349   -999.2500   -999.2500   -999.2500   -999.2500      8.9280      8.5297      2.1923  
  1669.0000     10.4610     84.1586      2.3085      0.0816     40.9320    109.4285   -999.2500   -999.2500   -999.2500   -999.2500      8.8552      7.6852      1.9373  
  1669.5000     11.1752     84.6300      2.2751      0.0574     40.2357    107.1139   -999.2500   -999.2500   -999.2500   -999.2500      8.8733      7.9925      2.5616  
  1670.0000     10.9402     82.3301      2.2826      0.0689     40.0597    107.5972   -999.2500   -999.2500   -999.2500   -999.2500      9.2082      8.7785      7.3131  
  1670.5000     11.1864     80.2111      2.3263      0.0996     40.1719    108.8345   -999.2500   -999.2500   -999.2500   -999.2500      9.6798      9.4978     23.9770  
  1671.0000     11.7846     79.8998      2.2913      0.0429     39.7007    109.4205   -999.2500   -999.2500   -999.2500   -999.2500     10.0445      9.5506     13.1565  
  1671.5000     12.0561     80.9756      2.2971      0.0449     39.2852    113.1794   -999.2500   -999.2500   -999.2500   -999.2500      9.8487      9.2257      5.1570  
  1672.0000     12.3900     83.8112      2.3413      0.1033     38.3633    117.5907   -999.2500   -999.2500   -999.2500   -999.2500      9.4629      8.5833      3.8174  
  1672.5000     11.4563     87.2881      2.3107      0.1376     37.9404    119.2504   -999.2500   -999.2500   -999.2500   -999.2500      8.8457      8.0586      3.2825  
  1673.0000     10.9720     89.1070      2.2708      0.1170     37.6375    119.3366   -999.2500   -999.2500   -999.2500   -999.2500      8.8510      7.7106      2.4446  
  1673.5000     11.5049     89.5021      2.2812      0.1115     38.1982    121.9876   -999.2500   -999.2500   -999.2500   -999.2500      9.0509      7.6127      2.5895  
  1674.0000     12.3123     89.4517      2.3037      0.1371     39.2546    112.7447   -999.2500   -999.2500   -999.2500   -999.2500      9.2726      7.5931      3.9789  
  1674.5000     12.9702     89.6296      2.2921      0.1537     40.0013    111.4256   -999.2500   -999.2500   -999.2500   -999.2500      9.4997      7.8339      5.5906  
  1675.0000     13.5163     89.9917      2.2640      0.1756     40.7298    111.9250   -999.2500   -999.2500   -999.2500   -999.2500      9.7283      8.2323      6.7035  
  1675.5000     13.2249     89.3129      2.2657      0.1551     41.4583    109.0701   -999.2500   -999.2500   -999.2500   -999.2500     10.3848      9.0876      7.9591  
  1676.0000     12.3619     87.3392      2.2853      0.1300     41.7328    104.1388   -999.2500   -999.2500   -999.2500   -999.2500     11.4744      9.6960      9.3653  
  1676.5000     11.5552     89.2411      2.3073      0.1149     38.1860    100.5070   -999.2500   -999.2500   -999.2500   -999.2500     12.8600      9.8247      9.6834  
  1677.0000     11.2180     90.4623      2.3330      0.0994     36.0646     99.5151   -999.2500   -999.2500   -999.2500   -999.2500     12.3182      9.7903      9.5547  
  1677.5000     10.9709     90.5820      2.3658      0.0836     34.9335    105.4242   -999.2500   -999.2500   -999.2500   -999.2500     11.0137      9.0531      8.2045  
  1678.0000     10.0040     90.9102      2.4329      0.1152     34.9303    111.6582   -999.2500   -999.2500   -999.2500   -999.2500      9.8473      7.8588      6.9747  
  1678.5000      9.3420     91.4968      2.4443      0.1395     35.2211    118.7298   -999.2500   -999.2500   -999.2500   -999.2500      9.1651      7.1373      6.0527  
  1679.0000     10.7847     91.0237      2.3946      0.1376     36.6432    115.3464   -999.2500   -999.2500   -999.2500   -999.2500      8.8978      7.1223      6.1239  
  1679.5000     11.2635     89.8134      2.3395      0.1304     37.7413    113.1024   -999.2500   -999.2500   -999.2500   -999.2500      8.7723      7.3815      6.9100  
