~VERSION INFORMATION
 VERS.                           2.00:        CWLS LOG ASCII STANDARD - VERSION 2.00
 WRAP.                             NO:        ONE LINE PER DEPTH STEP
~WELL INFORMATION
#MNEM.UNIT                   DATA             INFORMATION
#----------             --------------        ------------------------------
 STRT.F                      990.0000:        START DEPTH
 STOP.F                     2362.0000:        STOP DEPTH
 STEP.F                        0.5000:        STEP VALUE
 NULL.                      -999.2500:        NULL VALUE
 COMP.                 U.S. AIR FORCE:        COMPANY  
 LOC .                   14  22N  18W:        LOCATION   
 DATE.                        4/21/69:        LOG DATE 
 WELL.       SOUTH BARROW GAS WELL #8:        WELL     
 UWI .                   500232000200:        UNIQUE WELL ID 
 API .                   500232000200:        UNIQUE WELL IDENTIFIER 
 FLD .                S. B. GAS FIELD:        FIELD    
 CNTY.                   POINT BARROW:        COUNTY  
 STAT.                         ALASKA:        STATE   
 CTRY.                            USA:        COUNTRY 
 OPER.                 U.S. AIR FORCE:        OPERATOR  
 SRVC.                   SCHLUMBERGER:        SERVICE COMPANY 
 LAT .                         0.0000:        LATITUDE
 LON .                         0.0000:        LONGITUDE
 DIGS.               CENTER LINE DATA:        DIGITIZING COMPANY 
~CURVE INFORMATION      
#MNEM        .UNIT         API CODE           CURVE DESCRIPTION
#-----------------      --------------        ------------------------------
 DEPT        .F                      :        1  DEPTH
 SP          .MV                     :        2  
 ASN         .OHMM                   :        3  
 ILD         .OHMM                   :        4  
 CILD        .MMHO                   :        5  
 CALI        .IN                     :        6  
 DT          .US/F                   :        7  
~PARAMETER INFORMATION       
#MNEM.UNIT                  VALUE             DESCRIPTION OF MNEMONIC
#---------             ---------------        ------------------------------
 EKB .F                       31.0000:        KELLY BUSHING
 TD  .F                     2363.0000:        TOTAL DEPTH
 BHT .F                       74.0000:        BOTTOM HOLE TEMPERATURE
 BS  .                         8.6250:        BIT SIZE
 FD  .                        10.6000:        FLUID DENSITY
 CSIZ.                         9.6250:        CASING SIZE
 CBD .F                      992.0000:        CASING DRILLER 1
 CBL .F                      990.0000:        CASING LOGGER 1
 DFT .                            Gel:        TYPE FLUID IN HOLE
 DFV .                        54.0000:        VISCOSITY
 DFPH.                        10.0000:        PH
 DFL .                         4.8000:        FLUID LOSS
 RMS .                         2.0000:        RM
 MST .F                       82.0000:        RM MEAS. TEMP.
 RMF .                         2.1800:        RMF
 MFST.F                       61.0000:        RMF MEAS. TEMP.
 RMC .                         4.1900:        RMC
 MCST.F                       53.0000:        RMC MEAS. TEMP.
~OTHER INFORMATION
~A    DEPTH          SP         ASN         ILD        CILD        CALI          DT  
# ...
  1789.0000    -36.2420     12.0149     11.9409     83.4982   -999.2500   -999.2500  
  1789.5000    -36.6449     11.1115     11.2883     88.0697   -999.2500   -999.2500  
  1790.0000    -36.6126     10.4322     10.8503     93.0971   -999.2500   -999.2500  
  1790.5000    -36.3008     10.2325     10.4123     97.6525   -999.2500   -999.2500  
  1791.0000    -35.9436     10.2525     10.1106    100.5304   -999.2500   -999.2500  
  1791.5000    -35.3536     10.1425     10.1191    102.1514   -999.2500   -999.2500  
  1792.0000    -34.9861     10.0071     10.1277    103.0019   -999.2500   -999.2500  
  1792.5000    -34.9316      9.9795     10.1362    102.5273   -999.2500   -999.2500  
  1793.0000    -35.1752     10.0271     10.1447    102.0528   -999.2500   -999.2500  
  1793.5000    -35.2719     10.0674     10.1532    102.1201   -999.2500   -999.2500  
  1794.0000    -35.6202     10.1236     10.1617    102.0827   -999.2500   -999.2500  
  1794.5000    -35.6228     10.2271     10.1859    101.5214   -999.2500   -999.2500  
  1795.0000    -35.7248     10.3133     10.3173    100.0778   -999.2500   -999.2500  
  1795.5000    -35.8088     10.3681     10.4487     98.1937   -999.2500   -999.2500  
  1796.0000    -36.0371     10.5030     10.5802     95.2052   -999.2500   -999.2500  
  1796.5000    -36.1787     10.9208     10.7116     92.5032   -999.2500   -999.2500  
  1797.0000    -35.8395     11.4845     11.1121     89.8479   -999.2500   -999.2500  
  1797.5000    -36.1818     12.3095     11.6222     87.2820   -999.2500   -999.2500  
  1798.0000    -36.3734     13.1345     12.1225     83.7700   -999.2500   -999.2500  
  1798.5000    -36.4669     13.3096     12.5820     80.1614   -999.2500   -999.2500  
  1799.0000    -37.1050     13.3757     13.0416     77.0391   -999.2500   -999.2500  
  1799.5000    -37.5437     13.4419     13.5011     74.6917   -999.2500   -999.2500  
  1800.0000    -38.0050     13.5503     13.5558     73.4638   -999.2500   -999.2500  
  1800.5000    -38.2125     13.6380     13.5615     72.5413   -999.2500   -999.2500  
  1801.0000    -37.7638     13.5794     13.5671     72.4409   -999.2500   -999.2500  
  1801.5000    -36.8245     13.5484     13.5728     72.3405   -999.2500   -999.2500  
  1802.0000    -36.5656     13.5113     13.5785     72.1855   -999.2500   -999.2500  
  1802.5000    -36.6857     13.4834     13.5842     71.9410   -999.2500   -999.2500  
  1803.0000    -36.7768     13.3917     13.5899     72.2863   -999.2500   -999.2500  
  1803.5000    -36.6393     13.3128     13.5956     72.7668   -999.2500   -999.2500  
  1804.0000    -36.5971     13.1618     13.5970     72.8541   -999.2500   -999.2500  
  1804.5000    -36.8076     13.0005     13.5822     72.8542   -999.2500   -999.2500  
  1805.0000    -37.0439     12.9509     13.5673     73.1096   -999.2500   -999.2500  
  1805.5000    -36.9291     12.9014     13.5185     73.7271   -999.2500   -999.2500  
  1806.0000    -36.3606     12.8518     13.1838     74.4405   -999.2500   -999.2500  
  1806.5000    -35.9125     12.8023     12.8491     75.3732   -999.2500   -999.2500  
  1807.0000    -36.1477     12.5062     12.5144     77.0410   -999.2500   -999.2500  
  1807.5000    -36.4405     12.2503     12.1797     79.5710   -999.2500   -999.2500  
  1808.0000    -36.8206     11.8934     11.8450     81.5944   -999.2500   -999.2500  
  1808.5000    -36.8773     11.5364     11.5103     85.6393   -999.2500   -999.2500  
  1809.0000    -36.9007     11.1551     11.2399     88.4528   -999.2500   -999.2500  
  1809.5000    -37.2450     10.8286     11.0247     91.3938   -999.2500   -999.2500  
  1810.0000    -37.2792     10.5251     10.8094     93.5174   -999.2500   -999.2500  
  1810.5000    -38.4630     10.3637     10.5942     97.0159   -999.2500   -999.2500  
  1811.0000    -38.9635     10.2331     10.3790     98.9507   -999.2500   -999.2500  
  1811.5000    -38.8949     10.0630     10.1638    100.3069   -999.2500   -999.2500  
  1812.0000    -38.3372      9.9557      9.9486    101.7835   -999.2500   -999.2500  
  1812.5000    -37.4129      9.9056      9.7334    102.5783   -999.2500   -999.2500  
  1813.0000    -37.1492      9.9567      9.6279    103.2205   -999.2500   -999.2500  
  1813.5000    -36.0206     10.0314      9.5295    104.1707   -999.2500   -999.2500  
  1814.0000    -36.0608     10.1060      9.4311    106.0773   -999.2500   -999.2500  
  1814.5000    -35.9458     10.1807      9.3327    106.0108   -999.2500   -999.2500  
  1815.0000    -35.7878     10.1518      9.3416    106.0456   -999.2500   -999.2500  
  1815.5000    -35.5766     10.0196      9.4266    106.0804   -999.2500   -999.2500  
  1816.0000    -35.0084      9.8875      9.5117    106.0480   -999.2500   -999.2500  
  1816.5000    -35.2416      9.7553      9.5968    105.1934   -999.2500   -999.2500  
  1817.0000    -35.2342      9.7908      9.6819    104.7192   -999.2500   -999.2500  
  1817.5000    -35.1352      9.8371      9.7670    104.0141   -999.2500   -999.2500  
  1818.0000    -35.4986      9.9643      9.8520    104.1389   -999.2500   -999.2500  
  1818.5000    -35.7738     10.1021      9.9371    102.5247   -999.2500   -999.2500  
  1819.0000    -36.1201     10.1967     10.0286    100.7900   -999.2500   -999.2500  
  1819.5000    -36.3586     10.2523     10.1507     98.7943   -999.2500   -999.2500  
  1820.0000    -36.3347     10.3715     10.2728     96.6972   -999.2500   -999.2500  
  1820.5000    -36.5693     10.4844     10.3949     95.8927   -999.2500   -999.2500  
  1821.0000    -37.1225     10.5751     10.5170     95.7443   -999.2500   -999.2500  
  1821.5000    -37.2866     10.6992     10.6391     94.7599   -999.2500   -999.2500  
  1822.0000    -37.0342     10.7874     10.7311     93.8164   -999.2500   -999.2500  
  1822.5000    -37.0325     10.8473     10.7788     93.0340   -999.2500   -999.2500  
  1823.0000    -37.3830     10.8807     10.8266     92.0428   -999.2500   -999.2500  
  1823.5000    -37.5351     10.8656     10.8744     91.0517   -999.2500   -999.2500  
  1824.0000    -37.4204     10.9098     10.9222     90.3036   -999.2500   -999.2500  
  1824.5000    -37.1608     11.0422     10.9699     90.2395   -999.2500   -999.2500  
  1825.0000    -36.5681     11.1846     11.0403     90.5459   -999.2500   -999.2500  
  1825.5000    -36.2914     11.1779     11.1235     90.9862   -999.2500   -999.2500  
  1826.0000    -35.8608     11.0535     10.9634     91.9379   -999.2500   -999.2500  
  1826.5000    -35.2838     10.8509     10.7417     93.4717   -999.2500   -999.2500  
  1827.0000    -34.9831     10.7919     10.5199     95.8100   -999.2500   -999.2500  
  1827.5000    -35.3298     10.7784     10.2981     96.0650   -999.2500   -999.2500  
  1828.0000    -35.6646     10.7649     10.1951     97.5438   -999.2500   -999.2500  
  1828.5000    -35.9807     10.7615     10.1397     99.3491   -999.2500   -999.2500  
  1829.0000    -36.2272     10.8852     10.0843     99.5898   -999.2500   -999.2500  
  1829.5000    -36.2164     11.0089     10.0288     99.2921   -999.2500   -999.2500  
  1830.0000    -36.2163     11.1752     10.1750     97.3057   -999.2500   -999.2500  
  1830.5000    -36.0961     11.2936     10.3609     95.7361   -999.2500   -999.2500  
  1831.0000    -36.0238     11.1761     10.7791     94.1786   -999.2500   -999.2500  
  1831.5000    -36.0948     11.1820     10.9585     91.6122   -999.2500   -999.2500  
  1832.0000    -36.4137     11.3250     11.1378     88.5228   -999.2500   -999.2500  
  1832.5000    -36.7214     11.4529     11.2144     86.3947   -999.2500   -999.2500  
  1833.0000    -36.9063     11.4828     11.2144     85.7332   -999.2500   -999.2500  
  1833.5000    -37.0092     11.4903     11.2144     85.6534   -999.2500   -999.2500  
  1834.0000    -37.2661     11.5044     11.2144     85.8276   -999.2500   -999.2500  
  1834.5000    -37.3020     11.4116     11.2144     86.3493   -999.2500   -999.2500  
  1835.0000    -37.1694     11.3761     11.2058     86.6377   -999.2500   -999.2500  
  1835.5000    -36.9820     11.3362     11.1705     86.3826   -999.2500   -999.2500  
