~VERSION INFORMATION
 VERS.                           2.00:        CWLS LOG ASCII STANDARD - VERSION 2.00
 WRAP.                             NO:        ONE LINE PER DEPTH STEP
~WELL INFORMATION
#MNEM.UNIT                   DATA             INFORMATION
#----------             --------------        ------------------------------
 STRT.F                       96.0000:        START DEPTH
 STOP.F                     2280.0000:        STOP DEPTH
 STEP.F                        0.5000:        STEP VALUE
 NULL.                      -999.2500:        NULL VALUE
 COMP.    USGS/NPR HUSKY OIL OPERATOR:        COMPANY  
 LOC .                   23  22N  17W:        LOCATION   
 DATE.                        9/11/80:        LOG DATE 
 WELL.               SOUTH BARROW #15:        WELL     
 UWI .                   500232001600:        UNIQUE WELL ID 
 API .                   500232001600:        UNIQUE WELL IDENTIFIER 
 FLD .                   SOUTH BARROW:        FIELD    
 CNTY.                    NORTH SLOPE:        COUNTY  
 STAT.                         ALASKA:        STATE   
 CTRY.                            USA:        COUNTRY 
 OPER.    USGS/NPR HUSKY OIL OPERATOR:        OPERATOR  
 SRVC.                   SCHLUMBERGER:        SERVICE COMPANY 
 LAT .                         0.0000:        LATITUDE
 LON .                         0.0000:        LONGITUDE
 DIGS.               CENTER LINE DATA:        DIGITIZING COMPANY 
~CURVE INFORMATION      
#MNEM        .UNIT         API CODE           CURVE DESCRIPTION
#-----------------      --------------        ------------------------------
 DEPT        .F                      :        1  DEPTH
 CALI        .IN                     :        2  
 GR          .GAPI                   :        3  
 RHOB        .G/C3                   :        4  
 DRHO        .G/C3                   :        5  
 NPHI        .%                      :        6  
 DT          .US/F                   :        7  
 SP          .MV                     :        8  
 ILD         .OHMM                   :        9  
 ILM         .OHMM                   :        10 
 SFL         .OHMM                   :        11 
 LLD         .OHMM                   :        12 
 LLS         .OHMM                   :        13 
 MSFL        .OHMM                   :        14 
~PARAMETER INFORMATION       
#MNEM.UNIT                  VALUE             DESCRIPTION OF MNEMONIC
#---------             ---------------        ------------------------------
 EKB .F                       30.0000:        KELLY BUSHING
 TD  .F                     2279.0000:        TOTAL DEPTH
 BHT .F                        0.0000:        BOTTOM HOLE TEMPERATURE
 BS  .                         8.5000:        BIT SIZE
 FD  .                        10.3000:        FLUID DENSITY
 CSIZ.                         9.6250:        CASING SIZE
 CBD .F                     1514.0000:        CASING DRILLER 1
 CBL .F                     1520.0000:        CASING LOGGER 1
 DFT .                  Miscellaneous:        TYPE FLUID IN HOLE
 DFV .                        43.0000:        VISCOSITY
 DFPH.                         0.0000:        PH
 DFL .                         0.0000:        FLUID LOSS
 RMS .                         0.1800:        RM
 MST .F                       48.0000:        RM MEAS. TEMP.
 RMF .                         0.1400:        RMF
 MFST.F                       48.0000:        RMF MEAS. TEMP.
 RMC .                         0.0000:        RMC
 MCST.F                        0.0000:        RMC MEAS. TEMP.
~OTHER INFORMATION
~A    DEPTH        CALI          GR        RHOB        DRHO        NPHI          DT          SP         ILD         ILM         SFL         LLD         LLS        MSFL  
# ...
  1512.0000   -999.2500     41.8378   -999.2500   -999.2500     56.9058   -999.2500   -999.2500   -999.2500   -999.2500   -999.2500   -999.2500   -999.2500   -999.2500  
  1512.5000   -999.2500     39.7343   -999.2500   -999.2500     57.2839   -999.2500   -999.2500   -999.2500   -999.2500   -999.2500   -999.2500   -999.2500   -999.2500  
  1513.0000   -999.2500     36.6077   -999.2500   -999.2500     58.0015   -999.2500   -999.2500   -999.2500   -999.2500   -999.2500   -999.2500   -999.2500   -999.2500  
  1513.5000   -999.2500     34.5330   -999.2500   -999.2500     59.7314   -999.2500   -999.2500   -999.2500   -999.2500   -999.2500   -999.2500   -999.2500   -999.2500  
  1514.0000   -999.2500     33.3077   -999.2500   -999.2500     60.0627   -999.2500   -999.2500   -999.2500   -999.2500   -999.2500   -999.2500   -999.2500   -999.2500  
  1514.5000   -999.2500     31.8097   -999.2500   -999.2500     60.0713   -999.2500   -999.2500   -999.2500   -999.2500   -999.2500   -999.2500   -999.2500   -999.2500  
  1515.0000   -999.2500     30.4402   -999.2500   -999.2500     60.0798   -999.2500   -999.2500   -999.2500   -999.2500   -999.2500   -999.2500   -999.2500   -999.2500  
  1515.5000   -999.2500     29.7703   -999.2500   -999.2500     60.0884   -999.2500   -999.2500   -999.2500   -999.2500   -999.2500   -999.2500   -999.2500   -999.2500  
  1516.0000   -999.2500     30.3683   -999.2500   -999.2500     60.0969   -999.2500   -999.2500   -999.2500   -999.2500   -999.2500   -999.2500   -999.2500   -999.2500  
  1516.5000   -999.2500     30.9663   -999.2500   -999.2500     60.1054   -999.2500   -999.2500   -999.2500   -999.2500   -999.2500   -999.2500   -999.2500   -999.2500  
  1517.0000   -999.2500     30.8809   -999.2500   -999.2500     60.1140   -999.2500   -999.2500   -999.2500   -999.2500   -999.2500   -999.2500   -999.2500   -999.2500  
  1517.5000   -999.2500     31.7953   -999.2500   -999.2500     56.5651   -999.2500   -999.2500   -999.2500   -999.2500   -999.2500   -999.2500   -999.2500   -999.2500  
  1518.0000   -999.2500     36.6347   -999.2500   -999.2500     54.0004   -999.2500   -999.2500   -999.2500   -999.2500   -999.2500   -999.2500   -999.2500   -999.2500  
  1518.5000   -999.2500     42.5969   -999.2500   -999.2500     51.6662   -999.2500   -999.2500   -999.2500   -999.2500   -999.2500   -999.2500   -999.2500   -999.2500  
  1519.0000   -999.2500     49.8458   -999.2500   -999.2500     49.9583   -999.2500   -999.2500   -999.2500   -999.2500   -999.2500   -999.2500   -999.2500   -999.2500  
  1519.5000   -999.2500     57.1460   -999.2500   -999.2500     48.3273   -999.2500   -999.2500   -999.2500   -999.2500   -999.2500   -999.2500   -999.2500   -999.2500  
  1520.0000      9.4771     64.1565      2.1068     -0.0053     46.5922     65.6411   -999.2500   -999.2500   -999.2500   -999.2500      4.1718      3.2210      2.0592  
  1520.5000     10.1242     70.8298      2.1191      0.0940     45.3236     57.6963   -999.2500   -999.2500   -999.2500   -999.2500      6.7017      7.0876      2.8656  
  1521.0000     10.6465     76.6929      2.1411      0.0493     45.0004     59.8895   -999.2500   -999.2500   -999.2500   -999.2500      9.5321      8.8232      3.3231  
  1521.5000     11.3355     80.0181      2.1711      0.0056     44.5725     61.4318   -999.2500   -999.2500   -999.2500   -999.2500      9.7753      9.0726      3.3789  
  1522.0000     11.9122     81.9622      2.2412      0.0016     45.0052     61.0850   -999.2500   -999.2500   -999.2500   -999.2500      9.0756      8.7193      2.0561  
  1522.5000     11.8656     81.9149      2.2548      0.0020     45.2207     63.0141   -999.2500   -999.2500   -999.2500   -999.2500      8.5857      8.0782      1.4251  
  1523.0000     12.1318     82.2772      2.2311      0.0085     46.2766     72.7902   -999.2500   -999.2500   -999.2500   -999.2500      8.5579      8.0494      1.2994  
  1523.5000     11.4157     83.2687      2.1980      0.0172     44.6259     75.6488   -999.2500   -999.2500   -999.2500   -999.2500      8.7608      8.7136      1.3369  
  1524.0000     11.9720     85.3941      2.1912      0.0007     43.6202    102.9637   -999.2500   -999.2500   -999.2500   -999.2500      9.2732      8.9104      1.7452  
  1524.5000     12.9253     85.5557      2.2340     -0.0018     44.1144    102.3000   -999.2500   -999.2500   -999.2500   -999.2500      9.5579      8.7491      2.3416  
  1525.0000     12.3963     84.7604      2.2603      0.0092     45.8280    120.0630   -999.2500   -999.2500   -999.2500   -999.2500      9.4340      8.5662      2.2913  
  1525.5000     12.9365     84.7937      2.2556      0.0136     47.6553    136.9576   -999.2500   -999.2500   -999.2500   -999.2500      9.2513      8.4951      1.8688  
  1526.0000     12.5322     85.4228      2.2331      0.0401     46.3434    137.8834   -999.2500   -999.2500   -999.2500   -999.2500      9.2843      8.8467      1.9269  
  1526.5000     11.0642     86.4986      2.2152      0.0812     44.4259    136.6961   -999.2500   -999.2500   -999.2500   -999.2500      9.4635      9.1338      2.0371  
  1527.0000     11.7766     87.7196      2.1967      0.0538     42.7883    121.4384   -999.2500   -999.2500   -999.2500   -999.2500     11.5571      9.1855      1.9513  
  1527.5000     12.3857     90.6008      2.2109      0.0431     43.6361    111.8209   -999.2500   -999.2500   -999.2500   -999.2500     10.0813      9.2107      1.9226  
  1528.0000     12.8024     93.6917      2.2407      0.0343     44.8948    115.4177   -999.2500   -999.2500   -999.2500   -999.2500     10.4437      9.2544      2.1125  
  1528.5000     12.1403     94.7970      2.2481      0.0130     44.7397    117.6438   -999.2500   -999.2500   -999.2500   -999.2500     10.3564      9.3070      2.3987  
  1529.0000     11.9320     95.0684      2.2739      0.0110     44.3507    126.1428   -999.2500   -999.2500   -999.2500   -999.2500     10.1141      9.3599      2.7426  
  1529.5000     11.8564     96.4891      2.3018      0.0181     45.0085    124.3234   -999.2500   -999.2500   -999.2500   -999.2500     10.1374      9.2024      2.9659  
  1530.0000     11.5356     99.9118      2.3176      0.0194     46.2716    120.8387   -999.2500   -999.2500   -999.2500   -999.2500      9.6887      9.0479      3.1726  
  1530.5000     11.8018    113.4005      2.3533      0.0446     47.8072    113.9215   -999.2500   -999.2500   -999.2500   -999.2500      9.1015      8.7610      3.3180  
  1531.0000     11.8732    121.2151      2.3626      0.0439     47.2590    115.9399   -999.2500   -999.2500   -999.2500   -999.2500      8.5645      8.4415      2.9851  
  1531.5000     11.3149    124.9562      2.3320      0.0246     46.7867    119.6070   -999.2500   -999.2500   -999.2500   -999.2500      8.2363      8.1446      1.9594  
  1532.0000     11.1531    117.0194      2.3005      0.0422     48.8240    120.9639   -999.2500   -999.2500   -999.2500   -999.2500      8.0409      7.9179      1.4409  
  1532.5000     11.1712    104.5180      2.2747      0.0654     49.2012    120.4595   -999.2500   -999.2500   -999.2500   -999.2500      7.9866      7.7886      1.6788  
  1533.0000     11.3588    102.6716      2.2677      0.1206     48.1773    113.4026   -999.2500   -999.2500   -999.2500   -999.2500      8.3726      7.9980      2.0224  
  1533.5000     12.0208    103.6047      2.2284      0.1005     47.3771    114.1387   -999.2500   -999.2500   -999.2500   -999.2500      8.8813      8.2106      2.3697  
  1534.0000     12.2747    106.8170      2.2263      0.0568     46.8222    115.6049   -999.2500   -999.2500   -999.2500   -999.2500      9.0926      8.2703      2.5663  
  1534.5000     12.9839    109.1054      2.2401      0.0428     46.8181    115.1078   -999.2500   -999.2500   -999.2500   -999.2500      9.1200      8.2543      2.6359  
  1535.0000     12.4045    110.7571      2.2272      0.0315     47.5109    113.4942   -999.2500   -999.2500   -999.2500   -999.2500      9.0351      8.2243      2.6831  
  1535.5000     12.3270    112.8948      2.2128      0.0523     48.8406    115.9565   -999.2500   -999.2500   -999.2500   -999.2500      8.7499      8.1161      2.4462  
