~VERSION INFORMATION
 VERS.                           2.00:        CWLS LOG ASCII STANDARD - VERSION 2.00
 WRAP.                             NO:        ONE LINE PER DEPTH STEP
~WELL INFORMATION
#MNEM.UNIT                   DATA             INFORMATION
#----------             --------------        ------------------------------
 STRT.F                      884.0000:        START DEPTH
 STOP.F                     2365.0000:        STOP DEPTH
 STEP.F                        0.5000:        STEP VALUE
 NULL.                      -999.2500:        NULL VALUE
 COMP.                      U.S. NAVY:        COMPANY  
 LOC .                   14  22N  18W:        LOCATION   
 DATE.                        3/19/64:        LOG DATE 
 WELL.                SOUTH BARROW #6:        WELL     
 UWI .                   500231001500:        UNIQUE WELL ID 
 API .                   500231001500:        UNIQUE WELL IDENTIFIER 
 FLD .                   SOUTH BARROW:        FIELD    
 CNTY.                         NPR #4:        COUNTY  
 STAT.                         ALASKA:        STATE   
 CTRY.                            USA:        COUNTRY 
 OPER.                      U.S. NAVY:        OPERATOR  
 SRVC.                   SCHLUMBERGER:        SERVICE COMPANY 
 LAT .                         0.0000:        LATITUDE
 LON .                         0.0000:        LONGITUDE
 DIGS.               CENTER LINE DATA:        DIGITIZING COMPANY 
~CURVE INFORMATION      
#MNEM        .UNIT         API CODE           CURVE DESCRIPTION
#-----------------      --------------        ------------------------------
 DEPT        .F                      :        1  DEPTH
 SP          .MV                     :        2  
 SN          .OHMM                   :        3  
 ILD         .OHMM                   :        4  
 CILD        .OHMM                   :        5  
 DT          .US/F                   :        6  
~PARAMETER INFORMATION       
#MNEM.UNIT                  VALUE             DESCRIPTION OF MNEMONIC
#---------             ---------------        ------------------------------
 EKB .F                       40.0000:        KELLY BUSHING
 TD  .F                     2366.0000:        TOTAL DEPTH
 BHT .F                        0.0000:        BOTTOM HOLE TEMPERATURE
 BS  .                         9.6250:        BIT SIZE
 FD  .                        85.0000:        FLUID DENSITY
 CSIZ.                        11.7500:        CASING SIZE
 CBD .F                      884.0000:        CASING DRILLER 1
 CBL .F                      884.0000:        CASING LOGGER 1
 DFT .                  Miscellaneous:        TYPE FLUID IN HOLE
 DFV .                        45.0000:        VISCOSITY
 DFPH.                         0.0000:        PH
 DFL .                         2.8000:        FLUID LOSS
 RMS .                         5.3700:        RM
 MST .F                       33.0000:        RM MEAS. TEMP.
 RMF .                         2.9500:        RMF
 MFST.F                       45.0000:        RMF MEAS. TEMP.
 RMC .                         2.4800:        RMC
 MCST.F                       35.0000:        RMC MEAS. TEMP.
~OTHER INFORMATION
~A    DEPTH          SP          SN         ILD        CILD          DT  
# ...
  1156.5000    -44.8510     10.2901     10.0171    100.1680   -999.2500  
  1157.0000    -45.5380     10.5081     10.0404     99.6727   -999.2500  
  1157.5000    -46.7510     10.7416     10.0633     98.7166   -999.2500  
  1158.0000    -47.6736     10.9764     10.0861     97.6422   -999.2500  
  1158.5000    -48.3119     11.1566     10.0986     97.7821   -999.2500  
  1159.0000    -48.5729     11.2124     10.0986     98.3290   -999.2500  
  1159.5000    -47.9859     11.0661     10.0986     98.8030   -999.2500  
  1160.0000    -46.5259     10.6354     10.0815     99.6428   -999.2500  
  1160.5000    -45.1560     10.3694     10.0060     99.8893   -999.2500  
  1161.0000    -44.6539     10.4974      9.9305    100.7187   -999.2500  
  1161.5000    -45.0470     10.6525      9.8550    101.5869   -999.2500  
  1162.0000    -45.3499     10.7344      9.6570    102.2866   -999.2500  
  1162.5000    -45.1111     10.6526      9.5007    102.7469   -999.2500  
  1163.0000    -44.5065     10.4741      9.4547    103.1017   -999.2500  
  1163.5000    -44.1843     10.4403      9.4516    103.3124   -999.2500  
  1164.0000    -44.3851     10.3769      9.4577    103.2811   -999.2500  
  1164.5000    -45.0127     10.2214      9.4638    103.2983   -999.2500  
  1165.0000    -45.7049     10.2335      9.4699    103.1430   -999.2500  
  1165.5000    -46.0374     10.1743      9.4760    102.9878   -999.2500  
  1166.0000    -46.1683     10.1504      9.4821    103.0464   -999.2500  
  1166.5000    -46.4440     10.2616      9.4885    103.0984   -999.2500  
  1167.0000    -47.0568     10.3615      9.5343    102.8926   -999.2500  
  1167.5000    -47.9212     10.3763      9.5800    102.5821   -999.2500  
  1168.0000    -48.2511     10.3758      9.6257    102.4415   -999.2500  
  1168.5000    -48.2656     10.3301      9.6714    102.2855   -999.2500  
  1169.0000    -48.0185     10.3021      9.6812    102.1348   -999.2500  
  1169.5000    -47.7638     10.2756      9.6198    102.5316   -999.2500  
  1170.0000    -47.5771     10.2652      9.5585    103.0127   -999.2500  
  1170.5000    -47.3331     10.4336      9.4972    103.4803   -999.2500  
  1171.0000    -46.8450     10.5254      9.4524    103.5945   -999.2500  
  1171.5000    -46.0224     10.3392      9.4377    103.7087   -999.2500  
  1172.0000    -45.1510     10.0966      9.4230    103.7569   -999.2500  
  1172.5000    -44.8322     10.0765      9.3727    103.5633   -999.2500  
  1173.0000    -45.1428     10.1569      9.3140    103.7197   -999.2500  
  1173.5000    -45.5330     10.2896      9.3214    103.9609   -999.2500  
  1174.0000    -45.8256     10.4027      9.4650    103.8478   -999.2500  
  1174.5000    -45.9560     10.4972      9.6087    102.5717   -999.2500  
  1175.0000    -46.1336     10.5405      9.7769    101.3035   -999.2500  
  1175.5000    -46.6414     10.6594      9.9522    100.0036   -999.2500  
  1176.0000    -47.2485     10.8286     10.1275     98.6513   -999.2500  
  1176.5000    -47.7309     10.9978     10.3027     97.5711   -999.2500  
  1177.0000    -48.0232     11.1243     10.4780     96.2823   -999.2500  
  1177.5000    -48.0926     11.1263     10.5974     94.9275   -999.2500  
  1178.0000    -48.0550     11.1283     10.6714     93.8157   -999.2500  
  1178.5000    -47.8821     11.1247     10.7455     93.0671   -999.2500  
  1179.0000    -47.6049     11.0907     10.8199     92.8240   -999.2500  
  1179.5000    -47.2930     11.0568     10.9028     92.6416   -999.2500  
  1180.0000    -47.1306     11.0917     11.0062     91.8715   -999.2500  
  1180.5000    -47.2498     11.2088     11.1023     90.6248   -999.2500  
  1181.0000    -47.9888     11.3176     11.1543     89.5053   -999.2500  
  1181.5000    -49.4638     11.4124     11.2064     88.6393   -999.2500  
  1182.0000    -50.4834     11.5072     11.2585     88.2660   -999.2500  
  1182.5000    -50.4841     11.5267     11.2529     88.4659   -999.2500  
  1183.0000    -49.8330     11.5267     11.1378     89.2983   -999.2500  
  1183.5000    -49.2132     11.4703     10.9735     90.7589   -999.2500  
  1184.0000    -48.8092     11.3333     10.7334     92.5690   -999.2500  
  1184.5000    -48.4686     11.2211     10.4595     94.4802   -999.2500  
  1185.0000    -48.1908     11.1546     10.2187     96.1812   -999.2500  
  1185.5000    -48.0510     10.9487     10.0164     97.6124   -999.2500  
  1186.0000    -47.6743     10.5913      9.8203     98.9934   -999.2500  
  1186.5000    -47.0698     10.3801      9.7473    100.5859   -999.2500  
  1187.0000    -46.4002     10.2589      9.6849    101.6740   -999.2500  
  1187.5000    -46.2050     10.4837      9.6425    101.8759   -999.2500  
  1188.0000    -46.7155     10.6593      9.7577    102.0647   -999.2500  
  1188.5000    -47.3850     10.7106      9.8728    100.7977   -999.2500  
  1189.0000    -47.4471     10.5970      9.9879     99.1833   -999.2500  
  1189.5000    -46.8302     10.5347     10.0994     97.6805   -999.2500  
  1190.0000    -46.8668     10.5881     10.1215     96.6589   -999.2500  
  1190.5000    -47.4917     10.6609     10.1316     96.6532   -999.2500  
  1191.0000    -47.8188     10.7298     10.1341     96.4662   -999.2500  
  1191.5000    -47.8707     10.7988     10.1366     96.4131   -999.2500  
  1192.0000    -47.9262     10.8595     10.0796     96.9885   -999.2500  
  1192.5000    -47.8634     10.8472      9.9756     98.5982   -999.2500  
  1193.0000    -47.6439     10.7089      9.8395    100.2973   -999.2500  
  1193.5000    -47.1974     10.3425      9.6470    102.2287   -999.2500  
  1194.0000    -46.5880     10.0208      9.4521    104.0173   -999.2500  
  1194.5000    -46.1290      9.9259      9.2494    105.3281   -999.2500  
  1195.0000    -46.1581      9.9137      9.1415    106.5194   -999.2500  
  1195.5000    -46.6520      9.9110      9.0586    107.2634   -999.2500  
  1196.0000    -47.1355      9.8681      9.0502    107.6544   -999.2500  
  1196.5000    -47.4644      9.9052      9.0367    107.6562   -999.2500  
  1197.0000    -47.6470     10.0034      9.0527    107.5182   -999.2500  
  1197.5000    -47.8833     10.1017      9.0637    107.3802   -999.2500  
  1198.0000    -48.2349     10.0550      9.0160    107.4467   -999.2500  
  1198.5000    -48.5082      9.9871      8.9575    108.1205   -999.2500  
  1199.0000    -48.6010      9.8788      8.8883    108.9030   -999.2500  
  1199.5000    -48.5771      9.7348      8.8553    109.3091   -999.2500  
  1200.0000    -48.3874      9.7270      8.9027    108.8784   -999.2500  
  1200.5000    -48.2105      9.7292      9.0281    107.8212   -999.2500  
  1201.0000    -48.0533      9.7467      9.2060    106.2965   -999.2500  
  1201.5000    -47.9030      9.8494      9.3552    104.7221   -999.2500  
  1202.0000    -47.8204     10.0606      9.5045    103.4901   -999.2500  
  1202.5000    -47.7367     10.4705      9.6537    101.9185   -999.2500  
  1203.0000    -47.5679     10.7104      9.8029    100.6243   -999.2500  
  1203.5000    -47.3632     10.8498      9.9588     99.0631   -999.2500  
  1204.0000    -46.9601     10.8471     10.1252     96.9668   -999.2500  
  1204.5000    -46.6821     10.8369     10.2851     95.4198   -999.2500  
  1205.0000    -46.9984     10.8730     10.4158     94.0787   -999.2500  
  1205.5000    -47.7645     10.9759     10.5418     93.3816   -999.2500  
  1206.0000    -48.2424     11.0789     10.5428     93.4435   -999.2500  
  1206.5000    -48.2991     11.1948     10.3810     93.4566   -999.2500  
  1207.0000    -48.1220     11.2983     10.3517     93.7648   -999.2500  
  1207.5000    -47.9176     11.3151     10.3357     94.0299   -999.2500  
  1208.0000    -47.7410     11.1828     10.3196     94.0065   -999.2500  
  1208.5000    -47.4846     10.9404     10.3036     93.8631   -999.2500  
  1209.0000    -47.1691     10.7508     10.2573     94.2065   -999.2500  
  1209.5000    -47.0766     10.6168     10.1298     94.9962   -999.2500  
  1210.0000    -47.3594     10.7337      9.9922     96.2046   -999.2500  
  1210.5000    -47.8315     10.8495      9.7966     98.2719   -999.2500  
