~VERSION INFORMATION
 VERS.                           2.00:        CWLS LOG ASCII STANDARD - VERSION 2.00
 WRAP.                             NO:        ONE LINE PER DEPTH STEP
~WELL INFORMATION
#MNEM.UNIT                   DATA             INFORMATION
#----------             --------------        ------------------------------
 STRT.F                       75.0000:        START DEPTH
 STOP.F                     2534.0000:        STOP DEPTH
 STEP.F                        0.5000:        STEP VALUE
 NULL.                      -999.2500:        NULL VALUE
 COMP.                      HUSKY OIL:        COMPANY  
 LOC .                   14  22N  18W:        LOCATION   
 DATE.                       12/20/76:        LOG DATE 
 WELL.               SOUTH BARROW #13:        WELL     
 UWI .                   500232000800:        UNIQUE WELL ID 
 API .                   500232000800:        UNIQUE WELL IDENTIFIER 
 FLD .                   SOUTH BARROW:        FIELD    
 CNTY.                    NORTH SLOPE:        COUNTY  
 STAT.                         ALASKA:        STATE   
 CTRY.                            USA:        COUNTRY 
 OPER.                      HUSKY OIL:        OPERATOR  
 SRVC.                   SCHLUMBERGER:        SERVICE COMPANY 
 LAT .                         0.0000:        LATITUDE
 LON .                         0.0000:        LONGITUDE
 DIGS.               CENTER LINE DATA:        DIGITIZING COMPANY 
~CURVE INFORMATION      
#MNEM        .UNIT         API CODE           CURVE DESCRIPTION
#-----------------      --------------        ------------------------------
 DEPT        .F                      :        1  DEPTH
 SP          .MV                     :        2  
 ILD         .OHMM                   :        3  
 LL8         .OHMM                   :        4  
 CILD        .MMHO                   :        5  
 ILM         .OHMM                   :        6  
 GR          .GAPI                   :        7  
 CALI        .IN                     :        8  
 DRHO        .G/C3                   :        9  
 RHOB        .G/C3                   :        10 
 NPHI        .%                      :        11 
 DPHI        .%                      :        12 
 DT          .US/F                   :        13 
~PARAMETER INFORMATION       
#MNEM.UNIT                  VALUE             DESCRIPTION OF MNEMONIC
#---------             ---------------        ------------------------------
 EKB .F                       40.0000:        KELLY BUSHING
 TD  .F                     1139.0000:        TOTAL DEPTH
 BHT .F                        0.0000:        BOTTOM HOLE TEMPERATURE
 BS  .                        14.7500:        BIT SIZE
 FD  .                        10.3000:        FLUID DENSITY
 CSIZ.                        20.0000:        CASING SIZE
 CBD .F                       65.0000:        CASING DRILLER 1
 CBL .F                       75.0000:        CASING LOGGER 1
 DFT .                  Miscellaneous:        TYPE FLUID IN HOLE
 DFV .                        34.0000:        VISCOSITY
 DFPH.                         8.5000:        PH
 DFL .                        10.2000:        FLUID LOSS
 RMS .                         5.3200:        RM
 MST .F                       55.0000:        RM MEAS. TEMP.
 RMF .                         3.8000:        RMF
 MFST.F                       55.0000:        RMF MEAS. TEMP.
 RMC .                         6.0000:        RMC
 MCST.F                       55.0000:        RMC MEAS. TEMP.
~OTHER INFORMATION
~A    DEPTH          SP         ILD         LL8        CILD         ILM          GR        CALI        DRHO        RHOB        NPHI        DPHI          DT  
# ...
  1605.0000    -27.1125      9.0627     11.2372   -999.2500      9.1419     49.1347     10.5328      0.0566      2.4416     39.3743     13.5054    113.5901  
  1605.5000    -26.1070      8.9394     11.5456   -999.2500      9.1581     49.2182     10.5346      0.0415      2.4295     40.1438     12.0467    113.0495  
  1606.0000    -25.9055      8.9993     11.5727   -999.2500      9.1835     49.6534     10.5429      0.0482      2.4448     39.9121     10.1723    113.1158  
  1606.5000    -30.1358      9.1814     11.5602   -999.2500      9.2348     49.7298     10.5466      0.0647      2.4658     38.6372     10.1925    113.0686  
  1607.0000    -28.8527      9.3080     11.5312   -999.2500      9.5289     49.3218     10.5385      0.0773      2.4947     36.7108     11.7842    113.2754  
  1607.5000    -24.3492     10.0279     11.4438   -999.2500      9.9560     48.7335     10.5750      0.0795      2.4836     34.2806     12.3382    113.0513  
  1608.0000    -25.3796     10.6866     12.6553   -999.2500     10.4251     47.7910     10.6274      0.0685      2.4628     31.0619     12.1406    109.1685  
  1608.5000    -23.0581     11.3886     16.8650   -999.2500     10.9321     45.7517     10.6798      0.0539      2.4590     30.8737     12.7546    103.4285  
  1609.0000    -21.0143     11.6141     19.7564   -999.2500     11.4639     44.5620     10.7322      0.0355      2.4563     32.4418     12.6330    100.1959  
  1609.5000    -24.1666     11.6170     17.3331   -999.2500     11.7600     44.8086     10.7846      0.0195      2.4426     32.7537     11.4234     97.7814  
  1610.0000    -29.9163     11.6200     15.3350   -999.2500     11.7935     46.0353     10.8370      0.0372      2.4568     33.8014     12.0195     98.6134  
  1610.5000    -32.3677     11.6229     13.5660   -999.2500     11.8270     47.1176     10.8202      0.0549      2.4728     36.0264     13.2462    103.6438  
  1611.0000    -26.0256     11.6259     13.2596   -999.2500     11.8607     48.1998     10.8020      0.0454      2.4571     36.5527     13.8598    105.9718  
  1611.5000    -26.9078     11.6288     13.6018   -999.2500     11.8944     47.7986     10.7839      0.0255      2.4431     36.1689     13.4963    107.1883  
  1612.0000    -33.9337     11.5809     13.6983   -999.2500     11.9282     47.0457     10.7628      0.0296      2.4311     36.0437     12.3853    107.3839  
  1612.5000    -30.8632     11.5941     13.5391   -999.2500     11.9621     46.2066     10.7416      0.0439      2.4480     35.6343     12.6077    106.9932  
  1613.0000    -30.5047     11.7215     13.2359   -999.2500     12.1722     44.9820     10.7237      0.0595      2.4575     34.3431     13.2429    106.9104  
  1613.5000    -34.1610     11.9337     13.9907   -999.2500     12.3864     43.9557     10.7300      0.0578      2.4494     32.9712     13.8840    106.7666  
  1614.0000    -30.3568     12.0653     15.5567   -999.2500     12.6044     42.9697     10.7712      0.0356      2.4427     31.5715     12.3180    105.4687  
  1614.5000    -25.2976     12.0752     16.0805   -999.2500     12.6887     42.4512     10.8339      0.0456      2.4392     32.2725     11.1472    103.5297  
  1615.0000    -28.3274     11.9825     15.8500   -999.2500     12.5661     43.2430     10.8977      0.0724      2.4653     34.2236     12.1392    101.8178  
  1615.5000    -34.8521     11.9979     15.0176   -999.2500     12.4447     43.7676     10.9469      0.0516      2.4700     36.2584     13.6551    100.9613  
  1616.0000    -33.5394     12.0129     13.8474   -999.2500     12.3244     44.0248     10.9138      0.0292      2.4530     35.7925     12.8042    101.7442  
  1616.5000    -32.3697     12.0280     12.6515   -999.2500     12.2075     44.3361     10.8807      0.0303      2.4315     33.8743     11.8143    103.6191  
  1617.0000    -32.2449     12.0431     13.4718   -999.2500     12.1428     44.5776     10.9057      0.0494      2.4611     33.2183     11.1346    104.4869  
  1617.5000    -32.4515     11.7216     14.7860   -999.2500     12.0784     44.8467     10.9588      0.0685      2.4682     33.9566     10.1378    104.1002  
  1618.0000    -31.7917     11.3728     14.4754   -999.2500     12.0144     45.5465     10.9829      0.0871      2.4832     35.9210      9.6303    104.3767  
  1618.5000    -32.8411     11.0344     12.1799   -999.2500     11.6555     46.3084     10.7905      0.1053      2.4959     37.3079     10.5255    105.6888  
  1619.0000    -33.2792     10.7061     11.9089   -999.2500     11.2572     47.0690     10.5981      0.1194      2.4972     38.0312     11.2406    107.9916  
  1619.5000    -36.5239     10.3876     13.1569   -999.2500     10.8725     47.4374     10.6309      0.1060      2.4824     37.9701     10.8334    109.1131  
  1620.0000    -38.5103     10.0789     13.2711   -999.2500     10.5010     46.9099     10.6910      0.1055      2.4801     37.2793     10.7272    109.2566  
  1620.5000    -36.6329      9.8594     12.5725   -999.2500     10.1421     47.1136     10.7681      0.1061      2.4835     36.9389     10.8478    108.0628  
  1621.0000    -32.0091      9.6446     11.2367   -999.2500      9.7955     47.6342     10.8283      0.0996      2.4817     37.2150      9.8573    108.6018  
  1621.5000    -29.3326      9.4346     10.7227   -999.2500      9.4761     47.5777     10.8360      0.1128      2.4878     37.2134     11.1933    111.7202  
  1622.0000    -29.3037      9.2291     10.6610   -999.2500      9.2263     47.2884     10.8437      0.1015      2.4925     36.3966     12.8107    113.8467  
  1622.5000    -32.2855      9.0281     11.0231   -999.2500      9.0130     47.3090     10.8352      0.0807      2.4658     35.9868     14.1025    114.4698  
  1623.0000    -33.5972      8.8631     11.1861   -999.2500      9.0612     47.5731     10.8150      0.0674      2.4446     36.0915     12.3168    114.9508  
  1623.5000    -33.6682      8.9050     11.1944   -999.2500      9.1097     47.9210     10.8751      0.0636      2.4344     35.6376     11.5491    114.4403  
  1624.0000    -33.3320      8.9634     11.5883   -999.2500      9.1585     48.4588     11.1304      0.0896      2.4624     35.4858     11.5495    113.5362  
  1624.5000    -33.1074      8.9920     11.7777   -999.2500      9.2075     48.9966     11.3857      0.0750      2.4694     38.6896     11.8509    113.3104  
  1625.0000    -34.1120      9.0117     11.6086   -999.2500      9.2568     49.5344     11.2040      0.0626      2.4659     39.6021     11.9022    112.3991  
  1625.5000    -33.0966      8.9951     11.5999   -999.2500      9.3064     50.0722     10.9659      0.0512      2.4649     38.7231     12.0940    112.4557  
  1626.0000    -35.4117      8.9518     11.8562   -999.2500      9.3562     50.1409     10.9350      0.0497      2.4613     37.3472     12.9926    112.3265  
  1626.5000    -35.9895      8.9087     12.1909   -999.2500      9.2998     49.5578     10.9769      0.0488      2.4561     36.6965     12.1238    112.1833  
  1627.0000    -35.4855      8.8658     12.6550   -999.2500      9.1552     49.5928     11.0118      0.0509      2.4497     37.4133     11.6140    112.5130  
  1627.5000    -35.1043      8.8232     12.3451   -999.2500      9.0129     49.9132     10.9402      0.0648      2.4614     37.8751     11.2841    113.1355  
  1628.0000    -34.7152      8.7807     11.1747   -999.2500      9.0652     47.7330     10.8639      0.0653      2.4725     37.9649     11.6850    114.3083  
  1628.5000    -35.0336      8.9063     10.2670   -999.2500      9.3381     47.0699     10.7872      0.0672      2.4711     36.3051     11.2428    116.1258  
  1629.0000    -34.6035      9.1202     10.2999   -999.2500      9.6193     46.7143     10.7032      0.0718      2.4747     34.2536     12.3437    116.2956  
  1629.5000    -34.3939      9.3392     12.8560   -999.2500      9.9089     45.3535     10.5873      0.0773      2.4782     32.4987     14.0288    113.8778  
  1630.0000    -34.1279      9.5634     17.3258   -999.2500      9.9041     43.7771     10.4714      0.0683      2.4490     31.8670     14.7136    110.0942  
