~VERSION INFORMATION
 VERS.                           2.00:        CWLS LOG ASCII STANDARD - VERSION 2.00
 WRAP.                             NO:        ONE LINE PER DEPTH STEP
~WELL INFORMATION
#MNEM.UNIT                   DATA             INFORMATION
#----------             --------------        ------------------------------
 STRT.F                       52.0000:        START DEPTH
 STOP.F                     2296.0000:        STOP DEPTH
 STEP.F                        0.5000:        STEP VALUE
 NULL.                      -999.2500:        NULL VALUE
 COMP.                     USGS/NPR-A:        COMPANY  
 LOC .                   23  22N  17W:        LOCATION   
 DATE.                        4/30/78:        LOG DATE 
 WELL.               SOUTH BARROW #19:        WELL     
 UWI .                   500232001200:        UNIQUE WELL ID 
 API .                   500232001200:        UNIQUE WELL IDENTIFIER 
 FLD .                   SOUTH BARROW:        FIELD    
 CNTY.                    NORTH SLOPE:        COUNTY  
 STAT.                         ALASKA:        STATE   
 CTRY.                            USA:        COUNTRY 
 OPER.                     USGS/NPR-A:        OPERATOR  
 SRVC.                   SCHLUMBERGER:        SERVICE COMPANY 
 LAT .                         0.0000:        LATITUDE
 LON .                         0.0000:        LONGITUDE
 DIGS.               CENTER LINE DATA:        DIGITIZING COMPANY 
~CURVE INFORMATION      
#MNEM        .UNIT         API CODE           CURVE DESCRIPTION
#-----------------      --------------        ------------------------------
 DEPT        .F                      :        1  DEPTH
 GR          .GAPI                   :        2  
 CALI        .IN                     :        3  
 RHOB        .G/C3                   :        4  
 DRHO        .G/C3                   :        5  
 NPHI        .%                      :        6  
 DT          .US/F                   :        7  
 SP          .MV                     :        8  
 ILD         .OHMM                   :        9  
 ILM         .OHMM                   :        10 
 LL8         .OHMM                   :        11 
 LLD         .OHMM                   :        12 
 LLS         .OHMM                   :        13 
 MSFL        .OHMM                   :        14 
~PARAMETER INFORMATION       
#MNEM.UNIT                  VALUE             DESCRIPTION OF MNEMONIC
#---------             ---------------        ------------------------------
 EKB .F                       30.0000:        KELLY BUSHING
 TD  .F                     2300.0000:        TOTAL DEPTH
 BHT .F                      173.0000:        BOTTOM HOLE TEMPERATURE
 BS  .                         8.5000:        BIT SIZE
 FD  .                        11.6000:        FLUID DENSITY
 CSIZ.                         9.6250:        CASING SIZE
 CBD .F                     1491.0000:        CASING DRILLER 1
 CBL .F                     1490.0000:        CASING LOGGER 1
 DFT .                  Miscellaneous:        TYPE FLUID IN HOLE
 DFV .                        46.0000:        VISCOSITY
 DFPH.                         8.5000:        PH
 DFL .                         6.0000:        FLUID LOSS
 RMS .                         0.1090:        RM
 MST .F                       58.0000:        RM MEAS. TEMP.
 RMF .                         0.0720:        RMF
 MFST.F                       61.0000:        RMF MEAS. TEMP.
 RMC .                         0.3000:        RMC
 MCST.F                       70.0000:        RMC MEAS. TEMP.
~OTHER INFORMATION
~A    DEPTH          GR        CALI        RHOB        DRHO        NPHI          DT          SP         ILD         ILM         LL8         LLD         LLS        MSFL  
# ...
   100.0000     28.0886     12.2794   -999.2500   -999.2500   -999.2500    150.7538    -55.8960    267.4130     38.5723      3.7248   -999.2500   -999.2500   -999.2500  
   100.5000     30.8859     12.2844   -999.2500   -999.2500   -999.2500    152.0412    -70.4467    857.9122     18.8589      6.8381   -999.2500   -999.2500   -999.2500  
   101.0000     34.4095     12.2897   -999.2500   -999.2500   -999.2500    153.3286    -78.2772    317.8752      9.2205      8.4127   -999.2500   -999.2500   -999.2500  
   101.5000     39.3753     12.2932   -999.2500   -999.2500   -999.2500    154.5957    -80.5293     28.6798      4.5081      7.0448   -999.2500   -999.2500   -999.2500  
   102.0000     45.2445     12.3009   -999.2500   -999.2500   -999.2500    155.7818    -82.0078      4.0067      2.3044      6.8714   -999.2500   -999.2500   -999.2500  
   102.5000     50.1082     12.3099   -999.2500   -999.2500   -999.2500    158.1668    -83.0559      3.6229      3.0523      7.2447   -999.2500   -999.2500   -999.2500  
   103.0000     53.5026     12.3199   -999.2500   -999.2500   -999.2500    169.1070    -83.7100      8.0831      4.0428      7.9452   -999.2500   -999.2500   -999.2500  
   103.5000     56.3296     13.4908   -999.2500   -999.2500   -999.2500    182.5157    -83.9725     20.9632      4.7781      8.5885   -999.2500   -999.2500   -999.2500  
   104.0000     57.8601     13.5285   -999.2500   -999.2500   -999.2500    191.3026    -83.6593    225.8935      5.5681      9.2219   -999.2500   -999.2500   -999.2500  
   104.5000     57.9320     13.5697   -999.2500   -999.2500   -999.2500    184.4959    -83.4045     32.4219      6.4035      9.6319   -999.2500   -999.2500   -999.2500  
   105.0000     56.7926     13.7326   -999.2500   -999.2500   -999.2500    178.5723    -83.1665     11.3439      6.4610     10.2150   -999.2500   -999.2500   -999.2500  
   105.5000     55.0211     13.8459   -999.2500   -999.2500   -999.2500    173.6590    -82.9653      8.8675      6.4686      9.7961   -999.2500   -999.2500   -999.2500  
   106.0000     53.4676     13.9728   -999.2500   -999.2500   -999.2500    155.4514    -82.5003      8.2644      5.6094      9.6551   -999.2500   -999.2500   -999.2500  
   106.5000     53.3817     14.5398   -999.2500   -999.2500   -999.2500    154.5668    -82.0047      7.6901      5.2689      9.8392   -999.2500   -999.2500   -999.2500  
   107.0000     54.1895     15.4527   -999.2500   -999.2500   -999.2500    155.8370    -81.7252      7.0731      5.2183      9.7541   -999.2500   -999.2500   -999.2500  
   107.5000     55.4835     15.1879   -999.2500   -999.2500   -999.2500    156.3413    -81.3917      6.7236      5.1217      8.8802   -999.2500   -999.2500   -999.2500  
   108.0000     57.0642     14.7789   -999.2500   -999.2500   -999.2500    154.4361    -80.8251      6.7127      4.6356      7.6933   -999.2500   -999.2500   -999.2500  
   108.5000     58.2784     14.9182   -999.2500   -999.2500   -999.2500    152.8661    -79.8609      6.7017      3.9984      7.2109   -999.2500   -999.2500   -999.2500  
   109.0000     59.7680     14.6792   -999.2500   -999.2500   -999.2500    152.5969    -79.1292      6.1252      3.3639      6.9703   -999.2500   -999.2500   -999.2500  
   109.5000     61.1118     13.9424   -999.2500   -999.2500   -999.2500    152.5314    -79.4500      5.6911      3.2905      7.3117   -999.2500   -999.2500   -999.2500  
   110.0000     62.5860     13.1870   -999.2500   -999.2500   -999.2500    152.9485    -81.2807      5.4182      3.1687      7.4506   -999.2500   -999.2500   -999.2500  
   110.5000     64.0500     12.7413   -999.2500   -999.2500   -999.2500    155.1903    -83.7627      5.3199      3.0593      6.8215   -999.2500   -999.2500   -999.2500  
   111.0000     66.4249     12.6434   -999.2500   -999.2500   -999.2500    158.8414    -84.9386      5.4129      3.1213      6.9284   -999.2500   -999.2500   -999.2500  
   111.5000     68.5980     12.4943   -999.2500   -999.2500   -999.2500    162.2798    -85.5996      5.5214      3.1478      7.9603   -999.2500   -999.2500   -999.2500  
   112.0000     69.2627     12.4669   -999.2500   -999.2500   -999.2500    165.5182    -87.0348      5.5061      3.1640      9.4095   -999.2500   -999.2500   -999.2500  
   112.5000     69.2598     12.4334   -999.2500   -999.2500   -999.2500    167.6382    -88.9205      5.4808      3.0712     10.2244   -999.2500   -999.2500   -999.2500  
   113.0000     69.3327     12.4166   -999.2500   -999.2500   -999.2500    168.7106    -90.5508      5.3272      3.0620      9.5798   -999.2500   -999.2500   -999.2500  
   113.5000     69.8319     12.3595   -999.2500   -999.2500   -999.2500    169.7870    -91.1456      5.3001      3.0104      8.9758   -999.2500   -999.2500   -999.2500  
   114.0000     69.7264     12.3700   -999.2500   -999.2500   -999.2500    171.2303    -90.2411      5.4737      3.0971      8.3804   -999.2500   -999.2500   -999.2500  
   114.5000     69.5251     12.3911   -999.2500   -999.2500   -999.2500    173.0602    -88.0872      5.5687      3.1433      8.2151   -999.2500   -999.2500   -999.2500  
   115.0000     69.5191     12.4733   -999.2500   -999.2500   -999.2500    174.3978    -86.5215      5.7882      3.5003      8.3559   -999.2500   -999.2500   -999.2500  
   115.5000     69.5894     12.6314   -999.2500   -999.2500   -999.2500    175.5303    -85.9653      6.1359      3.8581      8.8027   -999.2500   -999.2500   -999.2500  
   116.0000     69.6252     12.6571   -999.2500   -999.2500   -999.2500    176.7768    -87.7616      6.6461      4.2032      9.6188   -999.2500   -999.2500   -999.2500  
   116.5000     69.9840     12.6815   -999.2500   -999.2500   -999.2500    177.3823    -90.0620      7.3722      4.5791     10.4860   -999.2500   -999.2500   -999.2500  
   117.0000     69.7973     12.5962   -999.2500   -999.2500   -999.2500    175.9566    -91.0551      8.1533      4.9567     10.3719   -999.2500   -999.2500   -999.2500  
   117.5000     69.0294     12.5391   -999.2500   -999.2500   -999.2500    174.1130    -91.6469      9.0172      5.3095      8.9506   -999.2500   -999.2500   -999.2500  
   118.0000     68.1341     12.5021   -999.2500   -999.2500   -999.2500    171.3591    -92.3329      9.9727      5.6875      7.6586   -999.2500   -999.2500   -999.2500  
   118.5000     67.1204     12.5236   -999.2500   -999.2500   -999.2500    168.0553    -93.2530     11.0294      6.2868      6.5531   -999.2500   -999.2500   -999.2500  
   119.0000     65.0403     12.6550   -999.2500   -999.2500   -999.2500    165.5606    -93.9851     11.3344      6.9585      7.5634   -999.2500   -999.2500   -999.2500  
   119.5000     61.5913     12.8104   -999.2500   -999.2500   -999.2500    162.5008    -94.4732     11.2890      7.2533      8.6500   -999.2500   -999.2500   -999.2500  
   120.0000     57.0904     13.0692   -999.2500   -999.2500   -999.2500    160.1704    -94.7828     11.3362      7.3863      8.5342   -999.2500   -999.2500   -999.2500  
   120.5000     55.1209     13.3281   -999.2500   -999.2500   -999.2500    160.7940    -95.0191     11.4660      7.4611      8.4199   -999.2500   -999.2500   -999.2500  
   121.0000     55.2080     12.9708   -999.2500   -999.2500   -999.2500    163.3638    -95.2878     11.5569      7.3541      8.3071   -999.2500   -999.2500   -999.2500  
   121.5000     55.4018     12.9580   -999.2500   -999.2500   -999.2500    164.0334    -95.2975     11.3095      7.0901      8.1515   -999.2500   -999.2500   -999.2500  
   122.0000     54.0235     13.1469   -999.2500   -999.2500   -999.2500    162.6762    -95.2336     10.6012      6.8355      7.9112   -999.2500   -999.2500   -999.2500  
   122.5000     51.2884     13.9162   -999.2500   -999.2500   -999.2500    159.5201    -95.3120      9.8985      6.5901      7.6779   -999.2500   -999.2500   -999.2500  
   123.0000     48.9727     14.7010   -999.2500   -999.2500   -999.2500    157.7380    -95.4248      9.2424      6.3536      7.4660   -999.2500   -999.2500   -999.2500  
   123.5000     47.5344     14.8346   -999.2500   -999.2500   -999.2500    157.7628    -95.3117      8.6297      5.7761      7.3067   -999.2500   -999.2500   -999.2500  
