~VERSION INFORMATION
 VERS.                           2.00:        CWLS LOG ASCII STANDARD - VERSION 2.00
 WRAP.                             NO:        ONE LINE PER DEPTH STEP
~WELL INFORMATION
#MNEM.UNIT                   DATA             INFORMATION
#----------             --------------        ------------------------------
 STRT.F                      999.0000:        START DEPTH
 STOP.F                     2350.0000:        STOP DEPTH
 STEP.F                        0.5000:        STEP VALUE
 NULL.                      -999.2500:        NULL VALUE
 COMP.             UNITED STATES NAVY:        COMPANY  
 LOC .                   14  22N  18W:        LOCATION   
 DATE.                        3/19/68:        LOG DATE 
 WELL.                SOUTH BARROW #7:        WELL     
 UWI .                   500232000100:        UNIQUE WELL ID 
 API .                   500232000100:        UNIQUE WELL IDENTIFIER 
 FLD .                   SOUTH BARROW:        FIELD    
 CNTY.                         NPR #4:        COUNTY  
 STAT.                         ALASKA:        STATE   
 CTRY.                            USA:        COUNTRY 
 OPER.             UNITED STATES NAVY:        OPERATOR  
 SRVC.                   SCHLUMBERGER:        SERVICE COMPANY 
 LAT .                         0.0000:        LATITUDE
 LON .                         0.0000:        LONGITUDE
 DIGS.               CENTER LINE DATA:        DIGITIZING COMPANY 
~CURVE INFORMATION      
#MNEM        .UNIT         API CODE           CURVE DESCRIPTION
#-----------------      --------------        ------------------------------
 DEPT        .F                      :        1  DEPTH
 SP          .MV                     :        2  
 ILD         .OHMM                   :        3  
 ASN         .OHMM                   :        4  
 CILD        .OHMM                   :        5  
 CALI        .IN                     :        6  
 DT          .US/F                   :        7  
~PARAMETER INFORMATION       
#MNEM.UNIT                  VALUE             DESCRIPTION OF MNEMONIC
#---------             ---------------        ------------------------------
 EKB .F                       36.0000:        KELLY BUSHING
 TD  .F                     2351.0000:        TOTAL DEPTH
 BHT .F                        0.0000:        BOTTOM HOLE TEMPERATURE
 BS  .                         9.6250:        BIT SIZE
 FD  .                        76.5000:        FLUID DENSITY
 CSIZ.                        10.7500:        CASING SIZE
 CBD .F                      998.0000:        CASING DRILLER 1
 CBL .F                      999.0000:        CASING LOGGER 1
 DFT .                            Gel:        TYPE FLUID IN HOLE
 DFV .                        45.0000:        VISCOSITY
 DFPH.                         9.5000:        PH
 DFL .                         7.0000:        FLUID LOSS
 RMS .                         5.4300:        RM
 MST .F                       42.0000:        RM MEAS. TEMP.
 RMF .                         5.1700:        RMF
 MFST.F                       59.0000:        RMF MEAS. TEMP.
 RMC .                         5.0900:        RMC
 MCST.F                       56.0000:        RMC MEAS. TEMP.
~OTHER INFORMATION
~A    DEPTH          SP         ILD         ASN        CILD        CALI          DT  
# ...
  1328.0000    -55.2407      5.3905      6.0211    171.0621      9.9437    125.8216  
  1328.5000    -56.3252      5.3338      6.0893    173.3922      9.8788    125.8758  
  1329.0000    -58.0440      5.2771      6.3854    177.7012      9.8140    126.9114  
  1329.5000    -62.4508      5.2204      6.8675    182.9606      9.7492    126.8771  
  1330.0000    -75.8299      5.1637      7.6151    188.9576      9.7083    125.3989  
  1330.5000    -84.1679      5.0724      8.3567    192.5584      9.6802    122.9383  
  1331.0000    -86.8912      4.9516      8.5635    196.1783      9.6104    120.0926  
  1331.5000    -88.2385      4.8990      8.5881    199.3607      9.5703    117.1063  
  1332.0000    -89.1669      4.8418      8.6553    202.6369      9.5647    115.6207  
  1332.5000    -89.3242      4.7723      8.7849    205.6439      9.5686    115.8990  
  1333.0000    -89.0899      4.8258      8.9393    207.8553      9.5706    116.2913  
  1333.5000    -87.7937      4.7533      8.9709    208.7997      9.5727    116.5660  
  1334.0000    -86.8741      4.7819      8.8770    208.9356      9.5698    116.7317  
  1334.5000    -86.4240      4.7962      8.7067    207.8088      9.5618    116.4408  
  1335.0000    -86.3964      4.8063      8.5353    206.6286      9.5479    115.7793  
  1335.5000    -86.4492      4.8821      8.4054    205.6017      9.5093    114.9247  
  1336.0000    -86.1369      4.8457      8.1972    203.5427      9.3172    114.1881  
  1336.5000    -85.6547      4.9119      7.9255    201.2545      9.1300    113.9048  
  1337.0000    -84.7703      4.9959      7.6269    197.8537      9.0925    114.1670  
  1337.5000    -81.2967      5.1498      7.1922    193.2538      9.3459    115.9006  
  1338.0000    -79.0842      5.3002      6.6776    187.9081      9.6004    117.8542  
  1338.5000    -76.7206      5.4155      6.4349    182.1327      9.6853    117.9980  
  1339.0000    -73.9769      5.5307      6.3482    177.5514      9.6986    117.2557  
  1339.5000    -69.7208      5.6460      6.3261    172.9998      9.7211    114.6483  
  1340.0000    -66.3595      5.7613      6.3382    167.7669      9.7560    113.0446  
  1340.5000    -65.7066      5.8766      6.3611    163.2751      9.7809    113.1149  
  1341.0000    -65.3017      5.9918      6.4039    159.7658      9.7895    113.8807  
  1341.5000    -64.5227      6.1012      6.4405    157.1484      9.7971    114.9141  
  1342.0000    -63.2578      6.1922      6.4448    155.4969      9.8036    114.8686  
  1342.5000    -62.1441      6.2904      6.4779    152.4218      9.8055    114.8395  
  1343.0000    -60.6906      6.3437      6.5784    150.4281      9.8088    115.2313  
  1343.5000    -59.3449      6.3771      6.5990    149.2501      9.8027    117.2728  
  1344.0000    -58.1126      6.3761      6.5744    148.7487      9.7835    120.1501  
  1344.5000    -58.1070      6.3839      6.5754    148.6987      9.7773    122.5180  
  1345.0000    -60.3286      6.3981      6.5874    149.0221      9.7778    124.1420  
  1345.5000    -61.5496      6.3558      6.6263    149.8975      9.7846    123.5603  
  1346.0000    -62.1236      6.4118      6.7114    150.6702      9.7867    121.9765  
  1346.5000    -61.3745      6.4076      6.7279    151.1546      9.7879    119.7857  
  1347.0000    -59.3717      6.3884      6.7244    152.3333      9.7891    116.8127  
  1347.5000    -58.8048      6.4023      6.7857    154.2840      9.7903    115.2442  
  1348.0000    -62.2207      6.5067      6.9715    155.5179      9.7915    114.8861  
  1348.5000    -65.5136      6.6520      7.2597    156.1411      9.7932    114.5849  
  1349.0000    -68.9402      6.7749      7.5305    155.9323      9.7889    114.3019  
  1349.5000    -73.3501      6.8631      7.6744    155.3230      9.7757    113.7626  
  1350.0000    -74.2849      6.8481      7.6015    154.4731      9.7462    113.7333  
  1350.5000    -68.8801      6.7857      7.3771    152.3986      9.7278    114.0225  
  1351.0000    -66.2010      6.6774      7.2192    151.0302      9.7346    114.2505  
  1351.5000    -63.9008      6.6779      7.1573    149.9098      9.7524    114.4301  
  1352.0000    -62.1722      6.6520      7.0920    147.9206      9.7641    114.6260  
  1352.5000    -60.5581      6.5802      6.9795    145.4884      9.7626    114.8299  
  1353.0000    -58.6813      6.5084      6.8745    142.1559      9.7549    116.1070  
  1353.5000    -57.1892      6.7308      6.9530    137.5000      9.7430    118.4867  
  1354.0000    -55.6193      7.2876      7.3681    130.8779      9.7339    122.9928  
  1354.5000    -55.1195      7.8444      8.0631    123.3175      9.7317    126.2578  
  1355.0000    -57.2356      8.4117      8.7004    115.8561      9.7389    126.9453  
  1355.5000    -62.5287      9.0277      9.3203    111.7586      9.7465    123.1923  
  1356.0000    -62.7484      9.6437      9.8604    109.6725      9.7542    115.5227  
  1356.5000    -59.0871      9.8695      9.7106    107.9698      9.7618    104.3855  
  1357.0000    -55.0213      9.7734      9.3156    107.5758      9.7697     94.7146  
  1357.5000    -53.1488      9.5292      9.2461    107.6695      9.7812     90.6545  
  1358.0000    -52.5205      9.0891      9.1457    109.7117      9.7904     92.9487  
  1358.5000    -53.0580      8.5755      8.6678    113.8522      9.7844    101.5918  
  1359.0000    -53.7702      8.2134      8.3167    119.5391      9.7664    113.3503  
  1359.5000    -54.2371      7.8513      8.1210    126.0866      9.7647    120.8705  
  1360.0000    -54.6769      7.6059      8.0571    130.9402      9.7664    122.6358  
  1360.5000    -55.2154      7.5498      8.0395    133.6886      9.7681    119.9450  
  1361.0000    -55.5316      7.5173      8.0157    134.0977      9.7698    117.0712  
  1361.5000    -55.6070      7.5009      7.9450    133.9448      9.7716    115.4958  
  1362.0000    -55.7114      7.5120      7.9630    133.7821      9.7733    115.1258  
  1362.5000    -55.6045      7.5476      8.0263    134.0636      9.7949    114.7720  
  1363.0000    -55.1390      7.5358      8.0404    134.4608      9.8164    114.2226  
  1363.5000    -54.6026      7.4482      7.9847    135.5733      9.8371    113.7780  
  1364.0000    -54.0244      7.3315      7.8890    137.3584      9.8578    113.3779  
  1364.5000    -53.8558      7.1748      7.7620    139.1200      9.8784    113.2893  
  1365.0000    -53.9452      7.0656      7.5348    139.5954      9.8877    113.8488  
  1365.5000    -54.0234      6.9018      7.3055    140.3719      9.8576    115.5639  
  1366.0000    -53.8375      6.8610      7.1337    141.5255      9.8274    118.7970  
  1366.5000    -53.5893      6.8339      7.1515    142.5147      9.7973    123.8965  
  1367.0000    -53.5914      6.8256      7.2123    144.2671      9.7671    127.6372  
  1367.5000    -53.6376      6.8170      7.2622    146.3328      9.7431    130.1724  
  1368.0000    -53.4762      6.7973      7.2674    147.2442      9.7408    131.2455  
  1368.5000    -53.3641      6.7571      7.2418    147.5509      9.7482    130.9468  
  1369.0000    -53.4100      6.7187      7.1785    147.3753      9.7786    130.3861  
  1369.5000    -53.6107      6.5971      7.1171    147.4662      9.8026    130.3250  
  1370.0000    -53.8399      6.4756      6.9926    148.4062      9.8225    130.6461  
  1370.5000    -53.9447      6.3540      6.8285    149.3424      9.8424    130.9132  
  1371.0000    -53.6090      6.2324      6.6721    149.6809      9.8139    131.4129  
  1371.5000    -53.3352      6.1109      6.6578    150.2918      9.7850    131.6958  
  1372.0000    -52.8121      6.1950      6.7229    151.8986      9.7432    131.3917  
  1372.5000    -52.3253      6.2837      6.7496    153.2720      9.7091    130.9581  
  1373.0000    -52.1622      6.2486      6.6373    154.4701      9.6854    130.8620  
  1373.5000    -51.9465      6.1539      6.5219    156.9284      9.6598    131.3426  
  1374.0000    -51.7619      6.1162      6.4983    158.8771      9.6571    131.4806  
  1374.5000    -51.6784      6.0768      6.4602    159.8354      9.6568    130.6758  
