~VERSION INFORMATION
 VERS.                           2.00:        CWLS LOG ASCII STANDARD - VERSION 2.00
 WRAP.                             NO:        ONE LINE PER DEPTH STEP
~WELL INFORMATION
#MNEM.UNIT                   DATA             INFORMATION
#----------             --------------        ------------------------------
 STRT.F                       25.0000:        START DEPTH
 STOP.F                     4165.0000:        STOP DEPTH
 STEP.F                        0.5000:        STEP VALUE
 NULL.                      -999.2500:        NULL VALUE
 COMP.    USGS/NPR HUSKY OIL OPERATOR:        COMPANY
 LOC .                     21 21N 14W:        LOCATION
 DATE.                         3/3/80:        LOG DATE
 WELL.                 WEST  DEASE #1:        WELL
 UWI .                   500232001400:        UNIQUE WELL ID
 API .                   500232001400:        UNIQUE WELL IDENTIFIER
 FLD .                        WILDCAT:        FIELD
 CNTY.                    NORTH SLOPE:        COUNTY
 STAT.                         ALASKA:        STATE
 CTRY.                            USA:        COUNTRY
 OPER.    USGS/NPR HUSKY OIL OPERATOR:        OPERATOR
 SRVC.                   SCHLUMBERGER:        SERVICE COMPANY
 LAT .                         0.0000:        LATITUDE
 LON .                         0.0000:        LONGITUDE
 DIGS.               CENTER LINE DATA:        DIGITIZING COMPANY
~CURVE INFORMATION      
#MNEM        .UNIT         API CODE           CURVE DESCRIPTION
#-----------------      --------------        ------------------------------
 DEPT        .F                      :        1  DEPTH
 SP          .MV                     :        2  
 LLD         .OHMM                   :        3  
 LLS         .OHMM                   :        4  
 MSFL        .OHMM                   :        5  
 CALI        .IN                     :        6  
 RHOB        .G/C3                   :        7  
 DRHO        .G/C3                   :        8  
 NPHI        .%                      :        9  
 GR          .GAPI                   :        10 
 DT          .US/F                   :        11 
~PARAMETER INFORMATION
#MNEM.UNIT                  VALUE             DESCRIPTION OF MNEMONIC
#---------             ---------------        ------------------------------
 EKB .F                       24.0000:        KELLY BUSHING
 TD  .F                     4173.0000:        TOTAL DEPTH
 BHT .F                       85.0000:        BOTTOM HOLE TEMPERATURE
 BS  .                        12.2500:        BIT SIZE
 FD  .                        10.4000:        FLUID DENSITY
 CSIZ.                        13.3750:        CASING SIZE
 CBD .F                      288.0000:        CASING DRILLER 1
 CBL .F                      292.0000:        CASING LOGGER 1
 DFT .                             99:        TYPE FLUID IN HOLE
 DFV .                        52.0000:        VISCOSITY
 DFPH.                         8.0000:        PH
 DFL .                         7.5000:        FLUID LOSS
 RMS .                         0.1250:        RM
 MST .F                       35.0000:        RM MEAS. TEMP.
 RMF .                         0.1440:        RMF
 MFST.F                       44.0000:        RMF MEAS. TEMP.
 RMC .                         0.2360:        RMC
 MCST.F                       36.0000:        RMC MEAS. TEMP.
~OTHER INFORMATION
~A    DEPTH          SP         LLD         LLS        MSFL        CALI        RHOB        DRHO        NPHI          GR          DT 
# ...
  3105.5000    -39.9652      7.1083      6.0426      0.6563     10.2953      2.0794      0.1426     45.0758     81.2843     98.5524 
  3106.0000    -40.3589      6.6638      5.8310      1.6803     10.3397      2.0693      0.1327     44.5798     80.9352    102.6963 
  3106.5000    -40.5899      6.4324      5.6409      1.6589     10.3612      2.0453      0.1374     45.1414     78.9828    104.8287 
  3107.0000    -40.4294      6.3050      5.4858    125.0277     10.3741      2.0445      0.1237     46.3279     77.3342    102.9874 
  3107.5000    -40.2717      6.1660      5.3422   1936.1475     10.4044      2.0350      0.1158     47.7814     76.5625    104.7711 
  3108.0000    -40.4037      6.0391      5.1757    167.5546     10.4389      1.9805      0.1054     47.2366     75.3049    104.4727 
  3108.5000    -40.8737      5.7708      4.9711      3.1692     10.4633      1.9420      0.1125     46.1225     73.7832    102.7866 
  3109.0000    -41.2630      5.7720      4.9320      0.9268     10.4839      1.9347      0.1189     45.3615     73.9317    106.4002 
  3109.5000    -41.3826      5.7783      4.9388      0.7327     10.4875      1.9706      0.1377     44.9094     74.5541    106.7509 
  3110.0000    -41.5195      5.9886      5.1154      0.7850     10.4995      1.9761      0.1431     44.6665     74.8088    107.5930 
  3110.5000    -41.5716      6.3646      5.4378      0.9060     10.5055      2.0080      0.1447     43.2470     74.7701    107.5152 
  3111.0000    -41.4776      6.3032      5.4697      1.2680     10.5296      2.0317      0.1341     42.0451     75.7076     99.9573 
  3111.5000    -41.3929      6.2908      5.3663      1.9750     10.5457      2.0511      0.1561     41.1469     76.6760    101.8375 
  3112.0000    -41.4679      6.2869      5.4214     16.2115     10.5591      2.0417      0.1201     42.8401     78.7342    102.8461 
  3112.5000    -41.4005      6.3295      5.4611   1963.0293     10.5908      2.0491      0.1032     45.8931     79.0550    104.1848 
  3113.0000    -41.2386      6.3869      5.4890    166.7887     10.6087      2.0102      0.1271     50.4748     77.9034    104.1413 
  3113.5000    -41.2298      6.3885      5.3695      1.5625     10.6215      1.9369      0.1132     51.1194     75.9125    104.1476 
  3114.0000    -41.3477      5.9957      5.1515      1.2361     10.6412      1.9125      0.0977     51.6605     74.0863    107.7825 
  3114.5000    -41.3110      5.6021      4.9639      1.0183     10.6635      1.9073      0.0676     48.3239     71.9656    109.6859 
  3115.0000    -41.3443      5.5785      4.8294      0.9302     10.6631      1.9098      0.0670     45.0288     71.7940    110.6657 
  3115.5000    -41.4456      5.7723      4.9387      1.1071     10.6658      1.9234      0.0916     43.6170     73.1778    111.8044 
  3116.0000    -41.5261      6.0134      5.1493      0.8290     10.7802      2.0203      0.0858     44.2700     76.8089    106.7249 
  3116.5000    -41.5570      6.2370      5.3457      0.7680     11.6205      2.0741      0.0740     44.8223     78.4422    105.4228 
  3117.0000    -41.5859      6.2871      5.3163      0.6905     10.3671      2.0264      0.0755     44.8968     78.2523    103.4945 
  3117.5000    -41.5839      6.2110      5.1146      0.6431      8.9847      1.9683      0.1084     44.9296     77.7835    102.6584 
  3118.0000    -41.5445      5.9273      4.8909      0.8076      8.8285      1.9625      0.1105     45.1875     78.1515    104.3619 
  3118.5000    -41.4294      5.7323      4.8121     20.4185      8.8843      1.9714      0.1201     45.7817     78.4743    107.0678 
  3119.0000    -41.3997      5.8620      4.8854   1952.7710      8.9194      1.9846      0.1344     45.7700     78.5566    105.5046 
  3119.5000    -41.4739      6.0158      5.0680   1957.4410      8.8957      1.9899      0.1297     46.4585     78.4364    102.6253 
  3120.0000    -41.4442      6.4269      5.2668   1953.1635      8.8957      2.0095      0.1357     47.1888     77.6649    102.0195 
  3120.5000    -41.4930      6.5864      5.4503   1945.4200      8.9322      2.0346      0.1428     46.0637     74.9621    101.8257 
  3121.0000    -41.6169      6.6610      5.5366    136.2442      8.9362      2.0369      0.1443     44.7881     71.5712    102.2960 
  3121.5000    -41.5864      6.7327      5.6243    127.3376      8.9249      2.0566      0.1308     44.3054     69.0468    102.6091 
  3122.0000    -41.4409      6.7917      5.8103    940.5151      8.9209      2.0907      0.0922     45.1418     67.0631    102.0726 
  3122.5000    -41.2544      6.8039      5.7478     30.6490      8.9338      2.0949      0.0623     46.0703     67.3839    101.6399 
  3123.0000    -41.1850      6.5988      5.5766      2.4937      8.9157      2.0854      0.1009     46.7328     67.2592    101.5915 
  3123.5000    -41.3015      6.3137      5.3062      1.6019      8.8964      2.0569      0.1473     46.9949     67.3067    102.0228 
  3124.0000    -41.3662      5.8843      5.0335      0.8981      8.9058      2.0273      0.1358     47.5194     68.6334    103.2105 
  3124.5000    -41.3526      5.9410      5.1118      0.6481      8.9309      1.9962      0.1091     48.3647     71.0069    104.8428 
  3125.0000    -41.3610      6.0509      5.2253      0.7905      8.9246      1.9249      0.0901     49.5661     74.1435    103.7839 
  3125.5000    -41.4483      5.9219      5.1697      1.1587      8.9356      1.8842      0.0903     50.5159     76.6296    102.7715 
  3126.0000    -41.4386      5.8307      5.1148      1.5387      8.9308      1.8496      0.0983     50.3207     78.4199    100.9874 
  3126.5000    -41.3905      5.7985      5.0334      1.6730      8.9212      1.8450      0.1146     49.0701     79.5928    102.3386 
  3127.0000    -41.3003      5.7015      4.9419      2.3036      8.9267      1.8374      0.1166     47.6964     80.8299    106.7438 
  3127.5000    -41.3740      5.4974      4.8353      2.5225      8.9365      1.8352      0.1013     46.2923     82.7523    109.1720 
  3128.0000    -41.3184      5.4019      4.7217      1.4821      8.9228      1.8344      0.0966     44.7881     87.3547    110.1238 
  3128.5000    -41.0324      5.5122      4.8135      0.8541      8.9230      1.8243      0.0687     44.6742     88.1621    111.0755 
  3129.0000    -41.0935      5.8344      4.9771      0.7637      8.9339      1.8220      0.0689     45.6446     88.1494    110.4652 
  3129.5000    -41.2961      6.1012      5.3116      0.7660      8.9224      1.8475      0.0777     45.0662     85.6450    107.3560 
  3130.0000    -41.3941      6.6081      5.7289      0.7675      8.9169      1.9184      0.0771     47.6196     83.9355    105.1519 
  3130.5000    -41.3447      7.0290      5.9191      0.6987      8.9312      1.9644      0.0905     50.2844     81.9166    106.9497 
  3131.0000    -41.1539      6.8675      5.8109      0.6111      8.9341      1.9203      0.0953     51.7731     79.5843    105.9155 
  3131.5000    -40.8020      6.2044      5.5300      0.5829      8.9242      1.8224      0.0857     52.9722     78.1461    104.7827 
  3132.0000    -40.4792      5.5548      5.2512      0.6656      8.9301      1.8223      0.0728     54.1714     76.3905    106.3029 
  3132.5000    -40.7901      5.4084      4.9561      0.7554      8.9366      1.8049      0.0677     54.9203     73.1171    108.0794 
  3133.0000    -41.2659      5.3500      4.7347      0.6444      8.9271      1.8016      0.0673     54.6024     70.1967    113.6303 
  3133.5000    -41.3893      5.3213      4.6212      0.4873      8.9271      1.8249      0.0741     53.1249     68.3983    114.5349 
  3134.0000    -41.4380      5.2958      4.7972      0.4143      8.9261      1.8458      0.0846     51.7005     66.9964    114.7170 
  3134.5000    -41.3935      5.3053      4.8583      0.5746      8.9251      1.8738      0.1001     50.4915     67.0102    113.2491 
  3135.0000    -41.3809      5.3147      4.8767      0.8879      8.9242      1.9029      0.1140     49.6005     66.5742    110.2500 
  3135.5000    -41.3683      5.3241      4.9314      0.7626      8.9338      1.8670      0.1100     48.7095     67.0048    105.7597 
