~VERSION INFORMATION
 VERS.                           2.00:        CWLS LOG ASCII STANDARD - VERSION 2.00
 WRAP.                             NO:        ONE LINE PER DEPTH STEP
~WELL INFORMATION
#MNEM.UNIT                   DATA             INFORMATION
#----------             --------------        ------------------------------
 STRT.F                      884.0000:        START DEPTH
 STOP.F                     2365.0000:        STOP DEPTH
 STEP.F                        0.5000:        STEP VALUE
 NULL.                      -999.2500:        NULL VALUE
 COMP.                      U.S. NAVY:        COMPANY  
 LOC .                   14  22N  18W:        LOCATION   
 DATE.                        3/19/64:        LOG DATE 
 WELL.                SOUTH BARROW #6:        WELL     
 UWI .                   500231001500:        UNIQUE WELL ID 
 API .                   500231001500:        UNIQUE WELL IDENTIFIER 
 FLD .                   SOUTH BARROW:        FIELD    
 CNTY.                         NPR #4:        COUNTY  
 STAT.                         ALASKA:        STATE   
 CTRY.                            USA:        COUNTRY 
 OPER.                      U.S. NAVY:        OPERATOR  
 SRVC.                   SCHLUMBERGER:        SERVICE COMPANY 
 LAT .                         0.0000:        LATITUDE
 LON .                         0.0000:        LONGITUDE
 DIGS.               CENTER LINE DATA:        DIGITIZING COMPANY 
~CURVE INFORMATION      
#MNEM        .UNIT         API CODE           CURVE DESCRIPTION
#-----------------      --------------        ------------------------------
 DEPT        .F                      :        1  DEPTH
 SP          .MV                     :        2  
 SN          .OHMM                   :        3  
 ILD         .OHMM                   :        4  
 CILD        .OHMM                   :        5  
 DT          .US/F                   :        6  
~PARAMETER INFORMATION       
#MNEM.UNIT                  VALUE             DESCRIPTION OF MNEMONIC
#---------             ---------------        ------------------------------
 EKB .F                       40.0000:        KELLY BUSHING
 TD  .F                     2366.0000:        TOTAL DEPTH
 BHT .F                        0.0000:        BOTTOM HOLE TEMPERATURE
 BS  .                         9.6250:        BIT SIZE
 FD  .                        85.0000:        FLUID DENSITY
 CSIZ.                        11.7500:        CASING SIZE
 CBD .F                      884.0000:        CASING DRILLER 1
 CBL .F                      884.0000:        CASING LOGGER 1
 DFT .                  Miscellaneous:        TYPE FLUID IN HOLE
 DFV .                        45.0000:        VISCOSITY
 DFPH.                         0.0000:        PH
 DFL .                         2.8000:        FLUID LOSS
 RMS .                         5.3700:        RM
 MST .F                       33.0000:        RM MEAS. TEMP.
 RMF .                         2.9500:        RMF
 MFST.F                       45.0000:        RMF MEAS. TEMP.
 RMC .                         2.4800:        RMC
 MCST.F                       35.0000:        RMC MEAS. TEMP.
~OTHER INFORMATION
~A    DEPTH          SP          SN         ILD        CILD          DT  
# ...
  1265.5000    -54.3114     13.3274      9.4038    103.9583   -999.2500  
  1266.0000    -55.5533     13.6834      9.7488    102.9560   -999.2500  
  1266.5000    -55.7554     13.9067     10.1826     98.7848   -999.2500  
  1267.0000    -55.0135     14.3532     10.8070     93.7813   -999.2500  
  1267.5000    -54.3343     15.7545     11.2083     89.8030   -999.2500  
  1268.0000    -55.1058     18.0094     11.3482     88.3213   -999.2500  
  1268.5000    -57.0993     21.2900     11.3533     87.7500   -999.2500  
  1269.0000    -59.2606     24.0485     11.4045     87.5879   -999.2500  
  1269.5000    -60.3234     24.4444     11.5399     86.8111   -999.2500  
  1270.0000    -60.9598     21.6186     11.4854     86.3574   -999.2500  
  1270.5000    -61.0273     18.4126     11.2203     87.3026   -999.2500  
  1271.0000    -60.3627     15.7766     10.6681     90.5924   -999.2500  
  1271.5000    -59.0190     14.3142      9.9067     95.8767   -999.2500  
  1272.0000    -57.3194     13.7993      9.3362    101.6621   -999.2500  
  1272.5000    -56.9692     13.5210      8.9360    106.9258   -999.2500  
  1273.0000    -59.0507     13.3907      8.7665    109.7747   -999.2500  
  1273.5000    -63.2162     13.5097      8.5942    111.7458   -999.2500  
  1274.0000    -67.7442     13.7428      8.4912    113.0039   -999.2500  
  1274.5000    -70.8041     13.8114      8.4034    114.2697   -999.2500  
  1275.0000    -71.3023     13.6360      8.3801    115.0769   -999.2500  
  1275.5000    -69.9487     13.2637      8.4117    114.8446   -999.2500  
  1276.0000    -67.4629     12.7577      8.5391    113.7316   -999.2500  
  1276.5000    -64.8093     12.2059      8.7424    111.5978   -999.2500  
  1277.0000    -61.6777     11.7002      8.9748    108.9348   -999.2500  
  1277.5000    -56.4542     11.4328      9.3122    105.5934   -999.2500  
  1278.0000    -52.4822     11.3580      9.7436    101.8063   -999.2500  
  1278.5000    -49.7562     11.3366     10.0887     98.6742   -999.2500  
  1279.0000    -48.8893     11.3830     10.2373     96.2743   -999.2500  
  1279.5000    -48.9366     11.6329     10.4296     94.6729   -999.2500  
  1280.0000    -49.8559     12.0998     10.4776     93.5128   -999.2500  
  1280.5000    -50.4769     12.6574     10.4589     94.0303   -999.2500  
  1281.0000    -50.5527     12.9711     10.3469     94.5250   -999.2500  
  1281.5000    -50.8755     12.9533     10.2698     95.1747   -999.2500  
  1282.0000    -52.6903     12.6981     10.1325     95.7976   -999.2500  
  1282.5000    -54.6205     12.4020     10.0459     97.3226   -999.2500  
  1283.0000    -54.7982     12.1341     10.0249     97.7949   -999.2500  
  1283.5000    -52.9377     11.8274     10.0756     97.6706   -999.2500  
  1284.0000    -49.6856     11.5368     10.2140     96.6010   -999.2500  
  1284.5000    -47.2188     11.3284     10.4420     94.9860   -999.2500  
  1285.0000    -46.0099     11.4905     10.5622     93.7058   -999.2500  
  1285.5000    -45.6858     11.9583     10.5661     93.2975   -999.2500  
  1286.0000    -45.5916     12.1888     10.5220     93.4850   -999.2500  
  1286.5000    -45.4592     12.1582     10.4981     93.5673   -999.2500  
  1287.0000    -45.3658     11.7864     10.4250     94.2269   -999.2500  
  1287.5000    -45.2517     11.4494     10.3005     95.6116   -999.2500  
  1288.0000    -44.9978     11.2426     10.0026     97.6053   -999.2500  
  1288.5000    -44.7741     11.0770      9.7473     99.4589   -999.2500  
  1289.0000    -44.5500     10.9357      9.6979    100.1310   -999.2500  
  1289.5000    -44.3178     10.7870      9.7508     99.8423   -999.2500  
  1290.0000    -44.2313     10.7130      9.8669     98.9988   -999.2500  
  1290.5000    -44.3218     11.0138     10.0114     98.0788   -999.2500  
  1291.0000    -44.6743     11.3843     10.1662     97.1714   -999.2500  
  1291.5000    -44.9913     11.6461     10.3517     95.2359   -999.2500  
  1292.0000    -45.0067     11.6030     10.9272     91.7902   -999.2500  
  1292.5000    -44.7574     11.5815     11.4793     87.9188   -999.2500  
  1293.0000    -44.4997     11.7165     11.7634     85.1185   -999.2500  
  1293.5000    -44.3771     11.9820     11.9547     82.6031   -999.2500  
  1294.0000    -44.1696     12.3790     12.1989     80.5976   -999.2500  
  1294.5000    -43.5710     13.0086     12.6695     78.6486   -999.2500  
  1295.0000    -42.3014     13.7763     13.1401     76.7431   -999.2500  
  1295.5000    -41.1468     14.4734     13.6072     74.4418   -999.2500  
  1296.0000    -40.5190     14.8867     14.0165     72.0834   -999.2500  
  1296.5000    -40.0470     15.0203     14.0768     70.6321   -999.2500  
  1297.0000    -39.8174     15.1143     14.0733     70.4268   -999.2500  
  1297.5000    -39.7313     15.2436     13.8409     71.1549   -999.2500  
  1298.0000    -39.8970     15.4112     13.4610     72.6420   -999.2500  
  1298.5000    -40.3588     15.4954     13.1433     74.6093   -999.2500  
  1299.0000    -41.4769     15.5629     12.9878     75.6959   -999.2500  
  1299.5000    -43.7809     15.5913     12.9078     76.3956   -999.2500  
  1300.0000    -46.8338     15.5921     12.8415     76.9087   -999.2500  
  1300.5000    -48.7991     15.4174     12.7942     77.1292   -999.2500  
  1301.0000    -48.2908     15.1801     12.7993     77.0076   -999.2500  
  1301.5000    -47.2899     15.0224     12.9129     76.6789   -999.2500  
  1302.0000    -46.5123     14.9747     13.1049     75.8386   -999.2500  
  1302.5000    -45.6965     15.0103     13.3607     74.4838   -999.2500  
  1303.0000    -45.3923     15.1438     13.5087     73.5628   -999.2500  
  1303.5000    -45.4075     15.3081     13.6766     72.7800   -999.2500  
  1304.0000    -45.7751     15.4209     13.8547     71.8522   -999.2500  
  1304.5000    -46.1485     15.5153     14.0433     70.7505   -999.2500  
  1305.0000    -45.6243     15.7632     14.2721     69.8829   -999.2500  
  1305.5000    -43.5513     15.8947     14.4174     68.9562   -999.2500  
  1306.0000    -41.6471     15.8301     14.5478     68.1869   -999.2500  
  1306.5000    -40.7182     15.7685     14.5897     67.8692   -999.2500  
  1307.0000    -40.4252     15.7692     14.6401     67.7575   -999.2500  
  1307.5000    -40.4269     15.7804     14.5842     67.7503   -999.2500  
  1308.0000    -40.7174     15.7327     14.4831     68.3302   -999.2500  
  1308.5000    -41.0972     15.6565     14.2771     69.3573   -999.2500  
  1309.0000    -41.5416     15.4832     14.0163     70.4383   -999.2500  
  1309.5000    -41.8086     15.2480     13.7619     71.8292   -999.2500  
  1310.0000    -42.0270     14.9951     13.4918     73.1295   -999.2500  
  1310.5000    -42.8917     14.7844     13.2886     74.3874   -999.2500  
  1311.0000    -43.4821     14.5936     13.0741     75.3961   -999.2500  
  1311.5000    -43.8234     14.4467     12.8848     76.5299   -999.2500  
  1312.0000    -43.8376     14.3271     12.7700     77.3464   -999.2500  
  1312.5000    -43.7073     14.2357     12.7483     77.3940   -999.2500  
  1313.0000    -43.7847     14.2742     12.7859     77.2393   -999.2500  
  1313.5000    -44.0162     14.3381     12.8802     77.0301   -999.2500  
  1314.0000    -44.1857     14.4872     12.9927     76.6152   -999.2500  
  1314.5000    -44.1693     14.7380     13.1096     75.8054   -999.2500  
  1315.0000    -43.6748     14.8868     13.5755     74.3031   -999.2500  
  1315.5000    -42.8579     15.1017     14.2074     71.6555   -999.2500  
  1316.0000    -42.7348     15.5250     14.9950     67.7787   -999.2500  
  1316.5000    -42.7500     15.9932     15.7826     63.7149   -999.2500  
  1317.0000    -42.7883     16.6926     16.3964     61.4536   -999.2500  
  1317.5000    -42.3835     17.4973     16.9161     59.6112   -999.2500  
  1318.0000    -41.3939     18.3938     17.4357     58.0567   -999.2500  
  1318.5000    -40.3178     19.4019     17.6572     56.6535   -999.2500  
  1319.0000    -39.9580     19.6412     17.7157     55.8695   -999.2500  
  1319.5000    -39.9980     19.3970     17.5972     56.5119   -999.2500  
