~VERSION INFORMATION
 VERS.                           2.00:        CWLS LOG ASCII STANDARD - VERSION 2.00
 WRAP.                             NO:        ONE LINE PER DEPTH STEP
~WELL INFORMATION
#MNEM.UNIT                   DATA             INFORMATION
#----------             --------------        ------------------------------
 STRT.F                       96.0000:        START DEPTH
 STOP.F                     2280.0000:        STOP DEPTH
 STEP.F                        0.5000:        STEP VALUE
 NULL.                      -999.2500:        NULL VALUE
 COMP.    USGS/NPR HUSKY OIL OPERATOR:        COMPANY  
 LOC .                   23  22N  17W:        LOCATION   
 DATE.                        9/11/80:        LOG DATE 
 WELL.               SOUTH BARROW #15:        WELL     
 UWI .                   500232001600:        UNIQUE WELL ID 
 API .                   500232001600:        UNIQUE WELL IDENTIFIER 
 FLD .                   SOUTH BARROW:        FIELD    
 CNTY.                    NORTH SLOPE:        COUNTY  
 STAT.                         ALASKA:        STATE   
 CTRY.                            USA:        COUNTRY 
 OPER.    USGS/NPR HUSKY OIL OPERATOR:        OPERATOR  
 SRVC.                   SCHLUMBERGER:        SERVICE COMPANY 
 LAT .                         0.0000:        LATITUDE
 LON .                         0.0000:        LONGITUDE
 DIGS.               CENTER LINE DATA:        DIGITIZING COMPANY 
~CURVE INFORMATION      
#MNEM        .UNIT         API CODE           CURVE DESCRIPTION
#-----------------      --------------        ------------------------------
 DEPT        .F                      :        1  DEPTH
 CALI        .IN                     :        2  
 GR          .GAPI                   :        3  
 RHOB        .G/C3                   :        4  
 DRHO        .G/C3                   :        5  
 NPHI        .%                      :        6  
 DT          .US/F                   :        7  
 SP          .MV                     :        8  
 ILD         .OHMM                   :        9  
 ILM         .OHMM                   :        10 
 SFL         .OHMM                   :        11 
 LLD         .OHMM                   :        12 
 LLS         .OHMM                   :        13 
 MSFL        .OHMM                   :        14 
~PARAMETER INFORMATION       
#MNEM.UNIT                  VALUE             DESCRIPTION OF MNEMONIC
#---------             ---------------        ------------------------------
 EKB .F                       30.0000:        KELLY BUSHING
 TD  .F                     2279.0000:        TOTAL DEPTH
 BHT .F                        0.0000:        BOTTOM HOLE TEMPERATURE
 BS  .                         8.5000:        BIT SIZE
 FD  .                        10.3000:        FLUID DENSITY
 CSIZ.                         9.6250:        CASING SIZE
 CBD .F                     1514.0000:        CASING DRILLER 1
 CBL .F                     1520.0000:        CASING LOGGER 1
 DFT .                  Miscellaneous:        TYPE FLUID IN HOLE
 DFV .                        43.0000:        VISCOSITY
 DFPH.                         0.0000:        PH
 DFL .                         0.0000:        FLUID LOSS
 RMS .                         0.1800:        RM
 MST .F                       48.0000:        RM MEAS. TEMP.
 RMF .                         0.1400:        RMF
 MFST.F                       48.0000:        RMF MEAS. TEMP.
 RMC .                         0.0000:        RMC
 MCST.F                        0.0000:        RMC MEAS. TEMP.
~OTHER INFORMATION
~A    DEPTH        CALI          GR        RHOB        DRHO        NPHI          DT          SP         ILD         ILM         SFL         LLD         LLS        MSFL  
# ...
  1608.0000     13.0788     81.5492      2.0957      0.0687     37.5363    106.4649   -999.2500   -999.2500   -999.2500   -999.2500      9.8827      7.4014      7.4535  
  1608.5000     13.2408     81.0192      2.2065      0.0583     36.5209    130.1667   -999.2500   -999.2500   -999.2500   -999.2500     10.6068      8.8263      7.3894  
  1609.0000     13.2798     80.4343      2.2863      0.0724     36.3133    124.2229   -999.2500   -999.2500   -999.2500   -999.2500     10.7085      8.9094      7.0736  
  1609.5000     13.0618     79.1690      2.3079      0.0993     36.6507    110.4454   -999.2500   -999.2500   -999.2500   -999.2500     10.6250      8.7188      6.5460  
  1610.0000     12.7200     79.9063      2.3080      0.0948     36.3650    112.1701   -999.2500   -999.2500   -999.2500   -999.2500     10.5387      8.5081      6.1312  
  1610.5000     12.6501     81.3095      2.3124      0.1080     36.7350    111.9090   -999.2500   -999.2500   -999.2500   -999.2500     10.4874      8.3138      6.5120  
  1611.0000     12.7030     82.5444      2.2994      0.1442     38.2891    109.2340   -999.2500   -999.2500   -999.2500   -999.2500     10.4364      8.2584      6.8359  
  1611.5000     12.9484     84.3912      2.2698      0.1088     40.2431    109.8492   -999.2500   -999.2500   -999.2500   -999.2500     10.5210      8.5473      6.9857  
  1612.0000     12.2662     85.9473      2.2435      0.1001     40.4389    112.8882   -999.2500   -999.2500   -999.2500   -999.2500     10.7130      8.6289      7.0094  
  1612.5000     11.4840     84.0422      2.2239      0.1258     40.3677    111.8564   -999.2500   -999.2500   -999.2500   -999.2500     10.6626      8.4728      6.7942  
  1613.0000     11.9036     83.2636      2.2147      0.1006     40.4320    114.8998   -999.2500   -999.2500   -999.2500   -999.2500     10.9994      8.3987      6.4935  
  1613.5000     11.9036     83.5406      2.2193      0.0576     41.3323    109.7782   -999.2500   -999.2500   -999.2500   -999.2500     11.5762      8.4737      6.2410  
  1614.0000     12.2161     82.2784      2.2519      0.0330     41.7663    107.3452   -999.2500   -999.2500   -999.2500   -999.2500     12.3343      8.8386      6.4441  
  1614.5000     11.8949     79.5730      2.2898      0.0229     40.2072    105.6280   -999.2500   -999.2500   -999.2500   -999.2500     13.0307      9.4838      7.0050  
  1615.0000     11.5445     75.6993      2.3523      0.0337     36.2584    109.7120   -999.2500   -999.2500   -999.2500   -999.2500     14.4695     10.5675      8.7262  
  1615.5000     11.1334     73.3774      2.4067      0.0081     32.5799    112.0998   -999.2500   -999.2500   -999.2500   -999.2500     17.7615     14.7050     10.5936  
  1616.0000     11.7476     69.6446      2.4494     -0.0113     30.6065    110.3595   -999.2500   -999.2500   -999.2500   -999.2500     21.1412     15.7505      9.9466  
  1616.5000     10.2936     67.2608      2.4438     -0.0004     30.9402    109.6722   -999.2500   -999.2500   -999.2500   -999.2500     20.8213     15.7126      9.1596  
  1617.0000      9.7326     69.6487      2.4322      0.0459     33.3332    108.4937   -999.2500   -999.2500   -999.2500   -999.2500     17.0609     13.3211      8.3528  
  1617.5000      9.8569     72.9048      2.4002      0.1016     35.9982    108.9715   -999.2500   -999.2500   -999.2500   -999.2500     12.9871     10.8787      7.2515  
  1618.0000     10.3314     77.8616      2.3702      0.1521     37.9958    108.8805   -999.2500   -999.2500   -999.2500   -999.2500     10.2723      8.4057      5.6796  
  1618.5000     10.6153     83.8520      2.2695      0.1122     38.8540    109.2256   -999.2500   -999.2500   -999.2500   -999.2500      9.5069      7.7596      4.5895  
  1619.0000     11.0257     87.2779      2.1802      0.0690     39.0356    109.0185   -999.2500   -999.2500   -999.2500   -999.2500      9.2004      7.4319      4.0677  
  1619.5000     11.4349     87.8678      2.1732      0.0703     39.1030    109.5459   -999.2500   -999.2500   -999.2500   -999.2500      9.3304      7.3421      4.7855  
  1620.0000     11.8767     87.5458      2.2233      0.1136     39.1632    109.1228   -999.2500   -999.2500   -999.2500   -999.2500      9.6170      7.6122      5.9739  
  1620.5000     12.2213     88.1401      2.1897      0.1309     38.7751    107.8124   -999.2500   -999.2500   -999.2500   -999.2500     10.0452      8.1509      7.1106  
  1621.0000     12.5088     88.4550      2.1288      0.1223     37.9364    107.4842   -999.2500   -999.2500   -999.2500   -999.2500     10.5186      8.5371      8.2418  
  1621.5000     12.4600     86.8893      2.1098      0.1353     37.7194    109.1468   -999.2500   -999.2500   -999.2500   -999.2500     10.8133      8.4918      7.8705  
  1622.0000     12.2179     84.2557      2.1349      0.1262     37.8505    110.3246   -999.2500   -999.2500   -999.2500   -999.2500     11.0794      8.6964      7.5070  
  1622.5000     11.7419     83.0753      2.1780      0.1197     37.8849    111.5614   -999.2500   -999.2500   -999.2500   -999.2500     11.2290      8.8830      7.7992  
  1623.0000     12.1990     82.8018      2.2150      0.1274     37.6728    111.6841   -999.2500   -999.2500   -999.2500   -999.2500     11.3807      8.8557      8.1109  
  1623.5000     12.2183     82.9651      2.2370      0.1266     37.3813    111.2868   -999.2500   -999.2500   -999.2500   -999.2500     11.4690      8.8886      8.5296  
  1624.0000     12.2700     82.6991      2.2496      0.1158     37.3718    109.3853   -999.2500   -999.2500   -999.2500   -999.2500     11.5024      8.9859      8.4138  
  1624.5000     12.9295     79.6360      2.2357      0.0965     37.4023    111.2519   -999.2500   -999.2500   -999.2500   -999.2500     11.4737      8.9350      8.1593  
  1625.0000     12.9263     76.8969      2.2141      0.0876     37.4725    112.2690   -999.2500   -999.2500   -999.2500   -999.2500     11.3454      8.8374      8.2097  
  1625.5000     12.0709     76.4079      2.2181      0.1167     38.3645    110.4323   -999.2500   -999.2500   -999.2500   -999.2500     11.2469      8.7154      8.1498  
  1626.0000     12.1005     77.5936      2.2390      0.1245     37.9160    109.4484   -999.2500   -999.2500   -999.2500   -999.2500     11.4298      8.5818      7.3686  
  1626.5000     12.3487     79.9243      2.2177      0.1205     37.2056    108.1118   -999.2500   -999.2500   -999.2500   -999.2500     11.4304      8.4503      6.7936  
  1627.0000     12.7817     82.7421      2.2074      0.1415     37.2484    106.9897   -999.2500   -999.2500   -999.2500   -999.2500     11.1702      8.3312      6.1004  
  1627.5000     12.4520     84.3797      2.2318      0.1562     37.9498    105.9916   -999.2500   -999.2500   -999.2500   -999.2500     10.6877      8.2280      5.9504  
  1628.0000     12.5800     85.6259      2.2807      0.1400     38.7917    105.6350   -999.2500   -999.2500   -999.2500   -999.2500     10.3740      8.1776      6.4615  
  1628.5000     11.6432     87.5981      2.3169      0.1167     38.1437    104.7960   -999.2500   -999.2500   -999.2500   -999.2500     10.2956      8.1845      7.2162  
  1629.0000     11.5143     85.4805      2.3292      0.0884     37.2576    104.0503   -999.2500   -999.2500   -999.2500   -999.2500     10.2946      8.2793      7.6954  
  1629.5000     12.0866     82.5954      2.3273      0.1172     37.8017    103.4349   -999.2500   -999.2500   -999.2500   -999.2500     10.5082      8.4562      7.8604  
  1630.0000     12.4058     81.3398      2.3062      0.1235     37.4154    103.8542   -999.2500   -999.2500   -999.2500   -999.2500     10.8455      8.6354      7.5753  
  1630.5000     12.5678     85.1454      2.2914      0.1107     36.9552    104.0654   -999.2500   -999.2500   -999.2500   -999.2500     11.1707      8.8064      6.9565  
  1631.0000     12.3282     86.2447      2.2868      0.0530     37.5751    103.8348   -999.2500   -999.2500   -999.2500   -999.2500     11.2496      8.8470      6.0422  
  1631.5000     11.8524     85.9849      2.3166      0.0451     38.1734    102.6440   -999.2500   -999.2500   -999.2500   -999.2500     10.9713      8.8888      5.4176  
