~VERSION INFORMATION
 VERS.                           2.00:        CWLS LOG ASCII STANDARD - VERSION 2.00
 WRAP.                             NO:        ONE LINE PER DEPTH STEP
~WELL INFORMATION
#MNEM.UNIT                   DATA             INFORMATION
#----------             --------------        ------------------------------
 STRT.F                      151.0000:        START DEPTH
 STOP.F                     2726.0000:        STOP DEPTH
 STEP.F                        0.5000:        STEP VALUE
 NULL.                      -999.2500:        NULL VALUE
 COMP.                      U.S. NAVY:        COMPANY  
 WELL.                     IKO BAY #1:        WELL     
 FLD .                        WILDCAT:        FIELD    
 LOC .                   16  21N  16W:        LOCATION   
 CNTY.                    NORTH SLOPE:        COUNTY  
 STAT.                         ALASKA:        STATE   
 CTRY.                            USA:        COUNTRY 
 DATE.                         2/8/75:        LOG DATE 
 API .                   502790000000:        UNIQUE WELL IDENTIFIER 
 OPER.                      U.S. NAVY:        OPERATOR  
 SRVC.                            440:        SERVICE COMPANY 
 UWI .                   502790000000:        UNIQUE WELL ID 
 LAT .                         0.0000:        LATITUDE
 LON .                         0.0000:        LONGITUDE
 DIGS.                             65:        DIGITIZING COMPANY 
~CURVE INFORMATION      
#MNEM.UNIT                 API CODE           CURVE DESCRIPTION
#---------              --------------        ------------------------------
 DEPT.F                              :        1  DEPTH
 SP  .MV                             :        2
 ILD .OHMM                           :        3
 LL8 .OHMM                           :        4
 ILM .OHMM                           :        5
 RHOB.G/C3                           :        6
 DRHO.G/C3                           :        7
 CALI.IN                             :        8
 GR  .GAPI                           :        9
 NPHI.%                              :       10
 DT  .US/F                           :       11
~PARAMETER INFORMATION       
#MNEM.UNIT                  VALUE             DESCRIPTION OF MNEMONIC
#---------             ---------------        ------------------------------
 EKB .F                        0.0000:        KELLY BUSHING
 TD  .F                     2731.0000:        TOTAL DEPTH
 BHT .F                             0.0000:        BOTTOM HOLE TEMPERATURE
 BS  .                             14.7500:        BIT SIZE
 FD  .                              0.0000:        FLUID DENSITY
 CSIZ.                             16.0000:        CASING SIZE
 CBD .F                           149.0000:        CASING DRILLER 1
 CBL .F                           152.0000:        CASING LOGGER 1
 DFT .                            Gel:        TYPE FLUID IN HOLE
 DFV .                              0.0000:        VISCOSITY
 DFPH.                              0.0000:        PH
 DFL .                              0.0000:        FLUID LOSS
 RMS .                              0.3000:        RM
 MST .F                       49.0000:        RM MEAS. TEMP.
 RMF .                              0.2300:        RMF
 MFST.F                       49.0000:        RMF MEAS. TEMP.
 RMC .                              0.4600:        RMC
 MCST.F                       49.0000:        RMC MEAS. TEMP.
 UWI .                   502790000000:        UNIQUE WELL ID
~OTHER INFORMATION
~A    DEPTH          SP         ILD         LL8         ILM        RHOB        DRHO        CALI          GR        NPHI          DT  
# ...
  2521.0000    -53.2809      7.7708     10.2967      8.3671      2.5787      0.0139     10.0496    119.8251     38.0624     94.1938  
  2521.5000    -53.0416      7.7823     10.4232      8.3796      2.5938      0.0222     10.0654    119.2495     37.6198     94.1354  
  2522.0000    -52.8986      7.7939     11.0061      8.3920      2.5877      0.0317     10.0615    120.8247     37.7024     94.6213  
  2522.5000    -52.8503      7.8055     11.0453      8.4045      2.5821      0.0375     10.0604    122.2116     37.8982     95.1027  
  2523.0000    -52.9617      7.8171     10.4566      8.4170      2.5987      0.0521     10.0592    121.1689     38.0617     94.9374  
  2523.5000    -53.3474      7.8287     10.1294      8.4295      2.5834      0.0422     10.0875    118.7498     38.1709     94.0737  
  2524.0000    -53.5208      7.8404      9.9562      8.4421      2.5920      0.0236     10.1227    117.3581     38.2570     93.2796  
  2524.5000    -53.6359      7.8445     10.0320      8.4462      2.6174      0.0049     10.2062    116.7274     37.9994     92.9523  
  2525.0000    -53.6455      7.8455     10.4963      8.4472      2.6493      0.0402     10.2119    118.4607     37.0993     92.8244  
  2525.5000    -53.6278      7.8620     11.0457      8.5691      2.6577      0.0514     10.2279    119.5672     35.0072     92.7283  
  2526.0000    -53.5234      8.0506     10.7523      8.7038      2.6217      0.0366     10.2005    119.7085     33.5290     92.2394  
  2526.5000    -53.2259      8.1772     10.5361      8.8406      2.6140      0.0206     10.1028    120.2673     34.6238     90.2054  
  2527.0000    -52.8376      8.2529     10.6990      8.8859      2.6411      0.0097     10.0909    121.4453     35.1853     89.3725  
  2527.5000    -52.7964      8.2513     11.0619      8.8842      2.6737      0.0264     10.0964    124.4813     35.0572     90.2113  
  2528.0000    -52.6903      8.2497     11.6690      8.8825      2.7253      0.0630     10.1059    129.9900     36.0448     92.5125  
  2528.5000    -52.0560      8.1608     11.7215      8.8076      2.6664      0.0593     10.1732    133.4878     37.0864     94.7950  
  2529.0000    -51.3351      8.0659     10.4922      8.7052      2.6100      0.0493     10.2390    136.0441     38.2349     95.9315  
  2529.5000    -51.6210      7.9721     10.0227      8.6040      2.5922      0.0396     10.1831    138.1987     38.3710     96.1064  
  2530.0000    -52.1236      7.8793      9.9321      8.5039      2.5728      0.0307     10.1030    137.3612     38.0241     96.0620  
  2530.5000    -52.5358      7.7927      9.8881      8.4050      2.5759      0.0234     10.0369    135.1094     38.8711     96.0293  
  2531.0000    -52.4943      7.7215     10.1257      8.3261      2.5787      0.0143     10.0069    133.6487     40.0096     96.1024  
  2531.5000    -52.5967      7.6508     10.3849      8.2499      2.6012      0.0313      9.9955    132.0428     39.9963     96.5835  
  2532.0000    -53.3032      7.5809     10.3970      8.1745      2.6162      0.0400      9.9927    130.0535     39.6659     97.1951  
  2532.5000    -53.9696      7.5220     10.3423      8.1011      2.6026      0.0489      9.9934    128.5574     39.8983     97.8895  
  2533.0000    -54.3600      7.4931     10.1710      8.0700      2.5967      0.0500     10.0001    129.0199     39.6637     98.5508  
  2533.5000    -54.6015      7.5765      9.9021      8.0390      2.5907      0.0409      9.9936    130.0795     37.6008     98.9204  
  2534.0000    -54.7849      7.6643      9.8260      8.0082      2.5664      0.0365      9.9945    129.0898     36.1162     98.8317  
  2534.5000    -55.0544      7.7532      9.9713      7.9967      2.5532      0.0321      9.9794    127.0379     35.0690     98.2971  
  2535.0000    -55.6159      7.8489     10.1110      8.0738      2.5528      0.0381      9.9929    123.3537     34.9764     97.1044  
  2535.5000    -56.3013      8.0218     10.3181      8.2872      2.5531      0.0445      9.9922    116.3269     33.0313     94.8025  
  2536.0000    -56.8758      8.2463     10.2776      8.7302      2.5452      0.0364      9.9433    107.2437     30.8560     91.4923  
  2536.5000    -57.5253      8.8045     10.4635      9.4187      2.5241      0.0306      9.8813     93.3856     26.5545     87.7670  
  2537.0000    -57.9996      9.4018     11.8669     10.1958      2.5255      0.0458      9.6970     79.0123     21.9953     85.1572  
  2537.5000    -58.7303     10.0480     15.9180     11.0370      2.4978      0.0514      9.8358     69.1728     19.6609     84.3123  
  2538.0000    -60.2517     10.7386     18.9673     11.9476      2.4470      0.0305     10.2360     62.5865     19.7323     85.3418  
  2538.5000    -61.9994     11.4767     19.0555     12.9334      2.3994      0.0064     10.1952     58.2641     19.8465     86.8544  
  2539.0000    -63.1103     12.2656     17.7183     14.0004      2.3745     -0.0010     10.0119     54.3876     19.7704     88.4023  
  2539.5000    -64.4932     12.9596     17.8790     15.1104      2.3555      0.0001      9.9458     52.5411     19.6353     89.3405  
  2540.0000    -67.2649     13.3986     19.8352     15.7708      2.3409      0.0017      9.8797     54.3154     19.5002     89.5516  
  2540.5000    -68.9351     13.8525     21.4720     16.1879      2.3521     -0.0021      9.8136     56.9030     19.3650     88.7417  
  2541.0000    -69.3649     14.3218     20.8816     16.0588      2.3665     -0.0074      9.7911     60.6712     19.7819     88.6668  
  2541.5000    -69.4399     14.2267     18.8523     16.0030      2.3653     -0.0077      9.7928     63.7906     20.6171     89.4663  
  2542.0000    -69.4877     14.0903     17.2156     15.9573      2.3503     -0.0061      9.7946     64.0429     21.4524     90.8380  
  2542.5000    -69.6999     13.9490     17.4691     16.0861      2.3377     -0.0049      9.7964     63.4375     21.4864     91.1311  
  2543.0000    -70.2720     13.8003     18.2795     16.2159      2.3505     -0.0060      9.7906     63.7000     21.0506     89.5535  
  2543.5000    -70.5472     13.6532     17.8394     15.9001      2.3849     -0.0074      9.7923     64.8881     20.5045     87.0111  
  2544.0000    -70.0446     13.5621     17.2217     15.5301      2.4271     -0.0030      9.9308     66.1062     19.9585     85.9996  
  2544.5000    -69.6233     13.5497     16.4227     15.2624      2.4524     -0.0080      9.9885     66.7608     19.7576     85.8538  
  2545.0000    -69.2018     13.5673     15.6607     15.0098      2.4460     -0.0144      9.9857     64.9302     20.1550     87.3704  
  2545.5000    -68.7541     13.5913     15.1897     14.7614      2.3987     -0.0135     10.0027     61.4993     20.5131     89.8782  
  2546.0000    -69.1105     13.6909     15.3605     15.2010      2.3294     -0.0099     10.0062     57.3658     20.0278     92.2177  
  2546.5000    -69.9503     13.8120     16.2265     15.6634      2.2847     -0.0060     10.0053     52.7409     19.5424     93.4845  
  2547.0000    -71.4596     13.9341     18.2463     16.1397      2.2842     -0.0025      9.9969     51.4179     19.4610     93.4412  
  2547.5000    -71.4057     14.0573     19.1359     16.4359      2.3024      0.0011      9.9930     52.7301     19.6384     92.2819  
  2548.0000    -70.7747     14.1816     19.0698     16.4953      2.3160      0.0045      9.9654     57.3607     20.1238     90.9105  
  2548.5000    -71.1322     14.2783     18.7622     16.5070      2.3159      0.0078      9.8892     61.9233     20.7769     90.7090  
  2549.0000    -73.8018     14.1911     18.5133     16.0159      2.3142      0.0097      9.8130     63.8092     21.2162     91.2744  
  2549.5000    -73.8868     13.9358     18.4038     15.4253      2.3315      0.0190      9.7369     63.3751     21.6712     93.0134  
  2550.0000    -73.8499     13.4700     16.5802     14.8565      2.3815      0.0225      9.6970     62.8583     20.9087     93.7703  
  2550.5000    -72.8394     13.0198     15.3679     14.3087      2.4271      0.0255      9.6975     63.6683     20.1240     94.0288  
