~VERSION INFORMATION
 VERS.                           2.00:        CWLS LOG ASCII STANDARD - VERSION 2.00
 WRAP.                             NO:        ONE LINE PER DEPTH STEP
~WELL INFORMATION
#MNEM.UNIT                   DATA             INFORMATION
#----------             --------------        ------------------------------
 STRT.F                       68.0000:        START DEPTH
 STOP.F                     2380.0000:        STOP DEPTH
 STEP.F                        0.5000:        STEP VALUE
 NULL.                      -999.2500:        NULL VALUE
 COMP.                     USGS/NPR-A:        COMPANY  
 LOC .                   30  22N  16W:        LOCATION   
 DATE.                        3/18/78:        LOG DATE 
 WELL.               SOUTH BARROW #17:        WELL     
 UWI .                   500232001100:        UNIQUE WELL ID 
 API .                   500232001100:        UNIQUE WELL IDENTIFIER 
 FLD .                   SOUTH BARROW:        FIELD    
 CNTY.                     NOTH SLOPE:        COUNTY  
 STAT.                         ALASKA:        STATE   
 CTRY.                            USA:        COUNTRY 
 OPER.                     USGS/NPR-A:        OPERATOR  
 SRVC.                   SCHLUMBERGER:        SERVICE COMPANY 
 LAT .                         0.0000:        LATITUDE
 LON .                         0.0000:        LONGITUDE
 DIGS.               CENTER LINE DATA:        DIGITIZING COMPANY 
~CURVE INFORMATION      
#MNEM        .UNIT         API CODE           CURVE DESCRIPTION
#-----------------      --------------        ------------------------------
 DEPT        .F                      :        1  DEPTH
 CALI        .IN                     :        2  
 GR          .GAPI                   :        3  
 NPHI        .%                      :        4  
 RHOB        .G/C3                   :        5  
 DRHO        .G/C3                   :        6  
 DT          .US/F                   :        7  
 SP          .MV                     :        8  
 ILD         .OHMM                   :        9  
 ILM         .OHMM                   :        10 
 LL8         .OHMM                   :        11 
 LLD         .OHMM                   :        12 
 LLS         .OHMM                   :        13 
~PARAMETER INFORMATION       
#MNEM.UNIT                  VALUE             DESCRIPTION OF MNEMONIC
#---------             ---------------        ------------------------------
 EKB .F                       33.0000:        KELLY BUSHING
 TD  .F                     2382.0000:        TOTAL DEPTH
 BHT .F                        0.0000:        BOTTOM HOLE TEMPERATURE
 BS  .                         8.5000:        BIT SIZE
 FD  .                        10.8000:        FLUID DENSITY
 CSIZ.                         9.6250:        CASING SIZE
 CBD .F                     1512.0000:        CASING DRILLER 1
 CBL .F                     1512.0000:        CASING LOGGER 1
 DFT .                  Miscellaneous:        TYPE FLUID IN HOLE
 DFV .                        43.0000:        VISCOSITY
 DFPH.                         8.5000:        PH
 DFL .                         4.0000:        FLUID LOSS
 RMS .                         0.0760:        RM
 MST .F                       60.0000:        RM MEAS. TEMP.
 RMF .                         0.0000:        RMF
 MFST.F                        0.0000:        RMF MEAS. TEMP.
 RMC .                         0.1640:        RMC
 MCST.F                       55.0000:        RMC MEAS. TEMP.
~OTHER INFORMATION
~A    DEPTH        CALI          GR        NPHI        RHOB        DRHO          DT          SP         ILD         ILM         LL8         LLD         LLS  
# ...
   552.5000     13.8661     75.1684   -999.2500   -999.2500   -999.2500    146.5485    -51.1325     13.2362     10.8692     21.0812   -999.2500   -999.2500  
   553.0000     13.9257     75.3577   -999.2500   -999.2500   -999.2500    145.2755    -50.3992     13.2317     10.8359     20.4807   -999.2500   -999.2500  
   553.5000     13.8943     75.7350   -999.2500   -999.2500   -999.2500    146.1617    -49.4093     13.1857     10.8624     20.4723   -999.2500   -999.2500  
   554.0000     13.6897     76.6506   -999.2500   -999.2500   -999.2500    147.1052    -47.7206     13.1326     10.9244     20.9012   -999.2500   -999.2500  
   554.5000     13.4411     77.1154   -999.2500   -999.2500   -999.2500    148.1539    -46.3629     13.0774     10.8520     21.1555   -999.2500   -999.2500  
   555.0000     13.3941     77.8274   -999.2500   -999.2500   -999.2500    148.0282    -44.9125     13.1581     10.8920     20.8690   -999.2500   -999.2500  
   555.5000     13.4720     78.0148   -999.2500   -999.2500   -999.2500    146.2055    -44.0558     13.3619     10.9799     20.5796   -999.2500   -999.2500  
   556.0000     13.4376     77.5638   -999.2500   -999.2500   -999.2500    142.1276    -43.5203     13.6066     11.2582     20.6004   -999.2500   -999.2500  
   556.5000     13.4166     76.9241   -999.2500   -999.2500   -999.2500    139.7000    -44.7422     13.8716     11.6123     20.9409   -999.2500   -999.2500  
   557.0000     13.4638     76.0559   -999.2500   -999.2500   -999.2500    139.0316    -46.0674     14.0805     11.8691     21.7050   -999.2500   -999.2500  
   557.5000     13.5175     75.5198   -999.2500   -999.2500   -999.2500    138.9658    -46.4203     14.2916     12.1312     22.8185   -999.2500   -999.2500  
   558.0000     13.7140     75.2621   -999.2500   -999.2500   -999.2500    138.7464    -47.4546     14.3477     12.2009     23.3678   -999.2500   -999.2500  
   558.5000     13.7407     74.5195   -999.2500   -999.2500   -999.2500    139.4651    -49.6382     14.4238     12.1541     23.4640   -999.2500   -999.2500  
   559.0000     13.7705     73.2643   -999.2500   -999.2500   -999.2500    140.1819    -50.7485     14.5593     11.9731     23.4124   -999.2500   -999.2500  
   559.5000     14.1209     73.5627   -999.2500   -999.2500   -999.2500    140.9435    -51.8304     14.4916     11.8053     23.1666   -999.2500   -999.2500  
   560.0000     14.2648     75.4710   -999.2500   -999.2500   -999.2500    141.9903    -52.0673     14.3064     11.6789     22.9138   -999.2500   -999.2500  
   560.5000     14.0970     76.9395   -999.2500   -999.2500   -999.2500    143.8926    -49.6620     14.1077     11.5950     22.7957   -999.2500   -999.2500  
   561.0000     14.3493     77.9302   -999.2500   -999.2500   -999.2500    146.2690    -46.3222     13.6221     11.2361     22.6684   -999.2500   -999.2500  
   561.5000     14.3339     78.5874   -999.2500   -999.2500   -999.2500    148.7598    -45.8185     13.3265     11.1124     22.5653   -999.2500   -999.2500  
   562.0000     14.1792     78.1195   -999.2500   -999.2500   -999.2500    148.2573    -46.5923     13.1063     10.9515     22.5360   -999.2500   -999.2500  
   562.5000     14.4921     76.9571   -999.2500   -999.2500   -999.2500    147.5737    -47.1992     12.9036     10.7194     22.2529   -999.2500   -999.2500  
   563.0000     14.6614     76.6187   -999.2500   -999.2500   -999.2500    147.7357    -46.6916     12.9060     10.5594     21.2289   -999.2500   -999.2500  
   563.5000     14.1847     78.0046   -999.2500   -999.2500   -999.2500    148.2430    -48.3755     12.9461     10.4699     20.4692   -999.2500   -999.2500  
   564.0000     13.8783     78.5811   -999.2500   -999.2500   -999.2500    147.8000    -48.9772     13.1716     10.3972     20.6153   -999.2500   -999.2500  
   564.5000     14.3940     79.1577   -999.2500   -999.2500   -999.2500    146.7625    -44.9545     13.1828     10.6369     20.7640   -999.2500   -999.2500  
   565.0000     14.4559     79.2071   -999.2500   -999.2500   -999.2500    144.0179    -41.6933     13.1468     10.7738     20.6496   -999.2500   -999.2500  
   565.5000     14.1157     78.3366   -999.2500   -999.2500   -999.2500    142.0663    -45.9754     13.1197     10.8426     20.4052   -999.2500   -999.2500  
   566.0000     13.8487     76.7990   -999.2500   -999.2500   -999.2500    141.9796    -51.2750     13.2044     10.9342     20.3140   -999.2500   -999.2500  
   566.5000     13.5914     75.1165   -999.2500   -999.2500   -999.2500    143.4382    -52.7690     13.3229     11.0328     19.9717   -999.2500   -999.2500  
   567.0000     13.4625     74.1936   -999.2500   -999.2500   -999.2500    145.0820    -49.3225     13.5153     11.1588     19.3117   -999.2500   -999.2500  
   567.5000     13.3901     74.1795   -999.2500   -999.2500   -999.2500    147.1200    -47.1894     13.7097     11.2871     19.0158   -999.2500   -999.2500  
   568.0000     13.3380     74.5596   -999.2500   -999.2500   -999.2500    149.6201    -46.7904     13.8925     11.4630     19.1454   -999.2500   -999.2500  
   568.5000     13.2578     76.1878   -999.2500   -999.2500   -999.2500    151.2244    -46.2573     13.9888     11.5846     19.2106   -999.2500   -999.2500  
   569.0000     13.1654     78.3146   -999.2500   -999.2500   -999.2500    149.7677    -44.2856     13.9500     11.7175     19.2207   -999.2500   -999.2500  
   569.5000     13.2039     79.9922   -999.2500   -999.2500   -999.2500    148.9786    -44.1455     13.9815     11.6479     18.9481   -999.2500   -999.2500  
   570.0000     13.1523     80.9170   -999.2500   -999.2500   -999.2500    148.9076    -45.5622     13.9410     11.6649     18.1866   -999.2500   -999.2500  
   570.5000     13.0771     80.4477   -999.2500   -999.2500   -999.2500    149.3839    -46.6814     13.8982     11.6820     17.6124   -999.2500   -999.2500  
   571.0000     13.1326     80.4448   -999.2500   -999.2500   -999.2500    149.3878    -49.0247     13.8953     11.4039     17.7419   -999.2500   -999.2500  
   571.5000     13.2575     81.0358   -999.2500   -999.2500   -999.2500    148.4206    -50.8727     13.8127     11.2892     18.0667   -999.2500   -999.2500  
   572.0000     13.3747     81.2404   -999.2500   -999.2500   -999.2500    146.1362    -52.8060     13.6903     11.2376     18.1166   -999.2500   -999.2500  
   572.5000     13.4443     80.2821   -999.2500   -999.2500   -999.2500    144.4194    -55.6993     13.5910     11.2431     18.1647   -999.2500   -999.2500  
   573.0000     13.5058     79.4124   -999.2500   -999.2500   -999.2500    144.1495    -56.3363     13.5771     11.3405     18.6804   -999.2500   -999.2500  
   573.5000     13.5402     78.3745   -999.2500   -999.2500   -999.2500    144.5897    -54.5709     13.5692     11.3719     19.1222   -999.2500   -999.2500  
   574.0000     13.4102     77.8726   -999.2500   -999.2500   -999.2500    144.2939    -51.2182     13.5285     11.5074     18.9110   -999.2500   -999.2500  
   574.5000     13.2782     77.8735   -999.2500   -999.2500   -999.2500    141.5837    -49.1717     13.5150     11.5258     19.1696   -999.2500   -999.2500  
   575.0000     13.2032     77.8733   -999.2500   -999.2500   -999.2500    139.6485    -48.6582     13.4834     11.4501     19.6704   -999.2500   -999.2500  
   575.5000     13.2149     77.0619   -999.2500   -999.2500   -999.2500    138.4422    -48.7920     13.5312     11.3613     19.5811   -999.2500   -999.2500  
   576.0000     13.2149     75.7251   -999.2500   -999.2500   -999.2500    138.0146    -49.2380     13.6214     11.3238     18.7184   -999.2500   -999.2500  
   576.5000     13.3034     75.0585   -999.2500   -999.2500   -999.2500    139.7893    -46.6230     13.7302     11.3018     18.1810   -999.2500   -999.2500  
   577.0000     13.4389     74.3119   -999.2500   -999.2500   -999.2500    140.6606    -41.1482     13.7831     11.5321     17.9499   -999.2500   -999.2500  
   577.5000     13.5365     73.4839   -999.2500   -999.2500   -999.2500    140.1434    -36.2908     13.8347     11.7676     18.2102   -999.2500   -999.2500  
