~VERSION INFORMATION
 VERS.                           2.00:        CWLS LOG ASCII STANDARD - VERSION 2.00
 WRAP.                             NO:        ONE LINE PER DEPTH STEP
~WELL INFORMATION
#MNEM.UNIT                   DATA             INFORMATION
#----------             --------------        ------------------------------
 STRT.F                       50.0000:        START DEPTH
 STOP.F                     2158.0000:        STOP DEPTH
 STEP.F                        0.5000:        STEP VALUE
 NULL.                      -999.2500:        NULL VALUE
 COMP.              HUSKY OIL COMPANY:        COMPANY  
 LOC .                   25  22N  17W:        LOCATION   
 DATE.                        2-19-77:        LOG DATE 
 WELL.               SOUTH BARROW #14:        WELL     
 UWI .                   500232000900:        UNIQUE WELL ID 
 API .                   500232000900:        UNIQUE WELL IDENTIFIER 
 FLD .               SOUTH BARROW GAS:        FIELD    
 CNTY.                    NORTH SLOPE:        COUNTY  
 STAT.                         ALASKA:        STATE   
 CTRY.                            USA:        COUNTRY 
 OPER.              HUSKY OIL COMPANY:        OPERATOR  
 SRVC.                   SCHLUMBERGER:        SERVICE COMPANY 
 LAT .                         0.0000:        LATITUDE
 LON .                         0.0000:        LONGITUDE
 DIGS.               CENTER LINE DATA:        DIGITIZING COMPANY 
~CURVE INFORMATION      
#MNEM        .UNIT         API CODE           CURVE DESCRIPTION
#-----------------      --------------        ------------------------------
 DEPT        .F                      :        1  DEPTH
 LLS         .OHMM                   :        2  
 LLD         .OHMM                   :        3  
 SP          .MV                     :        4  
 ILD         .OHMM                   :        5  
 ILM         .OHMM                   :        6  
 LL8         .OHMM                   :        7  
 CALI        .IN                     :        8  
 GR          .GAPI                   :        9  
 NPHI        .%                      :        10 
 DPHI        .%                      :        11 
 RHOB        .G/C3                   :        12 
 DRHO        .G/C3                   :        13 
 DT          .US/F                   :        14 
~PARAMETER INFORMATION       
#MNEM.UNIT                  VALUE             DESCRIPTION OF MNEMONIC
#---------             ---------------        ------------------------------
 EKB .F                       31.0000:        KELLY BUSHING
 TD  .F                     1042.0000:        TOTAL DEPTH
 BHT .F                       62.0000:        BOTTOM HOLE TEMPERATURE
 BS  .                         6.0000:        BIT SIZE
 FD  .                        10.7000:        FLUID DENSITY
 CSIZ.                         7.0000:        CASING SIZE
 CBD .F                     1947.0000:        CASING DRILLER 1
 CBL .F                     1946.0000:        CASING LOGGER 1
 DFT .                  Miscellaneous:        TYPE FLUID IN HOLE
 DFV .                        50.0000:        VISCOSITY
 DFPH.                        10.0000:        PH
 DFL .                         0.0000:        FLUID LOSS
 RMS .                         0.1500:        RM
 MST .F                       50.0000:        RM MEAS. TEMP.
 RMF .                         0.1600:        RMF
 MFST.F                       61.0000:        RMF MEAS. TEMP.
 RMC .                         0.0000:        RMC
 MCST.F                        0.0000:        RMC MEAS. TEMP.
~OTHER INFORMATION
~A    DEPTH         LLS         LLD          SP         ILD         ILM         LL8        CALI          GR        NPHI        DPHI        RHOB        DRHO          DT  
# ...
  1538.0000   -999.2500   -999.2500    -57.1792      9.4809      9.6689     10.5825      8.3728     88.4708     43.5941     16.8672      2.4759      0.0879    112.5270  
  1538.5000   -999.2500   -999.2500    -57.9307      9.5281      9.7213     10.3024      8.0653     90.1403     41.9500     12.6710      2.4639      0.0869    111.4951  
  1539.0000   -999.2500   -999.2500    -58.0826      9.4022      9.5928      9.7691      7.9851     91.6108     41.1407     10.9688      2.4433      0.0394    111.0951  
  1539.5000   -999.2500   -999.2500    -58.1635      9.2780      9.4661      9.2635      7.9465     93.1967     41.4989     11.8661      2.4332      0.0472    111.1227  
  1540.0000   -999.2500   -999.2500    -58.2831      9.1554      9.3411      9.2535      8.2009     90.3570     42.4725     13.1361      2.4235      0.0599    111.8249  
  1540.5000   -999.2500   -999.2500    -58.3953      9.0344      9.2177      9.3654      8.3711     87.9115     44.9895     13.6126      2.3997      0.0706    114.3612  
  1541.0000   -999.2500   -999.2500    -58.4087      8.9933      9.1688      9.6907      8.6692     85.8732     46.0219     14.4952      2.4004      0.0695    114.7149  
  1541.5000   -999.2500   -999.2500    -58.5366      8.9727      9.1478     10.0430      8.5529     83.6487     46.5863     15.7690      2.3971      0.0536    115.1316  
  1542.0000   -999.2500   -999.2500    -58.5502      8.9521      9.1268     10.4081      8.4768     82.8147     45.7136     15.6703      2.3832      0.0378    113.9998  
  1542.5000   -999.2500   -999.2500    -58.5638      8.9316      9.1059      9.9461      8.3452     82.8696     44.4170     15.6243      2.3616      0.0430    109.5795  
  1543.0000   -999.2500   -999.2500    -58.3198      8.9111      9.0850      9.4311      8.0727     85.0750     42.3473     16.8901      2.3364      0.0404     90.4750  
  1543.5000   -999.2500   -999.2500    -57.7554      8.8907      9.0642      9.8289      8.2511     88.6129     42.0395     18.2586      2.3415      0.0493    114.4679  
  1544.0000   -999.2500   -999.2500    -57.3927      8.8703      9.0434     10.1424      8.3202     89.6456     41.8567     19.8848      2.3722      0.0555    115.3419  
  1544.5000   -999.2500   -999.2500    -57.2615      9.1371      9.4002     10.3449      8.3220     90.5711     41.7629     18.4804      2.4012      0.0633    116.6833  
  1545.0000   -999.2500   -999.2500    -57.4135      9.6034      9.8799     10.0610      8.2820     90.2066     40.9021     17.1527      2.4127      0.0760    117.3721  
  1545.5000   -999.2500   -999.2500    -57.1587     10.0978     10.4790      9.7850      8.3033     89.0941     41.1844     15.5435      2.4192      0.0926    117.5461  
  1546.0000   -999.2500   -999.2500    -56.9043     10.8910     11.3022     10.0391      8.2889     88.1161     42.5937     14.4607      2.3983      0.0839    117.1619  
  1546.5000   -999.2500   -999.2500    -57.0070     11.7464     12.1899     13.8663      8.3072     87.1569     43.4566     14.9711      2.3907      0.0670    116.9716  
  1547.0000   -999.2500   -999.2500    -57.4136     12.6691     13.1474     19.4715      8.2507     84.6081     42.2921     15.9709      2.3923      0.0746    116.3866  
  1547.5000   -999.2500   -999.2500    -57.8523     13.6642     14.0825     21.8620      8.2025     80.7128     40.4975     16.6051      2.3678      0.0901    118.1393  
  1548.0000   -999.2500   -999.2500    -58.0104     14.1698     14.4963     18.7731      8.2134     76.7073     39.1810     16.4821      2.3118      0.0654    117.6120  
  1548.5000   -999.2500   -999.2500    -58.3936     14.4026     14.7107     16.2764      8.3057     75.8470     39.8584     18.5077      2.3087      0.0707    117.3296  
  1549.0000   -999.2500   -999.2500    -58.5494     14.1083     14.4100     15.2485      8.3156     78.0464     40.9895     21.5729      2.3262      0.0841    119.2650  
  1549.5000   -999.2500   -999.2500    -58.3932     13.8199     14.1155     14.5694      8.2537     79.2493     40.9313     21.1417      2.3522      0.1037    125.6916  
  1550.0000   -999.2500   -999.2500    -58.1770     13.5375     13.8270     14.0397      8.1128     78.6647     39.6289     19.9019      2.3630      0.1106    134.1073  
  1550.5000   -999.2500   -999.2500    -58.2347     13.4573     13.7410     13.7351      8.1423     78.2707     38.4915     18.5014      2.3426      0.0962    134.4796  
  1551.0000   -999.2500   -999.2500    -58.2428     13.7136     14.0026     13.9560      8.3318     78.3450     37.9143     17.9647      2.3145      0.0907    136.0411  
  1551.5000   -999.2500   -999.2500    -58.1571     13.9747     14.2929     14.8750      8.2606     77.5980     37.8916     19.0610      2.3065      0.0986    138.9498  
  1552.0000   -999.2500   -999.2500    -57.9327     14.4228     14.7687     17.9262      8.1715     77.9736     39.5283     20.8209      2.2898      0.1009    147.0647  
  1552.5000   -999.2500   -999.2500    -57.5971     14.9029     15.2604     19.7560      8.2888     73.3706     41.9111     21.3662      2.2781      0.0679    115.8993  
  1553.0000   -999.2500   -999.2500    -57.1848     15.3990     15.7684     19.6164      8.3777     69.6043     42.5457     21.7629      2.3592      0.1030    113.3933  
  1553.5000   -999.2500   -999.2500    -56.6592     14.5670     15.0952     19.3621      8.3500     68.5981     40.5929     23.0370      2.3656      0.1000    113.5329  
  1554.0000   -999.2500   -999.2500    -55.7693     13.5675     14.0595     18.5889      8.3530     69.1393     37.9253     17.6538      2.3357      0.0407    115.5234  
  1554.5000   -999.2500   -999.2500    -54.6191     12.6365     13.0948     16.1767      8.3586     70.2265     36.1937     17.9886      2.3651      0.0454    121.4438  
  1555.0000   -999.2500   -999.2500    -53.6438     11.7695     12.1963     13.6339      8.3731     71.8934     34.8047     19.5824      2.4184      0.0637    118.8660  
  1555.5000   -999.2500   -999.2500    -53.3610     10.9619     11.3595     11.4907      8.3952     74.0373     35.5704     17.9302      2.4286      0.0725    114.3859  
  1556.0000   -999.2500   -999.2500    -53.5365     10.3767     10.6377     10.6725      8.4154     77.8585     37.5782     14.4124      2.4479      0.1098    110.8499  
  1556.5000   -999.2500   -999.2500    -53.7662      9.9989     10.2503     10.8883      8.5015     83.0437     40.6732     13.9568      2.4244      0.1271    109.0146  
  1557.0000   -999.2500   -999.2500    -53.8541      9.6348      9.8771     11.0959      8.4416     88.4099     41.7404     12.7930      2.3896      0.1153    109.1109  
  1557.5000   -999.2500   -999.2500    -54.0023      9.2840      9.5175     11.0742      8.5300     90.9431     42.9115     14.2733      2.3493      0.0783    113.6615  
  1558.0000   -999.2500   -999.2500    -54.2289      8.9460      9.1710     10.7812      8.5253     92.8742     43.5980     16.4735      2.3503      0.0689    117.7658  
  1558.5000   -999.2500   -999.2500    -54.3747      8.6203      8.8371     10.3746      8.4205     93.0787     42.7465     19.1381      2.3910      0.0923    116.4587  
  1559.0000   -999.2500   -999.2500    -54.5045      8.4227      8.5886      9.8203      8.2730     93.4885     42.2315     18.5325      2.4009      0.1063    117.7053  
  1559.5000   -999.2500   -999.2500    -54.7050      8.3679      8.5328      9.2956      8.1394     94.3552     43.1579     16.3869      2.3995      0.0926    116.6122  
  1560.0000   -999.2500   -999.2500    -54.9404      8.3135      8.4773      8.7989      8.0058     94.9956     43.9236     15.2151      2.4166      0.1002    115.3607  
  1560.5000   -999.2500   -999.2500    -55.1211      8.3464      8.5829      9.1732      8.0123     94.5102     46.0649     15.7234      2.3909      0.0933    115.4277  
  1561.0000   -999.2500   -999.2500    -55.1789      8.7596      9.0078      9.7007      8.0192     94.3119     47.1743     14.8990      2.3918      0.1025    117.1245  
  1561.5000   -999.2500   -999.2500    -55.2578      9.1932      9.4537     10.2586      8.0273     93.7063     47.9048     16.2242      2.3911      0.1133    119.1907  
