~VERSION INFORMATION
 VERS.                           2.00:        CWLS LOG ASCII STANDARD - VERSION 2.00
 WRAP.                             NO:        ONE LINE PER DEPTH STEP
~WELL INFORMATION
#MNEM.UNIT                   DATA             INFORMATION
#----------             --------------        ------------------------------
 STRT.F                       78.0000:        START DEPTH
 STOP.F                     2392.0000:        STOP DEPTH
 STEP.F                        0.5000:        STEP VALUE
 NULL.                      -999.2500:        NULL VALUE
 COMP.              U.S.G.S./NPR -  A:        COMPANY  
 LOC .                    1  22N  18W:        LOCATION   
 DATE.                        2/14/78:        LOG DATE 
 WELL.               SOUTH BARROW #16:        WELL     
 UWI .                   500232001000:        UNIQUE WELL ID 
 API .                   500232001000:        UNIQUE WELL IDENTIFIER 
 FLD .                   SOUTH BARROW:        FIELD    
 CNTY.                    NORTH SLOPE:        COUNTY  
 STAT.                         ALASKA:        STATE   
 CTRY.                            USA:        COUNTRY 
 OPER.              U.S.G.S./NPR -  A:        OPERATOR  
 SRVC.                   SCHLUMBERGER:        SERVICE COMPANY 
 LAT .                         0.0000:        LATITUDE
 LON .                         0.0000:        LONGITUDE
 DIGS.               CENTER LINE DATA:        DIGITIZING COMPANY 
~CURVE INFORMATION      
#MNEM        .UNIT         API CODE           CURVE DESCRIPTION
#-----------------      --------------        ------------------------------
 DEPT        .F                      :        1  DEPTH
 CALI        .IN                     :        2  
 GR          .GAPI                   :        3  
 RHOB        .G/C3                   :        4  
 DRHO        .G/C3                   :        5  
 NPHI        .%                      :        6  
 DT          .US/F                   :        7  
 SP          .MV                     :        8  
 ILD         .OHMM                   :        9  
 ILM         .OHMM                   :        10 
 LL8         .OHMM                   :        11 
 LLD         .OHMM                   :        12 
 LLS         .OHMM                   :        13 
~PARAMETER INFORMATION       
#MNEM.UNIT                  VALUE             DESCRIPTION OF MNEMONIC
#---------             ---------------        ------------------------------
 EKB .F                       30.0000:        KELLY BUSHING
 TD  .F                     2399.0000:        TOTAL DEPTH
 BHT .F                       73.0000:        BOTTOM HOLE TEMPERATURE
 BS  .                         8.5000:        BIT SIZE
 FD  .                        11.0000:        FLUID DENSITY
 CSIZ.                         8.5000:        CASING SIZE
 CBD .F                     1489.0000:        CASING DRILLER 1
 CBL .F                     1487.0000:        CASING LOGGER 1
 DFT .                  Miscellaneous:        TYPE FLUID IN HOLE
 DFV .                        52.0000:        VISCOSITY
 DFPH.                         8.5000:        PH
 DFL .                         8.0000:        FLUID LOSS
 RMS .                         0.0210:        RM
 MST .F                       58.0000:        RM MEAS. TEMP.
 RMF .                         0.0130:        RMF
 MFST.F                       52.0000:        RMF MEAS. TEMP.
 RMC .                         0.0170:        RMC
 MCST.F                       56.0000:        RMC MEAS. TEMP.
~OTHER INFORMATION
~A    DEPTH        CALI          GR        RHOB        DRHO        NPHI          DT          SP         ILD         ILM         LL8         LLD         LLS  
# ...
  1761.0000      9.4777    101.6679      2.4279      0.0369     46.7351    116.4120    -70.2850   -999.2500   -999.2500   -999.2500      6.7977      7.8504  
  1761.5000      9.2512    101.3610      2.4316      0.0428     47.0285    116.7507    -70.1291   -999.2500   -999.2500   -999.2500      6.7839      7.8051  
  1762.0000      9.4167    101.2280      2.4361      0.0410     47.5248    117.1602    -69.9512   -999.2500   -999.2500   -999.2500      6.7579      7.9348  
  1762.5000      9.2417    101.0552      2.4464      0.0467     48.1189    117.6242    -69.9146   -999.2500   -999.2500   -999.2500      6.6784      8.0688  
  1763.0000      9.2210    100.8341      2.4510      0.0597     48.1861    117.7751    -69.8717   -999.2500   -999.2500   -999.2500      6.6082      7.9713  
  1763.5000      9.3457    100.5125      2.4456      0.0613     46.6329    117.4995    -69.7574   -999.2500   -999.2500   -999.2500      6.5842      7.9013  
  1764.0000      9.4561    100.3656      2.4345      0.0487     44.8018    117.0440    -69.5613   -999.2500   -999.2500   -999.2500      6.5604      7.8483  
  1764.5000      9.3556    100.3578      2.4229      0.0445     43.9790    116.2639    -69.5805   -999.2500   -999.2500   -999.2500      6.5366      7.8404  
  1765.0000      9.2463    100.6058      2.4151      0.0476     44.0650    115.3517    -69.5966   -999.2500   -999.2500   -999.2500      6.5202      7.8610  
  1765.5000      9.4059    101.4691      2.4053      0.0462     44.3068    115.0633    -69.5079   -999.2500   -999.2500   -999.2500      6.5341      7.9507  
  1766.0000      9.5101    101.6100      2.4069      0.0447     43.9959    115.5744    -69.4217   -999.2500   -999.2500   -999.2500      6.5432      7.9707  
  1766.5000      9.5896    101.4581      2.4178      0.0494     43.3695    116.3341    -69.3761   -999.2500   -999.2500   -999.2500      6.5430      7.9081  
  1767.0000      9.4017    101.3348      2.4273      0.0540     42.9065    116.7130    -69.5080   -999.2500   -999.2500   -999.2500      6.4687      7.9782  
  1767.5000      9.0429    101.8506      2.4268      0.0521     42.1128    116.5789    -69.5739   -999.2500   -999.2500   -999.2500      6.3952      8.1006  
  1768.0000      8.9797    103.6996      2.4318      0.0485     42.1001    115.7902    -69.6861   -999.2500   -999.2500   -999.2500      6.6858      8.2249  
  1768.5000      9.0739    105.4041      2.4205      0.0491     42.9006    114.6661    -69.9660   -999.2500   -999.2500   -999.2500      7.1487      8.3512  
  1769.0000      9.3900    105.3019      2.4048      0.0426     44.7155    113.6948    -70.1915   -999.2500   -999.2500   -999.2500      7.0244      8.3687  
  1769.5000      9.6519    104.5260      2.4153      0.0587     45.6733    113.5237    -70.6342   -999.2500   -999.2500   -999.2500      6.7815      8.2673  
  1770.0000      9.4444    103.6894      2.4121      0.0490     46.4307    113.6520    -71.0404   -999.2500   -999.2500   -999.2500      6.5894      8.1672  
  1770.5000      9.1977    100.9357      2.4192      0.0641     47.1310    114.6121    -71.4543   -999.2500   -999.2500   -999.2500      6.4919      8.0683  
  1771.0000      9.0660     99.0490      2.4384      0.0816     47.7619    115.5916    -71.8218   -999.2500   -999.2500   -999.2500      6.6639      8.1379  
  1771.5000      8.9061     98.2544      2.4477      0.0856     48.3557    116.2118    -72.1014   -999.2500   -999.2500   -999.2500      6.8750      8.3150  
  1772.0000      8.9131     99.2517      2.4557      0.0771     48.1839    116.4196    -72.4900   -999.2500   -999.2500   -999.2500      7.0247      8.4960  
  1772.5000      8.9233    100.5095      2.4456      0.0674     47.9947    116.4077    -72.9776   -999.2500   -999.2500   -999.2500      7.1069      8.5313  
  1773.0000      8.9054    100.4028      2.4267      0.0551     47.7272    116.0277    -73.4269   -999.2500   -999.2500   -999.2500      7.0220      8.4551  
  1773.5000      8.8906     99.0800      2.4174      0.0513     47.3376    115.9821    -73.7872   -999.2500   -999.2500   -999.2500      6.8776      8.3797  
  1774.0000      8.9992     97.9762      2.4131      0.0376     46.5709    115.9046    -74.0352   -999.2500   -999.2500   -999.2500      6.8580      8.3221  
  1774.5000      9.0333     97.9180      2.4308      0.0431     45.6100    115.8531    -74.1485   -999.2500   -999.2500   -999.2500      6.8379      8.2796  
  1775.0000      9.0401     97.6030      2.4442      0.0517     45.6659    116.0527    -74.0361   -999.2500   -999.2500   -999.2500      6.7997      8.2372  
  1775.5000      9.0166     97.7275      2.4445      0.0515     46.3611    115.9752    -73.7057   -999.2500   -999.2500   -999.2500      6.7635      8.1952  
  1776.0000      9.0006     98.7716      2.4335      0.0427     47.0943    115.9224    -73.3232   -999.2500   -999.2500   -999.2500      6.7520      8.1533  
  1776.5000      8.9789     98.9938      2.4405      0.0509     47.8211    115.3541    -72.9461   -999.2500   -999.2500   -999.2500      6.7405      8.1838  
  1777.0000      8.9475     97.7216      2.4432      0.0356     48.3493    114.6567    -72.6918   -999.2500   -999.2500   -999.2500      6.7290      8.2400  
  1777.5000      8.9960     95.1762      2.4401      0.0315     48.1056    114.1720    -72.4136   -999.2500   -999.2500   -999.2500      6.6895      8.2294  
  1778.0000      9.3333     95.6629      2.4198      0.0244     47.7468    114.0396    -72.2817   -999.2500   -999.2500   -999.2500      6.6668      8.2188  
  1778.5000      9.2794     97.4528      2.4126      0.0255     48.1280    114.0136    -72.3000   -999.2500   -999.2500   -999.2500      6.6966      8.2082  
  1779.0000      9.4593     99.8405      2.4054      0.0300     49.2063    114.2522    -72.4678   -999.2500   -999.2500   -999.2500      6.6978      8.1851  
  1779.5000      9.5594    100.9599      2.4196      0.0501     49.0183    114.2815    -72.7114   -999.2500   -999.2500   -999.2500      6.5412      8.0641  
  1780.0000      9.1914    101.1525      2.4063      0.0453     47.7996    113.4094    -72.8672   -999.2500   -999.2500   -999.2500      6.5916      8.0978  
  1780.5000      9.5370    101.4388      2.4000      0.0370     46.3668    111.8688    -72.9834   -999.2500   -999.2500   -999.2500      6.6888      8.2659  
  1781.0000      9.5731    101.6109      2.3995      0.0368     45.7466    110.3263    -72.9896   -999.2500   -999.2500   -999.2500      6.7875      8.2884  
  1781.5000      9.3881     99.8241      2.3909      0.0216     46.1607    108.6085    -73.0202   -999.2500   -999.2500   -999.2500      6.8388      8.4392  
  1782.0000      9.2530     98.6478      2.3896      0.0210     47.7931    107.5719    -72.8486   -999.2500   -999.2500   -999.2500      6.8835      8.5811  
  1782.5000      9.2250     99.6237      2.4045      0.0295     48.2245    106.7617    -72.5639   -999.2500   -999.2500   -999.2500      6.9284      8.5239  
  1783.0000      9.1873    101.1178      2.4184      0.0480     47.1667    105.7257    -72.4115   -999.2500   -999.2500   -999.2500      7.2111      8.6141  
  1783.5000      9.0984    102.6119      2.4101      0.0432     45.4035    105.1446    -72.2291   -999.2500   -999.2500   -999.2500      7.7826      9.2187  
  1784.0000      9.0045    105.9104      2.4023      0.0209     43.8358    105.9245    -71.7142   -999.2500   -999.2500   -999.2500      8.3364     10.1738  
  1784.5000      8.5754    108.1158      2.4007      0.0004     43.3533    107.4236    -71.2924   -999.2500   -999.2500   -999.2500      9.3351     11.1158  
  1785.0000      8.3171    107.7701      2.4127     -0.0055     42.6024    109.8754    -71.2292   -999.2500   -999.2500   -999.2500      9.6310     12.1616  
  1785.5000      8.3385    104.8903      2.4385      0.0042     41.6983    112.6870    -71.1155   -999.2500   -999.2500   -999.2500      9.7140     11.6383  
  1786.0000      8.3541     98.8929      2.4577      0.0174     40.9394    113.8479    -71.1918   -999.2500   -999.2500   -999.2500      9.5357     11.1155  
