~VERSION INFORMATION
 VERS.                           2.00:        CWLS LOG ASCII STANDARD - VERSION 2.00
 WRAP.                             NO:        ONE LINE PER DEPTH STEP
~WELL INFORMATION
#MNEM.UNIT                   DATA             INFORMATION
#----------             --------------        ------------------------------
 STRT.F                      151.0000:        START DEPTH
 STOP.F                     2726.0000:        STOP DEPTH
 STEP.F                        0.5000:        STEP VALUE
 NULL.                      -999.2500:        NULL VALUE
 COMP.                      U.S. NAVY:        COMPANY  
 WELL.                     IKO BAY #1:        WELL     
 FLD .                        WILDCAT:        FIELD    
 LOC .                   16  21N  16W:        LOCATION   
 CNTY.                    NORTH SLOPE:        COUNTY  
 STAT.                         ALASKA:        STATE   
 CTRY.                            USA:        COUNTRY 
 DATE.                         2/8/75:        LOG DATE 
 API .                   502790000000:        UNIQUE WELL IDENTIFIER 
 OPER.                      U.S. NAVY:        OPERATOR  
 SRVC.                            440:        SERVICE COMPANY 
 UWI .                   502790000000:        UNIQUE WELL ID 
 LAT .                         0.0000:        LATITUDE
 LON .                         0.0000:        LONGITUDE
 DIGS.                             65:        DIGITIZING COMPANY 
~CURVE INFORMATION      
#MNEM.UNIT                 API CODE           CURVE DESCRIPTION
#---------              --------------        ------------------------------
 DEPT.F                              :        1  DEPTH
 SP  .MV                             :        2
 ILD .OHMM                           :        3
 LL8 .OHMM                           :        4
 ILM .OHMM                           :        5
 RHOB.G/C3                           :        6
 DRHO.G/C3                           :        7
 CALI.IN                             :        8
 GR  .GAPI                           :        9
 NPHI.%                              :       10
 DT  .US/F                           :       11
~PARAMETER INFORMATION       
#MNEM.UNIT                  VALUE             DESCRIPTION OF MNEMONIC
#---------             ---------------        ------------------------------
 EKB .F                        0.0000:        KELLY BUSHING
 TD  .F                     2731.0000:        TOTAL DEPTH
 BHT .F                             0.0000:        BOTTOM HOLE TEMPERATURE
 BS  .                             14.7500:        BIT SIZE
 FD  .                              0.0000:        FLUID DENSITY
 CSIZ.                             16.0000:        CASING SIZE
 CBD .F                           149.0000:        CASING DRILLER 1
 CBL .F                           152.0000:        CASING LOGGER 1
 DFT .                            Gel:        TYPE FLUID IN HOLE
 DFV .                              0.0000:        VISCOSITY
 DFPH.                              0.0000:        PH
 DFL .                              0.0000:        FLUID LOSS
 RMS .                              0.3000:        RM
 MST .F                       49.0000:        RM MEAS. TEMP.
 RMF .                              0.2300:        RMF
 MFST.F                       49.0000:        RMF MEAS. TEMP.
 RMC .                              0.4600:        RMC
 MCST.F                       49.0000:        RMC MEAS. TEMP.
 UWI .                   502790000000:        UNIQUE WELL ID
~OTHER INFORMATION
~A    DEPTH          SP         ILD         LL8         ILM        RHOB        DRHO        CALI          GR        NPHI          DT  
# ...
  1201.0000    -45.0690      6.1426      6.5815      6.4297      2.1600     -0.0006     14.9658     86.5380     40.6344    118.7560  
  1201.5000    -45.0767      6.1182      6.6247      6.3829      2.1776     -0.0044     15.0845     87.4941     37.9521    119.3206  
  1202.0000    -45.0927      6.0938      6.6678      6.3385      2.1756     -0.0050     15.4082     87.0226     37.5327    119.2979  
  1202.5000    -45.1491      6.0694      6.7110      6.2943      2.1655      0.0047     14.8836     88.0642     37.2423    119.3289  
  1203.0000    -45.2175      6.0594      6.7416      6.2303      2.1570      0.0153     14.2313     91.5179     36.9191    118.7628  
  1203.5000    -45.1773      6.0549      6.7643      6.1640      2.1408      0.0214     14.5200     94.3142     37.3944    117.5751  
  1204.0000    -45.0816      6.0503      6.7870      6.0984      2.1081      0.0159     13.5078     94.3152     39.7090    116.8307  
  1204.5000    -44.9873      6.0457      6.8098      6.0613      2.1008      0.0035     11.7730     94.1187     42.9823    116.5051  
  1205.0000    -44.8930      6.0412      6.8325      6.0676      2.0944     -0.0014     11.0840     94.1766     45.0415    116.6445  
  1205.5000    -44.7987      6.0366      6.8359      6.0740      2.0841     -0.0052     11.8568     94.9822     45.0087    117.4305  
  1206.0000    -44.7044      6.0321      6.8145      6.0803      2.0780     -0.0084     12.8492     95.1836     44.0566    118.7283  
  1206.5000    -44.6307      6.0275      6.7932      6.0867      2.0961     -0.0057     14.3595     93.1739     42.5271    119.3919  
  1207.0000    -44.7382      6.0230      6.7718      6.1033      2.1214     -0.0008     14.8960     90.7595     41.8108    119.0665  
  1207.5000    -44.7931      6.0217      6.7505      6.1253      2.1591      0.0085     14.1210     88.7372     41.3442    118.3137  
  1208.0000    -44.9493      6.0486      6.7675      6.0870      2.1874      0.0155     14.1746     86.2191     42.5713    118.1309  
  1208.5000    -45.3056      6.0755      6.8268      6.0335      2.1660      0.0223     14.0649     83.4482     44.9586    118.3981  
  1209.0000    -45.5445      6.1057      6.8705      5.9805      2.1314      0.0254     14.2152     79.9028     44.9540    118.6490  
  1209.5000    -45.2254      6.1071      6.8700      5.9410      2.1050      0.0149     14.4022     77.4402     44.9494    118.6805  
  1210.0000    -45.1341      6.1084      6.8577      5.9019      2.0791      0.0147     14.4540     75.5084     44.9448    118.5753  
  1210.5000    -45.2559      6.1098      6.8454      5.8749      2.0697      0.0138     14.1202     73.8898     44.9403    118.4874  
  1211.0000    -45.3321      6.1111      6.8331      5.8793      2.0533      0.0115     13.8759     75.0820     44.9357    118.7290  
  1211.5000    -45.3819      6.1125      6.8208      5.8838      2.0444      0.0205     10.6141     76.7099     44.9311    119.4667  
  1212.0000    -45.4954      6.0810      6.8085      5.8963      2.0219      0.0290     10.1106     77.8822     44.9265    119.7983  
  1212.5000    -45.3987      5.9819      6.7962      5.9513      1.9994      0.0250     10.2121     77.8240     44.9219    120.0712  
  1213.0000    -45.3123      5.9891      6.7838      6.0069      1.9991      0.0162     10.3613     77.9667     44.9173    120.4089  
  1213.5000    -45.2389      6.0172      6.8239      6.0629      1.9988      0.0088     10.3721     78.8720     44.9128    120.7503  
  1214.0000    -45.2272      6.0724      6.9094      6.1195      2.0493      0.0381      9.9684     79.5703     44.9082    120.8852  
  1214.5000    -45.0772      6.0860      6.9809      6.1767      2.0794      0.0535      9.7844     79.5909     44.9036    120.9224  
  1215.0000    -44.8880      6.0606      7.0474      6.2343      2.0618      0.0377      9.9425     79.3119     44.8990    120.8776  
  1215.5000    -44.6535      6.1017      7.1388      6.3129      2.0976      0.0344      9.9953     79.3731     44.8944    120.8080  
  1216.0000    -44.7286      6.1086      7.2011      6.4085      2.1788      0.0378      9.9795     80.0731     44.8899    120.8446  
  1216.5000    -45.0056      6.1255      7.2498      6.5054      2.2649      0.0512      9.9021     81.2381     44.7862    120.8772  
  1217.0000    -45.4666      6.1241      7.3358      6.6903      2.2845      0.0467      9.7787     83.8420     43.8209    120.8429  
  1217.5000    -45.6715      6.1227      7.4071      6.9224      2.2795      0.0245      9.7918     86.6735     43.3066    120.8140  
  1218.0000    -45.5034      6.1453      7.5119      6.9023      2.2920      0.0575      9.8243     88.5332     41.5442    120.7499  
  1218.5000    -45.4778      6.1580      7.6620      6.7980      2.3344      0.0539      9.9071     90.8950     40.2833    120.7501  
  1219.0000    -45.6484      6.1720      7.7986      6.6953      2.3508      0.0700     10.0544     93.1436     40.0344    120.7776  
  1219.5000    -45.7303      6.1750      7.8767      6.5671      2.3513      0.0886     10.2157     94.4769     40.0915    120.7754  
  1220.0000    -67.8330      6.3139      7.1768      6.5096      2.3261      0.0693     10.5201     94.6425     39.8729    120.7730  
  1220.5000    -67.2785      6.2587      7.1117      6.4526      2.2993      0.0550     10.7743     94.8086     40.3824    120.7708  
  1221.0000    -66.4234      6.2065      7.1272      6.3978      2.2925      0.0464     10.8177     95.9893     41.1323    240.8680  
  1221.5000    -65.9184      6.1753      7.2198      6.3634      2.3029      0.0418     10.7173     97.4805     41.1650    241.7545  
  1222.0000    -65.6207      6.1670      7.3135      6.3549      2.3024      0.0456     10.6647     98.5210     41.2746    227.0438  
  1222.5000    -65.1939      6.1567      7.4085      6.3446      2.3024      0.0540     10.6709     99.3143     41.1039    198.3877  
  1223.0000    -64.4677      6.2576      7.5867      6.5054      2.3079      0.0478     10.6631     98.8393     40.7221    167.7974  
  1223.5000    -63.7968      6.4956      7.8303      6.7496      2.3118      0.0402     10.5906     97.7992     39.6570    146.8801  
  1224.0000    -63.2900      6.7394      8.0327      7.0030      2.3280      0.0334     10.6137     97.2663     38.5062    151.6051  
  1224.5000    -62.7170      6.9013      8.3871      7.1112      2.3678      0.0257     10.7303     96.6912     37.6154    156.0818  
  1225.0000    -62.1197      6.9046      8.8665      7.1146      2.3887      0.0504     10.8009     95.4282     36.5591    139.3169  
  1225.5000    -61.6497      6.9079      8.7159      7.1180      2.3778      0.0471     10.6811     96.0144     36.3943    135.0570  
  1226.0000    -61.3895      6.9112      8.5045      7.1214      2.3471      0.0445     10.6432     96.8861     37.3453    137.6390  
  1226.5000    -61.2047      6.9047      8.2971      7.1166      2.3362      0.0402     10.7971     97.4755     38.2134    136.1289  
  1227.0000    -61.0896      6.8636      8.2922      7.0742      2.3433      0.0379     11.1229     99.0774     38.0614    139.6733  
  1227.5000    -60.9265      6.8228      8.2949      7.0321      2.3905      0.0462     10.9117    101.5908     36.9757    147.8227  
  1228.0000    -60.7932      6.7519      8.2238      6.9724      2.4041      0.0516     11.0826    103.8179     36.5392    155.9721  
  1228.5000    -60.4789      6.6329      8.0232      6.8495      2.4171      0.0465     10.8746    103.7094     37.4943    150.2435  
  1229.0000    -60.4491      6.5160      7.9145      6.7288      2.4233      0.0523     10.7824    101.4655     38.2022    122.2199  
  1229.5000    -60.4523      6.4011      7.9349      6.6102      2.4376      0.0599     10.7956    100.2851     39.1083     93.5110  
  1230.0000    -60.4556      6.4018      8.0527      6.5978      2.4261      0.0347     10.8073     98.6772     40.3760    112.2141  
  1230.5000    -60.4588      6.5080      8.0733      6.7307      2.4192      0.0156     10.9302     96.4798     40.5640    152.4158  
