~VERSION INFORMATION
 VERS.                           2.00:        CWLS LOG ASCII STANDARD - VERSION 2.00
 WRAP.                             NO:        ONE LINE PER DEPTH STEP
~WELL INFORMATION
#MNEM.UNIT                   DATA             INFORMATION
#----------             --------------        ------------------------------
 STRT.F                       52.0000:        START DEPTH
 STOP.F                     2296.0000:        STOP DEPTH
 STEP.F                        0.5000:        STEP VALUE
 NULL.                      -999.2500:        NULL VALUE
 COMP.                     USGS/NPR-A:        COMPANY  
 LOC .                   23  22N  17W:        LOCATION   
 DATE.                        4/30/78:        LOG DATE 
 WELL.               SOUTH BARROW #19:        WELL     
 UWI .                   500232001200:        UNIQUE WELL ID 
 API .                   500232001200:        UNIQUE WELL IDENTIFIER 
 FLD .                   SOUTH BARROW:        FIELD    
 CNTY.                    NORTH SLOPE:        COUNTY  
 STAT.                         ALASKA:        STATE   
 CTRY.                            USA:        COUNTRY 
 OPER.                     USGS/NPR-A:        OPERATOR  
 SRVC.                   SCHLUMBERGER:        SERVICE COMPANY 
 LAT .                         0.0000:        LATITUDE
 LON .                         0.0000:        LONGITUDE
 DIGS.               CENTER LINE DATA:        DIGITIZING COMPANY 
~CURVE INFORMATION      
#MNEM        .UNIT         API CODE           CURVE DESCRIPTION
#-----------------      --------------        ------------------------------
 DEPT        .F                      :        1  DEPTH
 GR          .GAPI                   :        2  
 CALI        .IN                     :        3  
 RHOB        .G/C3                   :        4  
 DRHO        .G/C3                   :        5  
 NPHI        .%                      :        6  
 DT          .US/F                   :        7  
 SP          .MV                     :        8  
 ILD         .OHMM                   :        9  
 ILM         .OHMM                   :        10 
 LL8         .OHMM                   :        11 
 LLD         .OHMM                   :        12 
 LLS         .OHMM                   :        13 
 MSFL        .OHMM                   :        14 
~PARAMETER INFORMATION       
#MNEM.UNIT                  VALUE             DESCRIPTION OF MNEMONIC
#---------             ---------------        ------------------------------
 EKB .F                       30.0000:        KELLY BUSHING
 TD  .F                     2300.0000:        TOTAL DEPTH
 BHT .F                      173.0000:        BOTTOM HOLE TEMPERATURE
 BS  .                         8.5000:        BIT SIZE
 FD  .                        11.6000:        FLUID DENSITY
 CSIZ.                         9.6250:        CASING SIZE
 CBD .F                     1491.0000:        CASING DRILLER 1
 CBL .F                     1490.0000:        CASING LOGGER 1
 DFT .                  Miscellaneous:        TYPE FLUID IN HOLE
 DFV .                        46.0000:        VISCOSITY
 DFPH.                         8.5000:        PH
 DFL .                         6.0000:        FLUID LOSS
 RMS .                         0.1090:        RM
 MST .F                       58.0000:        RM MEAS. TEMP.
 RMF .                         0.0720:        RMF
 MFST.F                       61.0000:        RMF MEAS. TEMP.
 RMC .                         0.3000:        RMC
 MCST.F                       70.0000:        RMC MEAS. TEMP.
~OTHER INFORMATION
~A    DEPTH          GR        CALI        RHOB        DRHO        NPHI          DT          SP         ILD         ILM         LL8         LLD         LLS        MSFL  
# ...
  1972.0000     42.4808      8.5730      2.3422      0.0045     24.4112    110.0477    -27.8343   -999.2500   -999.2500   -999.2500     15.5107     16.0476     10.2112  
  1972.5000     42.5965      8.5633      2.3351      0.0111     24.3045    114.9987    -27.9063   -999.2500   -999.2500   -999.2500     16.2761     15.7838     11.2198  
  1973.0000     43.3319      8.5628      2.3362      0.0227     24.5974    120.9473    -27.8531   -999.2500   -999.2500   -999.2500     14.4601     15.5789     10.5539  
  1973.5000     44.3359      8.5622      2.3436      0.0236     24.7517    119.3958    -27.2950   -999.2500   -999.2500   -999.2500     14.7720     15.4817      9.2407  
  1974.0000     45.9394      8.5607      2.3511      0.0157     24.6869    112.2345    -26.3316   -999.2500   -999.2500   -999.2500     15.0906     15.3852      8.4039  
  1974.5000     48.6691      8.5760      2.3590      0.0088     24.9021    102.7673    -26.0601   -999.2500   -999.2500   -999.2500     15.7187     15.4505      8.0564  
  1975.0000     52.0619      8.6116      2.3916      0.0052     25.2718     99.5499    -25.9206   -999.2500   -999.2500   -999.2500     16.0838     15.0900      8.0972  
  1975.5000     53.0506      8.6236      2.4085      0.0015     25.6414     98.9531    -26.9628   -999.2500   -999.2500   -999.2500     17.2159     14.9461      8.3331  
  1976.0000     49.1791      8.6306      2.4072      0.0085     26.0848    111.0359    -27.3452   -999.2500   -999.2500   -999.2500     16.3011     15.4408      8.7606  
  1976.5000     43.0801      8.6239      2.3754      0.0028     26.6559    114.1639    -27.5175   -999.2500   -999.2500   -999.2500     15.9521     15.8989      8.8182  
  1977.0000     39.1886      8.6097      2.3314      0.0046     26.7597    115.6575    -27.4638   -999.2500   -999.2500   -999.2500     16.6650     15.7822      8.8323  
  1977.5000     38.1503      8.5964      2.3126      0.0107     26.2591    115.1521    -27.1919   -999.2500   -999.2500   -999.2500     17.4441     15.6663      9.5158  
  1978.0000     39.5268      8.5877      2.3088      0.0173     25.7064    110.9879    -26.6505   -999.2500   -999.2500   -999.2500     18.9530     15.5458     10.6605  
  1978.5000     40.6786      8.5739      2.3121      0.0107     25.1730    108.4442    -26.0889   -999.2500   -999.2500   -999.2500     19.9983     15.4200     11.4996  
  1979.0000     41.5449      8.5639      2.3193      0.0037     24.6396    107.0841    -26.1278   -999.2500   -999.2500   -999.2500     20.2691     15.2952     10.7921  
  1979.5000     42.5148      8.5385      2.3248      0.0035     24.3311    105.4404    -26.0395   -999.2500   -999.2500   -999.2500     18.9546     15.1126      9.9529  
  1980.0000     43.8787      8.5391      2.3345      0.0082     24.8531    103.4957    -25.9570   -999.2500   -999.2500   -999.2500     18.3647     14.9145      9.6053  
  1980.5000     45.2806      8.5397      2.3538      0.0046     25.1691    101.2319    -26.4411   -999.2500   -999.2500   -999.2500     17.8694     14.8437      9.4859  
  1981.0000     46.2799      8.5410      2.3707     -0.0060     25.5981     99.0357    -26.7289   -999.2500   -999.2500   -999.2500     17.5370     14.8815      9.5585  
  1981.5000     46.2388      8.5426      2.3886      0.0030     25.8714     99.6978    -27.2595   -999.2500   -999.2500   -999.2500     17.7941     14.9194      9.7103  
  1982.0000     44.8046      8.5475      2.3822      0.0146     25.6677    101.5618    -27.5817   -999.2500   -999.2500   -999.2500     18.0549     14.9574      9.5028  
  1982.5000     43.2618      8.5527      2.3687      0.0266     25.4295    109.7357    -27.7605   -999.2500   -999.2500   -999.2500     18.1307     14.9955      8.6629  
  1983.0000     42.3483      8.5559      2.3586      0.0324     25.2459    109.9170    -27.6997   -999.2500   -999.2500   -999.2500     17.7693     15.0502      8.5834  
  1983.5000     42.1946      8.5570      2.3393      0.0145     24.9698    108.2887    -26.3351   -999.2500   -999.2500   -999.2500     17.8834     15.1534      9.9662  
  1984.0000     41.9296      8.5493      2.3176      0.0075     24.8841    108.1308    -26.6704   -999.2500   -999.2500   -999.2500     18.1088     15.2574     11.3931  
  1984.5000     41.3876      8.5386      2.3280      0.0052     24.9645    104.5176    -26.7546   -999.2500   -999.2500   -999.2500     18.1354     15.3621     11.3920  
  1985.0000     41.1848      8.5235      2.3433      0.0131     24.9537    102.4944    -26.6912   -999.2500   -999.2500   -999.2500     17.8055     15.4515     11.2729  
  1985.5000     42.0612      8.5473      2.3553      0.0112     24.6113    100.6590    -26.5384   -999.2500   -999.2500   -999.2500     17.4387     15.3842     11.3046  
  1986.0000     42.5583      8.5469      2.3677      0.0047     24.2579     97.4208    -26.6300   -999.2500   -999.2500   -999.2500     17.9175     15.3173     11.2009  
  1986.5000     42.2204      8.5503      2.3694      0.0098     23.9262     97.6867    -26.9367   -999.2500   -999.2500   -999.2500     19.1090     15.2507     11.0613  
  1987.0000     41.2393      8.5571      2.3549      0.0201     23.7953     99.1100    -26.8683   -999.2500   -999.2500   -999.2500     19.7774     15.1792     11.0423  
  1987.5000     41.1279      8.5469      2.3323      0.0164     23.8183    100.3101    -26.8657   -999.2500   -999.2500   -999.2500     19.1079     15.1062     10.9052  
  1988.0000     41.3104      8.5603      2.3254      0.0115     23.8797    101.0578    -27.0219   -999.2500   -999.2500   -999.2500     18.3555     15.0336     10.8175  
  1988.5000     41.0886      8.5653      2.3307      0.0074     23.9364    103.8096    -27.2105   -999.2500   -999.2500   -999.2500     18.1653     15.1543     10.4216  
  1989.0000     41.2512      8.5710      2.3399      0.0069     23.9298     98.5851    -27.8728   -999.2500   -999.2500   -999.2500     18.1698     15.3623      9.7617  
  1989.5000     41.9318      8.5867      2.3542      0.0108     24.0444     98.1997    -28.2768   -999.2500   -999.2500   -999.2500     18.3445     15.5732      9.5413  
  1990.0000     42.4350      8.5841      2.3631      0.0199     24.4060     98.3690    -28.4245   -999.2500   -999.2500   -999.2500     18.8779     16.2783      9.8870  
  1990.5000     42.6676      8.5866      2.3607      0.0162     24.7105     98.5506    -27.6631   -999.2500   -999.2500   -999.2500     18.5112     17.1241     10.5454  
  1991.0000     42.6274      8.5630      2.3531      0.0128     24.8700     99.0792    -27.7137   -999.2500   -999.2500   -999.2500     18.1162     17.8677     12.4047  
  1991.5000     42.7499      8.5625      2.3423      0.0050     24.9243     99.7214    -27.7329   -999.2500   -999.2500   -999.2500     17.7165     18.5958     14.4556  
  1992.0000     43.0639      8.5542      2.3364      0.0007     24.5181    101.5267    -28.0199   -999.2500   -999.2500   -999.2500     17.5284     19.2222     14.0113  
  1992.5000     43.2017      8.5453      2.3406      0.0035     23.8884    100.5159    -28.4393   -999.2500   -999.2500   -999.2500     17.3942     18.3077     12.5648  
  1993.0000     42.5855      8.5545      2.3458      0.0049     23.6616    100.0236    -28.2422   -999.2500   -999.2500   -999.2500     17.2611     17.5331     11.6958  
  1993.5000     42.0227      8.5618      2.3515      0.0049     23.7552     98.3876    -27.3112   -999.2500   -999.2500   -999.2500     17.1479     17.5802     10.6718  
  1994.0000     42.1166      8.5573      2.3573      0.0066     23.9030     98.4491    -26.2217   -999.2500   -999.2500   -999.2500     17.3447     17.6275     12.6309  
  1994.5000     42.2434      8.5642      2.3657      0.0003     24.0244     93.5256    -26.4393   -999.2500   -999.2500   -999.2500     18.6425     17.9171     12.8263  
  1995.0000     42.1461      8.5844      2.3694     -0.0060     24.1799     93.7862    -26.9072   -999.2500   -999.2500   -999.2500     19.6135     18.2649     13.2154  
  1995.5000     41.8875      8.5627      2.3683     -0.0066     24.3117     95.1676    -26.6510   -999.2500   -999.2500   -999.2500     20.0249     18.6194     12.9450  
