~VERSION INFORMATION
 VERS.                           2.00:        CWLS LOG ASCII STANDARD - VERSION 2.00
 WRAP.                             NO:        ONE LINE PER DEPTH STEP
~WELL INFORMATION
#MNEM.UNIT                   DATA             INFORMATION
#----------             --------------        ------------------------------
 STRT.F                       25.0000:        START DEPTH
 STOP.F                     4165.0000:        STOP DEPTH
 STEP.F                        0.5000:        STEP VALUE
 NULL.                      -999.2500:        NULL VALUE
 COMP.    USGS/NPR HUSKY OIL OPERATOR:        COMPANY
 LOC .                     21 21N 14W:        LOCATION
 DATE.                         3/3/80:        LOG DATE
 WELL.                 WEST  DEASE #1:        WELL
 UWI .                   500232001400:        UNIQUE WELL ID
 API .                   500232001400:        UNIQUE WELL IDENTIFIER
 FLD .                        WILDCAT:        FIELD
 CNTY.                    NORTH SLOPE:        COUNTY
 STAT.                         ALASKA:        STATE
 CTRY.                            USA:        COUNTRY
 OPER.    USGS/NPR HUSKY OIL OPERATOR:        OPERATOR
 SRVC.                   SCHLUMBERGER:        SERVICE COMPANY
 LAT .                         0.0000:        LATITUDE
 LON .                         0.0000:        LONGITUDE
 DIGS.               CENTER LINE DATA:        DIGITIZING COMPANY
~CURVE INFORMATION      
#MNEM        .UNIT         API CODE           CURVE DESCRIPTION
#-----------------      --------------        ------------------------------
 DEPT        .F                      :        1  DEPTH
 SP          .MV                     :        2  
 LLD         .OHMM                   :        3  
 LLS         .OHMM                   :        4  
 MSFL        .OHMM                   :        5  
 CALI        .IN                     :        6  
 RHOB        .G/C3                   :        7  
 DRHO        .G/C3                   :        8  
 NPHI        .%                      :        9  
 GR          .GAPI                   :        10 
 DT          .US/F                   :        11 
~PARAMETER INFORMATION
#MNEM.UNIT                  VALUE             DESCRIPTION OF MNEMONIC
#---------             ---------------        ------------------------------
 EKB .F                       24.0000:        KELLY BUSHING
 TD  .F                     4173.0000:        TOTAL DEPTH
 BHT .F                       85.0000:        BOTTOM HOLE TEMPERATURE
 BS  .                        12.2500:        BIT SIZE
 FD  .                        10.4000:        FLUID DENSITY
 CSIZ.                        13.3750:        CASING SIZE
 CBD .F                      288.0000:        CASING DRILLER 1
 CBL .F                      292.0000:        CASING LOGGER 1
 DFT .                             99:        TYPE FLUID IN HOLE
 DFV .                        52.0000:        VISCOSITY
 DFPH.                         8.0000:        PH
 DFL .                         7.5000:        FLUID LOSS
 RMS .                         0.1250:        RM
 MST .F                       35.0000:        RM MEAS. TEMP.
 RMF .                         0.1440:        RMF
 MFST.F                       44.0000:        RMF MEAS. TEMP.
 RMC .                         0.2360:        RMC
 MCST.F                       36.0000:        RMC MEAS. TEMP.
~OTHER INFORMATION
~A    DEPTH          SP         LLD         LLS        MSFL        CALI        RHOB        DRHO        NPHI          GR          DT 
# ...
  2343.0000   -144.3506      9.8208      8.4954      9.9410     13.0147      2.4717      0.1496     43.0448     70.0395     94.6383 
  2343.5000   -144.2756      9.1171      8.0789      7.2741     12.7575      2.4615      0.1995     41.7155     69.9084     94.5771 
  2344.0000   -144.2484      8.5908      7.6682      4.4619     13.1778      2.4775      0.2494     40.5907     69.0444     97.0846 
  2344.5000   -144.2212      8.0162      7.0939      3.9170     14.3911      2.4662      0.2070     43.4750     66.9648    100.6441 
  2345.0000   -144.1940      7.2936      6.3894      3.6849     15.3809      2.4562      0.1581     45.7748     64.9320    104.8892 
  2345.5000   -144.1669      6.9694      6.0389      3.4850     15.5676      2.4485      0.1444     46.6451     62.4616    104.3197 
  2346.0000   -144.1397      6.9844      6.0289      3.0860     14.6688      2.4645      0.1310     45.4647     60.5102     99.3986 
  2346.5000   -144.1125      7.5236      6.2993      2.5348     14.3680      2.4535      0.1159     43.3802     60.4433     96.9393 
  2347.0000   -144.0947      8.2715      7.1487      1.7792     14.7790      2.4499      0.1284     43.1147     61.4099     94.5524 
  2347.5000   -144.0959      8.8712      7.4424      4.7572     14.7894      2.4446      0.1148     42.5871     62.4465     95.0710 
  2348.0000   -144.0327      9.2611      7.7277      4.1863     14.5440      2.4669      0.1121     41.6763     63.1878     98.3890 
  2348.5000   -143.9171      9.1247      7.9253      3.4034     14.2733      2.4620      0.1210     40.6059     64.1364     99.7393 
  2349.0000   -144.2026      9.0097      7.6743      3.7951     14.6999      2.4789      0.1348     40.7577     65.5702     98.3093 
  2349.5000   -144.9345      9.0309      7.4311      3.0625     14.8553      2.4807      0.1388     41.1388     66.6659    102.9098 
  2350.0000   -145.5818      9.1667      7.5503      2.6174     14.5074      2.4709      0.1373     41.9643     66.8740    105.1981 
  2350.5000   -144.9599      9.3046      7.7891      6.2689     14.1953      2.4576      0.1365     43.1652     67.5165    102.8859 
  2351.0000   -143.8621      9.3682      8.0593      6.0240     13.9844      2.4416      0.1334     43.7542     67.9945    102.9188 
  2351.5000   -143.4607      9.0705      8.1924      4.2041     13.8476      2.4663      0.1388     44.2407     67.2969     98.2381 
  2352.0000   -143.8439      8.8684      7.6998      5.9102     13.6678      2.4520      0.1311     44.7417     65.8961     96.5162 
  2352.5000   -143.0439      8.7244      7.3856      4.4494     14.4213      2.4396      0.1306     44.7253     65.4876     99.0959 
  2353.0000   -141.6833      8.5759      7.2020      3.5016     14.5981      2.4511      0.1422     45.7045     66.1075    101.8697 
  2353.5000   -140.6065      8.4295      7.1523      2.8458     14.5850      2.4496      0.1393     46.7628     67.1712    104.0906 
  2354.0000   -140.5843      8.2719      7.0720      3.4008     14.3112      2.4601      0.1473     46.2062     69.1034    104.6381 
  2354.5000   -140.7943      8.2029      7.1438      4.2535     14.2876      2.4695      0.1605     45.2212     70.7607    104.6130 
  2355.0000   -139.6257      8.2710      7.2676      3.5660     13.9663      2.5098      0.1977     45.0353     71.4174    102.6252 
  2355.5000   -137.4581      8.1869      7.1867      3.2849     14.4046      2.5207      0.2144     45.3106     70.9510    102.3519 
  2356.0000   -135.1371      8.1991      7.0851      3.1163     14.9899      2.5054      0.1934     44.9929     70.5180    103.6611 
  2356.5000   -135.4685      8.2360      7.1748      3.4832     14.6124      2.5007      0.1750     43.8405     70.5530    104.4961 
  2357.0000   -136.3084      8.2084      7.1700      3.5085     14.4484      2.4804      0.1631     42.0203     71.5917    103.8876 
  2357.5000   -135.7981      8.2277      7.1953      4.1899     14.7696      2.4858      0.1751     41.3368     72.3203    103.9467 
  2358.0000   -133.7149      8.3125      7.1994      3.2908     13.9069      2.4763      0.1845     42.0971     73.2731    103.6236 
  2358.5000   -136.7220      8.1363      7.0508      3.5206     14.9433      2.4428      0.1673     42.9533     72.4895    102.3539 
  2359.0000   -137.4490      8.1046      7.0259      4.0370     15.0036      2.4299      0.1488     43.9847     70.9784    103.3691 
  2359.5000   -135.4591      8.2391      7.0819      2.9477     14.4242      2.4407      0.1531     45.4850     68.4353    105.1044 
  2360.0000   -132.3857      8.5921      7.4637      3.3889     14.6434      2.4490      0.1562     45.9019     65.7253    101.8658 
  2360.5000   -133.8666      8.8544      7.8943      5.7053     14.7604      2.4506      0.1580     45.7874     63.4775    101.4942 
  2361.0000   -134.2750      9.0628      7.9650      5.0164     14.3325      2.4338      0.1585     45.7061     64.7654    100.8757 
  2361.5000   -131.5919      9.0153      7.9216      4.3209     14.0282      2.4324      0.1599     45.4261     66.2062     98.6424 
  2362.0000   -129.7941      8.6461      7.6268      4.3000     14.1564      2.4628      0.1557     44.2126     66.5497     98.6124 
  2362.5000   -128.8163      8.4913      7.4068      4.2754     14.3802      2.5098      0.1825     42.8696     66.2236    101.3033 
  2363.0000   -129.2477      8.2698      7.2935      2.5059     14.5122      2.5146      0.1891     42.0070     65.6367    101.6071 
  2363.5000   -127.6888      8.0298      7.1819      3.5953     14.1638      2.5068      0.1807     42.3844     65.5034    101.9981 
  2364.0000   -122.5181      7.9070      7.1207      3.0519     13.9849      2.4951      0.1570     44.2953     66.2012    106.4728 
  2364.5000   -118.3097      7.9078      7.1032      2.5003     13.9269      2.4748      0.1469     46.3082     67.2658    104.5005 
  2365.0000   -114.4255      7.9749      7.1203      2.9617     14.0464      2.4751      0.1456     46.8904     66.1625    104.4247 
  2365.5000   -114.1884      8.2344      7.2971      3.0673     14.2404      2.4649      0.1443     47.0195     64.8470    104.4789 
  2366.0000   -115.6948      8.1881      7.4783      3.5994     14.1814      2.4709      0.1340     47.6466     64.0549    102.4502 
  2366.5000   -117.0491      8.0427      7.4569      3.9359     13.4586      2.4653      0.1197     47.3987     65.7280    102.0340 
  2367.0000   -118.2930      8.1141      7.2935      3.3871     13.4885      2.4593      0.1053     47.1758     67.5412    103.2515 
  2367.5000   -119.0515      8.2161      7.0754      2.8950     13.5533      2.4747      0.1140     47.0328     68.5355    103.4757 
  2368.0000   -119.7743      8.0765      6.9689      2.7760     13.4926      2.4859      0.1314     46.6525     69.1579    104.4649 
  2368.5000   -120.4251      7.9546      6.8027      2.5598     13.5220      2.4896      0.1515     46.3578     69.8765    104.8263 
  2369.0000   -120.7234      7.8775      6.8370      3.0990     13.1209      2.4859      0.1446     44.8177     70.4582    104.3926 
  2369.5000   -120.4076      7.9907      7.0169      3.5482     13.0678      2.4843      0.1575     43.7822     70.1759    105.3278 
  2370.0000   -120.7443      8.0413      7.2093      4.0010     13.8065      2.4692      0.1654     43.6416     68.7504    105.9277 
  2370.5000   -121.1852      8.0642      7.3078      5.1696     14.1011      2.4822      0.1660     43.5694     68.1665    104.2500 
  2371.0000   -121.5944      8.0372      7.2972      5.0778     14.2144      2.5179      0.1764     43.7371     68.2901    103.7518 
  2371.5000   -122.5249      7.9131      7.1921      4.6719     14.0362      2.5328      0.1840     44.1844     68.3647    103.0371 
  2372.0000   -123.7052      7.8334      7.0670      3.9575     13.6319      2.5390      0.1664     44.5349     68.9330    102.3128 
  2372.5000   -126.7474      7.8075      7.0084      2.9719     14.2053      2.5322      0.1455     44.4376     69.7127    101.0888 
  2373.0000   -127.5601      7.8586      7.1249      2.9353     13.6160      2.5421      0.1460     43.6795     69.1745    101.7770 
