~VERSION INFORMATION
 VERS.                           2.00:        CWLS LOG ASCII STANDARD - VERSION 2.00
 WRAP.                             NO:        ONE LINE PER DEPTH STEP
~WELL INFORMATION
#MNEM.UNIT                   DATA             INFORMATION
#----------             --------------        ------------------------------
 STRT.F                      999.0000:        START DEPTH
 STOP.F                     2350.0000:        STOP DEPTH
 STEP.F                        0.5000:        STEP VALUE
 NULL.                      -999.2500:        NULL VALUE
 COMP.             UNITED STATES NAVY:        COMPANY  
 LOC .                   14  22N  18W:        LOCATION   
 DATE.                        3/19/68:        LOG DATE 
 WELL.                SOUTH BARROW #7:        WELL     
 UWI .                   500232000100:        UNIQUE WELL ID 
 API .                   500232000100:        UNIQUE WELL IDENTIFIER 
 FLD .                   SOUTH BARROW:        FIELD    
 CNTY.                         NPR #4:        COUNTY  
 STAT.                         ALASKA:        STATE   
 CTRY.                            USA:        COUNTRY 
 OPER.             UNITED STATES NAVY:        OPERATOR  
 SRVC.                   SCHLUMBERGER:        SERVICE COMPANY 
 LAT .                         0.0000:        LATITUDE
 LON .                         0.0000:        LONGITUDE
 DIGS.               CENTER LINE DATA:        DIGITIZING COMPANY 
~CURVE INFORMATION      
#MNEM        .UNIT         API CODE           CURVE DESCRIPTION
#-----------------      --------------        ------------------------------
 DEPT        .F                      :        1  DEPTH
 SP          .MV                     :        2  
 ILD         .OHMM                   :        3  
 ASN         .OHMM                   :        4  
 CILD        .OHMM                   :        5  
 CALI        .IN                     :        6  
 DT          .US/F                   :        7  
~PARAMETER INFORMATION       
#MNEM.UNIT                  VALUE             DESCRIPTION OF MNEMONIC
#---------             ---------------        ------------------------------
 EKB .F                       36.0000:        KELLY BUSHING
 TD  .F                     2351.0000:        TOTAL DEPTH
 BHT .F                        0.0000:        BOTTOM HOLE TEMPERATURE
 BS  .                         9.6250:        BIT SIZE
 FD  .                        76.5000:        FLUID DENSITY
 CSIZ.                        10.7500:        CASING SIZE
 CBD .F                      998.0000:        CASING DRILLER 1
 CBL .F                      999.0000:        CASING LOGGER 1
 DFT .                            Gel:        TYPE FLUID IN HOLE
 DFV .                        45.0000:        VISCOSITY
 DFPH.                         9.5000:        PH
 DFL .                         7.0000:        FLUID LOSS
 RMS .                         5.4300:        RM
 MST .F                       42.0000:        RM MEAS. TEMP.
 RMF .                         5.1700:        RMF
 MFST.F                       59.0000:        RMF MEAS. TEMP.
 RMC .                         5.0900:        RMC
 MCST.F                       56.0000:        RMC MEAS. TEMP.
~OTHER INFORMATION
~A    DEPTH          SP         ILD         ASN        CILD        CALI          DT  
# ...
  2221.0000    -11.3862      9.0749      9.7270    115.3696      9.6753    106.5893  
  2221.5000    -10.9919      8.6247      9.8683    120.3800      9.6301    108.5542  
  2222.0000    -10.5844      8.0726      9.6607    124.9412      9.5849    109.2217  
  2222.5000    -10.1711      7.8065      9.8462    128.8312      9.6185    106.6956  
  2223.0000    -10.0757      7.7400      9.9481    131.0684      9.6925    105.1154  
  2223.5000    -10.2106      7.7999      9.9762    130.1532      9.6999    104.8807  
  2224.0000    -10.2824      8.0685      9.9982    126.1345      9.6916    105.2828  
  2224.5000    -10.1368      8.6347     10.0203    120.4082      9.6776    105.1092  
  2225.0000     -9.3263      9.0700     10.3946    114.8274      9.6777    103.5775  
  2225.5000     -8.5430      9.1697     10.7826    112.4078      9.7026    100.9155  
  2226.0000     -7.9723      8.8508     10.7418    114.8458      9.7117     97.7300  
  2226.5000     -7.7042      8.5522     10.4340    118.9984      9.7154     99.9437  
  2227.0000     -7.9069      8.1659     10.1147    123.8327      9.7048    100.8378  
  2227.5000     -8.3653      7.8405      9.9876    128.5948      9.6648    104.4809  
  2228.0000     -8.7781      7.5636      9.4781    133.3693      9.6068    109.6793  
  2228.5000     -9.2642      7.2829      8.9577    138.1439      9.5690    111.9866  
  2229.0000     -9.5823      7.0872      8.6839    141.0678      9.5656    112.3462  
  2229.5000    -10.1896      7.0707      8.7059    143.9633      9.5453    111.8611  
  2230.0000    -10.5817      7.2376      8.9493    143.4012      9.5395    110.1688  
  2230.5000    -10.4592      7.4805      9.5935    136.9550      9.5448    108.0463  
  2231.0000    -10.0267      7.9597     10.3410    129.8726      9.5659    104.6930  
  2231.5000     -9.7095      8.6186     11.6640    120.8859      9.5882    100.7296  
  2232.0000     -9.7452      9.7025     13.1017    110.1064      9.6115     96.9797  
  2232.5000    -10.1474     10.7462     14.4000     99.7281      9.6348     94.5961  
  2233.0000    -10.7271     12.0417     15.4866     89.6759      9.6581     92.4708  
  2233.5000    -11.2909     13.3411     16.5358     81.6477      9.6814     90.3031  
  2234.0000    -12.2444     14.1338     17.3711     75.0238      9.6728     89.6690  
  2234.5000    -12.7712     14.8866     17.8675     72.5330      9.6583     89.0909  
  2235.0000    -12.5142     15.3559     17.7983     71.0518      9.6439     89.5211  
  2235.5000    -12.1780     15.4053     17.4652     70.6375      9.6294     90.5307  
  2236.0000    -11.7704     15.4063     17.1161     70.3545      9.6071     91.4373  
  2236.5000    -11.4857     15.2344     16.8536     70.8124      9.5833     92.9339  
  2237.0000    -11.6133     15.0625     16.7326     71.5168      9.5596     94.1432  
  2237.5000    -12.1203     14.8907     16.7623     72.1058      9.5359     93.9538  
  2238.0000    -12.7615     14.7188     17.1781     71.4968      9.5122     92.9842  
  2238.5000    -13.8236     15.4154     17.9552     70.1333      9.4942     91.7402  
  2239.0000    -15.1215     16.2992     18.8553     67.4105      9.5423     90.8390  
  2239.5000    -17.9004     17.2506     20.4811     64.5759      9.5911     91.6304  
  2240.0000    -22.7037     17.9174     23.1955     61.9107      9.5195     93.3295  
  2240.5000    -29.7139     18.4804     26.5805     59.7389      9.4277     95.6162  
  2241.0000    -38.1765     19.1314     29.9913     58.1168      9.4161     97.2138  
  2241.5000    -44.4284     19.5091     32.1396     56.9845      9.4165     97.1271  
  2242.0000    -47.0098     19.9110     31.1062     55.9879      9.4237     93.7822  
  2242.5000    -46.3985     20.2318     29.1945     55.7687      9.4331     90.4479  
  2243.0000    -44.4691     19.5857     27.4194     56.5956      9.4501     88.7028  
  2243.5000    -42.3313     18.7679     26.2658     58.6869      9.4431     87.7786  
  2244.0000    -40.1129     17.8811     25.2918     61.7102      9.4632     88.2981  
  2244.5000    -38.2657     16.6158     24.3543     65.2180      9.4958     89.3150  
  2245.0000    -36.4657     15.7501     22.4888     68.4633      9.5195     90.4216  
  2245.5000    -32.8236     14.9299     19.5070     71.5741      9.6103     92.2036  
  2246.0000    -26.2207     14.1779     17.3271     74.7604      9.7688     93.7944  
  2246.5000    -17.7365     13.6320     15.9019     78.3581      9.8606     95.4190  
  2247.0000    -12.6061     12.9111     14.6426     81.7882      9.8169     96.5313  
  2247.5000    -10.9038     12.3330     13.8376     85.1359      9.8118     97.3029  
  2248.0000    -10.9940     11.8549     13.2879     89.1278      9.7987     97.4595  
  2248.5000    -11.0842     11.3714     13.1460     92.2294      9.8036     97.5143  
  2249.0000    -11.2322     11.1134     12.9601     93.6880      9.7929     97.9092  
  2249.5000    -11.1189     10.8968     12.6120     94.7781      9.7580     98.5197  
  2250.0000    -49.0884     10.8823     12.2091     88.7247      9.7391     99.2603  
  2250.5000    -48.8542     10.7595   -999.2500     90.2548      9.7241     99.5290  
  2251.0000    -48.6455     10.7920   -999.2500     89.9388      9.7093     98.6203  
  2251.5000    -48.2510     10.8129   -999.2500     89.9618      9.7080     97.0825  
  2252.0000    -47.6858     10.6493   -999.2500     90.9272      9.7069     96.9128  
  2252.5000    -47.2911     10.4088   -999.2500     92.5392      9.7087     97.5075  
  2253.0000    -47.2326     10.1985   -999.2500     94.2621      9.7098     98.5783  
  2253.5000    -47.1979     10.1466   -999.2500     94.6790      9.7103     99.0489  
  2254.0000    -47.1235     10.4040   -999.2500     94.5219      9.7124     98.7793  
  2254.5000    -47.0409     10.3214   -999.2500     94.1478      9.7092     98.0341  
  2255.0000    -46.9722     10.3976   -999.2500     93.3387      9.7125     97.2760  
  2255.5000    -46.9433     10.5145   -999.2500     92.5518      9.7156     96.6838  
  2256.0000    -46.9769     10.5500   -999.2500     92.3077      9.7203     96.1476  
  2256.5000    -47.1247     10.5460   -999.2500     92.2100      9.7281     96.3773  
  2257.0000    -47.3958     10.6151   -999.2500     91.5725      9.7284     96.5390  
  2257.5000    -47.4522     10.7133   -999.2500     90.5687      9.7287     96.7581  
  2258.0000    -47.1752     10.7890   -999.2500     89.8615      9.7291     97.1242  
  2258.5000    -46.8059     10.8039   -999.2500     89.8881      9.7294     97.5317  
  2259.0000    -46.5155     10.6595   -999.2500     91.1793      9.7297     97.8912  
  2259.5000    -46.5327     10.3780   -999.2500     93.1850      9.7301     98.2448  
  2260.0000    -46.5835     10.3286   -999.2500     94.3533      9.7300     98.6894  
  2260.5000    -46.5117     10.1338   -999.2500     95.0362      9.7328     98.7464  
  2261.0000    -46.6898     10.1752   -999.2500     95.5222      9.7271     98.3213  
  2261.5000    -47.2340     10.0648   -999.2500     96.0215      9.7287     97.9181  
  2262.0000    -47.7101     10.0996   -999.2500     97.2385      9.7251     98.0243  
  2262.5000    -47.8405      9.8737   -999.2500     98.4149      9.7168     98.3021  
  2263.0000    -47.8734      9.8825   -999.2500     99.2214      9.7095     98.3381  
  2263.5000    -47.8433      9.7660   -999.2500     99.3756      9.7145     98.3090  
  2264.0000    -47.7710      9.7271   -999.2500     99.3007      9.7197     98.2062  
  2264.5000    -47.4100      9.7876   -999.2500     99.1775      9.7177     98.0666  
  2265.0000    -46.8848      9.8188   -999.2500     98.7412      9.7142     97.7553  
  2265.5000    -46.6846      9.8904   -999.2500     98.2369      9.7103     96.8289  
  2266.0000    -46.6987      9.9727   -999.2500     97.3926      9.7063     95.3549  
  2266.5000    -46.5648     10.1976   -999.2500     95.6097      9.7023     94.4456  
  2267.0000    -46.5336     10.3622   -999.2500     93.6081      9.6983     93.6794  
  2267.5000    -46.8326     10.6536   -999.2500     90.1975      9.6944     93.0612  
