~VERSION INFORMATION
 VERS.                           2.00:        CWLS LOG ASCII STANDARD - VERSION 2.00
 WRAP.                             NO:        ONE LINE PER DEPTH STEP
~WELL INFORMATION
#MNEM.UNIT                   DATA             INFORMATION
#----------             --------------        ------------------------------
 STRT.F                       68.0000:        START DEPTH
 STOP.F                     2380.0000:        STOP DEPTH
 STEP.F                        0.5000:        STEP VALUE
 NULL.                      -999.2500:        NULL VALUE
 COMP.                     USGS/NPR-A:        COMPANY  
 LOC .                   30  22N  16W:        LOCATION   
 DATE.                        3/18/78:        LOG DATE 
 WELL.               SOUTH BARROW #17:        WELL     
 UWI .                   500232001100:        UNIQUE WELL ID 
 API .                   500232001100:        UNIQUE WELL IDENTIFIER 
 FLD .                   SOUTH BARROW:        FIELD    
 CNTY.                     NOTH SLOPE:        COUNTY  
 STAT.                         ALASKA:        STATE   
 CTRY.                            USA:        COUNTRY 
 OPER.                     USGS/NPR-A:        OPERATOR  
 SRVC.                   SCHLUMBERGER:        SERVICE COMPANY 
 LAT .                         0.0000:        LATITUDE
 LON .                         0.0000:        LONGITUDE
 DIGS.               CENTER LINE DATA:        DIGITIZING COMPANY 
~CURVE INFORMATION      
#MNEM        .UNIT         API CODE           CURVE DESCRIPTION
#-----------------      --------------        ------------------------------
 DEPT        .F                      :        1  DEPTH
 CALI        .IN                     :        2  
 GR          .GAPI                   :        3  
 NPHI        .%                      :        4  
 RHOB        .G/C3                   :        5  
 DRHO        .G/C3                   :        6  
 DT          .US/F                   :        7  
 SP          .MV                     :        8  
 ILD         .OHMM                   :        9  
 ILM         .OHMM                   :        10 
 LL8         .OHMM                   :        11 
 LLD         .OHMM                   :        12 
 LLS         .OHMM                   :        13 
~PARAMETER INFORMATION       
#MNEM.UNIT                  VALUE             DESCRIPTION OF MNEMONIC
#---------             ---------------        ------------------------------
 EKB .F                       33.0000:        KELLY BUSHING
 TD  .F                     2382.0000:        TOTAL DEPTH
 BHT .F                        0.0000:        BOTTOM HOLE TEMPERATURE
 BS  .                         8.5000:        BIT SIZE
 FD  .                        10.8000:        FLUID DENSITY
 CSIZ.                         9.6250:        CASING SIZE
 CBD .F                     1512.0000:        CASING DRILLER 1
 CBL .F                     1512.0000:        CASING LOGGER 1
 DFT .                  Miscellaneous:        TYPE FLUID IN HOLE
 DFV .                        43.0000:        VISCOSITY
 DFPH.                         8.5000:        PH
 DFL .                         4.0000:        FLUID LOSS
 RMS .                         0.0760:        RM
 MST .F                       60.0000:        RM MEAS. TEMP.
 RMF .                         0.0000:        RMF
 MFST.F                        0.0000:        RMF MEAS. TEMP.
 RMC .                         0.1640:        RMC
 MCST.F                       55.0000:        RMC MEAS. TEMP.
~OTHER INFORMATION
~A    DEPTH        CALI          GR        NPHI        RHOB        DRHO          DT          SP         ILD         ILM         LL8         LLD         LLS  
# ...
  1164.5000     13.7191     85.6522   -999.2500   -999.2500   -999.2500    117.4658    -40.0800     10.6846     10.3260     12.1476   -999.2500   -999.2500  
  1165.0000     13.6619     84.2277   -999.2500   -999.2500   -999.2500    117.3786    -44.8279     10.6502     10.3221     12.0068   -999.2500   -999.2500  
  1165.5000     13.7203     83.3742   -999.2500   -999.2500   -999.2500    115.3147    -48.3179     10.5449     10.2619     12.0093   -999.2500   -999.2500  
  1166.0000     13.7810     83.4514   -999.2500   -999.2500   -999.2500    114.0253    -48.6733     10.4405     10.2019     11.8855   -999.2500   -999.2500  
  1166.5000     13.9357     83.6636   -999.2500   -999.2500   -999.2500    114.2011    -47.3428     10.3372     10.1277     11.5504   -999.2500   -999.2500  
  1167.0000     13.6751     82.8795   -999.2500   -999.2500   -999.2500    113.6723    -46.1138     10.2349      9.9416     11.1859   -999.2500   -999.2500  
  1167.5000     13.3715     81.6798   -999.2500   -999.2500   -999.2500    112.4267    -45.6840     10.1337      9.7590     10.8508   -999.2500   -999.2500  
  1168.0000     13.5878     80.6854   -999.2500   -999.2500   -999.2500    111.6615    -45.8372     10.0498      9.5796     10.8842   -999.2500   -999.2500  
  1168.5000     13.5865     79.4355   -999.2500   -999.2500   -999.2500    111.4232    -45.9171     10.0683      9.5086     10.9212   -999.2500   -999.2500  
  1169.0000     13.5496     78.0349   -999.2500   -999.2500   -999.2500    110.1809    -45.6800     10.0869      9.6587     10.9653   -999.2500   -999.2500  
  1169.5000     13.5764     78.1002   -999.2500   -999.2500   -999.2500    109.3844    -44.9174     10.1215      9.8112     11.1471   -999.2500   -999.2500  
  1170.0000     13.5640     79.9969   -999.2500   -999.2500   -999.2500    109.5509    -43.8319     10.3288      9.9752     11.9623   -999.2500   -999.2500  
  1170.5000     13.5319     81.8336   -999.2500   -999.2500   -999.2500    110.8367    -44.0038     10.5403     10.1532     12.4999   -999.2500   -999.2500  
  1171.0000     13.6558     83.7499   -999.2500   -999.2500   -999.2500    111.7397    -47.2236     10.7525     10.3344     12.4009   -999.2500   -999.2500  
  1171.5000     13.6761     85.2554   -999.2500   -999.2500   -999.2500    111.5127    -46.6423     10.8673     10.5188     12.3262   -999.2500   -999.2500  
  1172.0000     13.7921     84.9702   -999.2500   -999.2500   -999.2500    109.4015    -45.2053     10.9834     10.7066     12.3947   -999.2500   -999.2500  
  1172.5000     13.7999     83.6105   -999.2500   -999.2500   -999.2500    108.8302    -45.5828     11.1006     10.8687     12.3924   -999.2500   -999.2500  
  1173.0000     13.8063     83.1896   -999.2500   -999.2500   -999.2500    111.5668    -45.6639     11.2192     10.8422     12.3628   -999.2500   -999.2500  
  1173.5000     13.7532     83.7165   -999.2500   -999.2500   -999.2500    113.4915    -45.4746     11.3390     10.8159     12.3973   -999.2500   -999.2500  
  1174.0000     13.5092     84.7770   -999.2500   -999.2500   -999.2500    114.7432    -45.6002     11.3439     10.7895     12.2453   -999.2500   -999.2500  
  1174.5000     13.5452     86.1009   -999.2500   -999.2500   -999.2500    115.2169    -45.6718     11.3064     10.7633     12.0913   -999.2500   -999.2500  
  1175.0000     13.6803     86.2856   -999.2500   -999.2500   -999.2500    113.8078    -45.4526     11.2691     10.7442     12.0332   -999.2500   -999.2500  
  1175.5000     13.8120     85.8988   -999.2500   -999.2500   -999.2500    113.8712    -46.3675     11.2318     10.7345     12.1121   -999.2500   -999.2500  
  1176.0000     13.9552     84.7400   -999.2500   -999.2500   -999.2500    115.8835    -47.2418     11.1947     10.7249     12.1916   -999.2500   -999.2500  
  1176.5000     13.8804     82.2511   -999.2500   -999.2500   -999.2500    114.7130    -47.2957     11.1669     10.7152     12.1576   -999.2500   -999.2500  
  1177.0000     14.0517     81.4051   -999.2500   -999.2500   -999.2500    112.1280    -46.4579     11.1550     10.7055     12.0125   -999.2500   -999.2500  
  1177.5000     13.9071     81.0124   -999.2500   -999.2500   -999.2500    109.5335    -44.7218     11.1431     10.6959     11.9457   -999.2500   -999.2500  
  1178.0000     14.0932     81.1719   -999.2500   -999.2500   -999.2500    107.5897    -44.4105     11.1312     10.6863     11.6048   -999.2500   -999.2500  
  1178.5000     14.2793     81.0338   -999.2500   -999.2500   -999.2500    108.0836    -45.4652     11.1193     10.6767     11.5098   -999.2500   -999.2500  
  1179.0000     14.4235     81.0977   -999.2500   -999.2500   -999.2500    108.4661    -45.9418     11.1075     10.6715     11.4259   -999.2500   -999.2500  
  1179.5000     14.2317     81.4626   -999.2500   -999.2500   -999.2500    108.7351    -46.5863     11.0956     10.7490     11.6240   -999.2500   -999.2500  
  1180.0000     14.1239     81.0392   -999.2500   -999.2500   -999.2500    108.6443    -46.9369     11.1524     10.8270     11.8255   -999.2500   -999.2500  
  1180.5000     14.0518     80.5577   -999.2500   -999.2500   -999.2500    108.4928    -45.7807     11.2468     10.9055     12.0305   -999.2500   -999.2500  
  1181.0000     14.0630     80.7754   -999.2500   -999.2500   -999.2500    108.7905    -43.1216     11.3419     10.9785     12.2390   -999.2500   -999.2500  
  1181.5000     14.1621     80.7225   -999.2500   -999.2500   -999.2500    109.2919    -40.0679     11.4378     11.0488     12.4441   -999.2500   -999.2500  
  1182.0000     14.2700     79.6884   -999.2500   -999.2500   -999.2500    109.2997    -37.6098     11.5345     11.1196     12.4171   -999.2500   -999.2500  
  1182.5000     14.2870     78.6574   -999.2500   -999.2500   -999.2500    109.2793    -39.3234     11.5843     11.1908     12.3902   -999.2500   -999.2500  
  1183.0000     14.2668     78.1265   -999.2500   -999.2500   -999.2500    109.0999    -38.6646     11.6204     11.2624     12.3580   -999.2500   -999.2500  
  1183.5000     14.2137     78.8084   -999.2500   -999.2500   -999.2500    108.5610    -38.1912     11.6566     11.3345     12.2915   -999.2500   -999.2500  
  1184.0000     14.2405     79.5511   -999.2500   -999.2500   -999.2500    108.0742    -39.1380     11.6929     11.4071     12.2253   -999.2500   -999.2500  
  1184.5000     14.0358     79.5061   -999.2500   -999.2500   -999.2500    108.1839    -39.0005     11.7293     11.4778     12.1595   -999.2500   -999.2500  
  1185.0000     13.9557     79.8792   -999.2500   -999.2500   -999.2500    108.1671    -39.6615     11.7658     11.4752     12.1865   -999.2500   -999.2500  
  1185.5000     13.9963     80.2608   -999.2500   -999.2500   -999.2500    107.9966    -40.6160     11.8024     11.4726     12.2276   -999.2500   -999.2500  
  1186.0000     14.0369     80.2280   -999.2500   -999.2500   -999.2500    108.1145    -40.8012     11.8392     11.4699     12.2689   -999.2500   -999.2500  
  1186.5000     14.0632     80.1200   -999.2500   -999.2500   -999.2500    108.1470    -40.3995     11.8760     11.4673     12.3104   -999.2500   -999.2500  
  1187.0000     13.9904     80.4215   -999.2500   -999.2500   -999.2500    108.2906    -40.0356     11.9130     11.4647     12.3520   -999.2500   -999.2500  
  1187.5000     13.9959     82.3936   -999.2500   -999.2500   -999.2500    108.4041    -41.9404     11.8901     11.4620     12.3937   -999.2500   -999.2500  
  1188.0000     13.9584     84.2426   -999.2500   -999.2500   -999.2500    108.4688    -45.7214     11.8672     11.4594     12.4356   -999.2500   -999.2500  
  1188.5000     14.6526     85.4047   -999.2500   -999.2500   -999.2500    108.6562    -47.5724     11.8443     11.4568     12.4331   -999.2500   -999.2500  
  1189.0000     14.1891     85.6731   -999.2500   -999.2500   -999.2500    109.0201    -47.4575     11.8214     11.4542     12.4162   -999.2500   -999.2500  
  1189.5000     14.0765     84.8887   -999.2500   -999.2500   -999.2500    109.1436    -45.8702     11.7986     11.4515     12.3993   -999.2500   -999.2500  
