~VERSION INFORMATION
 VERS.                           2.00:        CWLS LOG ASCII STANDARD - VERSION 2.00
 WRAP.                             NO:        ONE LINE PER DEPTH STEP
~WELL INFORMATION
#MNEM.UNIT                   DATA             INFORMATION
#----------             --------------        ------------------------------
 STRT.F                       68.0000:        START DEPTH
 STOP.F                     2380.0000:        STOP DEPTH
 STEP.F                        0.5000:        STEP VALUE
 NULL.                      -999.2500:        NULL VALUE
 COMP.                     USGS/NPR-A:        COMPANY  
 LOC .                   30  22N  16W:        LOCATION   
 DATE.                        3/18/78:        LOG DATE 
 WELL.               SOUTH BARROW #17:        WELL     
 UWI .                   500232001100:        UNIQUE WELL ID 
 API .                   500232001100:        UNIQUE WELL IDENTIFIER 
 FLD .                   SOUTH BARROW:        FIELD    
 CNTY.                     NOTH SLOPE:        COUNTY  
 STAT.                         ALASKA:        STATE   
 CTRY.                            USA:        COUNTRY 
 OPER.                     USGS/NPR-A:        OPERATOR  
 SRVC.                   SCHLUMBERGER:        SERVICE COMPANY 
 LAT .                         0.0000:        LATITUDE
 LON .                         0.0000:        LONGITUDE
 DIGS.               CENTER LINE DATA:        DIGITIZING COMPANY 
~CURVE INFORMATION      
#MNEM        .UNIT         API CODE           CURVE DESCRIPTION
#-----------------      --------------        ------------------------------
 DEPT        .F                      :        1  DEPTH
 CALI        .IN                     :        2  
 GR          .GAPI                   :        3  
 NPHI        .%                      :        4  
 RHOB        .G/C3                   :        5  
 DRHO        .G/C3                   :        6  
 DT          .US/F                   :        7  
 SP          .MV                     :        8  
 ILD         .OHMM                   :        9  
 ILM         .OHMM                   :        10 
 LL8         .OHMM                   :        11 
 LLD         .OHMM                   :        12 
 LLS         .OHMM                   :        13 
~PARAMETER INFORMATION       
#MNEM.UNIT                  VALUE             DESCRIPTION OF MNEMONIC
#---------             ---------------        ------------------------------
 EKB .F                       33.0000:        KELLY BUSHING
 TD  .F                     2382.0000:        TOTAL DEPTH
 BHT .F                        0.0000:        BOTTOM HOLE TEMPERATURE
 BS  .                         8.5000:        BIT SIZE
 FD  .                        10.8000:        FLUID DENSITY
 CSIZ.                         9.6250:        CASING SIZE
 CBD .F                     1512.0000:        CASING DRILLER 1
 CBL .F                     1512.0000:        CASING LOGGER 1
 DFT .                  Miscellaneous:        TYPE FLUID IN HOLE
 DFV .                        43.0000:        VISCOSITY
 DFPH.                         8.5000:        PH
 DFL .                         4.0000:        FLUID LOSS
 RMS .                         0.0760:        RM
 MST .F                       60.0000:        RM MEAS. TEMP.
 RMF .                         0.0000:        RMF
 MFST.F                        0.0000:        RMF MEAS. TEMP.
 RMC .                         0.1640:        RMC
 MCST.F                       55.0000:        RMC MEAS. TEMP.
~OTHER INFORMATION
~A    DEPTH        CALI          GR        NPHI        RHOB        DRHO          DT          SP         ILD         ILM         LL8         LLD         LLS  
# ...
  1292.0000     13.4857     75.1760   -999.2500   -999.2500   -999.2500    117.2697    -45.3034     10.2516      9.5816     11.0414   -999.2500   -999.2500  
  1292.5000     13.4539     74.7666   -999.2500   -999.2500   -999.2500    115.6327    -45.6065     10.2189      9.5509     11.4912   -999.2500   -999.2500  
  1293.0000     13.3940     75.1335   -999.2500   -999.2500   -999.2500    113.9423    -44.1434     10.1863      9.5837     11.5679   -999.2500   -999.2500  
  1293.5000     13.5800     75.2469   -999.2500   -999.2500   -999.2500    113.2978    -42.0614     10.1538      9.6166     11.3992   -999.2500   -999.2500  
  1294.0000     13.8699     74.6815   -999.2500   -999.2500   -999.2500    111.7230    -40.3977     10.1214      9.6497     11.1203   -999.2500   -999.2500  
  1294.5000     13.4008     73.8388   -999.2500   -999.2500   -999.2500    110.2100    -39.4976     10.1791      9.6828     10.9796   -999.2500   -999.2500  
  1295.0000     13.5974     73.1769   -999.2500   -999.2500   -999.2500    110.1364    -39.3031     10.3371      9.7848     10.8406   -999.2500   -999.2500  
  1295.5000     13.8988     74.4718   -999.2500   -999.2500   -999.2500    109.3804    -39.7622     10.4975      9.9902     10.9959   -999.2500   -999.2500  
  1296.0000     13.9627     76.2584   -999.2500   -999.2500   -999.2500    108.6264    -40.4270     10.6605     10.1998     11.5658   -999.2500   -999.2500  
  1296.5000     13.9776     77.1446   -999.2500   -999.2500   -999.2500    108.4593    -40.0940     10.8114     10.4139     12.2626   -999.2500   -999.2500  
  1297.0000     14.0162     77.2500   -999.2500   -999.2500   -999.2500    108.4569    -39.0908     10.9566     10.6324     12.2175   -999.2500   -999.2500  
  1297.5000     13.8529     77.1377   -999.2500   -999.2500   -999.2500    108.6798    -39.9748     11.1037     10.8555     12.2423   -999.2500   -999.2500  
  1298.0000     13.7820     76.8321   -999.2500   -999.2500   -999.2500    109.0696    -41.0799     11.2528     10.9404     12.2829   -999.2500   -999.2500  
  1298.5000     13.9520     76.5664   -999.2500   -999.2500   -999.2500    109.4471    -42.4634     11.4039     10.9852     12.3237   -999.2500   -999.2500  
  1299.0000     14.0805     76.1031   -999.2500   -999.2500   -999.2500    109.6492    -44.0678     11.5570     11.0302     12.3646   -999.2500   -999.2500  
  1299.5000     14.2108     75.0008   -999.2500   -999.2500   -999.2500    109.3846    -45.0369     11.5839     11.0753     12.4056   -999.2500   -999.2500  
  1300.0000     14.0018     73.1027   -999.2500   -999.2500   -999.2500    110.7223    -46.8372     11.5870     11.1018     12.4468   -999.2500   -999.2500  
  1300.5000     13.6646     70.4690   -999.2500   -999.2500   -999.2500    112.3571    -46.4707     11.5901     11.0586     12.4882   -999.2500   -999.2500  
  1301.0000     13.3766     70.2872   -999.2500   -999.2500   -999.2500    113.2244    -46.5380     11.5931     11.0156     12.3859   -999.2500   -999.2500  
  1301.5000     13.2177     71.7346   -999.2500   -999.2500   -999.2500    115.2980    -46.6537     11.5962     10.9728     12.2626   -999.2500   -999.2500  
  1302.0000     13.2091     74.6979   -999.2500   -999.2500   -999.2500    117.0020    -45.2846     11.5884     10.9301     12.1405   -999.2500   -999.2500  
  1302.5000     13.2035     76.4355   -999.2500   -999.2500   -999.2500    115.2439    -43.5280     11.5182     10.8876     12.0196   -999.2500   -999.2500  
  1303.0000     13.4063     78.0214   -999.2500   -999.2500   -999.2500    114.1139    -42.5539     11.4484     10.8836     11.8999   -999.2500   -999.2500  
  1303.5000     13.1867     81.1830   -999.2500   -999.2500   -999.2500    112.2160    -43.7580     11.3789     10.8869     11.8341   -999.2500   -999.2500  
  1304.0000     13.2053     84.5225   -999.2500   -999.2500   -999.2500    110.6006    -45.0057     11.3100     10.8902     11.7927   -999.2500   -999.2500  
  1304.5000     13.4415     83.1843   -999.2500   -999.2500   -999.2500    110.0673    -46.2190     11.2414     10.8935     11.7515   -999.2500   -999.2500  
  1305.0000     13.5215     78.7193   -999.2500   -999.2500   -999.2500    109.1602    -46.9217     11.2106     10.8968     11.7104   -999.2500   -999.2500  
  1305.5000     13.4361     75.7020   -999.2500   -999.2500   -999.2500    108.4021    -46.6666     11.2336     10.9001     11.8124   -999.2500   -999.2500  
  1306.0000     13.2314     74.9054   -999.2500   -999.2500   -999.2500    107.9141    -45.7653     11.2567     10.9011     11.9320   -999.2500   -999.2500  
  1306.5000     13.1704     74.9275   -999.2500   -999.2500   -999.2500    109.2369    -44.8072     11.2799     10.8837     12.0528   -999.2500   -999.2500  
  1307.0000     13.0846     75.9926   -999.2500   -999.2500   -999.2500    111.7257    -43.6827     11.3031     10.8663     12.1221   -999.2500   -999.2500  
  1307.5000     13.1401     77.1174   -999.2500   -999.2500   -999.2500    115.2002    -43.4867     11.3264     10.8489     12.1807   -999.2500   -999.2500  
  1308.0000     13.3203     79.1265   -999.2500   -999.2500   -999.2500    118.2591    -43.7760     11.3497     10.8316     12.2396   -999.2500   -999.2500  
  1308.5000     13.4856     81.0932   -999.2500   -999.2500   -999.2500    119.9735    -43.6285     11.2573     10.8143     12.2988   -999.2500   -999.2500  
  1309.0000     13.5995     82.0114   -999.2500   -999.2500   -999.2500    116.2172    -43.1846     11.0933     10.6979     12.3186   -999.2500   -999.2500  
  1309.5000     13.4534     82.5639   -999.2500   -999.2500   -999.2500    114.7037    -42.4731     10.9317     10.5634     12.1137   -999.2500   -999.2500  
  1310.0000     13.2238     83.0154   -999.2500   -999.2500   -999.2500    115.2528    -42.7331     10.7724     10.4307     11.5609   -999.2500   -999.2500  
  1310.5000     13.3840     82.5647   -999.2500   -999.2500   -999.2500    114.3155    -43.1435     10.6154     10.2996     11.0461   -999.2500   -999.2500  
  1311.0000     13.6281     80.7438   -999.2500   -999.2500   -999.2500    113.4820    -41.9350     10.4607     10.1702     10.8633   -999.2500   -999.2500  
  1311.5000     13.6053     78.9901   -999.2500   -999.2500   -999.2500    114.9359    -41.7231     10.3083     10.0424     10.6836   -999.2500   -999.2500  
  1312.0000     13.4704     80.0003   -999.2500   -999.2500   -999.2500    116.7566    -43.9157     10.1808      9.9020     10.5657   -999.2500   -999.2500  
  1312.5000     13.3905     82.0946   -999.2500   -999.2500   -999.2500    118.5301    -44.8808     10.0807      9.7519     10.7029   -999.2500   -999.2500  
  1313.0000     13.3717     82.0438   -999.2500   -999.2500   -999.2500    119.6867    -45.4955      9.9816      9.6041     10.8619   -999.2500   -999.2500  
  1313.5000     13.3915     80.6684   -999.2500   -999.2500   -999.2500    116.8934    -46.1071      9.8834      9.4585     11.0604   -999.2500   -999.2500  
  1314.0000     13.4060     79.3512   -999.2500   -999.2500   -999.2500    113.6895    -45.2595      9.7862      9.3151     10.7360   -999.2500   -999.2500  
  1314.5000     13.4361     78.2436   -999.2500   -999.2500   -999.2500    113.3302    -44.4842      9.6899      9.1739     10.5627   -999.2500   -999.2500  
  1315.0000     13.5023     77.5283   -999.2500   -999.2500   -999.2500    113.4404    -43.9926      9.5948      9.1176     10.3922   -999.2500   -999.2500  
  1315.5000     13.4781     77.8418   -999.2500   -999.2500   -999.2500    115.0810    -43.5620      9.5046      9.0672     10.2345   -999.2500   -999.2500  
  1316.0000     13.2020     78.8965   -999.2500   -999.2500   -999.2500    116.9286    -43.9195      9.4152      9.0171     10.3280   -999.2500   -999.2500  
  1316.5000     13.1269     80.3162   -999.2500   -999.2500   -999.2500    119.8355    -42.4131      9.3266      8.9672     10.4224   -999.2500   -999.2500  
  1317.0000     13.0251     82.2520   -999.2500   -999.2500   -999.2500    120.9819    -40.9838      9.2389      8.9177     10.5177   -999.2500   -999.2500  
