~VERSION INFORMATION
 VERS.                           2.00:        CWLS LOG ASCII STANDARD - VERSION 2.00
 WRAP.                             NO:        ONE LINE PER DEPTH STEP
~WELL INFORMATION
#MNEM.UNIT                   DATA             INFORMATION
#----------             --------------        ------------------------------
 STRT.F                      101.0000:        START DEPTH
 STOP.F                     3666.0000:        STOP DEPTH
 STEP.F                        0.5000:        STEP VALUE
 NULL.                      -999.2500:        NULL VALUE
 COMP.     USGS/NPR HUSKY OIL COMPANY:        COMPANY
 LOC .                      9 20N 19W:        LOCATION
 DATE.                       12/30/79:        LOG DATE
 WELL.           WALAKPA TEST WELL #1:        WELL
 UWI .                   500232001300:        UNIQUE WELL ID
 API .                   500232001300:        UNIQUE WELL IDENTIFIER
 FLD .                        WILDCAT:        FIELD
 CNTY.                    NORTH SLOPE:        COUNTY
 STAT.                         ALASKA:        STATE
 CTRY.                            USA:        COUNTRY
 OPER.     USGS/NPR HUSKY OIL COMPANY:        OPERATOR
 SRVC.                   SCHLUMBERGER:        SERVICE COMPANY
 LAT .                         0.0000:        LATITUDE
 LON .                         0.0000:        LONGITUDE
 DIGS.               CENTER LINE DATA:        DIGITIZING COMPANY
~CURVE INFORMATION      
#MNEM        .UNIT         API CODE           CURVE DESCRIPTION
#-----------------      --------------        ------------------------------
 DEPT        .F                      :        1  DEPTH
 GR          .GAPI                   :        2  
 CALI        .IN                     :        3  
 RHOB        .G/C3                   :        4  
 DRHO        .G/C3                   :        5  
 NPHI        .%                      :        6  
 DT          .US/F                   :        7  
 SP          .MV                     :        8  
 ILD         .OHMM                   :        9  
 ILM         .OHMM                   :        10 
 LL8         .OHMM                   :        11 
 SFL         .OHMM                   :        12 
~PARAMETER INFORMATION
#MNEM.UNIT                  VALUE             DESCRIPTION OF MNEMONIC
#---------             ---------------        ------------------------------
 EKB .F                       50.0000:        KELLY BUSHING
 TD  .F                     3672.0000:        TOTAL DEPTH
 BHT .F                       80.0000:        BOTTOM HOLE TEMPERATURE
 BS  .                        12.2500:        BIT SIZE
 FD  .                         9.9000:        FLUID DENSITY
 CSIZ.                        13.3750:        CASING SIZE
 CBD .F                      100.0000:        CASING DRILLER 1
 CBL .F                      106.0000:        CASING LOGGER 1
 DFT .                             99:        TYPE FLUID IN HOLE
 DFV .                        45.0000:        VISCOSITY
 DFPH.                         8.0000:        PH
 DFL .                        23.0000:        FLUID LOSS
 RMS .                         5.9200:        RM
 MST .F                       58.0000:        RM MEAS. TEMP.
 RMF .                         6.2200:        RMF
 MFST.F                       57.0000:        RMF MEAS. TEMP.
 RMC .                         7.0500:        RMC
 MCST.F                       57.0000:        RMC MEAS. TEMP.
~OTHER INFORMATION
~A    DEPTH          GR        CALI        RHOB        DRHO        NPHI          DT          SP         ILD         ILM         LL8         SFL 
# ...
   801.0000     92.6124     12.9790      2.4154      0.0596     37.3917    120.0664    -64.1483     13.9423     10.5064     14.9668   -999.2500 
   801.5000     92.3765     12.9387      2.4149      0.0573     37.4440    120.1990    -65.2083     13.9186     10.4708     15.0157   -999.2500 
   802.0000     89.0187     13.3420      2.4055      0.0517     37.3194    120.3846    -65.2356     13.8949     10.6250     14.4040   -999.2500 
   802.5000     85.7661     13.7978      2.4019      0.0531     37.1263    120.0653    -63.6919     13.8550     10.8514     14.0690   -999.2500 
   803.0000     84.4993     13.6656      2.4156      0.0592     36.8719    118.2908    -62.6804     13.7691     10.8808     14.2866   -999.2500 
   803.5000     84.2233     13.6981      2.4320      0.0609     37.2199    119.3058    -62.3749     13.6837     10.7853     14.3524   -999.2500 
   804.0000     83.6515     13.9396      2.4463      0.0672     37.6079    122.1687    -62.7811     13.5988     10.7226     14.3036   -999.2500 
   804.5000     83.0433     13.9061      2.4434      0.0627     37.9979    123.6249    -63.1874     13.5144     10.6603     14.1124   -999.2500 
   805.0000     83.1925     14.0165      2.4390      0.0659     37.9207    125.0568    -63.8844     13.4306     10.5983     13.8496   -999.2500 
   805.5000     83.4734     13.8397      2.4088      0.0599     38.3320    126.6093    -64.0979     13.3473     10.5367     13.6277   -999.2500 
   806.0000     82.2590     13.9482      2.3917      0.0456     38.0559    126.9643    -63.5995     13.2645     10.4754     13.7255   -999.2500 
   806.5000     82.3035     13.2219      2.3824      0.0345     37.6339    126.6727    -63.0611     13.1822     10.4145     13.7106   -999.2500 
   807.0000     83.0701     13.0876      2.3883      0.0336     37.7570    125.7756    -62.5873     13.1004     10.3540     13.4235   -999.2500 
   807.5000     84.0174     13.1364      2.4143      0.0506     38.0548    124.4988    -62.1002     13.0486     10.3439     13.3245   -999.2500 
   808.0000     84.0481     13.0143      2.4224      0.0522     38.1133    123.0632    -61.9698     13.0045     10.3145     13.5831   -999.2500 
   808.5000     83.9333     12.8930      2.4242      0.0486     37.3326    123.1499    -61.8517     12.9606     10.1965     13.5633   -999.2500 
   809.0000     84.6339     12.7840      2.4395      0.0685     36.8035    124.3761    -61.7926     12.9168     10.1094     13.3734   -999.2500 
   809.5000     85.6911     12.6866      2.4613      0.0874     36.7251    124.7861    -61.8010     12.9004     10.1119     13.3089   -999.2500 
   810.0000     87.2367     12.6493      2.4493      0.0786     37.0603    124.6274    -61.7830     12.9179     10.1549     13.3730   -999.2500 
   810.5000     86.0978     12.6432      2.4374      0.0797     37.7868    124.0462    -61.6855     12.9354     10.1804     13.4255   -999.2500 
   811.0000     84.9092     12.6780      2.4453      0.0904     38.3485    123.4549    -61.7663     12.9529     10.2438     13.4625   -999.2500 
   811.5000     84.5221     12.7341      2.4658      0.1057     38.7634    123.5427    -61.9819     12.9705     10.3075     13.5145   -999.2500 
   812.0000     85.0706     12.8482      2.4656      0.1169     38.9934    124.2567    -62.5189     12.9866     10.3717     13.5840   -999.2500 
   812.5000     85.8416     12.9177      2.4427      0.1022     39.2234    125.0080    -63.0588     12.8377     10.1886     13.5883   -999.2500 
   813.0000     86.2457     12.9481      2.4245      0.0869     39.7175    125.2382    -63.8144     12.6905      9.9105     13.2115   -999.2500 
   813.5000     86.9104     13.1142      2.4344      0.0861     40.0504    125.1902    -63.5808     12.5450      9.6793     12.8843   -999.2500 
   814.0000     87.8780     13.3683      2.4585      0.0943     41.0709    124.2972    -62.8578     12.4030      9.5373     12.7235   -999.2500 
   814.5000     88.5874     13.5258      2.4848      0.0944     42.0206    125.0533    -62.5502     12.2710      9.2877     12.6290   -999.2500 
   815.0000     87.9146     13.6044      2.4711      0.0736     40.8390    127.3187    -62.5675     12.1417      9.2877     12.5781   -999.2500 
   815.5000     85.9966     13.6788      2.4515      0.0667     38.7495    131.2990    -62.6284     12.0232      9.2877     12.5742   -999.2500 
   816.0000     84.0131     13.8527      2.4346      0.0509     37.2645    135.3946    -62.7698     11.9058      9.2877     12.5060   -999.2500 
   816.5000     82.3989     14.0490      2.4290      0.0488     36.6543    136.9268    -63.0334     11.7977      9.2877     12.3887   -999.2500 
   817.0000     81.4454     14.2546      2.4328      0.0600     36.8499    139.0528    -63.5487     11.7538      9.2877     12.1989   -999.2500 
   817.5000     79.9008     14.0202      2.4150      0.0623     37.6265    140.5513    -64.2399     11.7101      9.2877     12.0028   -999.2500 
   818.0000     81.8279     13.6809      2.4100      0.0719     38.1947    141.2842    -64.7193     11.6665      9.2539     12.0010   -999.2500 
   818.5000     84.8361     13.3703      2.4294      0.0900     38.9381    140.5516    -64.8780     11.6183      9.1913     12.0122   -999.2500 
   819.0000     88.5692     13.1003      2.4165      0.0863     39.9234    139.4477    -64.6614     11.4523      9.0533     11.8707   -999.2500 
   819.5000     89.7926     12.8800      2.3955      0.0674     40.6361    137.2163    -64.1132     11.2583      8.9352     11.7299   -999.2500 
   820.0000     90.0345     12.9117      2.4093      0.0664     41.3097    135.0482    -63.6077     11.0677      8.7658     11.5200   -999.2500 
   820.5000     90.0705     12.9360      2.4118      0.0755     41.8342    131.4015    -63.3443     10.8898      8.7395     11.4649   -999.2500 
   821.0000     89.9902     12.9389      2.4058      0.0841     41.1064    128.2940    -62.9003     10.9930      8.8885     11.8690   -999.2500 
   821.5000     89.2092     13.2025      2.4108      0.0924     39.6657    126.4962    -61.5507     11.3955      9.1527     12.2873   -999.2500 
   822.0000     88.3502     13.2191      2.4276      0.0966     39.1608    125.2529    -60.4425     11.8135      9.2262     12.7205   -999.2500 
   822.5000     87.5547     13.0022      2.4181      0.0770     38.6559    124.3853    -60.2459     12.2509      9.2507     13.1688   -999.2500 
   823.0000     86.8034     12.9152      2.4042      0.0481     37.9416    124.5681    -60.7139     12.2572      9.3224     12.9465   -999.2500 
   823.5000     86.8283     12.8501      2.4090      0.0747     37.0397    124.6229    -60.9512     12.1129      9.4395     12.6730   -999.2500 
   824.0000     88.5452     12.9913      2.4302      0.1047     35.9538    124.5044    -60.6524     12.0214      9.5581     12.3897   -999.2500 
   824.5000     89.9386     13.1922      2.4358      0.0900     35.7714    124.5458    -60.5383     12.0250      9.6781     12.4719   -999.2500 
   825.0000     90.1320     13.1575      2.4282      0.0622     35.8874    124.6876    -60.6794     12.0712      9.7997     13.2187   -999.2500 
   825.5000     89.5677     12.9597      2.4489      0.0758     35.8250    124.0636    -60.5672     12.1730      9.9202     12.9860   -999.2500 
   826.0000     89.3056     12.8586      2.4570      0.0795     35.3772    123.3665    -59.9616     12.2757      9.9202     12.7573   -999.2500 
   826.5000     90.6276     12.7594      2.4715      0.0814     35.4363    123.0616    -59.5786     12.3792      9.9117     13.4760   -999.2500 
   827.0000     93.0216     13.0766      2.4918      0.0833     35.4499    123.8398    -59.6814     12.2111      9.8322     13.8910   -999.2500 
   827.5000     94.0689     12.9811      2.4860      0.0840     34.9528    124.7795    -60.1109     12.0263      9.7533     13.4261   -999.2500 
   828.0000     91.9974     12.8349      2.4723      0.0838     33.6230    124.6764    -61.0353     11.9709      9.6751     12.9769   -999.2500 
   828.5000     91.7155     12.8745      2.4620      0.0880     32.8184    123.9655    -60.3007     12.0314      9.6144     12.8768   -999.2500 
