~VERSION INFORMATION
 VERS.                           2.00:        CWLS LOG ASCII STANDARD - VERSION 2.00
 WRAP.                             NO:        ONE LINE PER DEPTH STEP
~WELL INFORMATION
#MNEM.UNIT                   DATA             INFORMATION
#----------             --------------        ------------------------------
 STRT.F                       75.0000:        START DEPTH
 STOP.F                     2534.0000:        STOP DEPTH
 STEP.F                        0.5000:        STEP VALUE
 NULL.                      -999.2500:        NULL VALUE
 COMP.                      HUSKY OIL:        COMPANY  
 LOC .                   14  22N  18W:        LOCATION   
 DATE.                       12/20/76:        LOG DATE 
 WELL.               SOUTH BARROW #13:        WELL     
 UWI .                   500232000800:        UNIQUE WELL ID 
 API .                   500232000800:        UNIQUE WELL IDENTIFIER 
 FLD .                   SOUTH BARROW:        FIELD    
 CNTY.                    NORTH SLOPE:        COUNTY  
 STAT.                         ALASKA:        STATE   
 CTRY.                            USA:        COUNTRY 
 OPER.                      HUSKY OIL:        OPERATOR  
 SRVC.                   SCHLUMBERGER:        SERVICE COMPANY 
 LAT .                         0.0000:        LATITUDE
 LON .                         0.0000:        LONGITUDE
 DIGS.               CENTER LINE DATA:        DIGITIZING COMPANY 
~CURVE INFORMATION      
#MNEM        .UNIT         API CODE           CURVE DESCRIPTION
#-----------------      --------------        ------------------------------
 DEPT        .F                      :        1  DEPTH
 SP          .MV                     :        2  
 ILD         .OHMM                   :        3  
 LL8         .OHMM                   :        4  
 CILD        .MMHO                   :        5  
 ILM         .OHMM                   :        6  
 GR          .GAPI                   :        7  
 CALI        .IN                     :        8  
 DRHO        .G/C3                   :        9  
 RHOB        .G/C3                   :        10 
 NPHI        .%                      :        11 
 DPHI        .%                      :        12 
 DT          .US/F                   :        13 
~PARAMETER INFORMATION       
#MNEM.UNIT                  VALUE             DESCRIPTION OF MNEMONIC
#---------             ---------------        ------------------------------
 EKB .F                       40.0000:        KELLY BUSHING
 TD  .F                     1139.0000:        TOTAL DEPTH
 BHT .F                        0.0000:        BOTTOM HOLE TEMPERATURE
 BS  .                        14.7500:        BIT SIZE
 FD  .                        10.3000:        FLUID DENSITY
 CSIZ.                        20.0000:        CASING SIZE
 CBD .F                       65.0000:        CASING DRILLER 1
 CBL .F                       75.0000:        CASING LOGGER 1
 DFT .                  Miscellaneous:        TYPE FLUID IN HOLE
 DFV .                        34.0000:        VISCOSITY
 DFPH.                         8.5000:        PH
 DFL .                        10.2000:        FLUID LOSS
 RMS .                         5.3200:        RM
 MST .F                       55.0000:        RM MEAS. TEMP.
 RMF .                         3.8000:        RMF
 MFST.F                       55.0000:        RMF MEAS. TEMP.
 RMC .                         6.0000:        RMC
 MCST.F                       55.0000:        RMC MEAS. TEMP.
~OTHER INFORMATION
~A    DEPTH          SP         ILD         LL8        CILD         ILM          GR        CALI        DRHO        RHOB        NPHI        DPHI          DT  
# ...
  2217.0000    -30.7383     13.6885     17.3043   -999.2500     14.0729     40.3056      9.4654      0.0792      2.5213     30.6483      7.4526     91.8615  
  2217.5000    -30.4778     13.5051     17.9332   -999.2500     13.8806     40.7709      9.5050      0.0892      2.5282     32.4123      7.3090     92.2242  
  2218.0000    -29.8253     13.2268     16.9528   -999.2500     13.6910     41.1209      9.5122      0.1079      2.5383     35.8658      7.8403     93.5246  
  2218.5000    -28.9467     12.9543     14.3513   -999.2500     13.4573     40.7168      9.4581      0.1082      2.5330     34.9636      8.1077     95.4786  
  2219.0000    -28.4427     12.6874     14.0005   -999.2500     12.7375     39.9874      9.3822      0.0929      2.5267     32.6814      8.6689     97.4591  
  2219.5000    -28.2458     12.4259     14.6457   -999.2500     12.5000     39.3345      9.2907      0.0832      2.5248     32.5490      9.6045     97.8280  
  2220.0000    -28.2559     12.1699     14.8242   -999.2500     12.2296     38.7244      9.2591      0.0659      2.5064     32.7909      8.7242     97.0906  
  2220.5000    -28.8043     12.3054     14.7043   -999.2500     12.1981     38.5440      9.2497      0.0526      2.5067     33.1096      8.2099     96.1902  
  2221.0000    -29.5727     12.5908     14.8640   -999.2500     12.4713     38.5009      9.2541      0.0625      2.5180     33.4284     10.0951     95.6079  
  2221.5000    -30.2608     12.8828     15.3688   -999.2500     12.7118     37.1308      9.2506      0.0638      2.5179     33.0215     12.1183     96.2238  
  2222.0000    -30.9458     13.2176     16.2254   -999.2500     13.1745     35.4638      9.2533      0.0473      2.4834     30.5442     13.4074     97.8317  
  2222.5000    -32.0363     13.6474     17.6559   -999.2500     13.6540     34.2959      9.2647      0.0290      2.4464     27.9809     12.1475     98.2198  
  2223.0000    -34.0567     14.0911     19.4451   -999.2500     14.1510     33.1281      9.2761      0.0314      2.4452     25.4175     11.8454     97.7283  
  2223.5000    -34.4774     14.5492     18.1796   -999.2500     15.1936     31.9602      9.2554      0.0439      2.4571     22.8542     13.0764     97.9902  
  2224.0000    -34.6507     15.0223     18.5905   -999.2500     17.0374     30.7923      9.1780      0.0337      2.4619     20.4868     13.3206     98.0364  
  2224.5000    -36.3652     15.5107     26.1851   -999.2500     18.6868     29.6244      9.1006      0.0128      2.4471     19.8255     13.1391     98.2171  
  2225.0000    -38.1737     16.0096     30.6086   -999.2500     18.4560     28.4565      9.0233      0.0072      2.4464     20.4801     12.8010     96.9534  
  2225.5000    -39.6563     16.1921     29.6284   -999.2500     18.2280     27.2886      8.9828      0.0242      2.4475     21.1346     12.3782     94.9143  
  2226.0000    -40.3900     16.3768     25.9948   -999.2500     18.0028     26.1208      8.9952      0.0491      2.4545     20.9914     11.5538     95.1294  
  2226.5000    -40.8620     16.7885     25.3473   -999.2500     17.7885     25.6054      9.0077      0.0721      2.4629     20.7750     11.6237     95.4094  
  2227.0000    -41.4535     17.3850     23.6080   -999.2500     17.9347     25.1329      8.9846      0.0779      2.4746     19.8031     13.0071     96.5212  
  2227.5000    -42.5886     18.0028     21.7941   -999.2500     19.3381     24.6604      8.9512      0.0526      2.4612     18.7988     13.2497     97.3706  
  2228.0000    -44.2801     18.6425     20.3595   -999.2500     21.5264     24.1879      8.9163      0.0283      2.4464     17.8137     13.9222     95.5355  
  2228.5000    -45.8222     18.9005     26.6363   -999.2500     23.9622     23.7153      8.9167      0.0180      2.4394     17.9623     15.3144     95.1302  
  2229.0000    -47.7624     18.7089     41.7211   -999.2500     23.6902     23.2428      8.9416      0.0116      2.4190     18.5407     15.1031     97.2276  
  2229.5000    -49.8013     18.7806     58.4430   -999.2500     23.3275     22.7703      8.9664      0.0135      2.4135     18.5444     15.3705     98.7066  
  2230.0000    -51.7742     19.4040     54.7500   -999.2500     23.3465     22.8361      8.9622      0.0573      2.4055     18.4553     17.6983    101.9591  
  2230.5000    -53.6858     20.2954     43.2161   -999.2500     23.6475     22.9089      8.9372      0.0288      2.3833     19.6501     19.0930    104.3257  
  2231.0000    -55.2381     20.8976     40.2910   -999.2500     24.1989     23.3894      8.9317      0.0208      2.3648     20.5189     20.0740    101.3096  
  2231.5000    -56.5246     20.5808     44.4406   -999.2500     24.1019     23.8843      8.9323      0.0188      2.3456     21.1572     20.3911     99.2102  
  2232.0000    -57.8726     19.7443     51.6230   -999.2500     24.1524     24.3354      8.9329      0.0202      2.3306     23.1342     21.9561     98.7346  
  2232.5000    -58.1852     18.9253     54.5552   -999.2500     23.2879     25.1931      8.8779      0.0061      2.3085     24.5672     22.3559     99.8957  
  2233.0000    -57.1340     18.1383     56.7928   -999.2500     22.6722     26.2049      8.8137      0.0043      2.3000     25.5127     21.3735    100.9421  
  2233.5000    -53.7007     16.9123     62.6195   -999.2500     19.3626     28.9851      8.7494      0.0059      2.3026     26.4582     18.4122    101.0683  
  2234.0000    -48.5375     15.7272     54.6055   -999.2500     17.2563     32.0100      8.7153      0.0083      2.3316     28.4708     13.8928     99.4318  
  2234.5000    -40.2990     14.6250     29.5293   -999.2500     15.5322     36.4458      8.8488      0.0164      2.4002     30.7630      9.3734     97.0046  
  2235.0000    -33.4885     13.6001     17.8875   -999.2500     13.9804     40.6467      8.9393      0.0220      2.5125     32.1658      4.8540     95.2953  
  2235.5000    -27.3586     12.6470     13.4039   -999.2500     12.5836     43.6770      8.9682      0.0339      2.5919     33.5376      1.3151     94.4276  
  2236.0000    -25.2077     11.7607     12.4232   -999.2500     11.4506     45.6242      9.0387      0.0699      2.6330     34.1171      3.6731     95.8432  
  2236.5000    -24.4223     10.9366     12.3292   -999.2500     10.9162     46.7155      9.1428      0.0968      2.6071     34.6967      6.0310     96.7166  
  2237.0000    -24.1738     10.1701     12.8549   -999.2500     10.4068     47.0246      9.2862      0.0529      2.5539     34.1347      7.9834     96.5908  
  2237.5000    -24.2018     10.1679     13.3580   -999.2500     10.2787     46.5899      9.3436      0.0331      2.5328     33.4890      7.2680     96.2964  
  2238.0000    -24.7410     10.1714     13.2802   -999.2500     10.3135     45.9780      9.3414      0.0559      2.5341     32.8049      7.9648     96.2261  
  2238.5000    -25.0402     10.1749     13.1693   -999.2500     10.3485     45.4705      9.5860      0.0786      2.5360     32.0685      7.1146     96.2560  
  2239.0000    -24.3669     10.1785     13.3847   -999.2500     10.3836     45.0777      9.8447      0.0586      2.5324     31.3321      5.8243     96.2331  
  2239.5000    -23.7899     10.1826     13.4982   -999.2500     10.4188     44.8423      9.5540      0.0627      2.5485     31.0944      4.5633     96.0679  
  2240.0000    -24.3133     10.1924     13.3802   -999.2500     10.4541     45.2811      9.3840      0.0869      2.5708     31.4208      4.7501     95.3002  
  2240.5000    -25.0329     10.2021     13.5812   -999.2500     10.4896     45.9867      9.4283      0.0838      2.5761     31.7472      5.7934     94.5150  
  2241.0000    -24.9131     10.2119     14.0333   -999.2500     10.5251     45.8674      9.5300      0.0722      2.5698     32.0737      6.5331     94.4444  
  2241.5000    -24.8086     10.2217     14.0265   -999.2500     10.5608     45.7322      9.5462      0.0582      2.5529     32.4001      7.4437     95.3804  
  2242.0000    -24.9662     10.2314     13.4391   -999.2500     10.5966     46.0506      9.6284      0.0553      2.5405     32.7266      8.2435     96.5664  
