~VERSION INFORMATION
 VERS.                           2.00:        CWLS LOG ASCII STANDARD - VERSION 2.00
 WRAP.                             NO:        ONE LINE PER DEPTH STEP
~WELL INFORMATION
#MNEM.UNIT                   DATA             INFORMATION
#----------             --------------        ------------------------------
 STRT.F                     1260.0000:        START DEPTH
 STOP.F                     2340.0000:        STOP DEPTH
 STEP.F                        0.5000:        STEP VALUE
 NULL.                      -999.2500:        NULL VALUE
 COMP.        U.S.NAVY DEEPT NP & OSR:        COMPANY  
 LOC .                  144  22N 18W UPM:        LOCATION   
 DATE.                        2/24/74:        LOG DATE 
 WELL.               SOUTH BARROW #11:        WELL     
 UWI .                    50023200500:        UNIQUE WELL ID 
 API .                    50023200500:        UNIQUE WELL IDENTIFIER 
 FLD .                   SOUTH BARROW:        FIELD    
 CNTY.                          NPR-4:        COUNTY  
 STAT.                         ALASKA:        STATE   
 CTRY.                            USA:        COUNTRY 
 OPER.        U.S.NAVY DEEPT NP & OSR:        OPERATOR  
 SRVC.                   SCHLUMBERGER:        SERVICE COMPANY 
 LAT .                         0.0000:        LATITUDE
 LON .                         0.0000:        LONGITUDE
 DIGS.               CENTER LINE DATA:        DIGITIZING COMPANY 
~CURVE INFORMATION      
#MNEM        .UNIT         API CODE           CURVE DESCRIPTION
#-----------------      --------------        ------------------------------
 DEPT        .F                      :        1  DEPTH
 CALI        .IN                     :        2  
 GR          .GAPI                   :        3  
 RHOB        .G/C3                   :        4  
 NPHI        .%                      :        5  
 DPHI        .%                      :        6  
 SP          .MV                     :        7  
 LL8         .OHMM                   :        8  
 ILD         .OHMM                   :        9  
 CILD        .MMHO                   :        10 
 DT          .US/F                   :        11 
~PARAMETER INFORMATION       
#MNEM.UNIT                  VALUE             DESCRIPTION OF MNEMONIC
#---------             ---------------        ------------------------------
 EKB .F                       36.0000:        KELLY BUSHING
 TD  .F                     2350.0000:        TOTAL DEPTH
 BHT .F                       60.0000:        BOTTOM HOLE TEMPERATURE
 BS  .                         9.6250:        BIT SIZE
 FD  .                        10.8000:        FLUID DENSITY
 CSIZ.                        10.7500:        CASING SIZE
 CBD .F                     1267.0000:        CASING DRILLER 1
 CBL .F                     1267.0000:        CASING LOGGER 1
 DFT .      Salt Water-Lignosulfonate:        TYPE FLUID IN HOLE
 DFV .                        52.0000:        VISCOSITY
 DFPH.                         9.0000:        PH
 DFL .                         4.2000:        FLUID LOSS
 RMS .                         1.8800:        RM
 MST .F                       50.0000:        RM MEAS. TEMP.
 RMF .                         1.1500:        RMF
 MFST.F                       63.0000:        RMF MEAS. TEMP.
 RMC .                         1.5000:        RMC
 MCST.F                       50.0000:        RMC MEAS. TEMP.
~OTHER INFORMATION
~A    DEPTH        CALI          GR        RHOB        NPHI        DPHI          SP         LL8         ILD        CILD          DT  
# ...
  1740.0000      9.8374    101.5071      2.4217     41.7414     13.7734    -29.0320     10.2392     10.0883     97.3742    102.8454  
  1740.5000      9.9134     98.5466      2.4222     40.7929     13.8143    -29.2875     10.2368     10.0739     97.3097    104.9862  
  1741.0000     10.0975     94.8503      2.4202     39.9981     13.9200    -29.3415     10.2803     10.0595     96.8846    105.6232  
  1741.5000     10.1155     91.3231      2.4139     39.3324     14.4032    -29.3879     10.3641     10.0451     96.2088    106.2182  
  1742.0000     10.1143     89.3703      2.3994     38.8735     14.9711    -29.2630     10.3805     10.0582     95.0912    105.4728  
  1742.5000     10.1098     87.4270      2.3867     39.0322     15.5906    -29.6083     10.3735     10.0749     95.2516    104.9177  
  1743.0000     10.1037     86.1883      2.3804     38.8951     16.1102    -30.0128     10.3303     10.0916     96.0853    104.8016  
  1743.5000     10.0805     85.0772      2.3792     38.5713     16.2835    -30.7392     10.2932     10.1084     96.5099    106.3728  
  1744.0000     10.0741     83.6101      2.3746     38.3066     16.5309    -31.7841     10.1700     10.0472     97.1440    112.8265  
  1744.5000     10.0982     82.2552      2.3612     37.8898     17.2488    -32.9748     10.1138      9.9616     97.5469    117.3534  
  1745.0000     10.0324     79.6940      2.3455     37.3859     18.8512    -34.4726     10.0480      9.8759     98.0082    113.7020  
  1745.5000      9.9422     75.7523      2.3145     36.8333     20.0919    -36.7771      9.9735      9.7961     98.8136    113.4017  
  1746.0000     10.0915     71.6052      2.2826     36.0199     21.5515    -39.0039      9.8810      9.7169     99.2340    111.1836  
  1746.5000     10.2367     67.7275      2.2641     33.9023     22.9553    -40.2987      9.8955      9.6514     99.8093    125.9032  
  1747.0000     10.6063     66.4659      2.2604     32.0362     23.5926    -40.4634      9.9219      9.5884    100.0793    145.2126  
  1747.5000     10.4568     67.1144      2.2736     30.4592     23.3022    -40.2242      9.9221      9.5255    100.5667    157.8306  
  1748.0000     10.3073     70.0458      2.2951     30.3908     21.9342    -39.4865      9.9219      9.4625    101.5773    145.3434  
  1748.5000     10.2423     74.7055      2.2994     30.7537     21.1713    -38.5260      9.7710      9.3996    102.4020    132.8562  
  1749.0000     10.1262     79.1608      2.3095     31.2489     20.9262    -37.3868      9.6227      9.3492    103.1206    128.0545  
  1749.5000     10.0676     81.2920      2.3231     32.0368     20.5530    -36.5459      9.5506      9.3067    104.2437    126.8875  
  1750.0000     10.0456     81.2627      2.3307     33.0725     19.7889    -36.2224      9.4784      9.2643    105.5933    103.1477  
  1750.5000     10.0396     81.1122      2.3373     34.6162     19.1195    -36.0483      9.4525      9.2218    105.2883     98.8704  
  1751.0000      9.9667     81.4186      2.3300     35.5457     19.4334    -36.3893      9.4604      9.1943    106.2595    134.2610  
  1751.5000      9.8919     81.0509      2.3144     36.0107     20.0001    -36.9046      9.4684      9.1292    107.2307    135.6226  
  1752.0000      9.9951     80.7354      2.3019     35.9085     20.5669    -37.0586      9.4561      9.0555    108.8955    117.6574  
  1752.5000      9.9885     81.2457      2.3172     34.0774     20.3130    -36.5733      9.4055      8.9216    110.2566    107.5511  
  1753.0000      9.9423     82.4555      2.3487     31.2762     19.6112    -35.4495      9.2000      8.7743    112.7209    134.6849  
  1753.5000      9.9569     86.5036      2.3752     31.3537     18.9455    -33.8637      8.9946      8.5761    115.9446    161.8187  
  1754.0000     10.0845     92.1635      2.3999     33.0000     16.6345    -31.5115      8.6829      8.3747    119.3290    132.9196  
  1754.5000     10.0846     98.3755      2.4069     35.1210     15.2536    -29.5059      8.3365      8.2639    121.9375    102.7328  
  1755.0000     10.0847    102.3022      2.3973     37.0586     14.8886    -28.3533      8.1409      8.1740    122.9811    103.3562  
  1755.5000     10.0888    104.0512      2.3834     38.8259     15.1796    -27.9109      8.0042      8.0846    123.9015    119.6093  
  1756.0000     10.1037    102.9037      2.3766     39.4392     16.1496    -27.7809      8.0691      7.9952    123.8485    118.0488  
  1756.5000     10.1173     99.9852      2.3653     39.0820     16.8592    -27.9157      8.2300      7.9211    123.4206    120.1454  
  1757.0000     10.0949     97.1644      2.3619     38.5304     17.2985    -28.3861      8.5224      8.0406    121.8091    112.6753  
  1757.5000     10.1035     95.9968      2.3585     38.0301     17.5278    -28.9396      8.8929      8.1600    119.8861    112.5404  
  1758.0000     10.1193     95.8610      2.3535     37.6552     17.5901    -28.9797      9.3724      8.2795    117.7131    116.6822  
  1758.5000     10.1383     95.7701      2.3742     37.2498     17.4624    -28.9668      9.6262      8.3989    115.5482    123.0061  
  1759.0000     10.1625     96.2855      2.3844     37.6391     16.4644    -28.7411      9.6369      8.5608    113.3756    126.5949  
  1759.5000     10.1541     97.9038      2.3818     39.0601     16.1802    -28.5203      9.6477      8.7601    112.0203    126.5742  
  1760.0000     10.1770    101.2322      2.3824     39.7716     16.1688    -28.4201      9.6495      8.9308    111.5473    134.7407  
  1760.5000     10.1835    103.1537      2.3823     40.5171     16.2107    -28.4554      9.6470      8.9699    111.6114    137.4582  
  1761.0000     10.1788    103.0763      2.3761     40.6159     16.2526    -28.5973      9.6445      8.9811    112.2573    139.9136  
  1761.5000     10.1851    102.9733      2.3640     39.8947     17.1025    -28.6992      9.6420      8.9191    113.2983    153.0318  
  1762.0000     10.2217    103.0437      2.3782     38.6350     16.6655    -28.6871      9.6346      8.8571    114.1114    140.5741  
  1762.5000     10.2235    103.1277      2.3895     37.8094     16.0360    -28.5943      9.6215      8.7931    114.5906    132.7608  
  1763.0000     10.1254    102.7951      2.3890     37.2985     15.6252    -28.4189      9.6084      8.7276    114.8906    145.1250  
  1763.5000     10.1483    102.6955      2.3825     37.0550     15.8551    -28.2721      9.5954      8.6621    115.3881    146.1666  
  1764.0000     10.1811    104.0865      2.3824     37.3290     16.0827    -27.8723      9.2789      8.5966    116.2637    142.7337  
  1764.5000     10.2142    105.2839      2.3885     37.9536     16.2248    -27.4111      9.0832      8.5311    117.1079    139.9546  
  1765.0000     10.2372    105.3959      2.3948     38.9235     15.5629    -26.9673      9.1102      8.5018    117.3952    129.7945  
  1765.5000     10.2377    106.0892      2.3991     40.3588     15.2518    -26.6147      9.2618      8.5407    117.6384    119.4417  
  1766.0000     10.2363    107.4201      2.3972     41.1631     15.1465    -26.3765      9.4152      8.4347    117.8829    120.8904  
  1766.5000     10.2349    110.1606      2.4001     41.4399     15.0754    -26.2470      9.3994      8.3147    118.3103    121.8852  
  1767.0000     10.2412    111.2441      2.4036     41.0989     15.0173    -26.2421      9.3820      8.1947    119.1446    115.1947  
  1767.5000     10.2492    111.4255      2.3996     40.4742     15.0754    -26.2951      9.2060      8.0316    121.2265    113.4620  
  1768.0000     10.2457    112.7376      2.3972     40.8117     15.1695    -26.3732      8.8996      7.7224    126.1972    110.4195  
  1768.5000     10.2421    115.8323      2.3950     41.5990     15.2027    -26.3833      8.6032      7.2262    132.4605    110.9631  
  1769.0000     10.2373    120.7059      2.3957     42.4758     15.1997    -26.3454      8.3264      6.9026    138.5751    113.6841  
  1769.5000     10.2329    128.5198      2.3995     43.3419     15.2157    -26.1972      8.0500      6.6194    143.3294    116.8417  
