~VERSION INFORMATION
 VERS.                           2.00:        CWLS LOG ASCII STANDARD - VERSION 2.00
 WRAP.                             NO:        ONE LINE PER DEPTH STEP
~WELL INFORMATION
#MNEM.UNIT                   DATA             INFORMATION
#----------             --------------        ------------------------------
 STRT.F                      884.0000:        START DEPTH
 STOP.F                     2365.0000:        STOP DEPTH
 STEP.F                        0.5000:        STEP VALUE
 NULL.                      -999.2500:        NULL VALUE
 COMP.                      U.S. NAVY:        COMPANY  
 LOC .                   14  22N  18W:        LOCATION   
 DATE.                        3/19/64:        LOG DATE 
 WELL.                SOUTH BARROW #6:        WELL     
 UWI .                   500231001500:        UNIQUE WELL ID 
 API .                   500231001500:        UNIQUE WELL IDENTIFIER 
 FLD .                   SOUTH BARROW:        FIELD    
 CNTY.                         NPR #4:        COUNTY  
 STAT.                         ALASKA:        STATE   
 CTRY.                            USA:        COUNTRY 
 OPER.                      U.S. NAVY:        OPERATOR  
 SRVC.                   SCHLUMBERGER:        SERVICE COMPANY 
 LAT .                         0.0000:        LATITUDE
 LON .                         0.0000:        LONGITUDE
 DIGS.               CENTER LINE DATA:        DIGITIZING COMPANY 
~CURVE INFORMATION      
#MNEM        .UNIT         API CODE           CURVE DESCRIPTION
#-----------------      --------------        ------------------------------
 DEPT        .F                      :        1  DEPTH
 SP          .MV                     :        2  
 SN          .OHMM                   :        3  
 ILD         .OHMM                   :        4  
 CILD        .OHMM                   :        5  
 DT          .US/F                   :        6  
~PARAMETER INFORMATION       
#MNEM.UNIT                  VALUE             DESCRIPTION OF MNEMONIC
#---------             ---------------        ------------------------------
 EKB .F                       40.0000:        KELLY BUSHING
 TD  .F                     2366.0000:        TOTAL DEPTH
 BHT .F                        0.0000:        BOTTOM HOLE TEMPERATURE
 BS  .                         9.6250:        BIT SIZE
 FD  .                        85.0000:        FLUID DENSITY
 CSIZ.                        11.7500:        CASING SIZE
 CBD .F                      884.0000:        CASING DRILLER 1
 CBL .F                      884.0000:        CASING LOGGER 1
 DFT .                  Miscellaneous:        TYPE FLUID IN HOLE
 DFV .                        45.0000:        VISCOSITY
 DFPH.                         0.0000:        PH
 DFL .                         2.8000:        FLUID LOSS
 RMS .                         5.3700:        RM
 MST .F                       33.0000:        RM MEAS. TEMP.
 RMF .                         2.9500:        RMF
 MFST.F                       45.0000:        RMF MEAS. TEMP.
 RMC .                         2.4800:        RMC
 MCST.F                       35.0000:        RMC MEAS. TEMP.
~OTHER INFORMATION
~A    DEPTH          SP          SN         ILD        CILD          DT  
# ...
  2028.5000    -28.3694     14.1115     11.1620     94.1317   -999.2500  
  2029.0000    -27.0717     12.6174     10.4290    100.1093   -999.2500  
  2029.5000    -25.8612     11.4844      9.4234    108.6424   -999.2500  
  2030.0000    -25.3802     10.7538      8.7999    118.2592   -999.2500  
  2030.5000    -25.0683     10.4041      8.4426    125.6493   -999.2500  
  2031.0000    -24.7704     10.1627      8.1312    129.2477   -999.2500  
  2031.5000    -24.6034      9.9721      8.1196    130.6727   -999.2500  
  2032.0000    -24.4097      9.7253      8.1853    130.1603   -999.2500  
  2032.5000    -24.2096      9.6258      8.2177    129.0800   -999.2500  
  2033.0000    -24.0391      9.6050      8.1968    128.8873   -999.2500  
  2033.5000    -24.1183      9.6534      8.1409    129.7868   -999.2500  
  2034.0000    -24.0559      9.8447      8.0856    131.0267   -999.2500  
  2034.5000    -23.8279      9.9191      8.0918    131.1882   -999.2500  
  2035.0000    -23.6178      9.7394      8.2225    130.0727   -999.2500  
  2035.5000    -23.7729      9.6640      8.3640    127.9248   -999.2500  
  2036.0000    -24.1485      9.4934      8.4147    126.1309   -999.2500  
  2036.5000    -24.3419      9.4017      8.4942    125.2410   -999.2500  
  2037.0000    -24.4315      9.4388      8.5338    124.8997   -999.2500  
  2037.5000    -24.6010      9.5779      8.6100    124.1334   -999.2500  
  2038.0000    -24.8116      9.7899      8.7211    122.6908   -999.2500  
  2038.5000    -25.0298     10.0148      8.8411    121.1326   -999.2500  
  2039.0000    -25.1606     10.1542      8.8387    120.3517   -999.2500  
  2039.5000    -25.1943     10.2383      8.7586    120.8469   -999.2500  
  2040.0000    -24.9842     10.3055      8.6640    122.1109   -999.2500  
  2040.5000    -24.5710     10.2457      8.6046    123.5190   -999.2500  
  2041.0000    -24.4424     10.0914      8.4599    125.3600   -999.2500  
  2041.5000    -24.4087      9.7111      8.3040    127.2016   -999.2500  
  2042.0000    -24.5000      9.5092      8.1922    129.3012   -999.2500  
  2042.5000    -24.6114      9.3841      8.0748    131.3943   -999.2500  
  2043.0000    -24.6867      9.3165      8.0119    132.4742   -999.2500  
  2043.5000    -24.5985      9.3023      8.0225    132.5621   -999.2500  
  2044.0000    -24.4607      9.3531      8.0919    131.7174   -999.2500  
  2044.5000    -24.1595      9.4394      8.1413    130.4776   -999.2500  
  2045.0000    -23.8393      9.5453      8.1942    129.4279   -999.2500  
  2045.5000    -23.5707      9.6337      8.2590    128.6239   -999.2500  
  2046.0000    -23.4000      9.6952      8.2282    128.5578   -999.2500  
  2046.5000    -23.3063      9.7371      8.2052    128.8479   -999.2500  
  2047.0000    -23.2599      9.7419      8.2101    129.1524   -999.2500  
  2047.5000    -23.0973      9.7024      8.2141    129.2444   -999.2500  
  2048.0000    -22.9168      9.5970      8.2455    128.9353   -999.2500  
  2048.5000    -22.8444      9.5728      8.3026    128.3461   -999.2500  
  2049.0000    -23.0350      9.5809      8.3010    127.4423   -999.2500  
  2049.5000    -23.2721      9.6158      8.4700    126.2057   -999.2500  
  2050.0000    -23.5079      9.8766      8.5591    124.3390   -999.2500  
  2050.5000    -23.6973     10.1505      8.6607    122.4721   -999.2500  
  2051.0000    -23.5969     10.3001      8.7681    121.1369   -999.2500  
  2051.5000    -23.3377     10.5261      8.9548    119.4947   -999.2500  
  2052.0000    -23.1184     10.7362      9.1782    117.0632   -999.2500  
  2052.5000    -23.0808     10.8914      9.4837    113.7348   -999.2500  
  2053.0000    -23.1612     10.9942      9.7659    109.7599   -999.2500  
  2053.5000    -23.2819     11.0606      9.9572    107.5649   -999.2500  
  2054.0000    -23.4953     11.1539     10.0012    107.4127   -999.2500  
  2054.5000    -23.9466     11.1727      9.9987    107.7506   -999.2500  
  2055.0000    -24.7128     11.1423      9.9762    107.6044   -999.2500  
  2055.5000    -25.2189     11.4398      9.9190    107.3443   -999.2500  
  2056.0000    -24.6761     11.6864      9.8324    106.8205   -999.2500  
  2056.5000    -24.0852     11.4734      9.6699    107.5350   -999.2500  
  2057.0000    -24.0266     11.1811      9.4631    110.1803   -999.2500  
  2057.5000    -24.1789     10.8900      9.2913    113.1503   -999.2500  
  2058.0000    -24.3765     10.6255      9.0765    116.0741   -999.2500  
  2058.5000    -24.6346     10.4398      8.8748    118.7620   -999.2500  
  2059.0000    -24.7136     10.2876      8.7321    120.4176   -999.2500  
  2059.5000    -24.7008     10.2102      8.6689    121.4628   -999.2500  
  2060.0000    -24.6274     10.1719      8.6552    121.8603   -999.2500  
  2060.5000    -24.5850     10.1699      8.6702    121.7157   -999.2500  
  2061.0000    -24.5072     10.1901      8.6707    121.4535   -999.2500  
  2061.5000    -24.4272     10.1470      8.6849    121.2654   -999.2500  
  2062.0000    -24.3659     10.1445      8.6673    121.3784   -999.2500  
  2062.5000    -24.3710     10.1420      8.7131    121.3234   -999.2500  
  2063.0000    -24.4069     10.1487      8.7874    120.7434   -999.2500  
  2063.5000    -24.4312     10.1911      8.9116    119.4053   -999.2500  
  2064.0000    -24.4007     10.2296      9.0810    117.3554   -999.2500  
  2064.5000    -24.3262     10.3518      9.2605    114.8253   -999.2500  
  2065.0000    -24.1514     10.5404      9.4668    112.2222   -999.2500  
  2065.5000    -23.9766     10.7529      9.6731    109.3983   -999.2500  
  2066.0000    -23.9122     11.0919      9.8770    106.5931   -999.2500  
  2066.5000    -24.1290     11.4917     10.0236    105.3395   -999.2500  
  2067.0000    -24.8804     11.8746     10.0773    105.4924   -999.2500  
  2067.5000    -25.8768     11.9090      9.9901    106.7187   -999.2500  
  2068.0000    -27.0358     11.6738      9.7448    108.7452   -999.2500  
  2068.5000    -26.8955     11.4206      9.4995    110.7491   -999.2500  
  2069.0000    -25.2618     11.0034      9.2512    113.7898   -999.2500  
  2069.5000    -24.2717     10.4609      8.8718    117.7827   -999.2500  
  2070.0000    -23.8248     10.1266      8.6169    121.8177   -999.2500  
  2070.5000    -23.5605      9.8428      8.4232    125.6169   -999.2500  
  2071.0000    -23.4190      9.7343      8.2162    128.1760   -999.2500  
  2071.5000    -23.3359      9.7179      8.2267    128.9380   -999.2500  
  2072.0000    -23.1166      9.7240      8.3340    127.9098   -999.2500  
  2072.5000    -22.8995      9.7779      8.4661    125.7983   -999.2500  
  2073.0000    -22.7391      9.8983      8.5766    123.4129   -999.2500  
  2073.5000    -22.5363     10.0427      8.7002    122.1308   -999.2500  
  2074.0000    -22.3397     10.2285      8.6517    122.2638   -999.2500  
  2074.5000    -22.1760     10.4111      8.5631    123.1639   -999.2500  
  2075.0000    -21.9502     10.4832      8.5034    124.0999   -999.2500  
  2075.5000    -21.8192     10.3579      8.4470    124.8652   -999.2500  
  2076.0000    -21.8896     10.0581      8.3828    125.4718   -999.2500  
  2076.5000    -22.0907      9.7202      8.3565    126.2902   -999.2500  
  2077.0000    -22.3773      9.4657      8.2216    127.8864   -999.2500  
  2077.5000    -22.6254      9.3654      8.0859    130.0042   -999.2500  
  2078.0000    -22.8022      9.3571      8.0207    131.5253   -999.2500  
  2078.5000    -22.9144      9.4100      8.0199    131.8339   -999.2500  
  2079.0000    -22.9638      9.5293      8.1130    130.9154   -999.2500  
  2079.5000    -23.0493      9.6311      8.2311    129.1245   -999.2500  
  2080.0000    -23.2443      9.6496      8.2822    127.8285   -999.2500  
  2080.5000    -23.3258      9.6773      8.2864    127.1431   -999.2500  
  2081.0000    -23.2857      9.7411      8.2980    127.1405   -999.2500  
  2081.5000    -23.1618      9.8496      8.3039    127.1147   -999.2500  
  2082.0000    -22.8396      9.9208      8.3144    127.0207   -999.2500  
  2082.5000    -22.5063      9.8970      8.3375    126.8124   -999.2500  
