~VERSION INFORMATION
 VERS.                           2.00:        CWLS LOG ASCII STANDARD - VERSION 2.00
 WRAP.                             NO:        ONE LINE PER DEPTH STEP
~WELL INFORMATION
#MNEM.UNIT                   DATA             INFORMATION
#----------             --------------        ------------------------------
 STRT.F                       96.0000:        START DEPTH
 STOP.F                     2280.0000:        STOP DEPTH
 STEP.F                        0.5000:        STEP VALUE
 NULL.                      -999.2500:        NULL VALUE
 COMP.    USGS/NPR HUSKY OIL OPERATOR:        COMPANY  
 LOC .                   23  22N  17W:        LOCATION   
 DATE.                        9/11/80:        LOG DATE 
 WELL.               SOUTH BARROW #15:        WELL     
 UWI .                   500232001600:        UNIQUE WELL ID 
 API .                   500232001600:        UNIQUE WELL IDENTIFIER 
 FLD .                   SOUTH BARROW:        FIELD    
 CNTY.                    NORTH SLOPE:        COUNTY  
 STAT.                         ALASKA:        STATE   
 CTRY.                            USA:        COUNTRY 
 OPER.    USGS/NPR HUSKY OIL OPERATOR:        OPERATOR  
 SRVC.                   SCHLUMBERGER:        SERVICE COMPANY 
 LAT .                         0.0000:        LATITUDE
 LON .                         0.0000:        LONGITUDE
 DIGS.               CENTER LINE DATA:        DIGITIZING COMPANY 
~CURVE INFORMATION      
#MNEM        .UNIT         API CODE           CURVE DESCRIPTION
#-----------------      --------------        ------------------------------
 DEPT        .F                      :        1  DEPTH
 CALI        .IN                     :        2  
 GR          .GAPI                   :        3  
 RHOB        .G/C3                   :        4  
 DRHO        .G/C3                   :        5  
 NPHI        .%                      :        6  
 DT          .US/F                   :        7  
 SP          .MV                     :        8  
 ILD         .OHMM                   :        9  
 ILM         .OHMM                   :        10 
 SFL         .OHMM                   :        11 
 LLD         .OHMM                   :        12 
 LLS         .OHMM                   :        13 
 MSFL        .OHMM                   :        14 
~PARAMETER INFORMATION       
#MNEM.UNIT                  VALUE             DESCRIPTION OF MNEMONIC
#---------             ---------------        ------------------------------
 EKB .F                       30.0000:        KELLY BUSHING
 TD  .F                     2279.0000:        TOTAL DEPTH
 BHT .F                        0.0000:        BOTTOM HOLE TEMPERATURE
 BS  .                         8.5000:        BIT SIZE
 FD  .                        10.3000:        FLUID DENSITY
 CSIZ.                         9.6250:        CASING SIZE
 CBD .F                     1514.0000:        CASING DRILLER 1
 CBL .F                     1520.0000:        CASING LOGGER 1
 DFT .                  Miscellaneous:        TYPE FLUID IN HOLE
 DFV .                        43.0000:        VISCOSITY
 DFPH.                         0.0000:        PH
 DFL .                         0.0000:        FLUID LOSS
 RMS .                         0.1800:        RM
 MST .F                       48.0000:        RM MEAS. TEMP.
 RMF .                         0.1400:        RMF
 MFST.F                       48.0000:        RMF MEAS. TEMP.
 RMC .                         0.0000:        RMC
 MCST.F                        0.0000:        RMC MEAS. TEMP.
~OTHER INFORMATION
~A    DEPTH        CALI          GR        RHOB        DRHO        NPHI          DT          SP         ILD         ILM         SFL         LLD         LLS        MSFL  
# ...
  2256.0000      8.6492     60.1952      2.4849     -0.0068     26.8504     89.0464   -999.2500   -999.2500   -999.2500   -999.2500     15.3093     13.9171     14.5632  
  2256.5000      8.5944     56.2946      2.4961     -0.0037     26.7944     89.1774   -999.2500   -999.2500   -999.2500   -999.2500     15.0344     13.3885     13.4201  
  2257.0000      8.5847     49.4409      2.5684      0.0447     26.8664     89.1353   -999.2500   -999.2500   -999.2500   -999.2500     14.1110     12.7377     12.3115  
  2257.5000      8.7091     39.8139      2.5872      0.0690     27.1676     88.7088   -999.2500   -999.2500   -999.2500   -999.2500     13.1789     12.2562     10.7819  
  2258.0000      8.7204     44.6318      2.5343      0.0287     27.7986     88.1266   -999.2500   -999.2500   -999.2500   -999.2500     13.1817     12.3516     11.4182  
  2258.5000      8.5942   -999.2500      2.4995      0.0065     27.9716     87.6768   -999.2500   -999.2500   -999.2500   -999.2500     13.4729     13.3154     12.9447  
  2259.0000      8.5386   -999.2500      2.4957      0.0052     27.3973     87.9556   -999.2500   -999.2500   -999.2500   -999.2500     14.9726     14.3526     14.7474  
  2259.5000      8.5261   -999.2500      2.4976      0.0064     26.6233     88.2586   -999.2500   -999.2500   -999.2500   -999.2500     16.8839     15.3553     17.0865  
  2260.0000      8.5193   -999.2500      2.5051      0.0112     26.6065     88.8854   -999.2500   -999.2500   -999.2500   -999.2500     16.8389     14.9428     17.4809  
  2260.5000      8.5237   -999.2500      2.5154      0.0168     26.7834     89.3328   -999.2500   -999.2500   -999.2500   -999.2500     16.1403     14.1240     15.4880  
  2261.0000      8.5731   -999.2500      2.5286      0.0265     27.2345     88.6796   -999.2500   -999.2500   -999.2500   -999.2500     14.4210     13.3500     13.4609  
  2261.5000      8.6875   -999.2500      2.5236      0.0372     27.7455     88.3622   -999.2500   -999.2500   -999.2500   -999.2500     14.2237     12.9935     11.8033  
  2262.0000      8.7483   -999.2500      2.4855      0.0210     28.9337     87.6780   -999.2500   -999.2500   -999.2500   -999.2500     13.9587     12.7921     12.1555  
  2262.5000      8.5715   -999.2500      2.4482      0.0042     29.7638     87.2375   -999.2500   -999.2500   -999.2500   -999.2500     13.8041     12.9484     12.9173  
  2263.0000      8.5341   -999.2500      2.4337      0.0197     28.7168     87.3643   -999.2500   -999.2500   -999.2500   -999.2500     13.8620     13.1558     12.9099  
  2263.5000      8.5337   -999.2500      2.4414      0.0152     26.4084     87.0945   -999.2500   -999.2500   -999.2500   -999.2500     14.0424     13.3160     12.1248  
  2264.0000      8.6153   -999.2500      2.4633      0.0174     23.5039     86.9323   -999.2500   -999.2500   -999.2500   -999.2500     14.2393     13.4089     11.2762  
  2264.5000      8.6903   -999.2500      2.4913      0.0231     17.1728     86.7597   -999.2500   -999.2500   -999.2500   -999.2500     14.4337     13.5024     11.0128  
  2265.0000      8.6363   -999.2500      2.4896      0.0330      9.7338     85.9998   -999.2500   -999.2500   -999.2500   -999.2500     14.5851     13.9133     10.6901  
  2265.5000      8.6737   -999.2500      2.4784      0.0158   -999.2500     83.8936   -999.2500   -999.2500   -999.2500   -999.2500     14.9768     14.5072      9.8162  
  2266.0000      8.5921   -999.2500      2.4997      0.0003   -999.2500     83.4283   -999.2500   -999.2500   -999.2500   -999.2500     15.3790     15.2879     10.6330  
  2266.5000      8.4812   -999.2500      2.5219     -0.0194   -999.2500     83.5085   -999.2500   -999.2500   -999.2500   -999.2500     15.9317     15.6725     13.4235  
  2267.0000      8.4338   -999.2500      2.5494     -0.0058   -999.2500     84.6141   -999.2500   -999.2500   -999.2500   -999.2500     16.4815     15.6658     15.7134  
  2267.5000      8.3631   -999.2500      2.5699      0.0209   -999.2500     87.7486   -999.2500   -999.2500   -999.2500   -999.2500     16.2055     15.0204     15.9161  
  2268.0000      8.3399   -999.2500      2.5473      0.0314   -999.2500     89.6259   -999.2500   -999.2500   -999.2500   -999.2500     15.5796     14.4015     15.1216  
  2268.5000      8.3511   -999.2500      2.5302      0.0412   -999.2500     90.0487   -999.2500   -999.2500   -999.2500   -999.2500     15.0882     14.2138     13.9526  
  2269.0000      8.3314   -999.2500      2.5027      0.0471   -999.2500     89.6872   -999.2500   -999.2500   -999.2500   -999.2500     14.9864     14.0565     12.9028  
  2269.5000      8.3370   -999.2500      2.5008      0.0740   -999.2500     88.9583   -999.2500   -999.2500   -999.2500   -999.2500     15.1641     14.2263     12.4023  
  2270.0000      8.4104   -999.2500      2.4856      0.0697   -999.2500     87.6530   -999.2500   -999.2500   -999.2500   -999.2500     15.7883     14.7076     13.5616  
  2270.5000      8.4558   -999.2500      2.4657      0.0521   -999.2500     86.7340   -999.2500   -999.2500   -999.2500   -999.2500     16.0217     15.0925     15.2562  
  2271.0000      8.4424   -999.2500      2.4729      0.0273   -999.2500     85.0414   -999.2500   -999.2500   -999.2500   -999.2500     16.0809     14.9815     17.9116  
  2271.5000      8.3124   -999.2500      2.4730      0.0276   -999.2500     82.2041   -999.2500   -999.2500   -999.2500   -999.2500     15.8403     14.7162     17.3027  
  2272.0000      8.2766   -999.2500      2.4962      0.0608   -999.2500     79.6590   -999.2500   -999.2500   -999.2500   -999.2500     15.4965     14.5092     15.9396  
  2272.5000      8.2998   -999.2500      2.4876      0.0525   -999.2500     77.3695   -999.2500   -999.2500   -999.2500   -999.2500     15.2444     14.3266     14.6838  
  2273.0000      8.2854   -999.2500      2.4832      0.0265   -999.2500     80.1143   -999.2500   -999.2500   -999.2500   -999.2500     15.1782     14.4194     13.6105  
  2273.5000      8.2906   -999.2500      2.4961      0.0301   -999.2500     83.4903   -999.2500   -999.2500   -999.2500   -999.2500     15.3531     14.6540     14.0016  
  2274.0000      8.2255   -999.2500      2.5311      0.0454   -999.2500     85.9409   -999.2500   -999.2500   -999.2500   -999.2500     15.4288     14.8749     15.8213  
  2274.5000      8.3351   -999.2500      2.5367      0.0838   -999.2500     87.6453   -999.2500   -999.2500   -999.2500   -999.2500     15.2944     14.9841     19.2334  
  2275.0000      8.2369   -999.2500      2.5028      0.0485   -999.2500     87.9874   -999.2500   -999.2500   -999.2500   -999.2500     15.2968     14.9603     25.9414  
  2275.5000      8.1628   -999.2500      2.4928      0.0352   -999.2500     88.1203   -999.2500   -999.2500   -999.2500   -999.2500     15.3207     14.9366     22.4731  
  2276.0000      8.0634   -999.2500      2.5043      0.0309   -999.2500     87.9633   -999.2500   -999.2500   -999.2500   -999.2500     15.3446     14.9133     16.4725  
  2276.5000      8.0027   -999.2500      2.5213      0.0322   -999.2500     87.7773   -999.2500   -999.2500   -999.2500   -999.2500     15.3686     14.9990     14.2619  
  2277.0000      8.0054   -999.2500      2.5368      0.0661   -999.2500     87.6967   -999.2500   -999.2500   -999.2500   -999.2500     15.3926     15.0852     11.8138  
  2277.5000      7.9691   -999.2500      2.4984      0.0680   -999.2500     87.5979   -999.2500   -999.2500   -999.2500   -999.2500     15.4166     15.1719      7.3481  
  2278.0000      7.9356   -999.2500      2.4655      0.0446   -999.2500     86.6450   -999.2500   -999.2500   -999.2500   -999.2500     15.4407     15.2081      2.7140  
  2278.5000   -999.2500   -999.2500   -999.2500   -999.2500   -999.2500     85.8459   -999.2500   -999.2500   -999.2500   -999.2500   -999.2500   -999.2500   -999.2500  
  2279.0000   -999.2500   -999.2500   -999.2500   -999.2500   -999.2500     86.2433   -999.2500   -999.2500   -999.2500   -999.2500   -999.2500   -999.2500   -999.2500  
  2279.5000   -999.2500   -999.2500   -999.2500   -999.2500   -999.2500     86.7662   -999.2500   -999.2500   -999.2500   -999.2500   -999.2500   -999.2500   -999.2500  
