~VERSION INFORMATION
 VERS.                           2.00:        CWLS LOG ASCII STANDARD - VERSION 2.00
 WRAP.                             NO:        ONE LINE PER DEPTH STEP
~WELL INFORMATION
#MNEM.UNIT                   DATA             INFORMATION
#----------             --------------        ------------------------------
 STRT.F                      152.0000:        START DEPTH
 STOP.F                     2285.0000:        STOP DEPTH
 STEP.F                        0.5000:        STEP VALUE
 NULL.                      -999.2500:        NULL VALUE
 COMP.                      U.S. NAVY:        COMPANY  
 LOC .                   26  22N  17W:        LOCATION   
 DATE.                         4/1/74:        LOG DATE 
 WELL.            SOUTH BARROW NO. 12:        WELL     
 UWI .                   500232000600:        UNIQUE WELL ID 
 API .                   500232000600:        UNIQUE WELL IDENTIFIER 
 FLD .                   SOUTH BARROW:        FIELD    
 CNTY.                         NPPR-4:        COUNTY  
 STAT.                         ALASKA:        STATE   
 CTRY.                            USA:        COUNTRY 
 OPER.                      U.S. NAVY:        OPERATOR  
 SRVC.                   SCHLUMBERGER:        SERVICE COMPANY 
 LAT .                         0.0000:        LATITUDE
 LON .                         0.0000:        LONGITUDE
 DIGS.               CENTER LINE DATA:        DIGITIZING COMPANY 
~CURVE INFORMATION      
#MNEM        .UNIT         API CODE           CURVE DESCRIPTION
#-----------------      --------------        ------------------------------
 DEPT        .F                      :        1  DEPTH
 RHOB        .G/C3                   :        2  
 DRHO        .G/C3                   :        3  
 GR          .GAPI                   :        4  
 CALI        .IN                     :        5  
 DPHI        .%                      :        6  
 NPHI        .%                      :        7  
 SP          .MV                     :        8  
 ALL8        .OHMM                   :        9  
 ILD         .OHMM                   :        10 
 CILD        .MMHO                   :        11 
 DT          .US/F                   :        12 
~PARAMETER INFORMATION       
#MNEM.UNIT                  VALUE             DESCRIPTION OF MNEMONIC
#---------             ---------------        ------------------------------
 EKB .F                       26.0000:        KELLY BUSHING
 TD  .F                     2285.0000:        TOTAL DEPTH
~OTHER INFORMATION
~A    DEPTH        RHOB        DRHO          GR        CALI        DPHI        NPHI          SP        ALL8         ILD        CILD          DT  
# ...
  1637.0000      2.4627      0.0460    103.4766     10.8150     11.8833     39.2225    -32.7512     11.1650      9.3616    102.1685    106.4544  
  1637.5000      2.4795      0.0490    104.8027     10.8256     11.4829     38.0543    -32.9463     10.8569      9.1504    105.1195    106.2472  
  1638.0000      2.4705      0.0506    102.7337     10.9082     10.7425     38.5720    -32.7630     10.5179      9.0664    106.9124    106.5870  
  1638.5000      2.4608      0.0513    100.3749     10.9522     10.9425     39.4683    -32.3949     10.2549      9.0463    106.8148    107.1053  
  1639.0000      2.4641      0.0540    100.2187     10.9470     11.7603     40.0310    -32.3127     10.0479      9.1387    106.3055    107.0235  
  1639.5000      2.4828      0.0570    101.0915     10.8983     11.6035     41.7502    -32.6611     10.0199      9.1504    105.4590    106.7608  
  1640.0000      2.4900      0.0583    101.4446     11.3200     10.7903     42.3547    -32.9163     10.0444      9.1404    104.9711    106.8579  
  1640.5000      2.4857      0.0520    102.6151     11.8273      9.9752     39.9983    -32.6756     10.0689      9.3234    104.3970    106.3009  
  1641.0000      2.4840      0.0499    103.4046     11.4550     10.1853     40.8732    -32.2490     10.0934      9.2754    104.0879    105.6297  
  1641.5000      2.4918      0.0363    103.9784     11.2353     10.2211     41.6713    -32.1175     10.1179      9.3961    103.2366    104.7120  
  1642.0000      2.4979      0.0395    103.7948     11.0712      9.7923     41.0253    -32.0099     10.1424      9.5168    100.5463    103.9345  
  1642.5000      2.4955      0.0530    103.2659     10.6817      9.2161     40.1672    -31.7819     10.1384      9.6375     98.5411    104.5614  
  1643.0000      2.4788      0.0614    102.7952     10.9769      9.0878     41.3450    -31.6408     10.1011      9.7583     97.8570    105.3583  
  1643.5000      2.4596      0.0508    102.3239     10.8696     10.5203     42.7669    -31.6289     10.0638      9.8666     97.7154    105.9161  
  1644.0000      2.4528      0.0374    101.2541     10.8078     11.5444     43.6565    -31.8987     10.0303      9.8691     97.6270    106.3115  
  1644.5000      2.4447      0.0279    101.0917     10.7862     12.1591     43.6755    -32.4498      9.9418      9.8654     97.5386    106.6017  
  1645.0000      2.4611      0.0403    100.7217     10.7420     12.3260     42.3732    -32.6193      9.9228      9.7210     97.5553    106.6887  
  1645.5000      2.4675      0.0489    100.6822     10.6476     11.7209     41.7243    -32.4583      9.9347      9.5766     98.2923    105.8795  
  1646.0000      2.4770      0.0453     98.7948     10.5593     11.1470     41.4981    -32.3483     10.0061      9.5040     98.3492    102.7020  
  1646.5000      2.4935      0.0266     95.8924     10.4709     10.4332     42.1482    -32.4091     10.0774      9.5796     97.3700     97.3922  
  1647.0000      2.5180      0.0049     91.7915     10.3272      9.6889     40.3494    -32.2790     10.2889      9.7903     94.6548     94.4259  
  1647.5000      2.5594      0.0456     93.2864     10.2261      8.3244     37.3422    -31.8749     10.8442     10.0277     91.5341     94.1510  
  1648.0000      2.5971      0.0870     96.9351     10.3124      5.7802     35.3082    -31.7082     11.2231     10.2864     90.5321     97.4446  
  1648.5000      2.5041      0.0875     97.0687     11.0243      3.4162     36.3348    -31.8497     12.0001     10.2195     90.8971    102.7161  
  1649.0000      2.4146      0.0663     94.9958     11.8336      9.1819     37.3747    -32.0589     12.5544     10.1887     91.6939    106.0851  
  1649.5000      2.4126      0.0643     92.4138     12.0768     14.5292     37.6947    -32.2555     12.3520     10.3392     91.8087    106.2293  
  1650.0000      2.4198      0.0601     87.6940     12.1533     14.1056     38.3368    -32.2509     11.7217     10.4896     89.9117    104.5669  
  1650.5000      2.4214      0.0519     84.5263     12.1372     14.1246     38.9095    -32.0618     11.4765     10.7631     87.1327     99.9039  
  1651.0000      2.4221      0.0408     78.9346     11.8372     14.0344     38.7304    -31.7496     11.4023     11.3049     84.8446     93.0073  
  1651.5000      2.4226      0.0249     75.9696     11.4224     13.9786     36.7675    -31.7192     11.6047     11.6905     82.4094     70.5159  
  1652.0000      2.4261      0.0095     73.9202     10.5897     13.8879     34.7633    -31.7759     12.7821     12.2964     78.3792     50.0431  
  1652.5000      2.4420      0.0437     81.3146     10.2691     13.7152     30.0827    -31.8155     14.2338     12.9022     72.7155     49.9600  
  1653.0000      2.4687      0.0779     89.3205     10.2692     12.8134     29.0216    -31.8710     16.1006     13.5006     69.4000     90.0854  
  1653.5000      2.4837      0.0876     96.0140     10.5377     11.1778     30.9561    -31.9454     18.0983     13.9389     67.6135    100.5405  
  1654.0000      2.4856      0.0752    100.2010     11.4282     10.0775     36.6905    -32.0864     19.3033     14.2494     66.3124    102.6331  
  1654.5000      2.4642      0.0623    101.9613     12.0515     10.3085     38.2803    -32.0309     18.9952     14.5598     65.1409    103.7433  
  1655.0000      2.4470      0.0513    102.9826     12.3710     11.3414     39.8718    -31.8598     17.8051     14.5643     64.7943    105.1640  
  1655.5000      2.4256      0.0452    103.6852     12.5162     12.4154     39.5282    -31.8959     16.3736     14.2117     65.9778    106.3146  
  1656.0000      2.4124      0.0390    104.0844     12.2563     13.6118     38.6724    -31.9320     14.9792     13.1241     71.1585    106.7085  
  1656.5000      2.4214      0.0489    104.4218     12.1097     14.4300     43.2748    -31.9681     13.6793     12.0558     79.9258    106.5356  
  1657.0000      2.4449      0.0594    106.3102     11.9960     13.9658     43.9360    -32.0042     12.9776     10.9874     87.6667    106.3903  
  1657.5000      2.4620      0.0511    109.3167     11.8822     12.7884     44.0107    -32.0404     12.5330     10.2186     93.1105    105.8475  
  1658.0000      2.4655      0.0416    107.9203     11.5679     11.5269     42.6245    -32.0147     12.1930      9.9467     96.0628    105.1975  
  1658.5000      2.4703      0.0307    106.0448     11.2518     11.2503     41.0514    -31.9722     11.8645      9.7342     97.2611    104.8229  
  1659.0000      2.4707      0.0327    107.6094     10.9788     11.1749     37.6504    -31.9694     11.4686      9.8316     97.2051    104.7745  
  1659.5000      2.4740      0.0377    109.2055     10.7505     10.5947     36.5672    -31.9160     11.1398      9.8790     96.1203    105.3387  
  1660.0000      2.4540      0.0312    110.7875     10.7402     11.0181     35.9430    -31.7173     10.9301      9.9033     96.7696    105.9388  
  1660.5000      2.4439      0.0374    109.8640     10.7600     12.2554     35.1503    -31.5306     10.7268      9.8870     97.4188    106.4128  
  1661.0000      2.4568      0.0532    109.5792     10.7531     12.3724     35.7491    -31.6542     10.1813      9.8707     97.9583    106.8091  
  1661.5000      2.4488      0.0458    110.2459     10.7299     12.0804     37.4824    -31.8991     10.0832      9.8545     98.0294    107.0826  
  1662.0000      2.4502      0.0497    109.0092     10.7238     12.5161     38.8905    -32.0287     10.0035      9.8382     97.5460    106.7842  
  1662.5000      2.4548      0.0380    106.8818     10.7148     12.2196     39.6462    -32.1338      9.9738      9.8194     96.9427    106.1745  
  1663.0000      2.4711      0.0332    105.4490     10.7189     11.8925     38.5133    -32.6743      9.9285      9.8002     96.1044    104.9616  
  1663.5000      2.4811      0.0450    102.9038     11.0046     11.1178     37.8459    -32.9573      9.9688      9.7811     95.2904    103.9489  
  1664.0000      2.4811      0.0318    100.4629     11.2451     10.2744     37.6040    -32.9211     10.0405      9.7620     94.3440    103.5364  
