~VERSION INFORMATION
 VERS.                           2.00:        CWLS LOG ASCII STANDARD - VERSION 2.00
 WRAP.                             NO:        ONE LINE PER DEPTH STEP
~WELL INFORMATION
#MNEM.UNIT                   DATA             INFORMATION
#----------             --------------        ------------------------------
 STRT.F                       25.0000:        START DEPTH
 STOP.F                     2347.0000:        STOP DEPTH
 STEP.F                        0.5000:        STEP VALUE
 NULL.                      -999.2500:        NULL VALUE
 COMP.        HUSKY OIL COMPANY/NPR-A:        COMPANY
 LOC .                     26 22N 17W:        LOCATION
 DATE.                        4/14/80:        LOG DATE
 WELL.                     BARROW #20:        WELL
 UWI .                   500232001500:        UNIQUE WELL ID
 API .                   500232001500:        UNIQUE WELL IDENTIFIER
 FLD .                   SOUTH BARROW:        FIELD
 CNTY.                    NORTH SLOPE:        COUNTY
 STAT.                        ALAASKA:        STATE
 CTRY.                            USA:        COUNTRY
 OPER.        HUSKY OIL COMPANY/NPR-A:        OPERATOR
 SRVC.                   SCHLUMBERGER:        SERVICE COMPANY
 LAT .                         0.0000:        LATITUDE
 LON .                         0.0000:        LONGITUDE
 DIGS.               CENTER LINE DATA:        DIGITIZING COMPANY
~CURVE INFORMATION      
#MNEM        .UNIT         API CODE           CURVE DESCRIPTION
#-----------------      --------------        ------------------------------
 DEPT        .F                      :        1  DEPTH
 CALI        .IN                     :        2  
 GR          .GAPI                   :        3  
 DRHO        .G/C3                   :        4  
 RHOB        .G/C3                   :        5  
 NPHI        .%                      :        6  
 SP          .MV                     :        7  
 ILD         .OHMM                   :        8  
 ILM         .OHMM                   :        9  
 SFL         .OHMM                   :        10 
 LLD         .OHMM                   :        11 
 LLS         .OHMM                   :        12 
 MSFL        .OHMM                   :        13 
 DT          .US/F                   :        14 
~PARAMETER INFORMATION
#MNEM.UNIT                  VALUE             DESCRIPTION OF MNEMONIC
#---------             ---------------        ------------------------------
 EKB .F                       30.0000:        KELLY BUSHING
 TD  .F                     2356.0000:        TOTAL DEPTH
 BHT .F                        0.0000:        BOTTOM HOLE TEMPERATURE
 BS  .                         8.5000:        BIT SIZE
 FD  .                        10.8000:        FLUID DENSITY
 CSIZ.                         9.6250:        CASING SIZE
 CBD .F                     1500.0000:        CASING DRILLER 1
 CBL .F                     1485.0000:        CASING LOGGER 1
 DFT .                            GEL:        TYPE FLUID IN HOLE
 DFV .                        10.0000:        VISCOSITY
 DFPH.                         9.0000:        PH
 DFL .                        10.0000:        FLUID LOSS
 RMS .                         0.1840:        RM
 MST .F                       61.0000:        RM MEAS. TEMP.
 RMF .                         0.1270:        RMF
 MFST.F                       61.0000:        RMF MEAS. TEMP.
 RMC .                         0.2660:        RMC
 MCST.F                       61.0000:        RMC MEAS. TEMP.
~OTHER INFORMATION
~A    DEPTH        CALI          GR        DRHO        RHOB        NPHI          SP         ILD         ILM         SFL         LLD         LLS        MSFL          DT 
# ...
  1921.0000      8.6155     67.8448      0.0067      2.5115     34.7002    -54.5898   -999.2500   -999.2500   -999.2500     10.6695     10.0739      9.0389    100.1281 
  1921.5000      8.6011     66.5156      0.0089      2.5249     35.5779    -54.4053   -999.2500   -999.2500   -999.2500     10.7407     10.1989      8.8743    100.0902 
  1922.0000      8.5908     65.4707      0.0123      2.5153     35.0922    -54.1480   -999.2500   -999.2500   -999.2500     10.7195     10.1780      8.5272    100.8719 
  1922.5000      8.5997     65.0637      0.0192      2.5325     34.0355    -53.8518   -999.2500   -999.2500   -999.2500     10.6919     10.1517      8.1936    102.5114 
  1923.0000      8.6018     65.4682      0.0230      2.5635     32.4783    -53.9799   -999.2500   -999.2500   -999.2500     10.6643     10.1255      8.2634    103.4929 
  1923.5000      8.6039     65.8728      0.0304      2.5767     31.9129    -53.6632   -999.2500   -999.2500   -999.2500     10.6239     10.0834      8.7145    103.5593 
  1924.0000      8.6060     66.0235      0.0250      2.5475     32.0950    -53.3925   -999.2500   -999.2500   -999.2500     10.5708     10.0220      9.0826    102.7887 
  1924.5000      8.6081     65.9187      0.0276      2.5338     32.5745    -53.0715   -999.2500   -999.2500   -999.2500     10.7479     10.1725      9.2166    101.3115 
  1925.0000      8.6103     65.8140      0.0251      2.5413     33.8273    -52.5641   -999.2500   -999.2500   -999.2500     10.9280     10.3429      9.1370    100.1474 
  1925.5000      8.6124     65.7148      0.0174      2.5350     35.1584    -52.4815   -999.2500   -999.2500   -999.2500     11.1112     10.5162      9.0247     99.1572 
  1926.0000      8.6145     65.2756      0.0169      2.5340     34.0949    -52.0605   -999.2500   -999.2500   -999.2500     11.2974     10.6924      9.4269     98.1954 
  1926.5000      8.6166     63.0312      0.0187      2.5326     32.5518    -51.5668   -999.2500   -999.2500   -999.2500     11.6539     10.8715     10.1268     97.3702 
  1927.0000      8.6060     60.6574      0.0100      2.5250     31.7414    -51.3019   -999.2500   -999.2500   -999.2500     12.1399     11.3414     10.3362     97.4076 
  1927.5000      8.6041     59.3533      0.0111      2.5237     31.4880    -51.1753   -999.2500   -999.2500   -999.2500     12.5244     11.7647     10.0718     98.0876 
  1928.0000      8.5157     57.1940      0.0190      2.5241     31.0401    -51.0486   -999.2500   -999.2500   -999.2500     12.6226     11.9855      8.4648     98.9952 
  1928.5000      8.5574     53.8297      0.0245      2.5241     30.1244    -50.9220   -999.2500   -999.2500   -999.2500     12.5287     11.8489      7.5150     99.7497 
  1929.0000      8.5584     51.0032      0.0217      2.5183     28.9006    -50.7954   -999.2500   -999.2500   -999.2500     12.3005     11.6330      7.3263    100.0479 
  1929.5000      8.5845     49.4833      0.0188      2.4990     27.9911    -50.6687   -999.2500   -999.2500   -999.2500     12.0764     11.4211      6.2705    100.1215 
  1930.0000      8.5684     48.3232      0.0161      2.4787     27.6663    -50.5421   -999.2500   -999.2500   -999.2500     11.8704     11.2370      5.1479    100.0730 
  1930.5000      8.6466     50.0020      0.0136      2.4691     27.7050    -50.4420   -999.2500   -999.2500   -999.2500     11.6823     11.0654      4.9611     99.9987 
  1931.0000      8.6829     51.7437      0.0104      2.4634     28.0084    -50.4919   -999.2500   -999.2500   -999.2500     11.6750     10.9423      6.0512     99.2768 
  1931.5000      8.6574     54.1192      0.0075      2.4577     28.3748    -50.5257   -999.2500   -999.2500   -999.2500     11.6804     10.8206      7.8935     98.3797 
  1932.0000      8.6654     57.7397      0.0076      2.4618     27.8625    -50.5272   -999.2500   -999.2500   -999.2500     11.6872     10.7002      9.2407     97.6144 
  1932.5000      8.6667     59.6267      0.0147      2.4787     27.5989    -50.5487   -999.2500   -999.2500   -999.2500     11.7571     10.5812      9.3715     97.8118 
  1933.0000      8.6584     60.3755      0.0219      2.5051     27.6412    -50.5808   -999.2500   -999.2500   -999.2500     11.8395     10.5283      9.2693     97.9116 
  1933.5000      8.5966     61.0297      0.0154      2.4954     28.1271    -50.6283   -999.2500   -999.2500   -999.2500     11.9359     10.5332      9.2829     97.9069 
  1934.0000      8.6710     61.6853      0.0166      2.5010     28.6964    -50.7290   -999.2500   -999.2500   -999.2500     12.0332     10.5381      9.3147     97.7612 
  1934.5000      8.6363     62.4541      0.0209      2.5073     29.1599    -50.8120   -999.2500   -999.2500   -999.2500     12.1312     10.5946      9.5191     97.4838 
  1935.0000      8.6199     62.8104      0.0263      2.5138     28.8268    -50.8190   -999.2500   -999.2500   -999.2500     12.2840     10.8908      9.7462     97.2332 
  1935.5000      8.6067     62.9183      0.0274      2.5255     28.3657    -50.7102   -999.2500   -999.2500   -999.2500     12.3675     11.1046      9.8740     97.3610 
  1936.0000      8.6040     62.0648      0.0153      2.5088     27.9045    -50.6361   -999.2500   -999.2500   -999.2500     12.1628     11.2135      8.6837     98.0761 
  1936.5000      8.5805     60.9784      0.0033      2.5178     27.4434    -50.6433   -999.2500   -999.2500   -999.2500     11.9396     11.2208      5.7391     99.1354 
  1937.0000      8.5444     59.1872     -0.0087      2.5173     26.8857    -50.6701   -999.2500   -999.2500   -999.2500     11.5632     10.9065      4.9311     99.6938 
  1937.5000      8.6059     58.0510     -0.0107      2.5162     26.6313    -50.8766   -999.2500   -999.2500   -999.2500     11.3582     10.7623      6.0476     99.8466 
  1938.0000      8.6053     57.9235      0.0106      2.5237     26.7602    -51.0831   -999.2500   -999.2500   -999.2500     11.2080     10.6201      7.1489     99.5907 
  1938.5000      8.6205     57.6146      0.0319      2.5311     27.1709    -51.2896   -999.2500   -999.2500   -999.2500     11.0598     10.4797      7.5418     99.1879 
  1939.0000      8.7055     57.4015      0.0534      2.5253     28.1611    -51.4960   -999.2500   -999.2500   -999.2500     10.9136     10.3411      7.5554     99.1370 
  1939.5000      8.6373     57.8593      0.0446      2.5039     29.2694    -51.7025   -999.2500   -999.2500   -999.2500     10.7694     10.2238      7.8235     99.1289 
  1940.0000      8.6102     58.0671      0.0321      2.4984     29.8926    -51.9710   -999.2500   -999.2500   -999.2500     10.7486     10.2061      7.8886     99.1848 
  1940.5000      8.5905     59.6605      0.0424      2.5043     30.1787    -52.2099   -999.2500   -999.2500   -999.2500     10.7300     10.1884      7.6620     99.3055 
  1941.0000      8.6477     61.5822      0.0514      2.5133     30.3969    -52.3994   -999.2500   -999.2500   -999.2500     10.7115     10.1682      7.4243     99.4958 
  1941.5000      8.6621     63.3914      0.0558      2.5289     30.7745    -52.5632   -999.2500   -999.2500   -999.2500     10.6411     10.0984      7.6472     99.8545 
  1942.0000      8.6544     65.8079      0.0462      2.5224     31.0691    -52.4180   -999.2500   -999.2500   -999.2500     10.5680     10.0290      8.0813    100.2431 
  1942.5000      8.7071     66.3131      0.0354      2.5113     31.1251    -52.4476   -999.2500   -999.2500   -999.2500     10.4954      9.9601      7.9504    100.5079 
  1943.0000      8.6850     66.3665      0.0247      2.5036     30.6975    -52.4918   -999.2500   -999.2500   -999.2500     10.4807      9.9386      7.6755    100.6765 
  1943.5000      8.6630     66.3555      0.0163      2.4987     30.3856    -52.4299   -999.2500   -999.2500   -999.2500     10.5935     10.0456      7.5129    100.6206 
  1944.0000      8.6377     66.2623      0.0236      2.5026     30.2625    -52.3680   -999.2500   -999.2500   -999.2500     10.7076     10.1537      8.1466     99.8923 
  1944.5000      8.6138     64.7223      0.0310      2.5102     30.3416    -52.3061   -999.2500   -999.2500   -999.2500     10.8229     10.2631      8.5545     99.0526 
