~VERSION INFORMATION
 VERS.                           2.00:        CWLS LOG ASCII STANDARD - VERSION 2.00
 WRAP.                             NO:        ONE LINE PER DEPTH STEP
~WELL INFORMATION
#MNEM.UNIT                   DATA             INFORMATION
#----------             --------------        ------------------------------
 STRT.F                     1244.0000:        START DEPTH
 STOP.F                     2340.0000:        STOP DEPTH
 STEP.F                        0.5000:        STEP VALUE
 NULL.                      -999.2500:        NULL VALUE
 COMP.        U.S. NAVY DEPT NP & OSR:        COMPANY  
 LOC .                   14  22N  18W:        LOCATION   
 DATE.                        3/16/73:        LOG DATE 
 WELL.               SOUTH BARROW #10:        WELL     
 UWI .                   500232000400:        UNIQUE WELL ID 
 API .                   500232000400:        UNIQUE WELL IDENTIFIER 
 FLD .                   SOUTH BARROW:        FIELD    
 CNTY.                         NPR #4:        COUNTY  
 STAT.                         ALASKA:        STATE   
 CTRY.                            USA:        COUNTRY 
 OPER.        U.S. NAVY DEPT NP & OSR:        OPERATOR  
 SRVC.                   SCHLUMBERGER:        SERVICE COMPANY 
 LAT .                         0.0000:        LATITUDE
 LON .                         0.0000:        LONGITUDE
 DIGS.               CENTER LINE DATA:        DIGITIZING COMPANY 
~CURVE INFORMATION      
#MNEM        .UNIT         API CODE           CURVE DESCRIPTION
#-----------------      --------------        ------------------------------
 DEPT        .F                      :        1  DEPTH
 SP          .MV                     :        2  
 LL8         .OHMM                   :        3  
 ILD         .OHMM                   :        4  
 CILD        .MMHO                   :        5  
 DT          .US/F                   :        6  
~PARAMETER INFORMATION       
#MNEM.UNIT                  VALUE             DESCRIPTION OF MNEMONIC
#---------             ---------------        ------------------------------
 EKB .F                       38.0000:        KELLY BUSHING
 TD  .F                     2349.0000:        TOTAL DEPTH
 BHT .F                       60.0000:        BOTTOM HOLE TEMPERATURE
 BS  .                         9.6250:        BIT SIZE
 FD  .                        10.6000:        FLUID DENSITY
 CSIZ.                        10.7500:        CASING SIZE
 CBD .F                     1240.0000:        CASING DRILLER 1
 CBL .F                     1244.0000:        CASING LOGGER 1
 DFT .                  Miscellaneous:        TYPE FLUID IN HOLE
 DFV .                        15.0000:        VISCOSITY
 DFPH.                        11.0000:        PH
 DFL .                         1.8000:        FLUID LOSS
 RMS .                         1.1900:        RM
 MST .F                       55.0000:        RM MEAS. TEMP.
 RMF .                         0.8500:        RMF
 MFST.F                       55.0000:        RMF MEAS. TEMP.
 RMC .                         1.2000:        RMC
 MCST.F                       55.0000:        RMC MEAS. TEMP.
~OTHER INFORMATION
~A    DEPTH          SP         LL8         ILD        CILD          DT  
# ...
  1516.5000    -27.3711     12.8031     10.7634     92.0994    112.8233  
  1517.0000    -27.2975     12.8895     10.7048     91.9192    112.4652  
  1517.5000    -27.2324     12.8518     10.7799     91.6844    110.9596  
  1518.0000    -26.9446     12.7203     10.7533     91.4497    109.7794  
  1518.5000    -26.5754     12.5245     10.6766     92.6013    108.9766  
  1519.0000    -26.1463     12.3292     10.5230     94.0676    108.1455  
  1519.5000    -25.8428     12.1113     10.3503     94.9174    107.5853  
  1520.0000    -25.8321     11.8990     10.1989     96.6172    107.2454  
  1520.5000    -25.9323     11.7343     10.0704     98.2585    108.4155  
  1521.0000    -26.2516     11.6832      9.9267     99.2121    110.2478  
  1521.5000    -26.3466     11.7293      9.8984     99.5410    111.7950  
  1522.0000    -26.3333     11.8321      9.9231     97.6882    112.1335  
  1522.5000    -26.2982     11.9803     10.0106     95.3674    112.1347  
  1523.0000    -26.5256     12.1112     10.0608     94.3447    112.4212  
  1523.5000    -26.9609     12.2267     10.2376     93.7613    113.1981  
  1524.0000    -26.8593     12.2582     10.3359     93.8018    112.9393  
  1524.5000    -26.5484     12.1185     10.3163     94.5545    112.5096  
  1525.0000    -26.1557     11.8445     10.2267     95.2160    112.2511  
  1525.5000    -25.7861     11.5248     10.0141     97.7407    111.8906  
  1526.0000    -25.6110     11.2667      9.8014    100.3234    111.6599  
  1526.5000    -25.4263     11.0218      9.5887    102.6821    111.2541  
  1527.0000    -25.3450     10.8431      9.3760    104.5614    111.2165  
  1527.5000    -25.2918     10.6804      9.2088    106.5003    111.7028  
  1528.0000    -25.4289     10.6300      9.0435    108.3783    113.5669  
  1528.5000    -25.6901     10.6306      8.8589    109.9334    115.7177  
  1529.0000    -25.9041     10.7947      8.8423    110.6059    116.8647  
  1529.5000    -25.8653     10.9837      8.8260    110.1261    116.9025  
  1530.0000    -25.4357     11.1354      8.8771    109.5868    117.0356  
  1530.5000    -25.0517     11.2236      8.9587    108.7265    117.1341  
  1531.0000    -25.1318     11.2839      8.9883    108.3582    116.7582  
  1531.5000    -25.3049     11.3207      9.0490    108.2583    116.3755  
  1532.0000    -25.4797     11.3716      9.0087    108.3293    114.9384  
  1532.5000    -25.6435     11.4417      9.0183    108.1717    113.8550  
  1533.0000    -25.6049     11.4646      9.0484    107.7397    114.2569  
  1533.5000    -25.6942     11.4916      9.0807    107.4421    114.7973  
  1534.0000    -25.7138     11.5281      9.1243    107.1664    115.7118  
  1534.5000    -25.6042     11.5646      9.1632    106.8107    116.3647  
  1535.0000    -25.5742     11.6098      9.2439    106.3039    115.6798  
  1535.5000    -25.7265     11.6951      9.2299    105.7687    115.2146  
  1536.0000    -26.0969     11.7092      9.2453    105.9814    114.7771  
  1536.5000    -26.2939     11.7093      9.3264    105.3634    114.3519  
  1537.0000    -25.8506     11.7399      9.3246    105.2292    114.0257  
  1537.5000    -25.3879     11.7525      9.3656    105.4140    113.3366  
  1538.0000    -25.2629     11.7241      9.3986    105.2073    112.6947  
  1538.5000    -25.3406     11.6897      9.3557    104.8745    112.8555  
  1539.0000    -25.5392     11.6823      9.3361    105.3761    112.9835  
  1539.5000    -25.6990     11.7309      9.3387    105.8629    113.1597  
  1540.0000    -25.9988     11.7968      9.3357    105.6981    113.5134  
  1540.5000    -26.2978     11.9558      9.3153    105.1096    114.0281  
  1541.0000    -26.6949     12.0896      9.3405    105.1984    114.4667  
  1541.5000    -27.8177     12.1828      9.3261    105.5778    114.7098  
  1542.0000    -29.2005     12.2635      9.3631    105.6123    114.6712  
  1542.5000    -30.3911     12.4127      9.4124    103.7259    113.1853  
  1543.0000    -30.6823     12.6693      9.4617    103.0382    112.0935  
  1543.5000    -30.1032     12.8790      9.5109    102.7885    111.8235  
  1544.0000    -29.9050     12.9397      9.5602    102.5900    111.2478  
  1544.5000    -30.6367     12.9232      9.6095    102.3915    110.6306  
  1545.0000    -31.7023     12.8871      9.6588    102.1929    109.9696  
  1545.5000    -32.2047     12.8700      9.7081    101.9944    109.2951  
  1546.0000    -31.9847     12.9407      9.7574    101.7959    108.6074  
  1546.5000    -30.8010     12.7679      9.8067    101.5973    107.8376  
  1547.0000    -29.8471     12.6279      9.8354    101.3884    108.0035  
  1547.5000    -29.3615     12.4798      9.7711    101.3719    108.8444  
  1548.0000    -29.6186     12.5500      9.7316    101.4346    109.9365  
  1548.5000    -30.4045     12.5049      9.6863    101.8405    111.4064  
  1549.0000    -31.8068     12.3251      9.6531    102.9750    111.5596  
  1549.5000    -32.8010     12.2098      9.5211    104.5926    111.0913  
  1550.0000    -31.0981     12.2512      9.4342    105.3185    110.4928  
  1550.5000    -29.1823     12.3582      9.3162    104.2415    111.0087  
  1551.0000    -27.5664     12.5495      9.4812    102.7860    110.5878  
  1551.5000    -26.4214     12.7628      9.7712    100.8294    110.5489  
  1552.0000    -25.7251     12.9587      9.9775     97.1978    111.4388  
  1552.5000    -25.3334     13.2731     10.2300     94.1736    112.1851  
  1553.0000    -24.9069     13.7526     10.7386     91.9121    112.0742  
  1553.5000    -24.8702     14.1318     11.0584     89.6506    110.6611  
  1554.0000    -25.0398     14.3546     11.3724     86.6375    107.3980  
  1554.5000    -25.1147     14.4297     11.7543     84.6580    105.2303  
  1555.0000    -25.2057     14.4026     11.8460     83.2288    103.8604  
  1555.5000    -25.4110     14.3107     12.0529     82.1057    104.0810  
  1556.0000    -25.4192     14.2321     12.1164     81.8025    104.4801  
  1556.5000    -25.1466     14.1763     12.1780     82.1858    104.9127  
  1557.0000    -25.0032     14.0875     12.1121     82.8508    106.6430  
  1557.5000    -24.9832     13.9859     11.9662     83.6613    108.1805  
  1558.0000    -24.8451     13.9854     11.8348     84.3052    107.9670  
  1558.5000    -24.6757     13.7672     11.7868     84.7861    107.0166  
  1559.0000    -24.8333     13.4587     11.6903     85.3362    106.4711  
  1559.5000    -25.1705     13.2061     11.5822     86.0025    106.9719  
  1560.0000    -25.5267     12.9530     11.5104     86.8054    107.7368  
  1560.5000    -25.7679     12.7200     11.3699     87.6319    106.7567  
  1561.0000    -25.8361     12.5228     11.2887     88.2636    107.2297  
  1561.5000    -25.9308     12.4169     11.2182     88.6520    109.1720  
  1562.0000    -26.0169     12.4948     11.2207     88.8023    109.8416  
  1562.5000    -26.0961     12.4898     11.2160     88.7137    109.8243  
  1563.0000    -26.3803     12.5877     11.2492     88.3364    109.8474  
  1563.5000    -26.6021     12.6460     11.3764     87.6815    110.0561  
  1564.0000    -26.5709     12.7260     11.4338     87.1282    110.4296  
  1564.5000    -26.3198     12.8269     11.5321     86.5527    110.1758  
  1565.0000    -26.2621     12.9193     11.6459     85.7744    109.9402  
  1565.5000    -26.3157     12.9939     11.7183     85.2523    109.7166  
  1566.0000    -26.4485     13.0456     11.8075     84.7216    108.5458  
  1566.5000    -26.5593     13.0973     11.8718     84.1910    107.2215  
  1567.0000    -26.4414     13.1354     12.0193     83.6604    107.0596  
  1567.5000    -26.4839     13.0679     12.0271     83.4177    107.4674  
  1568.0000    -26.6544     13.0004     12.0152     83.9498    107.8861  
  1568.5000    -26.5856     12.9329     12.0328     83.9593    108.2334  
  1569.0000    -26.2391     12.8035     11.8922     84.3028    106.3284  
  1569.5000    -25.8133     12.5978     11.7400     85.1510    105.0441  
  1570.0000    -25.6241     12.3921     11.5878     86.0339    105.5008  
  1570.5000    -25.5816     12.1865     11.4356     87.0388    106.4531  
