~VERSION INFORMATION
 VERS.                           2.00:        CWLS LOG ASCII STANDARD - VERSION 2.00
 WRAP.                             NO:        ONE LINE PER DEPTH STEP
~WELL INFORMATION
#MNEM.UNIT                   DATA             INFORMATION
#----------             --------------        ------------------------------
 STRT.F                       98.0000:        START DEPTH
 STOP.F                     2124.0000:        STOP DEPTH
 STEP.F                        0.5000:        STEP VALUE
 NULL.                      -999.2500:        NULL VALUE
 COMP.          USGS/NPR-A OPERATIONS:        COMPANY  
 LOC .                   24  22N  17W:        LOCATION   
 DATE.                        10/5/80:        LOG DATE 
 WELL.               SOUTH BARROW #18:        WELL     
 UWI .                   500232001700:        UNIQUE WELL ID 
 API .                   500232001700:        UNIQUE WELL IDENTIFIER 
 FLD .                   SOUTH BARROW:        FIELD    
 CNTY.                    NORTH SLOPE:        COUNTY  
 STAT.                         ALASKA:        STATE   
 CTRY.                            USA:        COUNTRY 
 OPER.          USGS/NPR-A OPERATIONS:        OPERATOR  
 SRVC.                   SCHLUMBERGER:        SERVICE COMPANY 
 LAT .                         0.0000:        LATITUDE
 LON .                         0.0000:        LONGITUDE
 DIGS.               CENTER LINE DATA:        DIGITIZING COMPANY 
~CURVE INFORMATION      
#MNEM        .UNIT         API CODE           CURVE DESCRIPTION
#-----------------      --------------        ------------------------------
 DEPT        .F                      :        1  DEPTH
 CALI        .IN                     :        2  
 GR          .GAPI                   :        3  
 NPHI        .%                      :        4  
 RHOB        .G/C3                   :        5  
 DRHO        .G/C3                   :        6  
 DT          .US/F                   :        7  
 SP          .MV                     :        8  
 ILD         .OHMM                   :        9  
 ILM         .OHMM                   :        10 
 SFL         .OHMM                   :        11 
 LLD         .OHMM                   :        12 
 LLS         .OHMM                   :        13 
 MSFL        .OHMM                   :        14 
~PARAMETER INFORMATION       
#MNEM.UNIT                  VALUE             DESCRIPTION OF MNEMONIC
#---------             ---------------        ------------------------------
 EKB .F                       30.0000:        KELLY BUSHING
 TD  .F                     2125.0000:        TOTAL DEPTH
 BHT .F                        0.0000:        BOTTOM HOLE TEMPERATURE
 BS  .                         8.5000:        BIT SIZE
 FD  .                        10.3000:        FLUID DENSITY
 CSIZ.                         9.6250:        CASING SIZE
 CBD .F                     1519.0000:        CASING DRILLER 1
 CBL .F                     1520.0000:        CASING LOGGER 1
 DFT .                  Miscellaneous:        TYPE FLUID IN HOLE
 DFV .                        47.0000:        VISCOSITY
 DFPH.                         8.5000:        PH
 DFL .                        14.0000:        FLUID LOSS
 RMS .                         0.1600:        RM
 MST .F                       43.0000:        RM MEAS. TEMP.
 RMF .                         0.1100:        RMF
 MFST.F                       43.0000:        RMF MEAS. TEMP.
 RMC .                         0.1200:        RMC
 MCST.F                       43.0000:        RMC MEAS. TEMP.
~OTHER INFORMATION
~A    DEPTH        CALI          GR        NPHI        RHOB        DRHO          DT          SP         ILD         ILM         SFL         LLD         LLS        MSFL  
# ...
  2042.0000      8.9391     56.7978     24.5520      2.4014      0.0150     91.3231   -999.2500   -999.2500   -999.2500   -999.2500     15.5848     14.1407     13.6823  
  2042.5000      8.9517     55.9552     24.6626      2.3979      0.0203     87.9149   -999.2500   -999.2500   -999.2500   -999.2500     15.0716     13.3350     12.4966  
  2043.0000      8.9479     55.2523     24.7036      2.3912      0.0267     86.0227   -999.2500   -999.2500   -999.2500   -999.2500     14.5752     13.1026     11.5737  
  2043.5000      8.9104     54.8079     24.5683      2.3827      0.0122     85.6523   -999.2500   -999.2500   -999.2500   -999.2500     15.1112     13.2759     11.9340  
  2044.0000      8.8967     54.4539     24.3718      2.3916     -0.0038     84.7719   -999.2500   -999.2500   -999.2500   -999.2500     16.3752     14.3921     15.8095  
  2044.5000      8.8871     57.3032     25.3862      2.4236      0.0124     88.5629   -999.2500   -999.2500   -999.2500   -999.2500     17.7449     15.6021     17.7094  
  2045.0000      8.8896     60.0968     26.1827      2.4817      0.0093     90.5512   -999.2500   -999.2500   -999.2500   -999.2500     19.2292     16.9139     17.2305  
  2045.5000      8.9284     61.9439     26.7708      2.5462     -0.0070     91.3942   -999.2500   -999.2500   -999.2500   -999.2500     19.3391     16.8814     16.7645  
  2046.0000      8.9395     64.0657     26.6320      2.5904      0.0158     92.3805   -999.2500   -999.2500   -999.2500   -999.2500     18.6734     16.6579     15.6195  
  2046.5000      8.9506     64.1115     26.5532      2.5303      0.0455     91.7247   -999.2500   -999.2500   -999.2500   -999.2500     17.9300     15.8734     13.5634  
  2047.0000      8.9589     61.9806     26.5988      2.4275      0.0207     91.3865   -999.2500   -999.2500   -999.2500   -999.2500     17.1893     15.1259     11.9493  
  2047.5000      8.9585     59.5099     26.4830      2.4051      0.0098     90.8822   -999.2500   -999.2500   -999.2500   -999.2500     16.4791     14.6306     11.1071  
  2048.0000      8.9563     56.2604     25.8377      2.3809      0.0157     90.7681   -999.2500   -999.2500   -999.2500   -999.2500     15.7984     14.2501     10.2162  
  2048.5000      8.9650     57.6476     24.9699      2.3745      0.0198     94.0576   -999.2500   -999.2500   -999.2500   -999.2500     15.1457     14.3809      9.3839  
  2049.0000      8.9758     62.5772     24.1832      2.3759      0.0220     96.4783   -999.2500   -999.2500   -999.2500   -999.2500     15.1093     14.8046     10.6990  
  2049.5000      8.9595     68.5692     23.6791      2.3845      0.0281     98.5215   -999.2500   -999.2500   -999.2500   -999.2500     15.9443     15.2408     14.1190  
  2050.0000      8.9962     74.5366     24.1445      2.3979      0.0123    101.2258   -999.2500   -999.2500   -999.2500   -999.2500     19.5391     17.4503     14.8426  
  2050.5000      9.0042     77.2039     24.5792      2.3645     -0.0035     99.6646   -999.2500   -999.2500   -999.2500   -999.2500     21.6307     19.4489     13.0190  
  2051.0000      9.0072     74.1567     24.7966      2.3374      0.0100     99.3049   -999.2500   -999.2500   -999.2500   -999.2500     21.7660     19.8507     10.8889  
  2051.5000      8.9922     68.4844     24.9101      2.3072      0.0194     99.4046   -999.2500   -999.2500   -999.2500   -999.2500     20.1201     20.1973      9.9665  
  2052.0000      8.9584     57.9231     24.5278      2.2633     -0.0015     93.6081   -999.2500   -999.2500   -999.2500   -999.2500     17.5391     17.5656      8.6608  
  2052.5000      8.8451     51.9767     23.1835      2.2494      0.0101    104.6393   -999.2500   -999.2500   -999.2500   -999.2500     15.8175     15.6016      7.0761  
  2053.0000      8.7736     50.1807     21.9454      2.2578      0.0180    106.6442   -999.2500   -999.2500   -999.2500   -999.2500     15.1661     15.7043      6.5081  
  2053.5000      8.7504     50.0841     21.3126      2.2619      0.0145    107.7114   -999.2500   -999.2500   -999.2500   -999.2500     16.3127     16.5915      6.4396  
  2054.0000      8.7239     50.7107     20.9213      2.2562      0.0086    106.1406   -999.2500   -999.2500   -999.2500   -999.2500     19.8071     18.9308      6.8290  
  2054.5000      8.7092     50.5456     20.8689      2.2560      0.0172    106.6145   -999.2500   -999.2500   -999.2500   -999.2500     23.8186     21.7854      7.7110  
  2055.0000      8.7123     45.0871     21.5172      2.2553      0.0211    109.0564   -999.2500   -999.2500   -999.2500   -999.2500     27.4330     24.9231      8.7189  
  2055.5000      8.7079     37.1416     22.4022      2.2506      0.0122    108.0474   -999.2500   -999.2500   -999.2500   -999.2500     29.4784     27.3296      9.8969  
  2056.0000      8.6961     32.2373     22.5541      2.2514      0.0028     74.6761   -999.2500   -999.2500   -999.2500   -999.2500     30.8480     29.0912      9.3738  
  2056.5000      8.6877     31.0602     22.4678      2.2753     -0.0057     97.2349   -999.2500   -999.2500   -999.2500   -999.2500     33.3352     29.5918      7.9233  
  2057.0000      8.6824     29.8471     22.6339      2.3011      0.0111     80.1042   -999.2500   -999.2500   -999.2500   -999.2500     36.3551     34.9717      5.9474  
  2057.5000      8.6873     28.4423     23.1214      2.3016      0.0268    110.7751   -999.2500   -999.2500   -999.2500   -999.2500     41.0847     37.4518      6.0249  
  2058.0000      8.7013     27.0374     22.9050      2.2974      0.0124    119.4873   -999.2500   -999.2500   -999.2500   -999.2500     44.9953     39.4308      9.4793  
  2058.5000      8.7140     26.6999     22.6084      2.3490      0.0011    112.9898   -999.2500   -999.2500   -999.2500   -999.2500     44.3548     39.6352     13.6017  
  2059.0000      8.7161     26.6802     22.0824      2.3920     -0.0030    114.0381   -999.2500   -999.2500   -999.2500   -999.2500     41.4874     37.3998     15.1686  
  2059.5000      8.7109     27.1520     22.5799      2.3743      0.0137    105.6894   -999.2500   -999.2500   -999.2500   -999.2500     40.0401     38.0915     16.5962  
  2060.0000      8.7085     27.9208     23.0773      2.2963      0.0246    108.5254   -999.2500   -999.2500   -999.2500   -999.2500     43.8620     40.2510     17.4903  
  2060.5000      8.7061     28.6897     22.8208      2.2397      0.0013    118.8655   -999.2500   -999.2500   -999.2500   -999.2500     48.0487     42.7325     15.9918  
  2061.0000      8.7037     29.4585     22.3140      2.2521     -0.0233    126.9754   -999.2500   -999.2500   -999.2500   -999.2500     52.6351     45.4717     14.2710  
  2061.5000      8.7013     30.2273     21.9572      2.2609     -0.0416    123.9161   -999.2500   -999.2500   -999.2500   -999.2500     57.6592     48.9346     16.0020  
  2062.0000      8.6989     29.7191     22.4100      2.2528     -0.0120    122.4672   -999.2500   -999.2500   -999.2500   -999.2500     61.3975     51.7128     17.6913  
  2062.5000      8.6965     26.6925     23.3019      2.2274      0.0211    120.4526   -999.2500   -999.2500   -999.2500   -999.2500     63.2859     53.7689     12.1862  
  2063.0000      8.6985     26.2215     23.9506      2.1482      0.0105    104.8175   -999.2500   -999.2500   -999.2500   -999.2500     58.0960     50.2282      7.6910  
  2063.5000      8.7009     25.7506     24.4381      2.1301      0.0035     98.0299   -999.2500   -999.2500   -999.2500   -999.2500     41.2456     36.8254      5.3852  
  2064.0000      8.7072     25.2968     24.1472      2.1483      0.0072    100.5292   -999.2500   -999.2500   -999.2500   -999.2500     35.7150     32.1396      4.8627  
  2064.5000      8.7213     27.1544     22.9111      2.1713      0.0121     96.9234   -999.2500   -999.2500   -999.2500   -999.2500     30.9642     28.6706      5.7076  
  2065.0000      8.7355     29.0120     22.1992      2.2039      0.0121     97.3116   -999.2500   -999.2500   -999.2500   -999.2500     26.7477     24.0966      6.3966  
  2065.5000      8.7496     30.8696     22.6987      2.2589      0.0125    102.4591   -999.2500   -999.2500   -999.2500   -999.2500     23.8562     20.0900      6.9416  
