~VERSION INFORMATION
 VERS.                           2.00:        CWLS LOG ASCII STANDARD - VERSION 2.00
 WRAP.                             NO:        ONE LINE PER DEPTH STEP
~WELL INFORMATION
#MNEM.UNIT                   DATA             INFORMATION
#----------             --------------        ------------------------------
 STRT.F                       68.0000:        START DEPTH
 STOP.F                     2380.0000:        STOP DEPTH
 STEP.F                        0.5000:        STEP VALUE
 NULL.                      -999.2500:        NULL VALUE
 COMP.                     USGS/NPR-A:        COMPANY  
 LOC .                   30  22N  16W:        LOCATION   
 DATE.                        3/18/78:        LOG DATE 
 WELL.               SOUTH BARROW #17:        WELL     
 UWI .                   500232001100:        UNIQUE WELL ID 
 API .                   500232001100:        UNIQUE WELL IDENTIFIER 
 FLD .                   SOUTH BARROW:        FIELD    
 CNTY.                     NOTH SLOPE:        COUNTY  
 STAT.                         ALASKA:        STATE   
 CTRY.                            USA:        COUNTRY 
 OPER.                     USGS/NPR-A:        OPERATOR  
 SRVC.                   SCHLUMBERGER:        SERVICE COMPANY 
 LAT .                         0.0000:        LATITUDE
 LON .                         0.0000:        LONGITUDE
 DIGS.               CENTER LINE DATA:        DIGITIZING COMPANY 
~CURVE INFORMATION      
#MNEM        .UNIT         API CODE           CURVE DESCRIPTION
#-----------------      --------------        ------------------------------
 DEPT        .F                      :        1  DEPTH
 CALI        .IN                     :        2  
 GR          .GAPI                   :        3  
 NPHI        .%                      :        4  
 RHOB        .G/C3                   :        5  
 DRHO        .G/C3                   :        6  
 DT          .US/F                   :        7  
 SP          .MV                     :        8  
 ILD         .OHMM                   :        9  
 ILM         .OHMM                   :        10 
 LL8         .OHMM                   :        11 
 LLD         .OHMM                   :        12 
 LLS         .OHMM                   :        13 
~PARAMETER INFORMATION       
#MNEM.UNIT                  VALUE             DESCRIPTION OF MNEMONIC
#---------             ---------------        ------------------------------
 EKB .F                       33.0000:        KELLY BUSHING
 TD  .F                     2382.0000:        TOTAL DEPTH
 BHT .F                        0.0000:        BOTTOM HOLE TEMPERATURE
 BS  .                         8.5000:        BIT SIZE
 FD  .                        10.8000:        FLUID DENSITY
 CSIZ.                         9.6250:        CASING SIZE
 CBD .F                     1512.0000:        CASING DRILLER 1
 CBL .F                     1512.0000:        CASING LOGGER 1
 DFT .                  Miscellaneous:        TYPE FLUID IN HOLE
 DFV .                        43.0000:        VISCOSITY
 DFPH.                         8.5000:        PH
 DFL .                         4.0000:        FLUID LOSS
 RMS .                         0.0760:        RM
 MST .F                       60.0000:        RM MEAS. TEMP.
 RMF .                         0.0000:        RMF
 MFST.F                        0.0000:        RMF MEAS. TEMP.
 RMC .                         0.1640:        RMC
 MCST.F                       55.0000:        RMC MEAS. TEMP.
~OTHER INFORMATION
~A    DEPTH        CALI          GR        NPHI        RHOB        DRHO          DT          SP         ILD         ILM         LL8         LLD         LLS  
# ...
  1598.0000      8.9448     81.8881     39.7944      2.4524      0.0704    112.3886     31.9680   -999.2500   -999.2500   -999.2500     19.4295     15.0632  
  1598.5000      9.3478     85.8407     41.3959      2.4771      0.0969    111.5465     32.0750   -999.2500   -999.2500   -999.2500     21.2985     15.7000  
  1599.0000      9.5564     86.9385     41.6712      2.4513      0.0801    110.3566     32.1531   -999.2500   -999.2500   -999.2500     24.2486     16.1507  
  1599.5000      9.7152     86.6726     41.1885      2.4357      0.0316    109.4038     32.0687   -999.2500   -999.2500   -999.2500     23.8844     16.0754  
  1600.0000      9.9281     85.3870     40.9469      2.4485      0.0163    108.5201     32.0619   -999.2500   -999.2500   -999.2500     21.1598     15.5417  
  1600.5000      9.4253     85.1079     40.8517      2.4559      0.0188    110.3587     32.1230   -999.2500   -999.2500   -999.2500     17.8888     15.0256  
  1601.0000      8.9220     86.5469     41.3563      2.4622      0.0281    111.7225     32.1582   -999.2500   -999.2500   -999.2500     18.2467     14.6323  
  1601.5000      9.0203     88.9809     43.1994      2.4390      0.0434    112.0645     32.1645   -999.2500   -999.2500   -999.2500     18.6542     14.6971  
  1602.0000      9.0576     91.2908     43.1265      2.4527      0.0640    112.0795     32.1978   -999.2500   -999.2500   -999.2500     19.0709     14.7622  
  1602.5000      9.1002     93.8065     43.1246      2.4563      0.0504    112.1562     32.1908   -999.2500   -999.2500   -999.2500     19.1689     14.8276  
  1603.0000      9.1323     94.5516     43.3748      2.4121      0.0060    112.6784     32.2920   -999.2500   -999.2500   -999.2500     18.9308     13.8587  
  1603.5000      9.0330     95.7204     43.6755      2.4117      0.0189    113.6882     32.3896   -999.2500   -999.2500   -999.2500     15.4463     12.7766  
  1604.0000      8.8784     96.8113     45.7113      2.4642      0.0687    115.0812     32.5633   -999.2500   -999.2500   -999.2500     14.4280     11.7790  
  1604.5000      8.9512     97.9606     46.8696      2.4348      0.0673    116.5255     32.8572   -999.2500   -999.2500   -999.2500     14.0447     10.8822  
  1605.0000      8.9213     99.1858     47.1615      2.4294      0.0887    116.8158     33.2634   -999.2500   -999.2500   -999.2500     13.6717     11.4155  
  1605.5000      8.8640     99.6116     47.2822      2.4682      0.1283    116.3433     33.6499   -999.2500   -999.2500   -999.2500     18.3287     11.9750  
  1606.0000      8.9641     99.4258     46.7016      2.4510      0.0780    114.6992     34.2378   -999.2500   -999.2500   -999.2500     27.4654     12.4644  
  1606.5000      9.0225     99.4665     44.7380      2.4319      0.0406    112.9099     34.8220   -999.2500   -999.2500   -999.2500     24.6584     12.9231  
  1607.0000      9.0182    100.0367     42.8944      2.4556      0.0411    111.6744     35.2125   -999.2500   -999.2500   -999.2500     19.7922     13.3987  
  1607.5000      8.9727     99.1798     41.9543      2.4888      0.0661    111.7310     35.6096   -999.2500   -999.2500   -999.2500     20.9757     13.8918  
  1608.0000      8.9767     94.9189     41.7363      2.4454      0.0668    112.4315     35.9030   -999.2500   -999.2500   -999.2500     24.1899     14.8427  
  1608.5000      9.0051     91.1572     41.6407      2.4484      0.0675    109.9540     35.9644   -999.2500   -999.2500   -999.2500     27.5369     18.4939  
  1609.0000      8.8781     89.0515     41.6263      2.4099      0.0463    107.9230     36.0781   -999.2500   -999.2500   -999.2500     37.6914     22.5774  
  1609.5000      8.9629     85.6851     40.9989      2.3947      0.0258    107.2580     36.2536   -999.2500   -999.2500   -999.2500     39.0334     22.8918  
  1610.0000      8.9856     82.4296     41.1553      2.4114      0.0332    107.7442     36.3859   -999.2500   -999.2500   -999.2500     34.9505     21.4431  
  1610.5000      8.9331     80.4062     41.3680      2.4214      0.0551    110.4083     36.4873   -999.2500   -999.2500   -999.2500     30.1044     20.0861  
  1611.0000      8.8554     79.2878     42.0972      2.4254      0.0542    112.5928     36.5774   -999.2500   -999.2500   -999.2500     25.8376     18.9841  
  1611.5000      8.8895     80.1423     42.5164      2.4222      0.0413    113.1939     36.7916   -999.2500   -999.2500   -999.2500     22.5413     18.1042  
  1612.0000      8.9598     81.3548     42.1804      2.4107      0.0307    114.0347     37.1900   -999.2500   -999.2500   -999.2500     20.7900     17.2651  
  1612.5000      9.0806     82.9610     42.1174      2.4266      0.0205    113.7766     37.4539   -999.2500   -999.2500   -999.2500     21.3285     15.5405  
  1613.0000      9.1923     83.2430     42.3097      2.4291      0.0103    112.9097     37.6495   -999.2500   -999.2500   -999.2500     22.8349     15.8874  
  1613.5000      9.1521     81.7821     41.7549      2.4284     -0.0005    111.5975     37.8343   -999.2500   -999.2500   -999.2500     29.4426     19.0294  
  1614.0000      8.9798     76.8961     39.3032      2.4210     -0.0098    110.2006     37.8382   -999.2500   -999.2500   -999.2500     39.8826     22.8330  
  1614.5000      8.6444     67.9916     37.5933      2.4083     -0.0012    109.1164     37.7388   -999.2500   -999.2500   -999.2500     54.5950     29.0320  
  1615.0000      8.6334     59.9515     34.8727      2.3976      0.0111    110.9508     37.6259   -999.2500   -999.2500   -999.2500    165.5944     38.3755  
  1615.5000      8.6368     54.3589     32.7356      2.3628      0.0087    116.2418     37.5640   -999.2500   -999.2500   -999.2500    498.1884     50.7261  
  1616.0000      8.6402     53.6620     31.5020      2.3642      0.0009    121.0638     37.6677   -999.2500   -999.2500   -999.2500   1498.7931     64.1040  
  1616.5000      8.6435     53.8545     31.1219      2.3767      0.0043    116.5550     37.8876   -999.2500   -999.2500   -999.2500   1950.1388     78.0136  
  1617.0000      8.6469     53.8950     30.4947      2.3795      0.0099    115.9142     38.0676   -999.2500   -999.2500   -999.2500   1946.6454     94.9415  
  1617.5000      8.6502     54.2463     29.3954      2.3777      0.0023    113.3652     38.1618   -999.2500   -999.2500   -999.2500   1943.1572    115.5424  
  1618.0000      8.6536     54.8642     29.6971      2.3582     -0.0028    111.0615     38.1557   -999.2500   -999.2500   -999.2500   1939.6763    140.6135  
  1618.5000      8.6570     55.3684     29.8849      2.3605     -0.0080    117.2684     38.0472   -999.2500   -999.2500   -999.2500    691.8533    172.2556  
  1619.0000      8.6603     56.9192     30.1440      2.3832     -0.0079    110.1723     37.7304   -999.2500   -999.2500   -999.2500    230.9124    218.9620  
  1619.5000      8.6637     60.1161     30.6282      2.4096     -0.0044    102.2846     37.3603   -999.2500   -999.2500   -999.2500    157.5063    120.7299  
  1620.0000      8.6758     63.3465     31.4303      2.4397     -0.0081    101.5739     36.9653   -999.2500   -999.2500   -999.2500    105.6735     56.4199  
  1620.5000      8.6995     67.1883     32.5497      2.4479     -0.0040    106.4732     36.5818   -999.2500   -999.2500   -999.2500     49.8238     27.9804  
  1621.0000      8.7231     73.5277     36.5085      2.4516      0.0010    113.4483     36.2748   -999.2500   -999.2500   -999.2500     23.4913     21.2336  
  1621.5000      8.7508     81.6164     41.7270      2.4505      0.0285    117.2821     36.0961   -999.2500   -999.2500   -999.2500     16.2529     16.1136  
  1622.0000      8.8313     90.0554     43.7885      2.4332      0.0546    116.4614     35.9821   -999.2500   -999.2500   -999.2500     14.1602     13.0103  
  1622.5000      8.9117     93.7601     44.3944      2.4185      0.0813    117.2332     35.9628   -999.2500   -999.2500   -999.2500     13.4387     11.0988  
  1623.0000      8.9867     94.1949     44.8483      2.4242      0.1178    117.4033     35.9608   -999.2500   -999.2500   -999.2500     13.3960     10.2230  
