~VERSION INFORMATION
 VERS.                           2.00:        CWLS LOG ASCII STANDARD - VERSION 2.00
 WRAP.                             NO:        ONE LINE PER DEPTH STEP
~WELL INFORMATION
#MNEM.UNIT                   DATA             INFORMATION
#----------             --------------        ------------------------------
 STRT.F                       25.0000:        START DEPTH
 STOP.F                     4165.0000:        STOP DEPTH
 STEP.F                        0.5000:        STEP VALUE
 NULL.                      -999.2500:        NULL VALUE
 COMP.    USGS/NPR HUSKY OIL OPERATOR:        COMPANY
 LOC .                     21 21N 14W:        LOCATION
 DATE.                         3/3/80:        LOG DATE
 WELL.                 WEST  DEASE #1:        WELL
 UWI .                   500232001400:        UNIQUE WELL ID
 API .                   500232001400:        UNIQUE WELL IDENTIFIER
 FLD .                        WILDCAT:        FIELD
 CNTY.                    NORTH SLOPE:        COUNTY
 STAT.                         ALASKA:        STATE
 CTRY.                            USA:        COUNTRY
 OPER.    USGS/NPR HUSKY OIL OPERATOR:        OPERATOR
 SRVC.                   SCHLUMBERGER:        SERVICE COMPANY
 LAT .                         0.0000:        LATITUDE
 LON .                         0.0000:        LONGITUDE
 DIGS.               CENTER LINE DATA:        DIGITIZING COMPANY
~CURVE INFORMATION      
#MNEM        .UNIT         API CODE           CURVE DESCRIPTION
#-----------------      --------------        ------------------------------
 DEPT        .F                      :        1  DEPTH
 SP          .MV                     :        2  
 LLD         .OHMM                   :        3  
 LLS         .OHMM                   :        4  
 MSFL        .OHMM                   :        5  
 CALI        .IN                     :        6  
 RHOB        .G/C3                   :        7  
 DRHO        .G/C3                   :        8  
 NPHI        .%                      :        9  
 GR          .GAPI                   :        10 
 DT          .US/F                   :        11 
~PARAMETER INFORMATION
#MNEM.UNIT                  VALUE             DESCRIPTION OF MNEMONIC
#---------             ---------------        ------------------------------
 EKB .F                       24.0000:        KELLY BUSHING
 TD  .F                     4173.0000:        TOTAL DEPTH
 BHT .F                       85.0000:        BOTTOM HOLE TEMPERATURE
 BS  .                        12.2500:        BIT SIZE
 FD  .                        10.4000:        FLUID DENSITY
 CSIZ.                        13.3750:        CASING SIZE
 CBD .F                      288.0000:        CASING DRILLER 1
 CBL .F                      292.0000:        CASING LOGGER 1
 DFT .                             99:        TYPE FLUID IN HOLE
 DFV .                        52.0000:        VISCOSITY
 DFPH.                         8.0000:        PH
 DFL .                         7.5000:        FLUID LOSS
 RMS .                         0.1250:        RM
 MST .F                       35.0000:        RM MEAS. TEMP.
 RMF .                         0.1440:        RMF
 MFST.F                       44.0000:        RMF MEAS. TEMP.
 RMC .                         0.2360:        RMC
 MCST.F                       36.0000:        RMC MEAS. TEMP.
~OTHER INFORMATION
~A    DEPTH          SP         LLD         LLS        MSFL        CALI        RHOB        DRHO        NPHI          GR          DT 
# ...
   818.0000   -129.6723      7.0720      4.6794      1.1529     14.9805      2.3594      0.1480     48.4166     68.1173    136.6968 
   818.5000   -129.7830      7.5437      4.8582      1.1249     15.0032      2.3383      0.1662     45.1350     68.8795    138.4468 
   819.0000   -129.9240      8.1985      5.2290      1.1159     14.9262      2.3410      0.1580     44.7058     68.8991    134.9588 
   819.5000   -130.0327      8.8225      5.6656      1.1668     14.8654      2.3453      0.1459     45.5229     68.4676    128.3884 
   820.0000   -130.1415      9.0286      5.8857      1.5259     14.8752      2.3571      0.1437     46.4612     67.7831    122.6098 
   820.5000   -130.2502      9.3387      6.1639      2.1716     14.8850      2.3902      0.1606     46.9536     67.4390    119.4205 
   821.0000   -130.3589      9.1153      6.0701      1.4381     14.9045      2.4030      0.1590     47.5176     67.6473    115.7972 
   821.5000   -130.5777      8.8283      5.6792      2.1927     14.9445      2.4032      0.1409     49.0811     68.1029    120.9436 
   822.0000   -131.0399      8.8802      5.6452      1.9759     14.9035      2.4035      0.1241     49.7031     70.0743    125.9463 
   822.5000   -131.3513      8.9298      5.6454      2.0552     14.7986      2.4235      0.1074     49.5825     72.1921    123.3288 
   823.0000   -131.4043      8.8308      5.6668      2.5809     14.7401      2.4385      0.1126     49.1059     73.2797    123.7351 
   823.5000   -131.4853      8.8453      5.7481      2.1786     14.7801      2.4437      0.1269     48.5276     73.6480    120.3939 
   824.0000   -131.5602      8.5404      5.5861      1.7894     14.8136      2.4408      0.1401     48.3093     73.1935    121.7681 
   824.5000   -131.5898      8.1076      5.4621      1.9999     14.8443      2.4352      0.1318     49.7346     72.1209    123.2592 
   825.0000   -131.4983      7.6469      5.2093      2.5937     14.8613      2.4552      0.1204     50.2213     70.8920    123.1436 
   825.5000   -131.4333      7.1385      4.8450      2.7963     14.8257      2.4503      0.0922     48.8674     69.6942    122.3324 
   826.0000   -131.0260      6.7644      4.5476      2.4446     14.7411      2.4610      0.1258     46.4935     69.3775    121.7127 
   826.5000   -130.8039      6.6500      4.5917      2.0178     14.7286      2.4654      0.1395     45.6192     69.7953    125.1725 
   827.0000   -130.9128      6.8568      4.7042      2.0931     14.7088      2.4431      0.1446     48.0421     69.6805    126.6547 
   827.5000   -131.0613      7.4152      5.0007      2.5357     14.6501      2.4397      0.1568     47.4661     68.5329    128.9284 
   828.0000   -131.2099      7.8983      5.3885      2.3689     14.6222      2.4008      0.1308     46.7380     67.0676    126.1878 
   828.5000   -131.3584      8.1867      5.5313      2.0906     14.4090      2.3968      0.1267     47.3566     65.6780    124.5577 
   829.0000   -131.4402      8.1105      5.4979      1.2582     14.4093      2.3837      0.1052     48.9091     65.1069    123.2515 
   829.5000   -131.4402      8.0576      5.6550      2.1484     14.5205      2.4001      0.1160     49.8069     64.6303    123.2347 
   830.0000   -131.4910      8.6062      5.8698      1.6944     14.5473      2.4185      0.1489     49.0849     64.1329    120.3731 
   830.5000   -131.4017      9.0175      5.9847      1.2577     14.5653      2.4036      0.1503     47.5408     64.6729    112.8954 
   831.0000   -131.4430      8.9291      5.9492      1.8412     14.6120      2.3486      0.1157     47.7722     65.3999    116.6863 
   831.5000   -131.3743      8.2996      5.8699      1.6430     14.6124      2.3782      0.1324     48.7799     66.8575    114.4209 
   832.0000   -131.3057      7.4578      5.3946      2.0715     14.5836      2.4148      0.1555     49.3858     68.9652    118.6805 
   832.5000   -131.2370      7.0991      5.0088      2.6473     14.6363      2.4158      0.1808     49.9145     70.5777    125.7745 
   833.0000   -131.2797      7.0235      4.8966      1.8531     14.6454      2.4372      0.2312     50.4614     70.5189    126.8444 
   833.5000   -131.4115      6.9618      4.8832      1.3281     14.7351      2.3822      0.1962     51.1611     70.0181    127.7609 
   834.0000   -131.3587      7.0570      5.0817      1.2246     14.7558      2.3203      0.1493     52.4057     69.0267    130.1297 
   834.5000   -131.1919      7.1739      5.0193      1.6018     14.7568      2.3650      0.1835     52.8879     67.4702    127.4614 
   835.0000   -131.0416      7.0943      4.9258      2.4221     14.7620      2.3640      0.2202     52.6473     66.8313    124.1887 
   835.5000   -130.8726      7.0629      4.9729      1.7565     14.7672      2.3482      0.2264     53.2910     67.4672    126.1919 
   836.0000   -130.7193      7.0840      5.0168      1.2122     14.7534      2.3241      0.2090     53.8109     69.2394    127.0004 
   836.5000   -130.7774      7.4167      5.0582      1.4903     14.7377      2.3186      0.1722     53.4392     70.9073    129.2364 
   837.0000   -131.0835      7.7521      5.2571      1.4492     14.7036      2.3384      0.1728     51.5669     71.1680    130.6150 
   837.5000   -130.7967      7.7852      5.5039      1.6290     14.5633      2.3665      0.1543     49.4732     71.3836    129.4287 
   838.0000   -130.8342      7.5665      5.2574      1.5618     14.4330      2.3522      0.1632     48.8417     71.2871    128.5668 
   838.5000   -130.8558      7.3320      5.1021      1.3659     14.3995      2.3128      0.1471     49.6169     70.8248    131.1205 
   839.0000   -130.5085      7.1545      5.0124      1.0425     14.5193      2.2820      0.1132     50.9505     70.1755    131.1689 
   839.5000   -130.6074      7.0561      4.9099      1.3612     14.5757      2.3248      0.1045     52.8688     69.2021    130.2209 
   840.0000   -130.9177      6.7917      4.8294      1.4515     14.5948      2.3584      0.1160     52.7666     68.5747    125.4762 
   840.5000   -131.1270      6.8440      4.7457      1.8282     14.6057      2.3883      0.1301     51.5336     69.6264    124.3326 
   841.0000   -131.2364      6.8345      4.6941      1.3247     14.6388      2.3780      0.1554     51.3873     70.1416    128.4519 
   841.5000   -131.2136      6.8548      4.6973      1.2187     14.6957      2.3399      0.1719     52.2624     70.8710    131.8701 
   842.0000   -131.2599      7.5072      4.8735      1.3597     14.7595      2.2957      0.1529     56.3389     71.7493    138.1646 
   842.5000   -131.4688      7.9032      5.1295      1.4844     14.7386      2.3153      0.1519     57.1957     72.9997    129.7602 
   843.0000   -131.5394      7.6706      5.2596      1.9626     14.7308      2.3566      0.1571     55.4948     73.5941    123.6855 
   843.5000   -131.6389      7.3667      5.1305      2.1080     14.7098      2.3651      0.1647     53.8011     74.1914    121.6059 
   844.0000   -131.6444      7.1454      4.9931      1.0928     14.7362      2.3707      0.1703     51.6930     76.1211    126.0121 
   844.5000   -131.5046      7.0199      4.8846      1.2675     14.7624      2.3931      0.1889     50.4757     79.0723    131.3088 
   845.0000   -131.2949      7.1669      4.9235      1.3174     14.7656      2.3885      0.1863     50.0347     79.7195    135.7895 
   845.5000   -131.2979      7.2254      5.0360      1.2801     14.7522      2.3686      0.1473     50.0902     80.2085    134.0999 
   846.0000   -131.2172      7.2282      5.0386      1.0637     14.6422      2.3794      0.1474     49.3785     78.7806    132.7499 
   846.5000   -131.1221      7.1172      5.0111      1.2110     14.5136      2.3788      0.1694     48.7489     75.5628    134.4198 
   847.0000   -131.0850      7.1505      5.0468      1.3322     14.2969      2.3696      0.2061     48.2505     71.6388    135.8398 
   847.5000   -131.0458      7.6386      5.1678      1.4399     14.2732      2.3047      0.2051     48.4469     71.6472    135.3808 
   848.0000   -130.8468      7.7920      5.3134      1.3135     14.3598      2.2598      0.1756     49.6850     71.5423    131.1368 
