~VERSION INFORMATION
 VERS.                           2.00:        CWLS LOG ASCII STANDARD - VERSION 2.00
 WRAP.                             NO:        ONE LINE PER DEPTH STEP
~WELL INFORMATION
#MNEM.UNIT                   DATA             INFORMATION
#----------             --------------        ------------------------------
 STRT.F                       50.0000:        START DEPTH
 STOP.F                     2158.0000:        STOP DEPTH
 STEP.F                        0.5000:        STEP VALUE
 NULL.                      -999.2500:        NULL VALUE
 COMP.              HUSKY OIL COMPANY:        COMPANY  
 LOC .                   25  22N  17W:        LOCATION   
 DATE.                        2-19-77:        LOG DATE 
 WELL.               SOUTH BARROW #14:        WELL     
 UWI .                   500232000900:        UNIQUE WELL ID 
 API .                   500232000900:        UNIQUE WELL IDENTIFIER 
 FLD .               SOUTH BARROW GAS:        FIELD    
 CNTY.                    NORTH SLOPE:        COUNTY  
 STAT.                         ALASKA:        STATE   
 CTRY.                            USA:        COUNTRY 
 OPER.              HUSKY OIL COMPANY:        OPERATOR  
 SRVC.                   SCHLUMBERGER:        SERVICE COMPANY 
 LAT .                         0.0000:        LATITUDE
 LON .                         0.0000:        LONGITUDE
 DIGS.               CENTER LINE DATA:        DIGITIZING COMPANY 
~CURVE INFORMATION      
#MNEM        .UNIT         API CODE           CURVE DESCRIPTION
#-----------------      --------------        ------------------------------
 DEPT        .F                      :        1  DEPTH
 LLS         .OHMM                   :        2  
 LLD         .OHMM                   :        3  
 SP          .MV                     :        4  
 ILD         .OHMM                   :        5  
 ILM         .OHMM                   :        6  
 LL8         .OHMM                   :        7  
 CALI        .IN                     :        8  
 GR          .GAPI                   :        9  
 NPHI        .%                      :        10 
 DPHI        .%                      :        11 
 RHOB        .G/C3                   :        12 
 DRHO        .G/C3                   :        13 
 DT          .US/F                   :        14 
~PARAMETER INFORMATION       
#MNEM.UNIT                  VALUE             DESCRIPTION OF MNEMONIC
#---------             ---------------        ------------------------------
 EKB .F                       31.0000:        KELLY BUSHING
 TD  .F                     1042.0000:        TOTAL DEPTH
 BHT .F                       62.0000:        BOTTOM HOLE TEMPERATURE
 BS  .                         6.0000:        BIT SIZE
 FD  .                        10.7000:        FLUID DENSITY
 CSIZ.                         7.0000:        CASING SIZE
 CBD .F                     1947.0000:        CASING DRILLER 1
 CBL .F                     1946.0000:        CASING LOGGER 1
 DFT .                  Miscellaneous:        TYPE FLUID IN HOLE
 DFV .                        50.0000:        VISCOSITY
 DFPH.                        10.0000:        PH
 DFL .                         0.0000:        FLUID LOSS
 RMS .                         0.1500:        RM
 MST .F                       50.0000:        RM MEAS. TEMP.
 RMF .                         0.1600:        RMF
 MFST.F                       61.0000:        RMF MEAS. TEMP.
 RMC .                         0.0000:        RMC
 MCST.F                        0.0000:        RMC MEAS. TEMP.
~OTHER INFORMATION
~A    DEPTH         LLS         LLD          SP         ILD         ILM         LL8        CALI          GR        NPHI        DPHI        RHOB        DRHO          DT  
# ...
  2138.0000     17.2026     24.9793    -35.9168     14.2563     15.1011     13.7015      5.9462     79.2057     27.9672     10.0530      2.4958      0.0408     87.3171  
  2138.5000     17.0042     21.9307    -35.9375     13.7050     15.2003     14.9346      5.9462     78.7668     28.2702      8.2607      2.4674      0.0344     87.7782  
  2139.0000     16.9329     20.0271    -35.8534     13.7264     15.3003     15.6676      5.9461     77.9268     27.5424      7.0884      2.4515      0.0339     87.9969  
  2139.5000     16.9134     21.7290    -35.5836     13.8330     15.4009     15.1441      5.9460     77.2567     27.0855      7.7582      2.4703      0.0210     87.9541  
  2140.0000     17.0007     19.8932    -34.6245     13.8930     15.1261     14.5806      5.9436     77.4986     27.2161      9.6138      2.4959      0.0232     88.1346  
  2140.5000     17.1209     25.4888    -33.4266     14.0860     14.7787     14.4939      5.9220     77.9235     28.0819     11.1615      2.5034      0.0385     87.8965  
  2141.0000     17.2502     25.6521    -32.1008     14.9080     14.4392     15.0639      5.9035     77.6629     28.1250     12.2447      2.5080      0.0514     85.7175  
  2141.5000     17.4639     22.8280    -29.5136     15.7781     14.1075     15.7355      5.8851     76.9102     27.4907     13.6388      2.5016      0.0414     88.5265  
  2142.0000     17.6481     19.6838     -7.8423     16.6988     13.7834     17.3282      5.8703     76.1731     26.0752     12.0190      2.4951      0.0422     89.4875  
  2142.5000     17.6135     18.0426      0.2385     17.6734     13.4733     19.9533      5.8813     76.1262     25.7264      9.3790      2.5111      0.0458     90.0370  
  2143.0000     17.5501     21.0147      0.2352     17.4693     13.0834     22.9754      5.8632     76.3259     26.1502      8.8264      2.5296      0.0346     89.3723  
  2143.5000     17.1150     22.4864      0.2320     17.4177     12.6448     23.8408      5.8495     76.4998     26.5866      9.1233      2.5207      0.0222     86.4016  
  2144.0000     16.7019     26.1271      0.2287     16.9023     11.9455     23.3818      5.8345     77.3914     27.3253      9.9100      2.5104      0.0179     83.6082  
  2144.5000     16.3557     25.4726      0.2254     16.4244     11.5188     19.9878      5.8156     78.4929     27.5084     10.5730      2.5097      0.0368     84.9731  
  2145.0000     16.2761     20.0217      0.2222      6.7367     11.0322     10.5258      5.8179     78.9267     27.4922      9.8515      2.5106      0.0551     85.3172  
  2145.5000     16.6423     20.1961      0.2189      0.9994      1.0137      2.0350      5.7849     79.6629     26.6393      9.2797      2.5022      0.0609     85.3973  
  2146.0000     17.2824     20.2665      0.2157      0.9990      1.0130      2.0367      5.7981     80.5520     27.1268      8.0675      2.5254      0.0705     86.0372  
  2146.5000     18.3680     18.4666   -999.2500   -999.2500   -999.2500   -999.2500      5.7207     80.7717     27.6048      6.1045      2.5241      0.0679     88.5492  
  2147.0000     17.8371     26.7290   -999.2500   -999.2500   -999.2500   -999.2500      5.5941     80.0322     29.0717      4.2108      2.5132      0.0505     89.1928  
  2147.5000     17.3050     27.3973   -999.2500   -999.2500   -999.2500   -999.2500      5.7005     79.0770     29.1604      3.8283      2.5164      0.0506     89.1893  
  2148.0000     16.8285     21.2905   -999.2500   -999.2500   -999.2500   -999.2500      5.7732     78.3274     28.6978      5.7396      2.5125      0.0532     89.1675  
  2148.5000     16.6664     20.8302   -999.2500   -999.2500   -999.2500   -999.2500      5.7965     78.9548     28.0578      8.5464      2.5036      0.0650     89.2335  
  2149.0000     16.9041     20.6125   -999.2500   -999.2500   -999.2500   -999.2500      5.7636     79.3426     27.7739      9.2690      2.5075      0.0622     89.0690  
  2149.5000     17.1433     17.7688   -999.2500   -999.2500   -999.2500   -999.2500      5.7490     78.9247     26.9365      8.6448      2.5316      0.0760     87.8412  
  2150.0000     17.3860     16.5529   -999.2500   -999.2500   -999.2500   -999.2500      5.7279     76.9570     27.2940      7.7626      2.5449      0.0749     87.3982  
  2150.5000   -999.2500   -999.2500   -999.2500   -999.2500   -999.2500   -999.2500      5.7081     75.0300     27.7858      9.2938      2.5051      0.1381     89.1867  
  2151.0000   -999.2500   -999.2500   -999.2500   -999.2500   -999.2500   -999.2500      5.7115     75.0609     27.7631     10.1937      2.4264      0.1495     82.9348  
  2151.5000   -999.2500   -999.2500   -999.2500   -999.2500   -999.2500   -999.2500      5.6828     76.0327     28.2534     10.5818      2.4091      0.1585     76.4992  
  2152.0000   -999.2500   -999.2500   -999.2500   -999.2500   -999.2500   -999.2500      5.6457     75.8960     28.0947     13.3260      2.4195      0.1741     70.0636  
  2152.5000   -999.2500   -999.2500   -999.2500   -999.2500   -999.2500   -999.2500      5.3553     74.5911     27.1345     15.1149      2.4202      0.1695     63.6280  
  2153.0000   -999.2500   -999.2500   -999.2500   -999.2500   -999.2500   -999.2500      4.7557     73.9414     27.1551     16.7195      2.4275      0.1800     60.1105  
  2153.5000   -999.2500   -999.2500   -999.2500   -999.2500   -999.2500   -999.2500      2.9608     74.7533     28.0865     15.4943      2.4292      0.1947     60.1556  
  2154.0000   -999.2500   -999.2500   -999.2500   -999.2500   -999.2500   -999.2500      8.2592     76.2391     28.6229     16.6837      2.4176      0.1833     60.5538  
  2154.5000   -999.2500   -999.2500   -999.2500   -999.2500   -999.2500   -999.2500   -999.2500   -999.2500   -999.2500   -999.2500      2.4050      0.1662     63.5126  
  2155.0000   -999.2500   -999.2500   -999.2500   -999.2500   -999.2500   -999.2500   -999.2500   -999.2500   -999.2500   -999.2500      2.4146      0.1661     78.3461  
  2155.5000   -999.2500   -999.2500   -999.2500   -999.2500   -999.2500   -999.2500   -999.2500   -999.2500   -999.2500   -999.2500      2.4152      0.1746     80.3424  
  2156.0000   -999.2500   -999.2500   -999.2500   -999.2500   -999.2500   -999.2500   -999.2500   -999.2500   -999.2500   -999.2500      2.3903      0.1541     80.3075  
  2156.5000   -999.2500   -999.2500   -999.2500   -999.2500   -999.2500   -999.2500   -999.2500   -999.2500   -999.2500   -999.2500      2.3518      0.1417     80.2879  
  2157.0000   -999.2500   -999.2500   -999.2500   -999.2500   -999.2500   -999.2500   -999.2500   -999.2500   -999.2500   -999.2500      2.3486      0.2085     80.8335  
  2157.5000   -999.2500   -999.2500   -999.2500   -999.2500   -999.2500   -999.2500   -999.2500   -999.2500   -999.2500   -999.2500      2.3629      0.2506     85.9612  
  2158.0000   -999.2500   -999.2500   -999.2500   -999.2500   -999.2500   -999.2500   -999.2500   -999.2500   -999.2500   -999.2500      2.3285      0.2507    100.3625  
