~VERSION INFORMATION
 VERS.                           2.00:        CWLS LOG ASCII STANDARD - VERSION 2.00
 WRAP.                             NO:        ONE LINE PER DEPTH STEP
~WELL INFORMATION
#MNEM.UNIT                   DATA             INFORMATION
#----------             --------------        ------------------------------
 STRT.F                      151.0000:        START DEPTH
 STOP.F                     2726.0000:        STOP DEPTH
 STEP.F                        0.5000:        STEP VALUE
 NULL.                      -999.2500:        NULL VALUE
 COMP.                      U.S. NAVY:        COMPANY  
 WELL.                     IKO BAY #1:        WELL     
 FLD .                        WILDCAT:        FIELD    
 LOC .                   16  21N  16W:        LOCATION   
 CNTY.                    NORTH SLOPE:        COUNTY  
 STAT.                         ALASKA:        STATE   
 CTRY.                            USA:        COUNTRY 
 DATE.                         2/8/75:        LOG DATE 
 API .                   502790000000:        UNIQUE WELL IDENTIFIER 
 OPER.                      U.S. NAVY:        OPERATOR  
 SRVC.                            440:        SERVICE COMPANY 
 UWI .                   502790000000:        UNIQUE WELL ID 
 LAT .                         0.0000:        LATITUDE
 LON .                         0.0000:        LONGITUDE
 DIGS.                             65:        DIGITIZING COMPANY 
~CURVE INFORMATION      
#MNEM.UNIT                 API CODE           CURVE DESCRIPTION
#---------              --------------        ------------------------------
 DEPT.F                              :        1  DEPTH
 SP  .MV                             :        2
 ILD .OHMM                           :        3
 LL8 .OHMM                           :        4
 ILM .OHMM                           :        5
 RHOB.G/C3                           :        6
 DRHO.G/C3                           :        7
 CALI.IN                             :        8
 GR  .GAPI                           :        9
 NPHI.%                              :       10
 DT  .US/F                           :       11
~PARAMETER INFORMATION       
#MNEM.UNIT                  VALUE             DESCRIPTION OF MNEMONIC
#---------             ---------------        ------------------------------
 EKB .F                        0.0000:        KELLY BUSHING
 TD  .F                     2731.0000:        TOTAL DEPTH
 BHT .F                             0.0000:        BOTTOM HOLE TEMPERATURE
 BS  .                             14.7500:        BIT SIZE
 FD  .                              0.0000:        FLUID DENSITY
 CSIZ.                             16.0000:        CASING SIZE
 CBD .F                           149.0000:        CASING DRILLER 1
 CBL .F                           152.0000:        CASING LOGGER 1
 DFT .                            Gel:        TYPE FLUID IN HOLE
 DFV .                              0.0000:        VISCOSITY
 DFPH.                              0.0000:        PH
 DFL .                              0.0000:        FLUID LOSS
 RMS .                              0.3000:        RM
 MST .F                       49.0000:        RM MEAS. TEMP.
 RMF .                              0.2300:        RMF
 MFST.F                       49.0000:        RMF MEAS. TEMP.
 RMC .                              0.4600:        RMC
 MCST.F                       49.0000:        RMC MEAS. TEMP.
 UWI .                   502790000000:        UNIQUE WELL ID
~OTHER INFORMATION
~A    DEPTH          SP         ILD         LL8         ILM        RHOB        DRHO        CALI          GR        NPHI          DT  
# ...
  2371.0000    -61.2238     13.8865     16.3475     15.2442      2.4402     -0.0088      9.8639     64.6022     16.3385     86.3683  
  2371.5000    -61.1144     13.8356     16.1663     15.2542      2.4298     -0.0079      9.8579     64.9451     16.3480     85.7482  
  2372.0000    -60.7982     13.7849     16.4257     15.2642      2.4258     -0.0063      9.8519     65.4871     16.4684     84.2000  
  2372.5000    -60.4960     13.7344     16.8965     15.2742      2.4344     -0.0031      9.8459     65.5624     16.8455     85.0562  
  2373.0000    -60.3515     13.6841     17.3485     15.2842      2.4400      0.0001      9.8399     65.3826     17.1900     85.8346  
  2373.5000    -60.2407     13.6339     17.6820     15.2798      2.4412     -0.0007      9.8339     67.2128     17.3647     85.9691  
  2374.0000    -60.3192     13.5840     18.1271     15.2738      2.4504     -0.0076      9.8418     68.7984     17.3892     86.4516  
  2374.5000    -60.4518     13.5342     18.2343     15.2678      2.4588     -0.0145      9.8607     69.3839     17.3976     86.7336  
  2375.0000    -60.4041     13.4846     17.0789     15.2618      2.4754     -0.0061      9.8797     69.9072     17.3785     86.3466  
  2375.5000    -60.3115     13.3614     16.0490     15.1766      2.5004      0.0044      9.8987     70.1747     17.3829     85.7025  
  2376.0000    -60.2364     13.2231     15.4920     14.9804      2.4990      0.0085      9.9176     69.8878     17.3780     85.9520  
  2376.5000    -60.0527     13.0863     15.7073     14.7867      2.4934     -0.0011      9.9328     70.0926     17.3261     86.2506  
  2377.0000    -59.6974     12.9508     15.8973     14.5955      2.4941     -0.0016      9.9650     73.2294     17.4828     85.9972  
  2377.5000    -59.2375     12.8168     16.4816     14.4067      2.5013     -0.0028      9.9898     75.8499     18.0466     85.7051  
  2378.0000    -58.8482     12.6842     16.6299     14.2205      2.5045      0.0009      9.9474     77.1237     18.3889     85.4227  
  2378.5000    -58.3394     12.6681     15.8146     14.0950      2.5075      0.0125      9.9602     75.7824     18.5932     85.0077  
  2379.0000    -57.4494     12.6698     14.6673     14.0808      2.5089      0.0240      9.9824     74.4343     18.4442     83.1414  
  2379.5000    -56.6423     12.6767     14.4875     14.0666      2.4991      0.0172     10.0108     72.9802     18.4067     80.2556  
  2380.0000    -56.4664     12.7077     15.8069     14.0524      2.5012      0.0129      9.9704     71.6137     18.1892     82.5919  
  2380.5000    -56.5480     12.7387     16.8699     14.0382      2.5030      0.0044      9.9728     70.9452     17.9546     84.8938  
  2381.0000    -56.9292     12.7698     16.8393     14.0240      2.5004     -0.0033      9.9751     72.3096     17.9652     84.8817  
  2381.5000    -57.3185     12.8010     16.7765     14.0673      2.5021      0.0067      9.9774     74.4973     18.4017     84.7392  
  2382.0000    -57.2008     12.8322     16.3485     14.1290      2.5059      0.0107      9.9797     73.9988     18.7068     83.1084  
  2382.5000    -56.9351     12.8636     15.9010     14.1909      2.5129      0.0117      9.9820     73.3864     18.4423     67.6208  
  2383.0000    -56.5457     12.8950     15.7325     14.2532      2.5183      0.0093      9.9844     74.7610     18.5321     50.0915  
  2383.5000    -56.3638     12.9265     16.7473     14.3157      2.5281      0.0041      9.9867     77.6414     19.1793     50.0708  
  2384.0000    -56.4707     12.9580     17.6114     14.3785      2.5371      0.0076      9.9890     78.9861     19.8523     50.0501  
  2384.5000    -56.4009     12.9897     16.6164     14.3720      2.5062      0.0022      9.9913     77.4252     20.2250     50.0294  
  2385.0000    -55.6557     12.9706     15.3668     14.3253      2.4790     -0.0069      9.9850     76.0763     19.5177     81.8340  
  2385.5000    -55.0324     12.9440     14.8569     14.2789      2.4681     -0.0115      9.9792     75.9528     18.7710     73.9468  
  2386.0000    -55.1706     12.9175     15.5723     14.2326      2.4801     -0.0089      9.9959     76.6900     18.2884     51.6484  
  2386.5000    -55.6544     12.8911     16.4875     14.1864      2.4956     -0.0033     10.0061     78.7951     18.7003     50.3639  
  2387.0000    -56.2935     12.8647     16.8018     14.1404      2.5041      0.0028      9.9966     78.7323     19.1418     64.6916  
  2387.5000    -56.4415     12.8383     16.4305     14.0945      2.5052      0.0128      9.9909     76.2611     19.1081     85.6505  
  2388.0000    -56.6339     12.8120     15.5359     14.0547      2.4956      0.0198      9.9941     73.6841     18.6639    106.0183  
  2388.5000    -57.2925     12.7858     15.7110     14.0300      2.4710      0.0114     10.0029     70.4412     18.2852    116.7265  
  2389.0000    -58.1631     12.7596     16.4041     14.0054      2.4602      0.0060     10.0005     68.1622     18.2952     72.1724  
  2389.5000    -57.3935     12.7335     17.0425     13.9808      2.4657      0.0044      9.9858     67.9459     18.2859     49.9193  
  2390.0000    -54.0367     12.7844     16.9090     14.0994      2.4764      0.0033     10.0484     68.6462     18.0101     49.9214  
  2390.5000    -52.0490     12.8560     16.5662     14.2388      2.4636     -0.0035      9.9993     69.2194     17.6340     49.9234  
  2391.0000    -54.4463     12.9279     16.2080     14.4091      2.4676     -0.0141      9.9985     69.0649     17.3682     49.9255  
  2391.5000    -58.6402     13.0002     15.7195     14.5815      2.4760     -0.0132      9.9678     69.1906     17.6869     83.1230  
  2392.0000    -59.3171     13.0729     15.8582     14.7559      2.4898     -0.0055      9.9613     70.5669     18.1494     83.2976  
  2392.5000    -59.6073     13.1461     15.9981     14.9325      2.4923      0.0017      9.9672     70.4865     18.4284     74.7290  
  2393.0000    -59.6366     13.2196     16.0426     15.1111      2.4510      0.0069      9.9638     69.2779     18.0153     51.9559  
  2393.5000    -59.6841     13.2936     16.0239     15.2919      2.4621      0.0106      9.9356     69.3917     17.6394     53.4442  
  2394.0000    -60.0826     13.3679     16.2175     15.3248      2.4783      0.0121      9.9304     70.8413     17.2437     50.6604  
  2394.5000    -60.5983     13.4427     16.8671     15.3446      2.4999      0.0131      9.9262     72.8639     17.3527     50.4313  
  2395.0000    -61.0178     13.5179     17.9751     15.3643      2.4948      0.0091      9.9330     72.9798     17.7506     50.6372  
  2395.5000    -61.2555     13.5935     17.9408     15.4007      2.4669      0.0051      9.9419     71.3183     17.4709     50.1071  
  2396.0000    -61.2014     13.7527     17.4776     15.5666      2.4525      0.0169      9.9308     68.2912     16.9851     80.9097  
  2396.5000    -61.1759     13.9818     16.9753     15.7342      2.4564      0.0118      9.9183     65.5388     16.5052     70.4408  
  2397.0000    -61.6652     14.2147     16.6252     15.9037      2.4536      0.0052      9.9057     62.8451     15.9676     55.7421  
  2397.5000    -62.0274     14.4516     16.9263     16.1643      2.4429      0.0046      9.8932     61.7108     15.9133     65.5200  
  2398.0000    -62.3359     14.6923     17.9272     16.4544      2.4307      0.0093      9.8806     61.1249     16.0341     76.4047  
  2398.5000    -62.7072     14.9371     18.9853     16.7498      2.4439      0.0087      9.8681     61.1324     16.0962     64.5086  
  2399.0000    -63.1226     15.1860     20.1623     17.0504      2.4377      0.0127      9.8555     61.1399     16.1517     64.3905  
  2399.5000    -63.2974     15.4390     20.1562     17.3791      2.4320      0.0151      9.8223     61.1474     16.3402     62.9194  
  2400.0000    -63.2309     15.6962     19.8249     17.7216      2.4427      0.0240      9.7888     60.9274     16.7368     69.8862  
  2400.5000    -63.3564     15.8837     20.5053     18.0709      2.4486      0.0308      9.7553     60.0197     16.2840     81.3454  
