~VERSION INFORMATION
 VERS.                           2.00:        CWLS LOG ASCII STANDARD - VERSION 2.00
 WRAP.                             NO:        ONE LINE PER DEPTH STEP
~WELL INFORMATION
#MNEM.UNIT                   DATA             INFORMATION
#----------             --------------        ------------------------------
 STRT.F                     1244.0000:        START DEPTH
 STOP.F                     2340.0000:        STOP DEPTH
 STEP.F                        0.5000:        STEP VALUE
 NULL.                      -999.2500:        NULL VALUE
 COMP.        U.S. NAVY DEPT NP & OSR:        COMPANY  
 LOC .                   14  22N  18W:        LOCATION   
 DATE.                        3/16/73:        LOG DATE 
 WELL.               SOUTH BARROW #10:        WELL     
 UWI .                   500232000400:        UNIQUE WELL ID 
 API .                   500232000400:        UNIQUE WELL IDENTIFIER 
 FLD .                   SOUTH BARROW:        FIELD    
 CNTY.                         NPR #4:        COUNTY  
 STAT.                         ALASKA:        STATE   
 CTRY.                            USA:        COUNTRY 
 OPER.        U.S. NAVY DEPT NP & OSR:        OPERATOR  
 SRVC.                   SCHLUMBERGER:        SERVICE COMPANY 
 LAT .                         0.0000:        LATITUDE
 LON .                         0.0000:        LONGITUDE
 DIGS.               CENTER LINE DATA:        DIGITIZING COMPANY 
~CURVE INFORMATION      
#MNEM        .UNIT         API CODE           CURVE DESCRIPTION
#-----------------      --------------        ------------------------------
 DEPT        .F                      :        1  DEPTH
 SP          .MV                     :        2  
 LL8         .OHMM                   :        3  
 ILD         .OHMM                   :        4  
 CILD        .MMHO                   :        5  
 DT          .US/F                   :        6  
~PARAMETER INFORMATION       
#MNEM.UNIT                  VALUE             DESCRIPTION OF MNEMONIC
#---------             ---------------        ------------------------------
 EKB .F                       38.0000:        KELLY BUSHING
 TD  .F                     2349.0000:        TOTAL DEPTH
 BHT .F                       60.0000:        BOTTOM HOLE TEMPERATURE
 BS  .                         9.6250:        BIT SIZE
 FD  .                        10.6000:        FLUID DENSITY
 CSIZ.                        10.7500:        CASING SIZE
 CBD .F                     1240.0000:        CASING DRILLER 1
 CBL .F                     1244.0000:        CASING LOGGER 1
 DFT .                  Miscellaneous:        TYPE FLUID IN HOLE
 DFV .                        15.0000:        VISCOSITY
 DFPH.                        11.0000:        PH
 DFL .                         1.8000:        FLUID LOSS
 RMS .                         1.1900:        RM
 MST .F                       55.0000:        RM MEAS. TEMP.
 RMF .                         0.8500:        RMF
 MFST.F                       55.0000:        RMF MEAS. TEMP.
 RMC .                         1.2000:        RMC
 MCST.F                       55.0000:        RMC MEAS. TEMP.
~OTHER INFORMATION
~A    DEPTH          SP         LL8         ILD        CILD          DT  
# ...
  1571.0000    -25.5167     12.0499     11.2835     88.3142    108.3678  
  1571.5000    -25.3591     11.9175     11.1309     89.7527    109.7582  
  1572.0000    -24.9372     11.9153     10.9782     90.5918    110.0153  
  1572.5000    -24.6684     12.0231     10.9410     90.7437    110.3242  
  1573.0000    -24.8590     12.1309     11.0014     90.4272    111.9227  
  1573.5000    -25.3402     12.2387     11.0718     89.7767    112.3970  
  1574.0000    -25.4843     12.3441     11.1223     89.3110    112.5650  
  1574.5000    -25.3437     12.4463     11.2069     88.8026    112.6424  
  1575.0000    -25.3244     12.5289     11.2951     88.0311    112.4101  
  1575.5000    -25.2793     12.5742     11.3914     87.4196    111.4646  
  1576.0000    -25.1117     12.5649     11.4877     87.0720    109.6437  
  1576.5000    -24.9350     12.5557     11.5840     86.7244    108.1978  
  1577.0000    -25.3056     12.5464     11.6550     86.3768    108.3079  
  1577.5000    -25.8497     12.5371     11.6161     86.2659    108.9493  
  1578.0000    -25.9047     12.5279     11.5773     86.3349    109.4528  
  1578.5000    -25.9266     12.5186     11.5384     86.3009    109.8283  
  1579.0000    -25.9576     12.5170     11.4996     86.8864    109.9426  
  1579.5000    -25.9823     12.5711     11.4577     87.0243    109.8121  
  1580.0000    -25.8715     12.5270     11.4397     87.0063    110.2090  
  1580.5000    -25.6599     12.4757     11.4538     87.0250    111.0233  
  1581.0000    -25.5329     12.4244     11.3841     87.4132    111.1658  
  1581.5000    -25.5814     12.3731     11.2935     87.8421    110.9181  
  1582.0000    -25.6918     12.3226     11.2028     88.2390    110.6414  
  1582.5000    -25.7221     12.2952     11.1132     88.6360    110.6221  
  1583.0000    -25.6532     12.2678     11.0010     89.0329    111.0174  
  1583.5000    -25.5375     12.2404     11.0034     89.4298    111.5792  
  1584.0000    -25.5052     12.2585     11.0230     89.8268    112.4649  
  1584.5000    -25.4900     12.2827     11.0353     89.9848    113.2493  
  1585.0000    -25.5617     12.3084     11.0362     90.0244    113.5093  
  1585.5000    -25.6365     12.3684     11.0302     90.0656    113.5621  
  1586.0000    -25.6508     12.4431     11.0217     90.1258    113.1844  
  1586.5000    -25.5601     12.5292     11.0446     90.2763    112.0178  
  1587.0000    -25.3998     12.5714     11.0560     89.8334    111.8023  
  1587.5000    -25.0783     12.5994     11.1090     89.7782    112.0690  
  1588.0000    -24.8641     12.5884     11.0846     89.9713    113.6201  
  1588.5000    -24.9691     12.5729     11.0414     90.1645    113.3341  
  1589.0000    -24.9925     12.5562     10.9519     90.3577    111.8197  
  1589.5000    -24.5735     12.5523     10.9051     90.5509    110.9277  
  1590.0000    -24.1574     12.5017     10.8386     90.7440    111.9898  
  1590.5000    -23.9272     12.3961     10.7994     90.9372    114.0477  
  1591.0000    -23.8336     12.3109     10.7911     91.1304    112.6632  
  1591.5000    -23.9412     12.2421     10.7342     91.3235    112.3492  
  1592.0000    -23.9765     12.1664     10.7000     91.7515    112.2545  
  1592.5000    -24.1101     12.1389     10.6868     92.4687    112.6244  
  1593.0000    -24.3932     12.1115     10.5469     93.1860    112.9229  
  1593.5000    -24.4830     12.0905     10.5547     93.7178    112.8296  
  1594.0000    -24.4078     12.0684     10.5183     93.7178    111.9454  
  1594.5000    -24.2831     12.0730     10.4956     93.7178    110.6121  
  1595.0000    -24.3227     12.0993     10.4729     93.6460    110.2379  
  1595.5000    -24.4161     12.0247     10.4502     93.3278    110.1624  
  1596.0000    -24.5361     11.9261     10.4275     93.0095    110.8172  
  1596.5000    -24.7040     11.6812     10.1953     96.4671    112.5079  
  1597.0000    -24.7050     11.3244      9.8770     98.8273    114.0489  
  1597.5000    -24.5183     10.9523      9.5440    101.4725    112.8490  
  1598.0000    -24.2753     10.5802      9.3224    103.9887    111.5475  
  1598.5000    -24.0293     10.3593      9.1988    106.4614    111.0723  
  1599.0000    -23.9223     10.3245      9.0542    108.8297    111.4316  
  1599.5000    -23.6298     10.2578      8.9143    109.9977    113.5271  
  1600.0000    -23.3316     10.3307      8.7725    111.4902    115.9116  
  1600.5000    -23.0785     10.6336      8.6544    112.9255    118.5467  
  1601.0000    -22.9180     10.9592      8.5448    113.6445    119.5062  
  1601.5000    -22.8351     11.2029      8.5600    113.8508    119.6127  
  1602.0000    -23.0252     11.3739      8.5818    113.8293    118.8703  
  1602.5000    -23.7012     11.4018      8.6281    113.2191    116.8867  
  1603.0000    -24.0346     11.2925      8.6412    112.5836    115.1551  
  1603.5000    -24.1738     11.0964      8.6586    112.8939    114.7670  
  1604.0000    -24.3051     10.7550      8.5143    114.6074    115.5400  
  1604.5000    -24.3755     10.3596      8.2299    117.7707    115.7592  
  1605.0000    -24.2341     10.0682      7.8845    120.3732    115.7285  
  1605.5000    -24.0273     10.0305      7.7906    121.6142    115.9435  
  1606.0000    -23.7367     10.0226      7.7004    122.8553    117.4173  
  1606.5000    -23.5487     10.0017      7.6851    124.0963    117.2106  
  1607.0000    -23.6616      9.9356      7.7133    124.6104    117.4582  
  1607.5000    -23.9661      9.9607      7.7249    123.1248    117.6895  
  1608.0000    -24.1166     10.2015      7.7363    121.9530    117.6737  
  1608.5000    -24.1863     10.6128      7.8721    122.1886    117.7410  
  1609.0000    -24.1250     10.8841      8.1146    119.6157    117.8465  
  1609.5000    -23.9395     11.0898      8.3572    115.9330    117.6595  
  1610.0000    -23.9751     11.2799      8.6363    112.5879    117.2929  
  1610.5000    -24.1513     11.4605      8.9373    109.7085    116.6627  
  1611.0000    -24.2498     11.4748      9.2383    107.9842    116.0142  
  1611.5000    -24.3865     11.4891      9.3246    106.8754    114.3185  
  1612.0000    -24.5343     11.5034      9.3063    106.2421    113.0634  
  1612.5000    -24.5475     11.5091      9.2880    105.7945    112.3931  
  1613.0000    -24.4310     11.4313      9.2403    105.5488    112.3821  
  1613.5000    -24.2706     11.4044      9.2678    105.7570    112.3841  
  1614.0000    -24.1102     11.3590      9.2491    106.1083    112.0397  
  1614.5000    -24.2402     11.2677      9.2031    106.7510    112.8581  
  1615.0000    -24.3004     11.1806      9.1036    107.6886    114.5417  
  1615.5000    -24.0142     11.1118      9.0041    109.1548    114.8350  
  1616.0000    -23.8874     11.1175      8.9046    109.9955    114.2082  
  1616.5000    -24.0054     11.1228      8.8050    110.0877    113.4485  
  1617.0000    -24.0515     11.1911      8.8562    109.7907    113.5815  
  1617.5000    -23.9697     11.2200      8.9217    108.9912    114.3377  
  1618.0000    -23.9420     11.2467      8.9872    108.4727    115.0794  
  1618.5000    -23.8303     11.3176      9.0527    107.8249    115.7811  
  1619.0000    -23.8505     11.4441      9.1182    107.4060    115.1775  
  1619.5000    -24.0779     11.6274      9.1836    106.6033    114.3467  
  1620.0000    -24.2551     11.7951      9.2778    105.3428    113.3709  
  1620.5000    -24.3302     11.8604      9.3772    104.1195    112.5026  
  1621.0000    -24.1493     11.8146      9.4766    103.8006    112.3241  
  1621.5000    -23.9709     11.7219      9.5758    103.8795    112.0549  
  1622.0000    -23.8477     11.7431      9.5680    103.8317    111.1503  
  1622.5000    -23.7367     11.7377      9.5153    102.8553    111.4177  
  1623.0000    -23.9208     11.7659      9.5001    102.4064    111.8194  
  1623.5000    -24.4234     11.6798      9.4682    102.4539    111.8772  
  1624.0000    -24.9438     11.5224      9.4363    102.7331    111.7426  
  1624.5000    -25.5920     11.4267      9.3585    103.3264    111.3844  
  1625.0000    -25.3028     11.2672      9.2284    105.9090    111.1281  
