~VERSION INFORMATION
 VERS.                           2.00:        CWLS LOG ASCII STANDARD - VERSION 2.00
 WRAP.                             NO:        ONE LINE PER DEPTH STEP
~WELL INFORMATION
#MNEM.UNIT                   DATA             INFORMATION
#----------             --------------        ------------------------------
 STRT.F                      999.0000:        START DEPTH
 STOP.F                     2350.0000:        STOP DEPTH
 STEP.F                        0.5000:        STEP VALUE
 NULL.                      -999.2500:        NULL VALUE
 COMP.             UNITED STATES NAVY:        COMPANY  
 LOC .                   14  22N  18W:        LOCATION   
 DATE.                        3/19/68:        LOG DATE 
 WELL.                SOUTH BARROW #7:        WELL     
 UWI .                   500232000100:        UNIQUE WELL ID 
 API .                   500232000100:        UNIQUE WELL IDENTIFIER 
 FLD .                   SOUTH BARROW:        FIELD    
 CNTY.                         NPR #4:        COUNTY  
 STAT.                         ALASKA:        STATE   
 CTRY.                            USA:        COUNTRY 
 OPER.             UNITED STATES NAVY:        OPERATOR  
 SRVC.                   SCHLUMBERGER:        SERVICE COMPANY 
 LAT .                         0.0000:        LATITUDE
 LON .                         0.0000:        LONGITUDE
 DIGS.               CENTER LINE DATA:        DIGITIZING COMPANY 
~CURVE INFORMATION      
#MNEM        .UNIT         API CODE           CURVE DESCRIPTION
#-----------------      --------------        ------------------------------
 DEPT        .F                      :        1  DEPTH
 SP          .MV                     :        2  
 ILD         .OHMM                   :        3  
 ASN         .OHMM                   :        4  
 CILD        .OHMM                   :        5  
 CALI        .IN                     :        6  
 DT          .US/F                   :        7  
~PARAMETER INFORMATION       
#MNEM.UNIT                  VALUE             DESCRIPTION OF MNEMONIC
#---------             ---------------        ------------------------------
 EKB .F                       36.0000:        KELLY BUSHING
 TD  .F                     2351.0000:        TOTAL DEPTH
 BHT .F                        0.0000:        BOTTOM HOLE TEMPERATURE
 BS  .                         9.6250:        BIT SIZE
 FD  .                        76.5000:        FLUID DENSITY
 CSIZ.                        10.7500:        CASING SIZE
 CBD .F                      998.0000:        CASING DRILLER 1
 CBL .F                      999.0000:        CASING LOGGER 1
 DFT .                            Gel:        TYPE FLUID IN HOLE
 DFV .                        45.0000:        VISCOSITY
 DFPH.                         9.5000:        PH
 DFL .                         7.0000:        FLUID LOSS
 RMS .                         5.4300:        RM
 MST .F                       42.0000:        RM MEAS. TEMP.
 RMF .                         5.1700:        RMF
 MFST.F                       59.0000:        RMF MEAS. TEMP.
 RMC .                         5.0900:        RMC
 MCST.F                       56.0000:        RMC MEAS. TEMP.
~OTHER INFORMATION
~A    DEPTH          SP         ILD         ASN        CILD        CALI          DT  
# ...
  1187.0000    -21.5002      4.3752      4.8444    204.8064      9.9242    123.4816  
  1187.5000    -21.3692      4.3709      4.8382    204.8945      9.9377    123.7271  
  1188.0000    -21.2986      4.4226      4.9113    205.7678      9.9403    123.2278  
  1188.5000    -21.5536      4.4946      4.9870    203.3864      9.9428    123.2548  
  1189.0000    -22.1309      4.4912      4.9903    202.5777      9.9454    124.1400  
  1189.5000    -22.7951      4.4140      4.8983    202.8999      9.9480    124.8183  
  1190.0000    -23.1942      4.2426      4.8005    204.4041      9.9505    126.0190  
  1190.5000    -23.2825      4.3436      4.8200    205.1087      9.9531    126.3629  
  1191.0000    -23.2147      4.4119      4.8657    205.3059      9.9608    125.8300  
  1191.5000    -23.2939      4.4413      4.8659    205.8028      9.9802    125.2312  
  1192.0000    -23.1179      4.3256      4.8619    206.9599      9.9769    125.2972  
  1192.5000    -22.9155      4.3183      4.8232    207.9073      9.9713    125.8205  
  1193.0000    -22.4396      4.2959      4.7860    208.4997      9.9667    126.7421  
  1193.5000    -21.6697      4.2735      4.7663    208.8949      9.9428    127.7113  
  1194.0000    -22.0467      4.2468      4.7308    209.6981      9.9075    128.8281  
  1194.5000    -22.6182      4.2289      4.6986    210.6346      9.8722    129.7630  
  1195.0000    -23.1455      4.2313      4.6809    211.0410      9.8370    130.2255  
  1195.5000    -23.6078      4.2338      4.6951    210.9521      9.8120    129.6933  
  1196.0000    -23.7505      4.2710      4.7503    210.4396      9.8137    129.2650  
  1196.5000    -23.7434      4.3444      4.7960    209.9795      9.8216    129.1783  
  1197.0000    -23.6042      4.3820      4.8094    209.7542      9.8199    129.1296  
  1197.5000    -23.9116      4.4116      4.8437    208.9040      9.8014    129.8820  
  1198.0000    -24.0932      4.4153      4.8813    207.8089      9.7919    131.0358  
  1198.5000    -23.9526      4.4304      4.8853    207.9748      9.7902    130.9970  
  1199.0000    -23.6625      4.4617      4.8902    208.9908      9.7924    129.6528  
  1199.5000    -23.6152      4.5253      4.9692    208.6508      9.7967    127.8922  
  1200.0000    -24.1821      4.5561      5.0619    205.9450      9.7941    125.7172  
  1200.5000    -24.6808      4.5841      5.0127    203.9526      9.7969    125.2489  
  1201.0000    -24.6549      4.5071      4.9341    203.7608      9.8009    126.6291  
  1201.5000    -24.4709      4.4363      4.8551    204.5785      9.7989    128.2983  
  1202.0000    -24.1853      4.4195      4.8394    205.9216      9.8028    128.9235  
  1202.5000    -23.6740      4.4232      4.8467    205.9947      9.8066    129.2873  
  1203.0000    -23.6943      4.4409      4.8475    206.4193      9.8055    129.3824  
  1203.5000    -24.2632      4.4086      4.8431    206.8597      9.8092    129.4082  
  1204.0000    -24.6568      4.3430      4.8403    206.8038      9.8172    129.5175  
  1204.5000    -24.8252      4.3885      4.8345    207.0177      9.8265    129.7661  
  1205.0000    -24.8936      4.3996      4.8284    207.7336      9.8242    129.9947  
  1205.5000    -37.3773      4.3745      4.8184    207.7014      9.8188    130.8229  
  1206.0000    -67.8444      4.3583      4.8152    207.7536      9.8222    132.0516  
  1206.5000    -67.8430      4.3828      4.8152    208.2057      9.8258    133.2301  
  1207.0000    -67.9673      4.3959      4.8129    208.8262      9.8872    133.6968  
  1207.5000    -68.6131      4.3556      4.8108    208.8640      9.9485    133.7706  
  1208.0000    -68.7700      4.3364      4.8114    208.2556     10.0099    133.3542  
  1208.5000    -68.5411      4.4038      4.8310    207.7969     10.0101    132.4976  
  1209.0000    -68.1359      4.4519      4.8705    207.0411      9.9896    132.5274  
  1209.5000    -68.0416      4.4930      4.9086    206.6712      9.9691    132.6323  
  1210.0000    -68.4474      4.4669      4.9559    206.5541      9.9486    132.6374  
  1210.5000    -69.1829      4.5407      4.9859    206.5470      9.9474    132.6871  
  1211.0000    -69.5213      4.5517      4.9878    207.2311      9.9678    132.7369  
  1211.5000    -69.6406      4.5074      4.9651    207.8503      9.9882    132.7760  
  1212.0000    -69.4818      4.4581      4.9462    208.2979      9.9967    132.9075  
  1212.5000    -69.2866      4.4655      4.9357    209.0587      9.9938    133.3845  
  1213.0000    -68.8492      4.4695      4.9091    210.0274      9.9339    133.5250  
  1213.5000    -68.4067      4.4044      4.8658    211.2780      9.9187    133.5085  
  1214.0000    -67.7438      4.3139      4.8054    212.2986      9.9034    133.4439  
  1214.5000    -67.3750      4.3401      4.7832    212.2577      9.8881    133.5415  
  1215.0000    -67.2013      4.3714      4.8065    210.7966      9.8728    134.0246  
  1215.5000    -67.1450      4.3932      4.8302    208.8766      9.8594    134.7629  
  1216.0000    -67.1400      4.3412      4.8371    207.5415      9.8757    135.5141  
  1216.5000    -66.8664      4.3781      4.8323    206.7431      9.8920    135.5019  
  1217.0000    -66.4409      4.4388      4.8586    207.3966      9.9083    134.9721  
  1217.5000    -65.9876      4.4777      4.9260    208.3105      9.9246    133.2433  
  1218.0000    -65.0167      4.5183      5.0159    207.9057      9.9408    130.4936  
  1218.5000    -64.8290      4.6286      5.0893    203.2090      9.9571    126.8102  
  1219.0000    -65.5207      4.6240      5.1224    199.6636      9.9904    123.0736  
  1219.5000    -66.4718      4.6494      5.1504    199.1982     10.0384    120.5019  
  1220.0000    -66.6456      4.5922      5.1583    202.3512     10.0589    120.2923  
  1220.5000    -66.6677      4.6221      5.1098    203.2805     10.0212    122.0670  
  1221.0000    -66.3105      4.5615      5.0438    205.3489      9.9833    124.3998  
  1221.5000    -65.6946      4.5166      4.9903    206.6940      9.9457    125.8530  
  1222.0000    -64.9195      4.4797      4.9834    208.3203      9.9080    126.2012  
  1222.5000    -64.3103      4.4869      4.9960    210.0358      9.8704    126.5119  
  1223.0000    -64.4370      4.5577      5.0202    211.2338      9.8327    127.1671  
  1223.5000    -64.7178      4.4735      5.0198    213.5522      9.7951    127.9317  
  1224.0000    -65.4346      4.3532      4.8688    217.1651      9.7639    127.6213  
  1224.5000    -66.0924      4.2528      4.7180    220.2273      9.7475    126.7646  
  1225.0000    -65.7596      4.3268      4.8306    222.1974      9.7454    126.5514  
  1225.5000    -64.8557      4.3699      4.8319    222.5822      9.7422    127.7399  
  1226.0000    -64.5544      4.1610      4.6955    221.9685      9.7424    129.4441  
  1226.5000    -65.0429      4.1049      4.6050    221.8262      9.7429    131.7749  
  1227.0000    -66.2535      4.1672      4.6382    222.4357      9.7434    132.5918  
  1227.5000    -66.9810      4.2032      4.7052    222.3107      9.7466    132.8085  
  1228.0000    -66.7474      4.2211      4.7660    222.0947      9.7635    133.0530  
  1228.5000    -66.5317      4.3116      4.8073    221.9845      9.7709    133.2614  
  1229.0000    -65.9804      4.2973      4.8018    221.6255      9.7883    133.0147  
  1229.5000    -65.5544      4.2443      4.7438    219.0797      9.7977    132.9286  
  1230.0000    -65.2801      4.1535      4.6965    216.8852      9.8041    132.9965  
  1230.5000    -65.1984      4.2394      4.6918    216.1932      9.8070    133.0393  
  1231.0000    -65.2025      4.2637      4.7184    217.2502      9.8129    133.2239  
  1231.5000    -65.2200      4.3087      4.8029    220.0588      9.8692    133.0549  
  1232.0000    -65.0982      4.3777      4.9306    222.0704      9.9347    132.9723  
  1232.5000    -64.7008      4.5531      5.0742    217.9227      9.9423    132.6395  
  1233.0000    -64.6615      4.7086      5.2702    214.2371      9.9500    129.7327  
  1233.5000    -65.0945      4.7787      5.4146    211.6925      9.9672    125.5381  
