~VERSION INFORMATION
 VERS.                           2.00:        CWLS LOG ASCII STANDARD - VERSION 2.00
 WRAP.                             NO:        ONE LINE PER DEPTH STEP
~WELL INFORMATION
#MNEM.UNIT                   DATA             INFORMATION
#----------             --------------        ------------------------------
 STRT.F                      999.0000:        START DEPTH
 STOP.F                     2350.0000:        STOP DEPTH
 STEP.F                        0.5000:        STEP VALUE
 NULL.                      -999.2500:        NULL VALUE
 COMP.             UNITED STATES NAVY:        COMPANY  
 LOC .                   14  22N  18W:        LOCATION   
 DATE.                        3/19/68:        LOG DATE 
 WELL.                SOUTH BARROW #7:        WELL     
 UWI .                   500232000100:        UNIQUE WELL ID 
 API .                   500232000100:        UNIQUE WELL IDENTIFIER 
 FLD .                   SOUTH BARROW:        FIELD    
 CNTY.                         NPR #4:        COUNTY  
 STAT.                         ALASKA:        STATE   
 CTRY.                            USA:        COUNTRY 
 OPER.             UNITED STATES NAVY:        OPERATOR  
 SRVC.                   SCHLUMBERGER:        SERVICE COMPANY 
 LAT .                         0.0000:        LATITUDE
 LON .                         0.0000:        LONGITUDE
 DIGS.               CENTER LINE DATA:        DIGITIZING COMPANY 
~CURVE INFORMATION      
#MNEM        .UNIT         API CODE           CURVE DESCRIPTION
#-----------------      --------------        ------------------------------
 DEPT        .F                      :        1  DEPTH
 SP          .MV                     :        2  
 ILD         .OHMM                   :        3  
 ASN         .OHMM                   :        4  
 CILD        .OHMM                   :        5  
 CALI        .IN                     :        6  
 DT          .US/F                   :        7  
~PARAMETER INFORMATION       
#MNEM.UNIT                  VALUE             DESCRIPTION OF MNEMONIC
#---------             ---------------        ------------------------------
 EKB .F                       36.0000:        KELLY BUSHING
 TD  .F                     2351.0000:        TOTAL DEPTH
 BHT .F                        0.0000:        BOTTOM HOLE TEMPERATURE
 BS  .                         9.6250:        BIT SIZE
 FD  .                        76.5000:        FLUID DENSITY
 CSIZ.                        10.7500:        CASING SIZE
 CBD .F                      998.0000:        CASING DRILLER 1
 CBL .F                      999.0000:        CASING LOGGER 1
 DFT .                            Gel:        TYPE FLUID IN HOLE
 DFV .                        45.0000:        VISCOSITY
 DFPH.                         9.5000:        PH
 DFL .                         7.0000:        FLUID LOSS
 RMS .                         5.4300:        RM
 MST .F                       42.0000:        RM MEAS. TEMP.
 RMF .                         5.1700:        RMF
 MFST.F                       59.0000:        RMF MEAS. TEMP.
 RMC .                         5.0900:        RMC
 MCST.F                       56.0000:        RMC MEAS. TEMP.
~OTHER INFORMATION
~A    DEPTH          SP         ILD         ASN        CILD        CALI          DT  
   999.0000    -20.5084      0.5451      4.7990    196.2638   -999.2500   -999.2500  
   999.5000    -42.4613      0.5082      3.8993    410.3642   -999.2500   -999.2500  
  1000.0000    -49.6482     11.6652      5.4570    347.6305     10.1532    168.9915  
  1000.5000    -52.7239     15.8829      4.2178    213.8168     10.1434    155.2572  
  1001.0000    -53.1664      3.0522      4.5650    317.4550     10.1223    138.2027  
  1001.5000    -52.2379     11.1895      4.9122    166.1348     10.0758    143.4604  
  1002.0000    -50.3324     19.3872      5.0421      2.3254     10.0148    148.7180  
  1002.5000    -48.3204     28.8232      5.1277      1.8843     10.0602    166.4106  
  1003.0000    -46.1283     38.2591      5.1358      1.4432     10.1111    164.5236  
  1003.5000    -40.3168     45.1571      5.1542      1.0020     10.2184    158.5741  
  1004.0000    -39.2859      5.7880      5.2212     87.2958     10.4011    152.1927  
  1004.5000    -39.7205      4.5480      5.1663    202.0678     10.6145    147.3071  
  1005.0000    -40.0315      4.5430      5.1349    204.1382     10.8263    153.9208  
  1005.5000    -39.1132      4.5380      5.1201    195.9441     10.9753    155.5247  
  1006.0000    -37.8026      4.5330      5.1407    192.7398     11.1072    152.7748  
  1006.5000    -36.6702      4.5279      5.0863    209.4881     11.1870    146.8324  
  1007.0000    -36.1523      4.5229      5.0265    188.4787     11.1322    146.7423  
  1007.5000    -36.0882      4.5179      4.9495    177.8464     11.0132    146.5257  
  1008.0000    -36.1505      4.5129      4.8769    204.4719     10.8627    146.5414  
  1008.5000    -36.2951      4.5079      4.9300    232.0514     10.7106    146.7210  
  1009.0000    -36.5266      4.5128      4.9795    237.2668     10.6372    146.0907  
  1009.5000    -36.6183      4.5740      4.9818    228.4991     10.5432    143.4929  
  1010.0000    -36.5189      4.6351      4.8798    206.4899     10.4649    139.6647  
  1010.5000    -36.4593      4.6963      5.0041    199.3518     10.3559    135.9557  
  1011.0000    -36.4167      4.8159      5.1212    197.8180     10.2078    134.0862  
  1011.5000    -36.3742      4.8644      5.2564    196.5895     10.1596    131.7711  
  1012.0000    -36.4317      4.9279      5.3329    195.4780     10.1390    130.0917  
  1012.5000    -36.4189      4.9537      5.3887    195.1684     10.1316    128.9587  
  1013.0000    -36.4885      4.9724      5.4158    195.5991     10.1641    127.7877  
  1013.5000    -36.5773      4.9475      5.4266    196.2486     10.2415    126.2067  
  1014.0000    -36.7064      4.9587      5.4218    197.2979     10.3441    124.4824  
  1014.5000    -36.8769      4.9321      5.4132    198.9343     10.4132    123.3196  
  1015.0000    -36.9700      4.8915      5.3852    200.0250     10.4533    122.1038  
  1015.5000    -36.9443      4.8369      5.3378    200.9272     10.4714    120.1379  
  1016.0000    -36.8832      4.7797      5.3058    202.2473     10.4768    118.1634  
  1016.5000    -36.9749      4.8095      5.2857    203.5119     10.4815    117.1077  
  1017.0000    -37.4795      4.7570      5.2593    205.1603     10.4782    118.0764  
  1017.5000    -37.6407      4.7102      5.2267    206.7789     10.4594    121.0237  
  1018.0000    -37.6337      4.6753      5.2411    208.8642     10.4429    123.9483  
  1018.5000    -37.6703      4.6596      5.2697    211.0416     10.4468    125.7169  
  1019.0000    -37.7948      4.6392      5.2565    212.8119     10.4830    126.0202  
  1019.5000    -37.8529      4.6611      5.2374    214.3174     10.4970    126.2755  
  1020.0000    -37.8002      4.6494      5.1999    215.9797     10.5046    126.4900  
  1020.5000    -37.7442      4.6262      5.1478    217.5931     10.5091    126.7128  
  1021.0000    -37.6662      4.6030      5.1071    218.4789     10.5073    126.8152  
  1021.5000    -37.5667      4.5797      5.0664    220.0783     10.4886    125.1479  
  1022.0000    -37.4889      4.5565      5.0257    221.8933     10.4761    122.3990  
  1022.5000    -37.1606      4.5333      4.9850    223.4840     10.4971    118.8806  
  1023.0000    -36.9232      4.5101      4.9443    224.8484     10.5325    116.9771  
  1023.5000    -37.0826      4.4868      4.9005    226.5919     10.5635    116.6623  
  1024.0000    -38.4904      4.4636      4.8979    227.8510     10.6120    117.0419  
  1024.5000    -40.0163      4.4404      4.9604    228.6254     10.6533    117.8904  
  1025.0000    -41.5951      4.4172      5.0623    228.6275     10.6714    118.9649  
  1025.5000    -43.7565      4.3939      5.2412    228.3638     10.6894    120.0413  
  1026.0000    -46.0976      4.3707      5.5399    228.5560     10.6895    121.8756  
  1026.5000    -48.1460      4.3475      5.8209    229.8180     10.6774    122.9438  
  1027.0000    -51.2513      4.1946      6.1031    231.9211     10.6507    120.9557  
  1027.5000    -55.9607      4.1573      6.4867    234.9154     10.5928    119.1213  
  1028.0000    -57.8195      4.0983      6.9121    237.8716     10.5331    119.8139  
  1028.5000    -59.2009      4.0146      7.2765    240.4181     10.5066    120.5854  
  1029.0000    -60.0267      3.9770      7.4518    242.9154     10.4499    123.4184  
  1029.5000    -60.6262      3.9284      7.6206    244.8652     10.3764    125.9849  
  1030.0000    -61.0479      3.9088      7.8476    245.7821     10.3237    128.9057  
  1030.5000    -60.8795      3.8709      8.0226    250.0931     10.2926    132.2373  
  1031.0000    -60.6917      3.8433      8.1620    252.4999     10.2694    134.8529  
  1031.5000    -59.9495      3.8513      8.2296    254.2205     10.2427    136.9478  
  1032.0000    -58.8546      3.7658      8.1645    256.3815     10.1925    138.0484  
  1032.5000    -57.8912      3.7514      7.9709    256.8689     10.1173    139.4901  
  1033.0000    -55.8824      3.7610      7.6828    258.0538     10.0313    139.7549  
  1033.5000    -52.6905      3.7130      7.0872    259.5016      9.9735    136.5237  
  1034.0000    -50.7445      3.6811      6.4360    261.1457      9.9446    135.4480  
  1034.5000    -48.5853      3.7148      5.7219    262.6838      9.9298    134.6680  
  1035.0000    -46.7264      3.7099      5.2341    263.7696      9.9821    135.3733  
  1035.5000    -46.0548      3.7764      5.0400    264.4556     10.0592    137.0509  
  1036.0000    -46.0460      3.5229      5.0620    264.6543     10.1118    136.4296  
  1036.5000    -46.0888      3.6716      5.1844    264.7072     10.1107    135.3572  
  1037.0000    -46.7241      3.6619      5.3958    264.5677     10.0773    135.0022  
  1037.5000    -47.4119      3.6231      5.6605    264.2540     10.0343    134.3308  
  1038.0000    -48.4178      3.6277      5.9944    263.7632      9.9979    133.1715  
  1038.5000    -49.7175      3.6602      6.1537    263.4874      9.9870    131.7314  
  1039.0000    -50.9093      3.6698      6.1907    263.3372      9.9973    131.3969  
  1039.5000    -52.0924      3.6578      6.1412    263.4399     10.0123    131.2316  
  1040.0000    -53.3787      3.6611      6.1403    264.0304     10.0591    130.7566  
  1040.5000    -55.1043      3.6836      6.2011    265.0660     10.1030    129.7897  
  1041.0000    -55.9460      3.6044      6.3325    266.2904     10.1124    128.0779  
  1041.5000    -56.5949      3.5886      6.4943    267.3964     10.0879    126.5167  
  1042.0000    -57.1158      3.5667      6.6842    268.4843     10.0432    126.4325  
  1042.5000    -57.7771      3.5595      6.8736    268.9861     10.0082    127.1532  
  1043.0000    -58.2811      3.5834      7.0393    269.0488      9.9635    127.9689  
  1043.5000    -58.5501      3.5461      7.2295    268.9370      9.9452    128.2560  
  1044.0000    -58.5853      3.5631      7.4078    269.1509      9.9598    128.4635  
  1044.5000    -58.2199      3.5676      7.5981    269.9655     10.0004    128.5618  
  1045.0000    -56.7952      3.4963      7.6199    271.5078     10.0476    128.2642  
  1045.5000    -55.1400      3.5098      7.3616    272.1679     10.0490    127.6238  
