~VERSION INFORMATION
 VERS.                           2.00:        CWLS LOG ASCII STANDARD - VERSION 2.00
 WRAP.                             NO:        ONE LINE PER DEPTH STEP
~WELL INFORMATION
#MNEM.UNIT                   DATA             INFORMATION
#----------             --------------        ------------------------------
 STRT.F                       25.0000:        START DEPTH
 STOP.F                     4165.0000:        STOP DEPTH
 STEP.F                        0.5000:        STEP VALUE
 NULL.                      -999.2500:        NULL VALUE
 COMP.    USGS/NPR HUSKY OIL OPERATOR:        COMPANY
 LOC .                     21 21N 14W:        LOCATION
 DATE.                         3/3/80:        LOG DATE
 WELL.                 WEST  DEASE #1:        WELL
 UWI .                   500232001400:        UNIQUE WELL ID
 API .                   500232001400:        UNIQUE WELL IDENTIFIER
 FLD .                        WILDCAT:        FIELD
 CNTY.                    NORTH SLOPE:        COUNTY
 STAT.                         ALASKA:        STATE
 CTRY.                            USA:        COUNTRY
 OPER.    USGS/NPR HUSKY OIL OPERATOR:        OPERATOR
 SRVC.                   SCHLUMBERGER:        SERVICE COMPANY
 LAT .                         0.0000:        LATITUDE
 LON .                         0.0000:        LONGITUDE
 DIGS.               CENTER LINE DATA:        DIGITIZING COMPANY
~CURVE INFORMATION      
#MNEM        .UNIT         API CODE           CURVE DESCRIPTION
#-----------------      --------------        ------------------------------
 DEPT        .F                      :        1  DEPTH
 SP          .MV                     :        2  
 LLD         .OHMM                   :        3  
 LLS         .OHMM                   :        4  
 MSFL        .OHMM                   :        5  
 CALI        .IN                     :        6  
 RHOB        .G/C3                   :        7  
 DRHO        .G/C3                   :        8  
 NPHI        .%                      :        9  
 GR          .GAPI                   :        10 
 DT          .US/F                   :        11 
~PARAMETER INFORMATION
#MNEM.UNIT                  VALUE             DESCRIPTION OF MNEMONIC
#---------             ---------------        ------------------------------
 EKB .F                       24.0000:        KELLY BUSHING
 TD  .F                     4173.0000:        TOTAL DEPTH
 BHT .F                       85.0000:        BOTTOM HOLE TEMPERATURE
 BS  .                        12.2500:        BIT SIZE
 FD  .                        10.4000:        FLUID DENSITY
 CSIZ.                        13.3750:        CASING SIZE
 CBD .F                      288.0000:        CASING DRILLER 1
 CBL .F                      292.0000:        CASING LOGGER 1
 DFT .                             99:        TYPE FLUID IN HOLE
 DFV .                        52.0000:        VISCOSITY
 DFPH.                         8.0000:        PH
 DFL .                         7.5000:        FLUID LOSS
 RMS .                         0.1250:        RM
 MST .F                       35.0000:        RM MEAS. TEMP.
 RMF .                         0.1440:        RMF
 MFST.F                       44.0000:        RMF MEAS. TEMP.
 RMC .                         0.2360:        RMC
 MCST.F                       36.0000:        RMC MEAS. TEMP.
~OTHER INFORMATION
~A    DEPTH          SP         LLD         LLS        MSFL        CALI        RHOB        DRHO        NPHI          GR          DT 
# ...
   543.5000   -143.3764     19.3711      6.4463      1.4295     15.9339      2.2093      0.1519     52.9081     62.8756    139.3267 
   544.0000   -143.5590     19.0230      6.0668      1.2700     15.9340      2.2207      0.1823     50.2835     61.2723    147.1695 
   544.5000   -142.5451     18.9054      6.2902      1.1189     15.9341      2.2056      0.1719     50.0887     58.6809    145.5670 
   545.0000   -142.1547     22.0179      7.0496      1.1470     15.9343      2.1947      0.1808     51.8115     57.4187    140.3419 
   545.5000   -141.9701     24.7299      8.0895      1.3894     15.9344      2.1801      0.1606     53.4112     57.0047    132.8232 
   546.0000   -142.1150     22.8310      7.5700      1.9731     15.9345      2.1748      0.1498     54.9085     57.2063    125.6170 
   546.5000   -142.1135     19.7318      6.7025      1.8563     15.9347      2.1654      0.1452     56.5652     57.9866    124.8031 
   547.0000   -141.9907     17.3164      6.1057      1.5045     15.9348      2.1625      0.1479     56.5467     59.8091    128.8913 
   547.5000   -142.0642     15.3243      5.4704      1.2771     15.9349      2.1319      0.1360     56.1783     62.4393    130.4018 
   548.0000   -142.1376     14.2293      5.0295      1.6034     15.9350      2.1099      0.1209     55.3239     65.7948    137.3917 
   548.5000   -142.2111     13.6290      5.0704      1.2182     15.9352      2.1305      0.1370     54.9954     68.1614    147.1965 
   549.0000   -142.3063     13.6432      5.0990      1.0776     15.9353      2.1313      0.1687     55.1962     69.6764    148.5997 
   549.5000   -142.6379     14.2576      5.2507      1.2819     15.9354      2.1219      0.1867     55.1971     70.5287    150.6301 
   550.0000   -142.8510     16.0400      5.9582      1.6331     15.9356      2.1269      0.1875     55.6664     69.1911    145.3254 
   550.5000   -142.8003     17.5169      6.2789      1.5326     15.9357      2.1337      0.1562     56.3004     68.4109    138.3747 
   551.0000   -142.9215     18.0254      6.2650      1.5497     15.9358      2.1766      0.1686     57.6531     68.1557    131.1415 
   551.5000   -143.2496     17.7771      6.1358      1.6334     15.9359      2.1964      0.1819     57.9287     67.7405    128.9939 
   552.0000   -143.2719     16.9397      5.9445      1.4676     15.9361      2.2019      0.1956     55.9128     67.2975    131.6897 
   552.5000   -143.2943     16.0088      5.6678      1.3237     15.9362      2.2029      0.1998     54.1955     66.5299    135.4690 
   553.0000   -143.3166     15.3815      5.4183      1.2418     15.9363      2.2038      0.1980     53.3084     65.8689    144.3753 
   553.5000   -143.2998     15.2405      5.4021      1.0887     15.9365      2.2104      0.1931     54.4135     65.6386    150.1017 
   554.0000   -143.7403     15.4336      5.4538      1.2638     15.9366      2.2303      0.1911     54.9922     66.2593    148.4462 
   554.5000   -143.8143     15.7031      5.5100      1.4761     15.9367      2.2509      0.1833     54.2160     67.7113    145.2555 
   555.0000   -143.6086     15.9736      5.5271      1.9193     15.9368      2.2505      0.1872     53.2863     69.4461    143.1646 
   555.5000   -143.7623     16.1274      5.5116      1.6249     15.9370      2.2415      0.1929     53.1307     70.7521    143.7041 
   556.0000   -144.1194     16.2828      5.5858      1.5022     15.9371      2.2227      0.1870     54.6756     71.9219    144.2742 
   556.5000   -143.2203     17.1303      5.7651      1.3767     15.9372      2.1815      0.1759     56.0846     69.6335    144.7925 
   557.0000   -142.9247     17.8002      5.9422      1.5383     15.9374      2.1614      0.1738     56.1836     68.8707    142.8537 
   557.5000   -142.6884     18.2011      6.0746      2.0799     15.9375      2.1554      0.1828     55.7511     67.6996    140.3394 
   558.0000   -142.7534     18.0459      6.0020      1.6505     15.9376      2.1483      0.1964     55.9437     65.9900    138.1465 
   558.5000   -142.2077     17.5252      5.9498      2.0749     15.9377      2.1374      0.1973     56.1702     65.0319    138.8781 
   559.0000   -141.8897     17.0663      5.8376      1.8890     15.9379      2.1361      0.1970     55.1596     65.3205    140.1294 
   559.5000   -142.0246     16.7271      5.7210      1.7872     15.9380      2.1428      0.2145     53.4775     66.0627    140.8000 
   560.0000   -142.0658     16.8689      5.6945      1.5374     15.9381      2.1391      0.2299     52.8532     66.3355    143.1761 
   560.5000   -142.0868     17.0675      5.9215      1.3545     15.9383      2.1669      0.2281     54.1243     66.5603    144.1123 
   561.0000   -141.8569     17.2375      5.9683      2.0716     15.9384      2.1701      0.2256     54.3983     66.7281    140.4278 
   561.5000   -141.5955     17.2926      5.9795      1.6057     15.9385      2.1567      0.2331     54.5387     66.2745    142.3603 
   562.0000   -141.8038     17.5694      6.0346      1.3023     15.9386      2.1330      0.2181     53.5118     65.3838    143.5295 
   562.5000   -141.7021     17.9775      6.0954      1.3704     15.9388      2.1142      0.2162     53.0277     64.4692    143.7592 
   563.0000   -141.4502     18.0865      6.1949      1.8938     15.9389      2.0987      0.1997     54.1720     64.2474    142.2079 
   563.5000   -141.4690     17.9987      6.3174      2.1164     15.9390      2.1061      0.1934     55.6943     64.6659    142.2777 
   564.0000   -141.3047     17.2051      6.2955      1.4865     15.9391      2.1206      0.1884     55.9066     65.6042    138.8964 
   564.5000   -141.1071     16.1535      5.9237      1.8928     15.9393      2.1247      0.1974     54.8339     67.2301    139.2712 
   565.0000   -141.0576     15.9857      5.8618      1.4986     15.9394      2.1401      0.2129     53.5157     68.2529    144.1207 
   565.5000   -140.9748     16.0172      5.8127      1.6034     15.9395      2.1464      0.2288     52.1657     68.1100    146.3631 
   566.0000   -140.6301     15.8840      5.8478      1.9394     15.9397      2.1515      0.2304     51.7950     67.9671    146.0940 
   566.5000   -140.4263     15.9412      5.9347      2.5813     15.9398      2.1560      0.2274     51.8356     68.8251    145.1459 
   567.0000   -140.2267     16.2271      6.0987      2.2324     15.9399      2.1637      0.2218     52.9662     69.2232    144.0512 
   567.5000   -139.9522     16.1408      6.2284      1.6293     15.9400      2.1792      0.2290     53.4913     69.2903    142.9565 
   568.0000   -139.7991     16.0498      6.1692      1.7594     15.9402      2.1815      0.2341     52.7873     67.8729    146.2643 
   568.5000   -139.7950     16.0872      6.1105      1.5835     15.9403      2.1642      0.2297     52.0832     65.3052    149.5413 
   569.0000   -139.7794     16.0178      6.0478      1.6522     15.9404      2.1239      0.2226     52.5055     63.4409    148.2619 
   569.5000   -139.7638     16.3782      6.1903      1.6522     15.9406      2.0805      0.2111     53.2440     62.7138    147.5565 
   570.0000   -139.3232     17.0404      6.4710      1.9451     15.9407      2.0593      0.2018     53.1407     61.9866    145.0475 
   570.5000   -139.3086     17.6624      6.6216      2.4445     15.9408      2.0409      0.2009     53.0645     61.7127    141.5812 
   571.0000   -139.4850     18.6119      6.7313      2.3078     15.9409      2.0431      0.2037     53.7708     61.6882    138.4865 
   571.5000   -139.5852     18.1634      6.6603      2.1657     15.9411      2.0558      0.2073     54.4554     62.1343    135.9926 
   572.0000   -139.6574     17.2247      6.4691      2.0270     15.9412      2.0635      0.2123     54.1940     62.9293    140.5651 
   572.5000   -139.9343     16.7728      6.4126      1.5998     15.9413      2.0671      0.2139     53.4744     63.7806    143.6341 
   573.0000   -140.4918     16.3560      6.3957      1.7446     15.9415      2.0401      0.2099     52.5441     65.5312    141.7654 
   573.5000   -140.6765     15.9002      6.4229      1.8731     15.9416      2.0144      0.1970     53.9665     66.5440    142.0684 
