~VERSION INFORMATION
 VERS.                           2.00:        CWLS LOG ASCII STANDARD - VERSION 2.00
 WRAP.                             NO:        ONE LINE PER DEPTH STEP
~WELL INFORMATION
#MNEM.UNIT                   DATA             INFORMATION
#----------             --------------        ------------------------------
 STRT.F                       98.0000:        START DEPTH
 STOP.F                     2124.0000:        STOP DEPTH
 STEP.F                        0.5000:        STEP VALUE
 NULL.                      -999.2500:        NULL VALUE
 COMP.          USGS/NPR-A OPERATIONS:        COMPANY  
 LOC .                   24  22N  17W:        LOCATION   
 DATE.                        10/5/80:        LOG DATE 
 WELL.               SOUTH BARROW #18:        WELL     
 UWI .                   500232001700:        UNIQUE WELL ID 
 API .                   500232001700:        UNIQUE WELL IDENTIFIER 
 FLD .                   SOUTH BARROW:        FIELD    
 CNTY.                    NORTH SLOPE:        COUNTY  
 STAT.                         ALASKA:        STATE   
 CTRY.                            USA:        COUNTRY 
 OPER.          USGS/NPR-A OPERATIONS:        OPERATOR  
 SRVC.                   SCHLUMBERGER:        SERVICE COMPANY 
 LAT .                         0.0000:        LATITUDE
 LON .                         0.0000:        LONGITUDE
 DIGS.               CENTER LINE DATA:        DIGITIZING COMPANY 
~CURVE INFORMATION      
#MNEM        .UNIT         API CODE           CURVE DESCRIPTION
#-----------------      --------------        ------------------------------
 DEPT        .F                      :        1  DEPTH
 CALI        .IN                     :        2  
 GR          .GAPI                   :        3  
 NPHI        .%                      :        4  
 RHOB        .G/C3                   :        5  
 DRHO        .G/C3                   :        6  
 DT          .US/F                   :        7  
 SP          .MV                     :        8  
 ILD         .OHMM                   :        9  
 ILM         .OHMM                   :        10 
 SFL         .OHMM                   :        11 
 LLD         .OHMM                   :        12 
 LLS         .OHMM                   :        13 
 MSFL        .OHMM                   :        14 
~PARAMETER INFORMATION       
#MNEM.UNIT                  VALUE             DESCRIPTION OF MNEMONIC
#---------             ---------------        ------------------------------
 EKB .F                       30.0000:        KELLY BUSHING
 TD  .F                     2125.0000:        TOTAL DEPTH
 BHT .F                        0.0000:        BOTTOM HOLE TEMPERATURE
 BS  .                         8.5000:        BIT SIZE
 FD  .                        10.3000:        FLUID DENSITY
 CSIZ.                         9.6250:        CASING SIZE
 CBD .F                     1519.0000:        CASING DRILLER 1
 CBL .F                     1520.0000:        CASING LOGGER 1
 DFT .                  Miscellaneous:        TYPE FLUID IN HOLE
 DFV .                        47.0000:        VISCOSITY
 DFPH.                         8.5000:        PH
 DFL .                        14.0000:        FLUID LOSS
 RMS .                         0.1600:        RM
 MST .F                       43.0000:        RM MEAS. TEMP.
 RMF .                         0.1100:        RMF
 MFST.F                       43.0000:        RMF MEAS. TEMP.
 RMC .                         0.1200:        RMC
 MCST.F                       43.0000:        RMC MEAS. TEMP.
~OTHER INFORMATION
~A    DEPTH        CALI          GR        NPHI        RHOB        DRHO          DT          SP         ILD         ILM         SFL         LLD         LLS        MSFL  
# ...
  2018.0000      9.2581     53.9863     26.7841      2.3547      0.0134     97.1005   -999.2500   -999.2500   -999.2500   -999.2500     16.0369     14.1294     13.3304  
  2018.5000      9.2620     52.8846     26.2230      2.3486      0.0134     95.7445   -999.2500   -999.2500   -999.2500   -999.2500     16.1564     14.1625     12.2051  
  2019.0000      9.2686     51.4422     25.0164      2.3478      0.0100     94.7153   -999.2500   -999.2500   -999.2500   -999.2500     16.0212     14.1592     11.3412  
  2019.5000      9.2767     50.2207     24.1977      2.3507      0.0120     93.5712   -999.2500   -999.2500   -999.2500   -999.2500     15.8872     14.3412     12.4583  
  2020.0000      9.2837     49.8346     23.6533      2.3540      0.0167     88.3278   -999.2500   -999.2500   -999.2500   -999.2500     16.0646     14.7460     14.2812  
  2020.5000      9.2933     50.2541     23.7051      2.3572      0.0119     93.4406   -999.2500   -999.2500   -999.2500   -999.2500     16.6300     15.3820     15.3944  
  2021.0000      9.2921     51.9397     23.8369      2.3674      0.0067     93.3907   -999.2500   -999.2500   -999.2500   -999.2500     17.2153     15.9930     15.5617  
  2021.5000      9.2864     53.0306     23.1438      2.3814      0.0180     92.5458   -999.2500   -999.2500   -999.2500   -999.2500     17.8211     16.0160     15.7308  
  2022.0000      9.2880     53.6502     22.6964      2.3851      0.0244     91.2551   -999.2500   -999.2500   -999.2500   -999.2500     18.3277     16.0391     15.9017  
  2022.5000      9.3087     54.2639     22.9886      2.3872      0.0227     86.6792   -999.2500   -999.2500   -999.2500   -999.2500     18.6432     16.4427     15.4933  
  2023.0000      9.3184     55.2880     23.1684      2.3903      0.0202     89.9504   -999.2500   -999.2500   -999.2500   -999.2500     18.9642     16.7478     14.7787  
  2023.5000      9.3308     57.4768     23.2629      2.4050      0.0264     89.9122   -999.2500   -999.2500   -999.2500   -999.2500     19.0036     16.8565     14.2337  
  2024.0000      9.3050     59.7245     23.6218      2.4254      0.0257     94.0432   -999.2500   -999.2500   -999.2500   -999.2500     19.0316     16.9296     15.0922  
  2024.5000      9.2430     61.6587     23.9439      2.4690      0.0141     95.8006   -999.2500   -999.2500   -999.2500   -999.2500     19.0597     17.0030     16.1591  
  2025.0000      9.1727     58.4145     24.1864      2.4804      0.0025     96.8273   -999.2500   -999.2500   -999.2500   -999.2500     18.8882     16.9423     16.2558  
  2025.5000      9.1299     54.0575     24.4311      2.4502      0.0276     96.8969   -999.2500   -999.2500   -999.2500   -999.2500     18.8905     16.8445     16.3338  
  2026.0000      9.1032     51.5711     24.4699      2.3838      0.0295     74.9863   -999.2500   -999.2500   -999.2500   -999.2500     18.9464     16.7473     16.3451  
  2026.5000      9.0668     50.1151     24.2308      2.3534      0.0296     96.8211   -999.2500   -999.2500   -999.2500   -999.2500     18.8615     16.6506     16.3473  
  2027.0000      9.0280     49.5065     23.9580      2.3532      0.0353     95.2710   -999.2500   -999.2500   -999.2500   -999.2500     18.3966     16.3962     16.1787  
  2027.5000      8.9810     49.6932     23.8209      2.3463      0.0360     94.0390   -999.2500   -999.2500   -999.2500   -999.2500     17.9432     15.8929     15.6170  
  2028.0000      8.9554     51.2580     23.7320      2.3347      0.0256     92.9499   -999.2500   -999.2500   -999.2500   -999.2500     17.5009     15.4049     15.0265  
  2028.5000      8.9244     54.0179     23.7588      2.3480      0.0148     91.9904   -999.2500   -999.2500   -999.2500   -999.2500     17.0695     14.9320     14.5854  
  2029.0000      8.8993     57.5156     23.9387      2.3530      0.0040     91.8487   -999.2500   -999.2500   -999.2500   -999.2500     16.7997     14.7097     14.5468  
  2029.5000      8.8730     60.9497     24.2763      2.3805      0.0181     92.1405   -999.2500   -999.2500   -999.2500   -999.2500     16.6144     14.7548     14.5084  
  2030.0000      8.8493     63.4580     25.1777      2.4191      0.0323     93.4457   -999.2500   -999.2500   -999.2500   -999.2500     16.5660     14.8001     14.4440  
  2030.5000      8.8667     63.1144     25.5485      2.4327      0.0292     95.3576   -999.2500   -999.2500   -999.2500   -999.2500     16.3109     14.8454     14.3497  
  2031.0000      8.8788     61.8092     25.5000      2.4295      0.0319     96.0016   -999.2500   -999.2500   -999.2500   -999.2500     16.0245     14.8909     14.2560  
  2031.5000      8.8781     59.3835     25.4767      2.4197      0.0340     96.0625   -999.2500   -999.2500   -999.2500   -999.2500     15.7431     14.9365     14.1712  
  2032.0000      8.8774     56.8341     25.5043      2.3857      0.0265     95.5623   -999.2500   -999.2500   -999.2500   -999.2500     15.4667     14.9823     14.1712  
  2032.5000      8.8777     55.5358     25.5869      2.3571      0.0175     94.4334   -999.2500   -999.2500   -999.2500   -999.2500     15.7372     15.0095     14.1700  
  2033.0000      8.9011     54.8905     25.8056      2.3439      0.0184     93.5742   -999.2500   -999.2500   -999.2500   -999.2500     16.0259     14.7305     14.0203  
  2033.5000      8.9066     54.1348     25.9555      2.3371      0.0184     93.3741   -999.2500   -999.2500   -999.2500   -999.2500     15.9885     14.4293     13.8722  
  2034.0000      8.9158     54.9986     25.4868      2.3411      0.0067     92.5184   -999.2500   -999.2500   -999.2500   -999.2500     15.6055     14.1917     13.8053  
  2034.5000      8.9460     57.9580     25.3969      2.3668      0.0115     91.5518   -999.2500   -999.2500   -999.2500   -999.2500     15.2317     14.3557     13.7450  
  2035.0000      8.9087     59.5576     25.4912      2.4090      0.0172     91.0475   -999.2500   -999.2500   -999.2500   -999.2500     15.3488     15.2076     13.6849  
  2035.5000      8.9243     60.4122     25.7192      2.4203      0.0166     90.3608   -999.2500   -999.2500   -999.2500   -999.2500     16.5050     15.8907     13.8235  
  2036.0000      8.9432     61.5649     26.1070      2.4183      0.0109     91.3408   -999.2500   -999.2500   -999.2500   -999.2500     17.7483     16.0541     14.3157  
  2036.5000      8.9407     63.9982     26.1350      2.4525      0.0049     92.6040   -999.2500   -999.2500   -999.2500   -999.2500     16.7641     15.9628     14.7685  
  2037.0000      8.9440     64.7330     26.4162      2.4742     -0.0005     93.4188   -999.2500   -999.2500   -999.2500   -999.2500     16.5613     15.6150     14.8872  
  2037.5000      8.9450     64.3492     26.8175      2.4905      0.0081     94.0784   -999.2500   -999.2500   -999.2500   -999.2500     16.8897     15.4236     14.7573  
  2038.0000      8.9304     62.4731     27.1255      2.4555      0.0206     93.1656   -999.2500   -999.2500   -999.2500   -999.2500     16.8576     15.2345     14.5326  
  2038.5000      8.9243     58.7541     26.7483      2.4149      0.0303     91.9583   -999.2500   -999.2500   -999.2500   -999.2500     16.6811     15.0478     14.3787  
  2039.0000      8.9353     54.3296     25.8184      2.4014      0.0361     91.3377   -999.2500   -999.2500   -999.2500   -999.2500     16.5127     14.8634     14.2411  
  2039.5000      8.9315     51.5576     25.9737      2.3985      0.0373     91.6362   -999.2500   -999.2500   -999.2500   -999.2500     16.3432     14.7421     14.0521  
  2040.0000      8.9288     50.3952     26.3729      2.3869      0.0288     92.1570   -999.2500   -999.2500   -999.2500   -999.2500     16.1427     14.6459     14.0521  
  2040.5000      8.9381     53.4320     25.8998      2.3740      0.0177     92.9474   -999.2500   -999.2500   -999.2500   -999.2500     15.9622     14.8005     14.2899  
  2041.0000      8.9460     55.3017     25.5818      2.3756      0.0128     93.3044   -999.2500   -999.2500   -999.2500   -999.2500     16.0430     15.2522     14.4435  
  2041.5000      8.9387     56.2509     24.7245      2.3853      0.0135     93.1734   -999.2500   -999.2500   -999.2500   -999.2500     16.1242     15.0168     14.5989  
