~VERSION INFORMATION
 VERS.                           2.00:        CWLS LOG ASCII STANDARD - VERSION 2.00
 WRAP.                             NO:        ONE LINE PER DEPTH STEP
~WELL INFORMATION
#MNEM.UNIT                   DATA             INFORMATION
#----------             --------------        ------------------------------
 STRT.F                       98.0000:        START DEPTH
 STOP.F                     2124.0000:        STOP DEPTH
 STEP.F                        0.5000:        STEP VALUE
 NULL.                      -999.2500:        NULL VALUE
 COMP.          USGS/NPR-A OPERATIONS:        COMPANY  
 LOC .                   24  22N  17W:        LOCATION   
 DATE.                        10/5/80:        LOG DATE 
 WELL.               SOUTH BARROW #18:        WELL     
 UWI .                   500232001700:        UNIQUE WELL ID 
 API .                   500232001700:        UNIQUE WELL IDENTIFIER 
 FLD .                   SOUTH BARROW:        FIELD    
 CNTY.                    NORTH SLOPE:        COUNTY  
 STAT.                         ALASKA:        STATE   
 CTRY.                            USA:        COUNTRY 
 OPER.          USGS/NPR-A OPERATIONS:        OPERATOR  
 SRVC.                   SCHLUMBERGER:        SERVICE COMPANY 
 LAT .                         0.0000:        LATITUDE
 LON .                         0.0000:        LONGITUDE
 DIGS.               CENTER LINE DATA:        DIGITIZING COMPANY 
~CURVE INFORMATION      
#MNEM        .UNIT         API CODE           CURVE DESCRIPTION
#-----------------      --------------        ------------------------------
 DEPT        .F                      :        1  DEPTH
 CALI        .IN                     :        2  
 GR          .GAPI                   :        3  
 NPHI        .%                      :        4  
 RHOB        .G/C3                   :        5  
 DRHO        .G/C3                   :        6  
 DT          .US/F                   :        7  
 SP          .MV                     :        8  
 ILD         .OHMM                   :        9  
 ILM         .OHMM                   :        10 
 SFL         .OHMM                   :        11 
 LLD         .OHMM                   :        12 
 LLS         .OHMM                   :        13 
 MSFL        .OHMM                   :        14 
~PARAMETER INFORMATION       
#MNEM.UNIT                  VALUE             DESCRIPTION OF MNEMONIC
#---------             ---------------        ------------------------------
 EKB .F                       30.0000:        KELLY BUSHING
 TD  .F                     2125.0000:        TOTAL DEPTH
 BHT .F                        0.0000:        BOTTOM HOLE TEMPERATURE
 BS  .                         8.5000:        BIT SIZE
 FD  .                        10.3000:        FLUID DENSITY
 CSIZ.                         9.6250:        CASING SIZE
 CBD .F                     1519.0000:        CASING DRILLER 1
 CBL .F                     1520.0000:        CASING LOGGER 1
 DFT .                  Miscellaneous:        TYPE FLUID IN HOLE
 DFV .                        47.0000:        VISCOSITY
 DFPH.                         8.5000:        PH
 DFL .                        14.0000:        FLUID LOSS
 RMS .                         0.1600:        RM
 MST .F                       43.0000:        RM MEAS. TEMP.
 RMF .                         0.1100:        RMF
 MFST.F                       43.0000:        RMF MEAS. TEMP.
 RMC .                         0.1200:        RMC
 MCST.F                       43.0000:        RMC MEAS. TEMP.
~OTHER INFORMATION
~A    DEPTH        CALI          GR        NPHI        RHOB        DRHO          DT          SP         ILD         ILM         SFL         LLD         LLS        MSFL  
# ...
  1898.0000     10.3354     87.9918     35.3950      2.5259      0.0480    102.2796   -999.2500   -999.2500   -999.2500   -999.2500     10.6094      9.3286      2.0079  
  1898.5000     10.2404     89.6559     35.1433      2.5238      0.0387    102.3572   -999.2500   -999.2500   -999.2500   -999.2500     10.6217      9.2320      1.8416  
  1899.0000     10.3395     90.8821     35.4867      2.5231      0.0294    103.3453   -999.2500   -999.2500   -999.2500   -999.2500     10.6235      9.0367      2.1829  
  1899.5000     10.3045     92.3763     35.7225      2.5248      0.0304    103.6854   -999.2500   -999.2500   -999.2500   -999.2500     10.3574      8.9210      2.7336  
  1900.0000     10.3845     93.8704     35.3961      2.5035      0.0200    102.8310   -999.2500   -999.2500   -999.2500   -999.2500     10.0753      8.6956      2.9828  
  1900.5000     10.4681     93.2408     35.2805      2.4929      0.0163    103.3106   -999.2500   -999.2500   -999.2500   -999.2500      9.9840      8.7511      2.7742  
  1901.0000     10.3056     92.7484     35.3304      2.4943      0.0232    102.8655   -999.2500   -999.2500   -999.2500   -999.2500     10.2654      8.8934      2.6809  
  1901.5000     10.3058     92.9321     35.2236      2.5007      0.0333    102.4303   -999.2500   -999.2500   -999.2500   -999.2500     10.3624      8.9409      2.6370  
  1902.0000     10.2809     94.0250     35.6060      2.4947      0.0285    101.5394   -999.2500   -999.2500   -999.2500   -999.2500     10.4099      9.0424      2.5157  
  1902.5000     10.2888     94.4560     36.3820      2.4836      0.0168    100.6485   -999.2500   -999.2500   -999.2500   -999.2500     10.4992      9.1381      2.3533  
  1903.0000     10.2609     93.8902     37.1002      2.4926      0.0263    100.9396   -999.2500   -999.2500   -999.2500   -999.2500     10.5896      9.1696      2.6516  
  1903.5000     10.2679     92.0566     37.2356      2.4945      0.0174    101.7468   -999.2500   -999.2500   -999.2500   -999.2500     10.4874      9.1632      2.9832  
  1904.0000     10.2591     90.2405     37.0594      2.4876      0.0034    102.1137   -999.2500   -999.2500   -999.2500   -999.2500     10.3136      9.0810      2.8338  
  1904.5000     10.2388     88.4520     36.7168      2.4827      0.0043    100.4514   -999.2500   -999.2500   -999.2500   -999.2500     10.1991      8.9752      2.7032  
  1905.0000     10.2288     88.0997     34.7545      2.4824      0.0126    101.3503   -999.2500   -999.2500   -999.2500   -999.2500     10.1841      8.9415      2.6707  
  1905.5000     10.2377     89.1954     33.8642      2.4811      0.0121    102.2492   -999.2500   -999.2500   -999.2500   -999.2500     10.2093      9.0462      2.7472  
  1906.0000     10.2979     90.6296     34.0170      2.4895      0.0154    101.5106   -999.2500   -999.2500   -999.2500   -999.2500     10.4745      9.1387      2.7433  
  1906.5000     10.3287     91.1516     34.1599      2.4976      0.0175    100.4740   -999.2500   -999.2500   -999.2500   -999.2500     10.5094      9.2059      2.6516  
  1907.0000     10.3116     90.7598     33.9072      2.5028      0.0139     98.6157   -999.2500   -999.2500   -999.2500   -999.2500     10.5109      9.2512      2.5222  
  1907.5000     10.3083     90.1076     33.9476      2.5063      0.0198     94.2008   -999.2500   -999.2500   -999.2500   -999.2500     10.6026      9.2797      2.0578  
  1908.0000     10.2781     89.0222     34.0803      2.5103      0.0324     97.3968   -999.2500   -999.2500   -999.2500   -999.2500     10.7242      9.2687      1.8766  
  1908.5000     10.2692     87.4307     33.9464      2.5129      0.0355     97.4016   -999.2500   -999.2500   -999.2500   -999.2500     10.8471      9.7010      1.8782  
  1909.0000     10.2934     86.4854     33.7652      2.5099      0.0341     96.8933   -999.2500   -999.2500   -999.2500   -999.2500     10.9715      9.7633      1.9005  
  1909.5000     10.3198     86.2715     33.1832      2.5071      0.0382     97.2194   -999.2500   -999.2500   -999.2500   -999.2500     11.0973      9.8188      1.8276  
  1910.0000     10.2932     86.2600     32.5637      2.5254      0.0433     96.1985   -999.2500   -999.2500   -999.2500   -999.2500     11.2385      9.8565      1.9260  
  1910.5000     10.2598     85.4293     32.4176      2.5316      0.0444     95.2753   -999.2500   -999.2500   -999.2500   -999.2500     11.5371      9.8581      2.1155  
  1911.0000     10.1729     84.3353     32.2629      2.5256      0.0333     69.4396   -999.2500   -999.2500   -999.2500   -999.2500     11.8797     10.0120      2.3428  
  1911.5000     10.2219     84.0284     32.1366      2.5185      0.0283     95.9678   -999.2500   -999.2500   -999.2500   -999.2500     11.7544      9.9798      2.3996  
  1912.0000     10.2795     83.9321     32.7586      2.5023      0.0257     66.2550   -999.2500   -999.2500   -999.2500   -999.2500     11.5681      9.8984      2.1133  
  1912.5000     10.2646     83.7769     33.3344      2.4989      0.0235     98.4684   -999.2500   -999.2500   -999.2500   -999.2500     11.3486      9.8279      1.9621  
  1913.0000     10.2416     83.6015     32.8577      2.5002      0.0233     97.7244   -999.2500   -999.2500   -999.2500   -999.2500     11.2380      9.7455      1.9985  
  1913.5000     10.1993     83.5562     31.9030      2.4974      0.0236     95.5482   -999.2500   -999.2500   -999.2500   -999.2500     11.4175      9.8281      2.1188  
  1914.0000     10.2138     83.2187     31.3621      2.4798      0.0243     94.1008   -999.2500   -999.2500   -999.2500   -999.2500     11.7934     10.0098      2.3536  
  1914.5000     10.2432     80.6238     32.7750      2.4812      0.0228     93.7271   -999.2500   -999.2500   -999.2500   -999.2500     12.3316     10.2235      2.5712  
  1915.0000     10.3160     78.9254     32.8854      2.4860      0.0244     91.7283   -999.2500   -999.2500   -999.2500   -999.2500     12.5285     10.5405      2.7592  
  1915.5000     10.5507     77.6531     31.0225      2.4987      0.0306     50.9456   -999.2500   -999.2500   -999.2500   -999.2500     12.9742     10.8273      2.9937  
  1916.0000     10.2843     76.7607     29.1829      2.5180      0.0326     96.0801   -999.2500   -999.2500   -999.2500   -999.2500     13.2745     11.1068      2.9674  
  1916.5000     10.4412     73.7091     28.0183      2.5038      0.0197     95.1073   -999.2500   -999.2500   -999.2500   -999.2500     13.5781     11.3190      2.6259  
  1917.0000     10.2161     69.7827     27.2299      2.5017      0.0322     75.3292   -999.2500   -999.2500   -999.2500   -999.2500     13.7199     11.4035      2.4933  
  1917.5000     10.3008     65.6541     25.9271      2.5119      0.0597     90.1820   -999.2500   -999.2500   -999.2500   -999.2500     13.2139     11.1020      2.4650  
  1918.0000     10.3970     62.9837     24.9298      2.5025      0.0659     88.2643   -999.2500   -999.2500   -999.2500   -999.2500     13.0791     10.8543      2.4070  
  1918.5000     10.5890     61.9533     24.1680      2.4744      0.0592     99.2036   -999.2500   -999.2500   -999.2500   -999.2500     12.9831     10.6745      2.5385  
  1919.0000     10.9650     61.2448     24.4005      2.4665      0.0699     96.9450   -999.2500   -999.2500   -999.2500   -999.2500     12.8558     10.5022      2.4925  
  1919.5000     11.3023     61.3174     24.9386      2.4508      0.0460     75.6209   -999.2500   -999.2500   -999.2500   -999.2500     12.8125     10.4731      2.3022  
  1920.0000     11.6662     62.0443     26.1477      2.4342      0.0367     99.5714   -999.2500   -999.2500   -999.2500   -999.2500     12.4834     10.3927      2.0164  
  1920.5000     11.6713     63.1600     26.8349      2.4515      0.0751     97.9007   -999.2500   -999.2500   -999.2500   -999.2500     12.1677     10.0758      1.8561  
  1921.0000     11.6458     64.5831     26.7224      2.4709      0.0926     95.4910   -999.2500   -999.2500   -999.2500   -999.2500     12.0359      9.9965      2.2063  
  1921.5000     11.6601     65.7688     26.6190      2.4891      0.1052     89.7096   -999.2500   -999.2500   -999.2500   -999.2500     12.3419     10.0093      2.6793  
