~VERSION INFORMATION
 VERS.                           2.00:        CWLS LOG ASCII STANDARD - VERSION 2.00
 WRAP.                             NO:        ONE LINE PER DEPTH STEP
~WELL INFORMATION
#MNEM.UNIT                   DATA             INFORMATION
#----------             --------------        ------------------------------
 STRT.F                       68.0000:        START DEPTH
 STOP.F                     2380.0000:        STOP DEPTH
 STEP.F                        0.5000:        STEP VALUE
 NULL.                      -999.2500:        NULL VALUE
 COMP.                     USGS/NPR-A:        COMPANY  
 LOC .                   30  22N  16W:        LOCATION   
 DATE.                        3/18/78:        LOG DATE 
 WELL.               SOUTH BARROW #17:        WELL     
 UWI .                   500232001100:        UNIQUE WELL ID 
 API .                   500232001100:        UNIQUE WELL IDENTIFIER 
 FLD .                   SOUTH BARROW:        FIELD    
 CNTY.                     NOTH SLOPE:        COUNTY  
 STAT.                         ALASKA:        STATE   
 CTRY.                            USA:        COUNTRY 
 OPER.                     USGS/NPR-A:        OPERATOR  
 SRVC.                   SCHLUMBERGER:        SERVICE COMPANY 
 LAT .                         0.0000:        LATITUDE
 LON .                         0.0000:        LONGITUDE
 DIGS.               CENTER LINE DATA:        DIGITIZING COMPANY 
~CURVE INFORMATION      
#MNEM        .UNIT         API CODE           CURVE DESCRIPTION
#-----------------      --------------        ------------------------------
 DEPT        .F                      :        1  DEPTH
 CALI        .IN                     :        2  
 GR          .GAPI                   :        3  
 NPHI        .%                      :        4  
 RHOB        .G/C3                   :        5  
 DRHO        .G/C3                   :        6  
 DT          .US/F                   :        7  
 SP          .MV                     :        8  
 ILD         .OHMM                   :        9  
 ILM         .OHMM                   :        10 
 LL8         .OHMM                   :        11 
 LLD         .OHMM                   :        12 
 LLS         .OHMM                   :        13 
~PARAMETER INFORMATION       
#MNEM.UNIT                  VALUE             DESCRIPTION OF MNEMONIC
#---------             ---------------        ------------------------------
 EKB .F                       33.0000:        KELLY BUSHING
 TD  .F                     2382.0000:        TOTAL DEPTH
 BHT .F                        0.0000:        BOTTOM HOLE TEMPERATURE
 BS  .                         8.5000:        BIT SIZE
 FD  .                        10.8000:        FLUID DENSITY
 CSIZ.                         9.6250:        CASING SIZE
 CBD .F                     1512.0000:        CASING DRILLER 1
 CBL .F                     1512.0000:        CASING LOGGER 1
 DFT .                  Miscellaneous:        TYPE FLUID IN HOLE
 DFV .                        43.0000:        VISCOSITY
 DFPH.                         8.5000:        PH
 DFL .                         4.0000:        FLUID LOSS
 RMS .                         0.0760:        RM
 MST .F                       60.0000:        RM MEAS. TEMP.
 RMF .                         0.0000:        RMF
 MFST.F                        0.0000:        RMF MEAS. TEMP.
 RMC .                         0.1640:        RMC
 MCST.F                       55.0000:        RMC MEAS. TEMP.
~OTHER INFORMATION
~A    DEPTH        CALI          GR        NPHI        RHOB        DRHO          DT          SP         ILD         ILM         LL8         LLD         LLS  
# ...
   705.5000     14.6937     72.2831   -999.2500   -999.2500   -999.2500    125.7773    -51.0444     13.7505     12.5627     14.4344   -999.2500   -999.2500  
   706.0000     14.4660     70.5081   -999.2500   -999.2500   -999.2500    124.9649    -50.6678     13.5556     12.4072     14.4523   -999.2500   -999.2500  
   706.5000     14.3520     69.2329   -999.2500   -999.2500   -999.2500    125.1800    -49.6131     13.3635     12.2176     14.7029   -999.2500   -999.2500  
   707.0000     14.3566     69.1799   -999.2500   -999.2500   -999.2500    126.8874    -48.6747     13.2402     12.0309     14.8841   -999.2500   -999.2500  
   707.5000     13.9344     70.2373   -999.2500   -999.2500   -999.2500    128.1423    -47.7024     13.2178     11.8541     14.9718   -999.2500   -999.2500  
   708.0000     13.7700     71.7249   -999.2500   -999.2500   -999.2500    129.2566    -49.2696     13.1955     11.9240     14.9319   -999.2500   -999.2500  
   708.5000     13.4585     73.4045   -999.2500   -999.2500   -999.2500    130.3981    -51.3517     13.1782     12.2058     14.7609   -999.2500   -999.2500  
   709.0000     14.2857     74.6272   -999.2500   -999.2500   -999.2500    130.7363    -50.6076     13.2289     12.4944     14.5550   -999.2500   -999.2500  
   709.5000     14.3699     75.8252   -999.2500   -999.2500   -999.2500    132.4505    -50.2038     13.2798     12.6402     14.4177   -999.2500   -999.2500  
   710.0000     14.1071     75.9953   -999.2500   -999.2500   -999.2500    133.8272    -50.1357     13.3310     12.5333     14.9136   -999.2500   -999.2500  
   710.5000     14.0600     74.9073   -999.2500   -999.2500   -999.2500    132.7725    -49.9801     13.3823     12.3030     15.5707   -999.2500   -999.2500  
   711.0000     14.4955     73.7915   -999.2500   -999.2500   -999.2500    130.6998    -49.9130     13.4281     12.0264     15.9046   -999.2500   -999.2500  
   711.5000     14.3585     72.5870   -999.2500   -999.2500   -999.2500    128.3803    -51.1011     13.4722     11.7648     15.3284   -999.2500   -999.2500  
   712.0000     14.1495     71.2320   -999.2500   -999.2500   -999.2500    125.7440    -52.2656     13.5164     11.5423     14.8735   -999.2500   -999.2500  
   712.5000     14.1734     71.0120   -999.2500   -999.2500   -999.2500    125.4301    -52.5258     13.5046     11.5379     14.6310   -999.2500   -999.2500  
   713.0000     14.1839     71.7253   -999.2500   -999.2500   -999.2500    126.8311    -52.4461     13.4456     11.5584     14.7640   -999.2500   -999.2500  
   713.5000     14.4703     74.1530   -999.2500   -999.2500   -999.2500    128.6235    -51.2070     13.3870     11.5281     15.3082   -999.2500   -999.2500  
   714.0000     14.7340     76.3280   -999.2500   -999.2500   -999.2500    129.9560    -48.3523     13.3286     11.4978     16.6736   -999.2500   -999.2500  
   714.5000     14.9123     77.0907   -999.2500   -999.2500   -999.2500    131.1116    -45.9914     13.2903     11.4676     17.5559   -999.2500   -999.2500  
   715.0000     14.8041     76.1039   -999.2500   -999.2500   -999.2500    132.3491    -45.7330     13.3255     11.4374     17.1421   -999.2500   -999.2500  
   715.5000     14.6624     73.4477   -999.2500   -999.2500   -999.2500    132.7863    -47.9102     13.3609     11.5232     16.5733   -999.2500   -999.2500  
   716.0000     14.9134     70.4941   -999.2500   -999.2500   -999.2500    133.1379    -48.2687     13.3964     11.6302     16.1950   -999.2500   -999.2500  
   716.5000     15.2654     69.7043   -999.2500   -999.2500   -999.2500    133.9105    -47.6492     13.4354     11.6890     16.0369   -999.2500   -999.2500  
   717.0000     15.5119     69.8488   -999.2500   -999.2500   -999.2500    132.2398    -48.0804     13.3596     11.6350     16.0999   -999.2500   -999.2500  
   717.5000     15.6370     70.5177   -999.2500   -999.2500   -999.2500    130.4327    -48.1033     13.2841     11.5813     16.4088   -999.2500   -999.2500  
   718.0000     15.4490     71.3681   -999.2500   -999.2500   -999.2500    128.0780    -46.8122     13.2328     11.5479     16.6931   -999.2500   -999.2500  
   718.5000     15.4262     72.6015   -999.2500   -999.2500   -999.2500    126.3875    -47.5800     13.2113     11.5204     16.7473   -999.2500   -999.2500  
   719.0000     15.6250     73.6701   -999.2500   -999.2500   -999.2500    126.2474    -48.8850     13.2325     11.5228     16.6346   -999.2500   -999.2500  
   719.5000     15.7750     74.9960   -999.2500   -999.2500   -999.2500    127.1766    -48.2092     13.2342     11.5996     16.5608   -999.2500   -999.2500  
   720.0000     15.6953     77.0816   -999.2500   -999.2500   -999.2500    128.7557    -47.4978     13.1954     11.6226     16.7062   -999.2500   -999.2500  
   720.5000     15.1764     77.8335   -999.2500   -999.2500   -999.2500    130.8758    -50.4303     13.1406     11.6458     17.1743   -999.2500   -999.2500  
   721.0000     14.8154     77.2450   -999.2500   -999.2500   -999.2500    131.8444    -54.1962     13.1131     11.6689     17.8226   -999.2500   -999.2500  
   721.5000     14.8571     76.5334   -999.2500   -999.2500   -999.2500    130.0000    -52.0253     13.1527     11.6921     17.7958   -999.2500   -999.2500  
   722.0000     14.6901     75.6864   -999.2500   -999.2500   -999.2500    128.7849    -52.1898     13.2406     11.7154     17.2011   -999.2500   -999.2500  
   722.5000     14.5528     74.5970   -999.2500   -999.2500   -999.2500    127.3581    -54.6495     13.2524     11.7387     16.5860   -999.2500   -999.2500  
   723.0000     14.4682     73.6843   -999.2500   -999.2500   -999.2500    128.3386    -55.4579     13.3153     11.8270     16.2817   -999.2500   -999.2500  
   723.5000     14.4519     73.4573   -999.2500   -999.2500   -999.2500    131.6677    -55.4455     13.4125     11.8924     16.2097   -999.2500   -999.2500  
   724.0000     14.5832     73.3585   -999.2500   -999.2500   -999.2500    132.8663    -55.0202     13.4624     11.9708     16.1021   -999.2500   -999.2500  
   724.5000     14.4329     73.4837   -999.2500   -999.2500   -999.2500    131.8513    -54.6913     13.4243     12.0490     15.9651   -999.2500   -999.2500  
   725.0000     14.2974     75.3286   -999.2500   -999.2500   -999.2500    130.2176    -53.2505     13.3864     12.0479     15.9575   -999.2500   -999.2500  
   725.5000     14.1278     77.4974   -999.2500   -999.2500   -999.2500    128.5840    -48.8007     13.3485     12.0406     15.9487   -999.2500   -999.2500  
   726.0000     13.9582     78.5181   -999.2500   -999.2500   -999.2500    126.4021    -40.3192     13.3108     12.0333     15.8386   -999.2500   -999.2500  
   726.5000     13.9085     78.6272   -999.2500   -999.2500   -999.2500    125.1256    -34.8322     13.2732     12.0260     15.9192   -999.2500   -999.2500  
   727.0000     13.9409     77.3379   -999.2500   -999.2500   -999.2500    124.2788    -35.2331     13.2357     11.9770     16.3489   -999.2500   -999.2500  
   727.5000     13.9858     77.1318   -999.2500   -999.2500   -999.2500    125.5138    -35.4511     13.1983     11.8994     16.6693   -999.2500   -999.2500  
   728.0000     14.0310     77.1630   -999.2500   -999.2500   -999.2500    127.6662    -35.8935     13.1610     11.8223     16.6243   -999.2500   -999.2500  
   728.5000     14.1079     77.6264   -999.2500   -999.2500   -999.2500    129.5159    -36.8252     13.1356     11.7456     16.6069   -999.2500   -999.2500  
   729.0000     14.2019     78.2952   -999.2500   -999.2500   -999.2500    129.8885    -39.6693     13.1269     11.6695     16.7496   -999.2500   -999.2500  
   729.5000     14.2936     78.4863   -999.2500   -999.2500   -999.2500    128.8527    -42.8095     13.1183     11.5938     16.8333   -999.2500   -999.2500  
   730.0000     14.0971     77.3053   -999.2500   -999.2500   -999.2500    126.4183    -44.7237     13.1097     11.6893     16.7391   -999.2500   -999.2500  
   730.5000     13.8533     74.3932   -999.2500   -999.2500   -999.2500    124.4907    -44.5971     13.1011     11.8398     16.4382   -999.2500   -999.2500  
