~VERSION INFORMATION
 VERS.                           2.00:        CWLS LOG ASCII STANDARD - VERSION 2.00
 WRAP.                             NO:        ONE LINE PER DEPTH STEP
~WELL INFORMATION
#MNEM.UNIT                   DATA             INFORMATION
#----------             --------------        ------------------------------
 STRT.F                       78.0000:        START DEPTH
 STOP.F                     2392.0000:        STOP DEPTH
 STEP.F                        0.5000:        STEP VALUE
 NULL.                      -999.2500:        NULL VALUE
 COMP.              U.S.G.S./NPR -  A:        COMPANY  
 LOC .                    1  22N  18W:        LOCATION   
 DATE.                        2/14/78:        LOG DATE 
 WELL.               SOUTH BARROW #16:        WELL     
 UWI .                   500232001000:        UNIQUE WELL ID 
 API .                   500232001000:        UNIQUE WELL IDENTIFIER 
 FLD .                   SOUTH BARROW:        FIELD    
 CNTY.                    NORTH SLOPE:        COUNTY  
 STAT.                         ALASKA:        STATE   
 CTRY.                            USA:        COUNTRY 
 OPER.              U.S.G.S./NPR -  A:        OPERATOR  
 SRVC.                   SCHLUMBERGER:        SERVICE COMPANY 
 LAT .                         0.0000:        LATITUDE
 LON .                         0.0000:        LONGITUDE
 DIGS.               CENTER LINE DATA:        DIGITIZING COMPANY 
~CURVE INFORMATION      
#MNEM        .UNIT         API CODE           CURVE DESCRIPTION
#-----------------      --------------        ------------------------------
 DEPT        .F                      :        1  DEPTH
 CALI        .IN                     :        2  
 GR          .GAPI                   :        3  
 RHOB        .G/C3                   :        4  
 DRHO        .G/C3                   :        5  
 NPHI        .%                      :        6  
 DT          .US/F                   :        7  
 SP          .MV                     :        8  
 ILD         .OHMM                   :        9  
 ILM         .OHMM                   :        10 
 LL8         .OHMM                   :        11 
 LLD         .OHMM                   :        12 
 LLS         .OHMM                   :        13 
~PARAMETER INFORMATION       
#MNEM.UNIT                  VALUE             DESCRIPTION OF MNEMONIC
#---------             ---------------        ------------------------------
 EKB .F                       30.0000:        KELLY BUSHING
 TD  .F                     2399.0000:        TOTAL DEPTH
 BHT .F                       73.0000:        BOTTOM HOLE TEMPERATURE
 BS  .                         8.5000:        BIT SIZE
 FD  .                        11.0000:        FLUID DENSITY
 CSIZ.                         8.5000:        CASING SIZE
 CBD .F                     1489.0000:        CASING DRILLER 1
 CBL .F                     1487.0000:        CASING LOGGER 1
 DFT .                  Miscellaneous:        TYPE FLUID IN HOLE
 DFV .                        52.0000:        VISCOSITY
 DFPH.                         8.5000:        PH
 DFL .                         8.0000:        FLUID LOSS
 RMS .                         0.0210:        RM
 MST .F                       58.0000:        RM MEAS. TEMP.
 RMF .                         0.0130:        RMF
 MFST.F                       52.0000:        RMF MEAS. TEMP.
 RMC .                         0.0170:        RMC
 MCST.F                       56.0000:        RMC MEAS. TEMP.
~OTHER INFORMATION
~A    DEPTH        CALI          GR        RHOB        DRHO        NPHI          DT          SP         ILD         ILM         LL8         LLD         LLS  
# ...
   868.5000     12.2148     75.2174   -999.2500   -999.2500   -999.2500    116.3996    -11.7129      8.2815      7.7900      9.0291   -999.2500   -999.2500  
   869.0000     12.3762     73.0200   -999.2500   -999.2500   -999.2500    114.4781    -13.1831      8.5869      8.0796      9.1202   -999.2500   -999.2500  
   869.5000     12.4377     71.4688   -999.2500   -999.2500   -999.2500    114.3960    -14.3760      8.9036      8.3799      9.2123   -999.2500   -999.2500  
   870.0000     12.3858     70.5234   -999.2500   -999.2500   -999.2500    115.5154    -16.1712      9.2319      8.6915      9.8519   -999.2500   -999.2500  
   870.5000     12.3340     69.4607   -999.2500   -999.2500   -999.2500    117.1388    -13.9976      9.5724      9.0146     10.5493   -999.2500   -999.2500  
   871.0000     12.3373     68.3430   -999.2500   -999.2500   -999.2500    118.2558    -12.7482      9.9254      9.2869     11.2761   -999.2500   -999.2500  
   871.5000     12.2830     68.0136   -999.2500   -999.2500   -999.2500    119.0221    -11.6652     10.2914      9.5487     11.8600   -999.2500   -999.2500  
   872.0000     12.1995     69.6283   -999.2500   -999.2500   -999.2500    119.1415     -7.2856     10.6709      9.8179     12.4741   -999.2500   -999.2500  
   872.5000     12.1803     72.0110   -999.2500   -999.2500   -999.2500    119.7364     -8.4337     11.0644     10.0947     13.1200   -999.2500   -999.2500  
   873.0000     12.2110     73.6437   -999.2500   -999.2500   -999.2500    120.4430    -10.3640     11.1314     10.3792     13.7994   -999.2500   -999.2500  
   873.5000     12.2025     75.2643   -999.2500   -999.2500   -999.2500    121.5143    -14.3162     11.0271     10.4494     14.0487   -999.2500   -999.2500  
   874.0000     12.2001     76.4249   -999.2500   -999.2500   -999.2500    122.4676    -15.7090     10.9238     10.2855     12.6314   -999.2500   -999.2500  
   874.5000     12.1793     75.6549   -999.2500   -999.2500   -999.2500    123.1839    -12.4442     10.8214     10.1242     11.3571   -999.2500   -999.2500  
   875.0000     12.1812     74.7975   -999.2500   -999.2500   -999.2500    123.4682    -10.6240     10.7200      9.9654     10.7309   -999.2500   -999.2500  
   875.5000     12.2268     75.4042   -999.2500   -999.2500   -999.2500    123.0103    -10.6355     10.6195      9.8091     10.8090   -999.2500   -999.2500  
   876.0000     12.2319     76.4974   -999.2500   -999.2500   -999.2500    122.1772    -11.3048     10.5200      9.7335     10.8877   -999.2500   -999.2500  
   876.5000     12.2144     77.4255   -999.2500   -999.2500   -999.2500    120.6488    -13.6862     10.4214      9.6913     10.9670   -999.2500   -999.2500  
   877.0000     12.2009     77.8687   -999.2500   -999.2500   -999.2500    118.2142    -15.2885     10.3413      9.6493     11.0468   -999.2500   -999.2500  
   877.5000     12.2032     77.8540   -999.2500   -999.2500   -999.2500    115.4959    -16.9237     10.2814      9.6075     11.1297   -999.2500   -999.2500  
   878.0000     12.2221     76.4430   -999.2500   -999.2500   -999.2500    113.0306    -20.3273     10.2219      9.5658     11.2145   -999.2500   -999.2500  
   878.5000     12.2610     75.9986   -999.2500   -999.2500   -999.2500    111.8203    -19.9755     10.1627      9.5243     11.2999   -999.2500   -999.2500  
   879.0000     12.3077     78.0842   -999.2500   -999.2500   -999.2500    112.1722    -16.7776     10.1038      9.4830     11.3770   -999.2500   -999.2500  
   879.5000     12.3346     81.1403   -999.2500   -999.2500   -999.2500    113.1108    -14.0577     10.0453      9.4419     11.2128   -999.2500   -999.2500  
   880.0000     12.2589     83.4045   -999.2500   -999.2500   -999.2500    114.8038    -13.8712      9.9871      9.4076     11.0511   -999.2500   -999.2500  
   880.5000     12.2070     85.6930   -999.2500   -999.2500   -999.2500    116.6343    -15.9124      9.9292      9.3762     10.8916   -999.2500   -999.2500  
   881.0000     12.2805     86.7177   -999.2500   -999.2500   -999.2500    118.4638    -15.7120      9.8717      9.3449     10.7345   -999.2500   -999.2500  
   881.5000     12.1703     86.7559   -999.2500   -999.2500   -999.2500    119.7495    -15.0581      9.8145      9.3138     10.5796   -999.2500   -999.2500  
   882.0000     12.1744     87.3014   -999.2500   -999.2500   -999.2500    119.9440    -14.0461      9.7577      9.2827     10.4270   -999.2500   -999.2500  
   882.5000     12.1551     88.2723   -999.2500   -999.2500   -999.2500    119.8957    -16.4771      9.7140      9.2517     10.3800   -999.2500   -999.2500  
   883.0000     12.0810     89.6771   -999.2500   -999.2500   -999.2500    119.7004    -16.9889      9.6762      9.2208     10.3516   -999.2500   -999.2500  
   883.5000     12.0679     89.9755   -999.2500   -999.2500   -999.2500    119.2915    -15.1330      9.6387      9.1901     10.3233   -999.2500   -999.2500  
   884.0000     12.1261     88.7471   -999.2500   -999.2500   -999.2500    118.8512    -11.9298      9.6012      9.1514     10.2950   -999.2500   -999.2500  
   884.5000     12.2079     87.2127   -999.2500   -999.2500   -999.2500    118.5209    -15.6270      9.5640      9.1047     10.2668   -999.2500   -999.2500  
   885.0000     12.2823     88.7956   -999.2500   -999.2500   -999.2500    118.3975    -16.1040      9.5268      9.0583     10.2388   -999.2500   -999.2500  
   885.5000     12.2194     89.0383   -999.2500   -999.2500   -999.2500    118.5238    -15.9370      9.4898      9.0121     10.2107   -999.2500   -999.2500  
   886.0000     12.2139     87.5441   -999.2500   -999.2500   -999.2500    118.9671    -16.4164      9.4530      8.9849     10.1828   -999.2500   -999.2500  
   886.5000     12.1889     86.1687   -999.2500   -999.2500   -999.2500    119.5015    -16.6441      9.4163      8.9807     10.1530   -999.2500   -999.2500  
   887.0000     12.1625     85.1466   -999.2500   -999.2500   -999.2500    120.2196    -15.9196      9.3797      8.9766     10.1020   -999.2500   -999.2500  
   887.5000     12.1550     85.4252   -999.2500   -999.2500   -999.2500    121.0296    -15.6532      9.3433      8.9724     10.0512   -999.2500   -999.2500  
   888.0000     12.1740     87.1700   -999.2500   -999.2500   -999.2500    121.8324    -15.7846      9.3070      8.9682     10.0006   -999.2500   -999.2500  
   888.5000     12.2030     87.5379   -999.2500   -999.2500   -999.2500    122.1110    -15.6805      9.2709      8.9641      9.9503   -999.2500   -999.2500  
   889.0000     12.2603     86.3264   -999.2500   -999.2500   -999.2500    121.7168    -14.9266      9.2349      8.9599      9.9003   -999.2500   -999.2500  
   889.5000     12.3493     83.5338   -999.2500   -999.2500   -999.2500    120.7344    -15.1853      9.2345      8.9557      9.8505   -999.2500   -999.2500  
   890.0000     12.3590     81.8463   -999.2500   -999.2500   -999.2500    119.8920    -14.6532      9.2522      8.9516      9.8010   -999.2500   -999.2500  
   890.5000     12.4428     83.4067   -999.2500   -999.2500   -999.2500    119.0881    -13.9328      9.2700      8.9474      9.7861   -999.2500   -999.2500  
   891.0000     12.5222     84.2544   -999.2500   -999.2500   -999.2500    118.4077    -16.1431      9.2878      8.9432      9.8165   -999.2500   -999.2500  
   891.5000     12.3844     85.5293   -999.2500   -999.2500   -999.2500    117.8823    -17.1483      9.3056      8.9391      9.8470   -999.2500   -999.2500  
   892.0000     12.2921     87.9070   -999.2500   -999.2500   -999.2500    117.2724    -17.0727      9.3235      8.9401      9.8776   -999.2500   -999.2500  
   892.5000     12.2670     88.6351   -999.2500   -999.2500   -999.2500    116.7733    -16.7160      9.3414      8.9429      9.9083   -999.2500   -999.2500  
   893.0000     12.3395     89.6823   -999.2500   -999.2500   -999.2500    116.6814    -18.4276      9.3594      8.9457      9.9390   -999.2500   -999.2500  
   893.5000     12.3542     90.6897   -999.2500   -999.2500   -999.2500    116.8376    -20.6654      9.3774      8.9485      9.9699   -999.2500   -999.2500  
