~VERSION INFORMATION
 VERS.                           2.00:        CWLS LOG ASCII STANDARD - VERSION 2.00
 WRAP.                             NO:        ONE LINE PER DEPTH STEP
~WELL INFORMATION
#MNEM.UNIT                   DATA             INFORMATION
#----------             --------------        ------------------------------
 STRT.F                      101.0000:        START DEPTH
 STOP.F                     3666.0000:        STOP DEPTH
 STEP.F                        0.5000:        STEP VALUE
 NULL.                      -999.2500:        NULL VALUE
 COMP.     USGS/NPR HUSKY OIL COMPANY:        COMPANY
 LOC .                      9 20N 19W:        LOCATION
 DATE.                       12/30/79:        LOG DATE
 WELL.           WALAKPA TEST WELL #1:        WELL
 UWI .                   500232001300:        UNIQUE WELL ID
 API .                   500232001300:        UNIQUE WELL IDENTIFIER
 FLD .                        WILDCAT:        FIELD
 CNTY.                    NORTH SLOPE:        COUNTY
 STAT.                         ALASKA:        STATE
 CTRY.                            USA:        COUNTRY
 OPER.     USGS/NPR HUSKY OIL COMPANY:        OPERATOR
 SRVC.                   SCHLUMBERGER:        SERVICE COMPANY
 LAT .                         0.0000:        LATITUDE
 LON .                         0.0000:        LONGITUDE
 DIGS.               CENTER LINE DATA:        DIGITIZING COMPANY
~CURVE INFORMATION      
#MNEM        .UNIT         API CODE           CURVE DESCRIPTION
#-----------------      --------------        ------------------------------
 DEPT        .F                      :        1  DEPTH
 GR          .GAPI                   :        2  
 CALI        .IN                     :        3  
 RHOB        .G/C3                   :        4  
 DRHO        .G/C3                   :        5  
 NPHI        .%                      :        6  
 DT          .US/F                   :        7  
 SP          .MV                     :        8  
 ILD         .OHMM                   :        9  
 ILM         .OHMM                   :        10 
 LL8         .OHMM                   :        11 
 SFL         .OHMM                   :        12 
~PARAMETER INFORMATION
#MNEM.UNIT                  VALUE             DESCRIPTION OF MNEMONIC
#---------             ---------------        ------------------------------
 EKB .F                       50.0000:        KELLY BUSHING
 TD  .F                     3672.0000:        TOTAL DEPTH
 BHT .F                       80.0000:        BOTTOM HOLE TEMPERATURE
 BS  .                        12.2500:        BIT SIZE
 FD  .                         9.9000:        FLUID DENSITY
 CSIZ.                        13.3750:        CASING SIZE
 CBD .F                      100.0000:        CASING DRILLER 1
 CBL .F                      106.0000:        CASING LOGGER 1
 DFT .                             99:        TYPE FLUID IN HOLE
 DFV .                        45.0000:        VISCOSITY
 DFPH.                         8.0000:        PH
 DFL .                        23.0000:        FLUID LOSS
 RMS .                         5.9200:        RM
 MST .F                       58.0000:        RM MEAS. TEMP.
 RMF .                         6.2200:        RMF
 MFST.F                       57.0000:        RMF MEAS. TEMP.
 RMC .                         7.0500:        RMC
 MCST.F                       57.0000:        RMC MEAS. TEMP.
~OTHER INFORMATION
~A    DEPTH          GR        CALI        RHOB        DRHO        NPHI          DT          SP         ILD         ILM         LL8         SFL 
# ...
   325.0000     76.2466     13.1063      2.4017      0.1075     33.1044    128.5505    -92.4479      6.7413      5.0280     10.2305   -999.2500 
   325.5000     77.6816     13.1966      2.3854      0.0720     33.5987    127.6668    -93.1714      6.8509      4.9532      9.0535   -999.2500 
   326.0000     79.1165     13.2182      2.4094      0.0763     34.4359    127.6627    -93.1720      6.9953      4.9826      8.1572   -999.2500 
   326.5000     79.0575     13.1671      2.4337      0.0942     33.9016    127.9272    -89.9955      7.1748      5.2148      8.5209   -999.2500 
   327.0000     77.2920     13.1289      2.4212      0.0784     33.1360    128.3280    -88.3298      7.3929      5.3760      9.5681   -999.2500 
   327.5000     76.2859     13.1111      2.4076      0.0744     33.6720    129.0564    -90.0289      7.6590      5.5088      9.6704   -999.2500 
   328.0000     76.0817     13.0933      2.4224      0.0731     34.2649    129.5751    -90.5854      7.9664      5.6924      9.2326   -999.2500 
   328.5000     75.9223     13.1168      2.3988      0.0684     33.4664    129.4622    -91.2319      8.3315      6.0023      9.1376   -999.2500 
   329.0000     75.8714     13.1329      2.4120      0.0975     32.5142    128.7725    -92.4388      8.6238      6.1836      9.7493   -999.2500 
   329.5000     76.1704     13.1000      2.4190      0.1187     32.3763    128.5266    -94.0496      8.6786      6.2092     10.4375   -999.2500 
   330.0000     76.7679     13.0538      2.3997      0.1079     33.6579    128.2308    -96.0920      8.5174      6.0240     10.0584   -999.2500 
   330.5000     75.9594     13.0189      2.4003      0.0986     35.3394    126.6418    -96.5722      8.2048      5.8149      9.1015   -999.2500 
   331.0000     75.6349     12.9994      2.3958      0.1032     36.0394    125.0086    -97.4842      7.8460      5.4640      8.3710   -999.2500 
   331.5000     75.2765     12.9799      2.3938      0.1069     36.7289    124.7235    -98.9875      7.5029      5.3374      7.9203   -999.2500 
   332.0000     74.5664     12.9604      2.4240      0.1435     37.7848    125.1671    -98.6088      7.1747      5.3747      7.4939   -999.2500 
   332.5000     74.2871     12.9408      2.4038      0.1110     37.6863    127.0302    -97.1690      6.8610      5.3707      7.0905   -999.2500 
   333.0000     74.8152     12.9271      2.4161      0.1359     36.3291    128.9251    -96.1508      6.6107      5.3028      8.7136   -999.2500 
   333.5000     75.7988     12.9932      2.3964      0.1074     35.3072    130.3125    -96.4497      6.3941      5.1819      9.3633   -999.2500 
   334.0000     79.3687     13.0594      2.3715      0.0795     36.2875    130.5463    -97.9569      6.1846      4.7670      8.0041   -999.2500 
   334.5000     81.9142     13.0489      2.3816      0.0911     37.4415    129.4676    -99.6890      5.9820      4.4189      6.7714   -999.2500 
   335.0000     81.9330     12.9997      2.3904      0.1214     37.9860    129.1432    -99.5715      5.8700      4.4411      6.4331   -999.2500 
   335.5000     81.0237     13.0374      2.4089      0.1642     38.8081    130.2913    -98.0274      5.7982      4.4303      7.3671   -999.2500 
   336.0000     80.9788     13.1707      2.3810      0.1225     39.5419    133.1528    -96.2776      5.7456      4.3691      8.7503   -999.2500 
   336.5000     81.3046     13.2010      2.3571      0.0680     39.5922    134.2326    -96.9000      5.7368      4.2930      7.8731   -999.2500 
   337.0000     82.5392     13.1844      2.3794      0.0509     39.4839    134.7211    -97.8952      5.7976      4.3636      7.3828   -999.2500 
   337.5000     82.9928     13.1658      2.4075      0.0642     39.1481    134.6435    -96.8283      5.8827      4.4938      7.3738   -999.2500 
   338.0000     82.3646     13.1674      2.4145      0.0725     37.8153    133.7719    -96.4994      5.9356      4.5973      7.5320   -999.2500 
   338.5000     81.7374     13.1777      2.4290      0.0860     36.7494    132.5579    -96.4153      5.9101      4.6849      7.7484   -999.2500 
   339.0000     82.0097     13.1386      2.4366      0.0727     36.3736    131.4464    -95.8197      5.8643      4.7168      8.1877   -999.2500 
   339.5000     83.0792     13.0960      2.4293      0.0674     37.5837    129.3309    -95.7417      5.8637      4.5796      8.4678   -999.2500 
   340.0000     83.8970     13.1171      2.4292      0.0678     39.1262    127.3515    -97.6072      5.8631      4.4093      7.4903   -999.2500 
   340.5000     82.9291     13.0817      2.4329      0.0737     39.1838    127.2846    -99.9458      5.9834      4.3378      6.6378   -999.2500 
   341.0000     81.4445     13.0332      2.4425      0.0896     38.4826    128.3264    -99.7896      6.2612      4.3626      6.4221   -999.2500 
   341.5000     80.0481     13.0214      2.4688      0.1110     37.8804    128.8691    -99.1029      6.1519      4.4523      6.7234   -999.2500 
   342.0000     78.9840     13.0811      2.4624      0.1015     37.7563    129.4798    -98.1320      6.1017      4.6047      7.1126   -999.2500 
   342.5000     78.3385     13.1253      2.4473      0.0717     37.7761    130.5401    -96.5132      6.1409      4.7799      7.6465   -999.2500 
   343.0000     78.2150     13.1514      2.4492      0.0798     37.6660    130.0521    -95.6070      6.5928      4.9608      8.3794   -999.2500 
   343.5000     77.8425     13.1204      2.4349      0.0544     37.4349    129.1383    -95.3689      7.0780      5.1028      8.1589   -999.2500 
   344.0000     77.1757     13.0548      2.4059      0.0295     36.4804    128.6270    -93.1461      7.5988      5.5771      7.9958   -999.2500 
   344.5000     75.7463     12.9669      2.3963      0.0382     35.9180    128.0529    -90.0897      8.1961      6.0357      8.5021   -999.2500 
   345.0000     74.3169     12.8687      2.4102      0.0562     35.1722    126.5723    -87.4694      8.8427      6.6314      9.2263   -999.2500 
   345.5000     72.8876     12.7705      2.4196      0.0514     34.3725    125.1099    -85.5730      9.5046      6.9936      9.8374   -999.2500 
   346.0000     71.4582     12.7364      2.4045      0.0284     33.7352    122.5681    -85.7502      9.9165      7.4815     10.7315   -999.2500 
   346.5000     70.0288     12.7448      2.3885      0.0088     32.9128    119.6445    -87.6445     10.1481      7.8486     11.7294   -999.2500 
   347.0000     68.1488     12.7814      2.3814      0.0131     32.0945    119.5135    -90.0790     10.0948      8.3251     11.5864   -999.2500 
   347.5000     67.3267     12.7594      2.3723      0.0167     31.5887    119.6239    -93.2702     10.0357      8.7839     11.2909   -999.2500 
   348.0000     66.5156     12.7486      2.3658      0.0304     31.2152    119.6426    -95.9499      9.9739      9.0606     13.6691   -999.2500 
   348.5000     66.2264     12.7603      2.3136      0.0326     30.8303    118.0647    -94.2075      9.9039      9.1240     14.1820   -999.2500 
   349.0000     66.4357     12.7578      2.2845      0.0197     31.1931    116.1642    -91.2078      9.8343      8.9749     12.3558   -999.2500 
   349.5000     67.9924     12.7487      2.2564      0.0121     32.0415    114.7742    -88.8074      9.7546      8.5660     11.7786   -999.2500 
   350.0000     71.3974     12.8214      2.2707      0.0098     33.3550    114.0994    -88.2058      9.6996      8.1283     11.2131   -999.2500 
   350.5000     74.5449     12.8941      2.2727      0.0330     34.6684    113.6878    -88.1673      9.8558      7.7130     10.7944   -999.2500 
   351.0000     75.5746     12.9668      2.2974      0.0435     34.9568    114.2001    -86.3870     10.0145      7.5639     10.6211   -999.2500 
   351.5000     74.6446     13.0396      2.3295      0.0480     33.1535    114.9694    -84.5977     10.1757      7.5330     10.5775   -999.2500 
   352.0000     69.3832     12.9844      2.3917      0.0835     30.9872    115.3697    -85.0006     10.3991      7.5867     10.6517   -999.2500 
   352.5000     65.5282     12.9766      2.4213      0.0806     29.8192    115.6986    -86.8708     10.6318      7.7214     10.9289   -999.2500 
