~VERSION INFORMATION
 VERS.                           2.00:        CWLS LOG ASCII STANDARD - VERSION 2.00
 WRAP.                             NO:        ONE LINE PER DEPTH STEP
~WELL INFORMATION
#MNEM.UNIT                   DATA             INFORMATION
#----------             --------------        ------------------------------
 STRT.F                       25.0000:        START DEPTH
 STOP.F                     2347.0000:        STOP DEPTH
 STEP.F                        0.5000:        STEP VALUE
 NULL.                      -999.2500:        NULL VALUE
 COMP.        HUSKY OIL COMPANY/NPR-A:        COMPANY
 LOC .                     26 22N 17W:        LOCATION
 DATE.                        4/14/80:        LOG DATE
 WELL.                     BARROW #20:        WELL
 UWI .                   500232001500:        UNIQUE WELL ID
 API .                   500232001500:        UNIQUE WELL IDENTIFIER
 FLD .                   SOUTH BARROW:        FIELD
 CNTY.                    NORTH SLOPE:        COUNTY
 STAT.                        ALAASKA:        STATE
 CTRY.                            USA:        COUNTRY
 OPER.        HUSKY OIL COMPANY/NPR-A:        OPERATOR
 SRVC.                   SCHLUMBERGER:        SERVICE COMPANY
 LAT .                         0.0000:        LATITUDE
 LON .                         0.0000:        LONGITUDE
 DIGS.               CENTER LINE DATA:        DIGITIZING COMPANY
~CURVE INFORMATION      
#MNEM        .UNIT         API CODE           CURVE DESCRIPTION
#-----------------      --------------        ------------------------------
 DEPT        .F                      :        1  DEPTH
 CALI        .IN                     :        2  
 GR          .GAPI                   :        3  
 DRHO        .G/C3                   :        4  
 RHOB        .G/C3                   :        5  
 NPHI        .%                      :        6  
 SP          .MV                     :        7  
 ILD         .OHMM                   :        8  
 ILM         .OHMM                   :        9  
 SFL         .OHMM                   :        10 
 LLD         .OHMM                   :        11 
 LLS         .OHMM                   :        12 
 MSFL        .OHMM                   :        13 
 DT          .US/F                   :        14 
~PARAMETER INFORMATION
#MNEM.UNIT                  VALUE             DESCRIPTION OF MNEMONIC
#---------             ---------------        ------------------------------
 EKB .F                       30.0000:        KELLY BUSHING
 TD  .F                     2356.0000:        TOTAL DEPTH
 BHT .F                        0.0000:        BOTTOM HOLE TEMPERATURE
 BS  .                         8.5000:        BIT SIZE
 FD  .                        10.8000:        FLUID DENSITY
 CSIZ.                         9.6250:        CASING SIZE
 CBD .F                     1500.0000:        CASING DRILLER 1
 CBL .F                     1485.0000:        CASING LOGGER 1
 DFT .                            GEL:        TYPE FLUID IN HOLE
 DFV .                        10.0000:        VISCOSITY
 DFPH.                         9.0000:        PH
 DFL .                        10.0000:        FLUID LOSS
 RMS .                         0.1840:        RM
 MST .F                       61.0000:        RM MEAS. TEMP.
 RMF .                         0.1270:        RMF
 MFST.F                       61.0000:        RMF MEAS. TEMP.
 RMC .                         0.2660:        RMC
 MCST.F                       61.0000:        RMC MEAS. TEMP.
~OTHER INFORMATION
~A    DEPTH        CALI          GR        DRHO        RHOB        NPHI          SP         ILD         ILM         SFL         LLD         LLS        MSFL          DT 
# ...
  2185.0000      6.6695     92.4153      0.1697      2.4962     37.1144    -38.5898   -999.2500   -999.2500   -999.2500     14.2658     12.4314   -999.2500     99.7621 
  2185.5000      6.6220     91.4934      0.1561      2.5121     34.2937    -38.5537   -999.2500   -999.2500   -999.2500     16.9277     13.6844   -999.2500     96.9655 
  2186.0000      6.5559     89.6885      0.1514      2.5454     31.8042    -38.5698   -999.2500   -999.2500   -999.2500     19.1210     15.7115   -999.2500     93.9906 
  2186.5000      6.4407     88.1137      0.0655      2.5032     29.8762    -38.5772   -999.2500   -999.2500   -999.2500     21.5039     16.9408   -999.2500     91.0784 
  2187.0000      6.3714     86.0329      0.0720      2.5288     27.9282    -38.6737   -999.2500   -999.2500   -999.2500     21.1314     17.2345   -999.2500     89.8196 
  2187.5000      6.3437     84.1369      0.0530      2.5540     27.5828    -38.6948   -999.2500   -999.2500   -999.2500     20.4799     17.2622   -999.2500     89.0905 
  2188.0000      6.2335     83.7615      0.0759      2.5603     29.0532    -38.5542   -999.2500   -999.2500   -999.2500     20.5406     16.3857   -999.2500     89.2111 
  2188.5000      6.2112     85.9719      0.0875      2.5706     30.5035    -38.3436   -999.2500   -999.2500   -999.2500     19.1640     15.3476   -999.2500     89.6300 
  2189.0000      6.2236     87.8367      0.1065      2.5639     32.4189    -38.3027   -999.2500   -999.2500   -999.2500     17.4547     13.4749   -999.2500     90.8562 
  2189.5000      6.2195     89.1013      0.1316      2.5877     33.5166    -38.3419   -999.2500   -999.2500   -999.2500     17.1539     13.5126   -999.2500     91.3651 
  2190.0000      6.2539     88.2865      0.0914      2.5563     34.2999    -38.2887   -999.2500   -999.2500   -999.2500     18.1026     14.2559   -999.2500     90.2814 
  2190.5000      6.2941     83.5391      0.1149      2.5494     33.2507    -38.1154   -999.2500   -999.2500   -999.2500     19.1270     15.1151   -999.2500     87.9047 
  2191.0000      6.3244     79.7780      0.1268      2.5749     31.2743    -37.7429   -999.2500   -999.2500   -999.2500     20.6430     16.6911   -999.2500     87.4998 
  2191.5000      6.2568     76.9046      0.0655      2.5609     28.9236    -37.0802   -999.2500   -999.2500   -999.2500     22.2793     17.4560   -999.2500     85.4348 
  2192.0000      6.2552     78.6014      0.0646      2.5913     27.6242    -36.8766   -999.2500   -999.2500   -999.2500     22.1495     17.0267   -999.2500     86.9808 
  2192.5000      6.2576     79.9608      0.0762      2.5880     27.3421    -41.1748   -999.2500   -999.2500   -999.2500     21.5660     16.6875   -999.2500     87.9437 
  2193.0000      6.2102     79.8897      0.0697      2.5735     27.2850    -32.2556   -999.2500   -999.2500   -999.2500     21.8462     16.8717   -999.2500     87.1543 
  2193.5000      6.1802     79.1576      0.0783      2.5741     27.4066    -36.5742   -999.2500   -999.2500   -999.2500     22.3261     17.1215   -999.2500     87.2873 
  2194.0000      6.2208     78.4033      0.0850      2.5731     28.1163    -37.9849   -999.2500   -999.2500   -999.2500     22.4207     16.9969   -999.2500     86.6578 
  2194.5000      6.2305     77.0215      0.0752      2.5551     28.6955    -37.9767   -999.2500   -999.2500   -999.2500     22.2276     16.5802   -999.2500     85.2727 
  2195.0000      6.1163     76.4860      0.1017      2.5544     29.1672    -37.6907   -999.2500   -999.2500   -999.2500     19.9523     15.2746   -999.2500     86.0585 
  2195.5000      6.0625     77.2556      0.1446      2.5723     30.6582    -37.5709   -999.2500   -999.2500   -999.2500     18.6148     14.8273   -999.2500     86.8110 
  2196.0000      6.0763     78.9702      0.1393      2.5578     31.4550    -37.3889   -999.2500   -999.2500   -999.2500     19.0244     15.0404   -999.2500     88.0275 
  2196.5000      6.1283     78.6085      0.1491      2.5521     31.3956    -37.4585   -999.2500   -999.2500   -999.2500     20.3299     15.6259   -999.2500     89.5038 
  2197.0000      6.1479     77.6996      0.1195      2.5394     29.1650    -37.6475   -999.2500   -999.2500   -999.2500     21.8416     16.8874   -999.2500     89.3281 
  2197.5000      6.1416     76.9387      0.0664      2.4981     26.7299    -37.4387   -999.2500   -999.2500   -999.2500     23.1623     17.6764   -999.2500     86.7979 
  2198.0000      6.1353     76.1799      0.0771      2.5477     26.2611    -37.3449   -999.2500   -999.2500   -999.2500     23.9598     17.7405   -999.2500     85.4955 
  2198.5000      6.1169     75.4211      0.1050      2.5790     25.7923    -37.3521   -999.2500   -999.2500   -999.2500     22.4533     17.6180   -999.2500     83.9970 
  2199.0000      6.0835     74.6624      0.1119      2.5886     25.3235    -37.4099   -999.2500   -999.2500   -999.2500     22.0682     17.1662   -999.2500     84.6141 
  2199.5000      6.1485     73.9036      0.0742      2.5607     25.8280    -37.4960   -999.2500   -999.2500   -999.2500     22.9245     17.3653   -999.2500     86.8223 
  2200.0000      6.3840     73.5366      0.0752      2.5779     26.7369    -37.5886   -999.2500   -999.2500   -999.2500     22.6192     17.6274   -999.2500     85.8091 
  2200.5000      6.1784     74.9577      0.0968      2.5980     26.1561    -37.5481   -999.2500   -999.2500   -999.2500     21.8037     18.0013   -999.2500     84.9229 
  2201.0000      6.0129     76.6663      0.0942      2.5965     26.9954    -37.5344   -999.2500   -999.2500   -999.2500     21.0179     18.2091   -999.2500     84.0368 
  2201.5000      5.9683     77.9994      0.0976      2.6040     28.2490    -37.6046   -999.2500   -999.2500   -999.2500     21.0022     16.8082   -999.2500     82.4109 
  2202.0000      6.0070     80.6261      0.0757      2.6312     30.7026    -37.6067   -999.2500   -999.2500   -999.2500     18.4535     14.5914   -999.2500     84.3208 
  2202.5000      5.9980     84.2798      0.1347      2.6648     33.5929    -37.6369   -999.2500   -999.2500   -999.2500     16.3616     12.9497   -999.2500     87.5810 
  2203.0000      6.0507     87.2312      0.1171      2.5794     36.8013    -37.9172   -999.2500   -999.2500   -999.2500     14.3269     11.7338   -999.2500     91.7889 
  2203.5000      6.0853     89.3021      0.1531      2.4887     38.4298    -38.0973   -999.2500   -999.2500   -999.2500     13.4633     10.8675   -999.2500     95.5813 
  2204.0000      6.3172     92.2962      0.1796      2.4512     38.1326    -38.0698   -999.2500   -999.2500   -999.2500     13.4383     11.0942   -999.2500     98.9277 
  2204.5000      6.4643     94.5470      0.1939      2.5008     37.3251    -38.0091   -999.2500   -999.2500   -999.2500     13.9627     11.4078   -999.2500    100.0714 
  2205.0000      6.4549     95.5299      0.1904      2.5238     36.2762    -38.0330   -999.2500   -999.2500   -999.2500     14.2619     11.6083   -999.2500    100.0042 
  2205.5000      6.4432     96.3726      0.1816      2.5039     37.0007    -38.1424   -999.2500   -999.2500   -999.2500     14.0561     11.5660   -999.2500     99.7072 
  2206.0000      6.4218     96.6024      0.1252      2.4637     37.7428    -38.2523   -999.2500   -999.2500   -999.2500     13.4413     11.1403   -999.2500     99.4139 
  2206.5000      6.4209     96.8350      0.1399      2.5053     38.9791    -38.4146   -999.2500   -999.2500   -999.2500     12.5939     10.7340   -999.2500     99.1207 
  2207.0000      6.4426     97.1225      0.1811      2.5491     40.1615    -39.1952   -999.2500   -999.2500   -999.2500     12.2041     10.4084   -999.2500     99.7051 
  2207.5000      6.3967     98.0214      0.1779      2.5542     41.3834    -39.1507   -999.2500   -999.2500   -999.2500     12.0800     10.2941   -999.2500    100.3565 
  2208.0000      6.3191    100.6293      0.1964      2.5759     43.0205    -39.3227   -999.2500   -999.2500   -999.2500     12.0888     10.3345   -999.2500    101.9915 
  2208.5000      6.2374    100.4127      0.1767      2.5408     42.7775    -39.4464   -999.2500   -999.2500   -999.2500     12.1181     10.3788   -999.2500    102.7670 
