~VERSION INFORMATION
 VERS.                           2.00:        CWLS LOG ASCII STANDARD - VERSION 2.00
 WRAP.                             NO:        ONE LINE PER DEPTH STEP
~WELL INFORMATION
#MNEM.UNIT                   DATA             INFORMATION
#----------             --------------        ------------------------------
 STRT.F                       78.0000:        START DEPTH
 STOP.F                     2392.0000:        STOP DEPTH
 STEP.F                        0.5000:        STEP VALUE
 NULL.                      -999.2500:        NULL VALUE
 COMP.              U.S.G.S./NPR -  A:        COMPANY  
 LOC .                    1  22N  18W:        LOCATION   
 DATE.                        2/14/78:        LOG DATE 
 WELL.               SOUTH BARROW #16:        WELL     
 UWI .                   500232001000:        UNIQUE WELL ID 
 API .                   500232001000:        UNIQUE WELL IDENTIFIER 
 FLD .                   SOUTH BARROW:        FIELD    
 CNTY.                    NORTH SLOPE:        COUNTY  
 STAT.                         ALASKA:        STATE   
 CTRY.                            USA:        COUNTRY 
 OPER.              U.S.G.S./NPR -  A:        OPERATOR  
 SRVC.                   SCHLUMBERGER:        SERVICE COMPANY 
 LAT .                         0.0000:        LATITUDE
 LON .                         0.0000:        LONGITUDE
 DIGS.               CENTER LINE DATA:        DIGITIZING COMPANY 
~CURVE INFORMATION      
#MNEM        .UNIT         API CODE           CURVE DESCRIPTION
#-----------------      --------------        ------------------------------
 DEPT        .F                      :        1  DEPTH
 CALI        .IN                     :        2  
 GR          .GAPI                   :        3  
 RHOB        .G/C3                   :        4  
 DRHO        .G/C3                   :        5  
 NPHI        .%                      :        6  
 DT          .US/F                   :        7  
 SP          .MV                     :        8  
 ILD         .OHMM                   :        9  
 ILM         .OHMM                   :        10 
 LL8         .OHMM                   :        11 
 LLD         .OHMM                   :        12 
 LLS         .OHMM                   :        13 
~PARAMETER INFORMATION       
#MNEM.UNIT                  VALUE             DESCRIPTION OF MNEMONIC
#---------             ---------------        ------------------------------
 EKB .F                       30.0000:        KELLY BUSHING
 TD  .F                     2399.0000:        TOTAL DEPTH
 BHT .F                       73.0000:        BOTTOM HOLE TEMPERATURE
 BS  .                         8.5000:        BIT SIZE
 FD  .                        11.0000:        FLUID DENSITY
 CSIZ.                         8.5000:        CASING SIZE
 CBD .F                     1489.0000:        CASING DRILLER 1
 CBL .F                     1487.0000:        CASING LOGGER 1
 DFT .                  Miscellaneous:        TYPE FLUID IN HOLE
 DFV .                        52.0000:        VISCOSITY
 DFPH.                         8.5000:        PH
 DFL .                         8.0000:        FLUID LOSS
 RMS .                         0.0210:        RM
 MST .F                       58.0000:        RM MEAS. TEMP.
 RMF .                         0.0130:        RMF
 MFST.F                       52.0000:        RMF MEAS. TEMP.
 RMC .                         0.0170:        RMC
 MCST.F                       56.0000:        RMC MEAS. TEMP.
~OTHER INFORMATION
~A    DEPTH        CALI          GR        RHOB        DRHO        NPHI          DT          SP         ILD         ILM         LL8         LLD         LLS  
# ...
  1608.0000      9.1879     81.8339      2.4465      0.0127     38.3839    100.7432    -72.7594   -999.2500   -999.2500   -999.2500     10.7549     11.4901  
  1608.5000      9.3360     79.6871      2.4489      0.0098     38.8996    101.0252    -72.8074   -999.2500   -999.2500   -999.2500     10.7958     11.5310  
  1609.0000      9.2779     76.9292      2.4467      0.0124     39.1631    101.4419    -72.7603   -999.2500   -999.2500   -999.2500     10.8268     11.5719  
  1609.5000      9.1673     75.6469      2.4579      0.0302     38.8983    101.5205    -72.6484   -999.2500   -999.2500   -999.2500     10.8579     11.6131  
  1610.0000      9.1128     75.2382      2.4700      0.0466     38.6580    101.6911    -72.5323   -999.2500   -999.2500   -999.2500     10.8885     11.6544  
  1610.5000      9.2046     75.7231      2.4631      0.0479     38.4611    101.7401    -72.4338   -999.2500   -999.2500   -999.2500     10.9189     11.6958  
  1611.0000      9.0815     76.3464      2.4671      0.0420     38.3437    101.2846    -72.4443   -999.2500   -999.2500   -999.2500     10.9493     11.7374  
  1611.5000      9.1167     76.5428      2.4773      0.0506     38.0971    100.2533    -72.4286   -999.2500   -999.2500   -999.2500     10.9799     11.7791  
  1612.0000      9.2567     76.7249      2.4876      0.0696     37.9213     99.6320    -72.5146   -999.2500   -999.2500   -999.2500     11.0072     11.7841  
  1612.5000      9.1022     76.7692      2.4859      0.0815     37.7185     99.6653    -72.6976   -999.2500   -999.2500   -999.2500     10.9601     11.7416  
  1613.0000      9.1366     76.1125      2.4613      0.0618     37.3874    101.2190    -72.9648   -999.2500   -999.2500   -999.2500     10.9131     11.6993  
  1613.5000      9.2218     75.4770      2.4314      0.0348     37.4938    103.0846    -73.3929   -999.2500   -999.2500   -999.2500     10.8664     11.6571  
  1614.0000      9.1497     76.1492      2.4232      0.0454     37.9200    105.4570    -74.0451   -999.2500   -999.2500   -999.2500     10.9039     11.6731  
  1614.5000      9.0680     77.5264      2.4677      0.0870     38.3461    107.3242    -74.8152   -999.2500   -999.2500   -999.2500     11.1163     11.7406  
  1615.0000      9.2414     77.6218      2.4624      0.0758     38.3033    106.9044    -75.4165   -999.2500   -999.2500   -999.2500     11.6411     12.0635  
  1615.5000      9.0740     76.1831      2.4574      0.0522     38.2572    105.4784    -76.0693   -999.2500   -999.2500   -999.2500     12.0473     12.6124  
  1616.0000      8.9605     74.8781      2.4809      0.0585     38.7815    103.7891    -76.5271   -999.2500   -999.2500   -999.2500     11.5517     12.1753  
  1616.5000      9.2328     74.6535      2.4948      0.0658     39.0201    102.3961    -76.9214   -999.2500   -999.2500   -999.2500     10.7558     11.5653  
  1617.0000      8.9871     75.7392      2.4953      0.0745     38.8717    102.2642    -77.2434   -999.2500   -999.2500   -999.2500     10.0597     10.9858  
  1617.5000      8.7960     76.9928      2.4769      0.0523     38.6738    102.9397    -77.4287   -999.2500   -999.2500   -999.2500      9.3125     10.4354  
  1618.0000      8.8931     77.2733      2.4575      0.0411     38.8074    103.9244    -77.6129   -999.2500   -999.2500   -999.2500      8.9872     10.1295  
  1618.5000      9.0648     77.1199      2.4504      0.0464     38.6889    104.1523    -77.6865   -999.2500   -999.2500   -999.2500      9.4663     10.7421  
  1619.0000      9.1154     76.5960      2.4592      0.0419     38.3258    104.5586    -77.6399   -999.2500   -999.2500   -999.2500      9.9710     11.4777  
  1619.5000      9.0917     76.0922      2.4735      0.0416     38.3508    105.4409    -77.5784   -999.2500   -999.2500   -999.2500     10.5026     12.1372  
  1620.0000      9.0604     76.6005      2.4850      0.0405     38.3086    107.1673    -77.4511   -999.2500   -999.2500   -999.2500     10.4554     11.8720  
  1620.5000      8.8976     77.3590      2.4858      0.0357     38.2355    109.0682    -77.2333   -999.2500   -999.2500   -999.2500     10.2194     11.6126  
  1621.0000      9.0079     78.0193      2.4836      0.0296     38.9580    109.6572    -76.8758   -999.2500   -999.2500   -999.2500     10.0237     11.3588  
  1621.5000      8.8795     78.5265      2.4867      0.0369     39.2974    108.5939    -76.4887   -999.2500   -999.2500   -999.2500     10.0018     11.1450  
  1622.0000      8.8269     78.3262      2.4787      0.0427     38.9452    105.7248    -75.9939   -999.2500   -999.2500   -999.2500      9.9836     11.0094  
  1622.5000      8.7882     78.5658      2.4674      0.0374     38.8108    103.2435    -75.4152   -999.2500   -999.2500   -999.2500      9.8049     10.7614  
  1623.0000      8.7934     78.8677      2.4764      0.0504     39.0455    101.1844    -74.7654   -999.2500   -999.2500   -999.2500      9.2448     10.3956  
  1623.5000      8.8499     79.4447      2.4828      0.0569     39.4951    100.1346    -74.0168   -999.2500   -999.2500   -999.2500      8.8105     10.0423  
  1624.0000      8.9725     80.9673      2.4726      0.0481     39.5024     99.6362    -73.3270   -999.2500   -999.2500   -999.2500      8.5547      9.7010  
  1624.5000      8.6862     82.0068      2.4421      0.0285     38.6544     99.0771    -72.6216   -999.2500   -999.2500   -999.2500      8.7840      9.8889  
  1625.0000      8.7215     79.9216      2.4508      0.0319     37.6115     97.9204    -72.0926   -999.2500   -999.2500   -999.2500      9.3044     10.5861  
  1625.5000      8.9194     78.6216      2.4592      0.0421     36.8234     96.4008    -71.8724   -999.2500   -999.2500   -999.2500      9.8557     11.3325  
  1626.0000      8.6988     78.1040      2.4642      0.0357     36.3719     95.1335    -71.9168   -999.2500   -999.2500   -999.2500     10.4396     12.1051  
  1626.5000      8.4711     77.3265      2.4659      0.0364     36.1194     94.3380    -72.0319   -999.2500   -999.2500   -999.2500     10.9064     12.3709  
  1627.0000      8.4970     77.0200      2.4721      0.0453     35.9479     93.8975    -72.1250   -999.2500   -999.2500   -999.2500     11.3185     12.6425  
  1627.5000      8.5229     77.1159      2.4640      0.0314     35.3680     93.8420    -72.3489   -999.2500   -999.2500   -999.2500     11.7462     12.9201  
  1628.0000      8.5249     75.7760      2.4657      0.0193     35.0405     94.0472    -72.7234   -999.2500   -999.2500   -999.2500     12.4919     13.3948  
  1628.5000      8.5132     73.1632      2.4706      0.0096     34.5007     94.2622    -73.0860   -999.2500   -999.2500   -999.2500     13.1858     13.9363  
  1629.0000      8.4811     70.6455      2.4574     -0.0078     33.6411     94.6122    -73.2757   -999.2500   -999.2500   -999.2500     13.8233     14.4997  
  1629.5000      8.2913     69.2736      2.4576     -0.0126     32.4223     94.7175    -73.3379   -999.2500   -999.2500   -999.2500     14.4915     15.0858  
  1630.0000      8.2873     68.4409      2.4650     -0.0115     31.8970     94.0612    -73.2591   -999.2500   -999.2500   -999.2500     14.9947     15.4923  
  1630.5000      8.2852     68.7579      2.4853     -0.0036     31.5811     93.5117    -73.2428   -999.2500   -999.2500   -999.2500     15.1549     15.7794  
  1631.0000      8.2939     69.5262      2.4957      0.0042     31.2291     93.9781    -73.1534   -999.2500   -999.2500   -999.2500     15.1278     15.5916  
  1631.5000      8.3105     70.4809      2.5082      0.0089     31.5122     96.0902    -72.9024   -999.2500   -999.2500   -999.2500     15.0242     15.4060  
  1632.0000      8.3382     71.8467      2.4969      0.0090     32.0103     99.2904    -72.5597   -999.2500   -999.2500   -999.2500     14.8341     15.2100  
  1632.5000      8.3712     72.5597      2.4887      0.0115     32.2984    103.3496    -72.2465   -999.2500   -999.2500   -999.2500     14.5649     14.9548  
  1633.0000      8.3982     72.3294      2.4887      0.0123     32.4413    107.3783    -72.0261   -999.2500   -999.2500   -999.2500     14.7880     15.0890  
