~VERSION INFORMATION
 VERS.                           2.00:        CWLS LOG ASCII STANDARD - VERSION 2.00
 WRAP.                             NO:        ONE LINE PER DEPTH STEP
~WELL INFORMATION
#MNEM.UNIT                   DATA             INFORMATION
#----------             --------------        ------------------------------
 STRT.F                      999.0000:        START DEPTH
 STOP.F                     2350.0000:        STOP DEPTH
 STEP.F                        0.5000:        STEP VALUE
 NULL.                      -999.2500:        NULL VALUE
 COMP.             UNITED STATES NAVY:        COMPANY  
 LOC .                   14  22N  18W:        LOCATION   
 DATE.                        3/19/68:        LOG DATE 
 WELL.                SOUTH BARROW #7:        WELL     
 UWI .                   500232000100:        UNIQUE WELL ID 
 API .                   500232000100:        UNIQUE WELL IDENTIFIER 
 FLD .                   SOUTH BARROW:        FIELD    
 CNTY.                         NPR #4:        COUNTY  
 STAT.                         ALASKA:        STATE   
 CTRY.                            USA:        COUNTRY 
 OPER.             UNITED STATES NAVY:        OPERATOR  
 SRVC.                   SCHLUMBERGER:        SERVICE COMPANY 
 LAT .                         0.0000:        LATITUDE
 LON .                         0.0000:        LONGITUDE
 DIGS.               CENTER LINE DATA:        DIGITIZING COMPANY 
~CURVE INFORMATION      
#MNEM        .UNIT         API CODE           CURVE DESCRIPTION
#-----------------      --------------        ------------------------------
 DEPT        .F                      :        1  DEPTH
 SP          .MV                     :        2  
 ILD         .OHMM                   :        3  
 ASN         .OHMM                   :        4  
 CILD        .OHMM                   :        5  
 CALI        .IN                     :        6  
 DT          .US/F                   :        7  
~PARAMETER INFORMATION       
#MNEM.UNIT                  VALUE             DESCRIPTION OF MNEMONIC
#---------             ---------------        ------------------------------
 EKB .F                       36.0000:        KELLY BUSHING
 TD  .F                     2351.0000:        TOTAL DEPTH
 BHT .F                        0.0000:        BOTTOM HOLE TEMPERATURE
 BS  .                         9.6250:        BIT SIZE
 FD  .                        76.5000:        FLUID DENSITY
 CSIZ.                        10.7500:        CASING SIZE
 CBD .F                      998.0000:        CASING DRILLER 1
 CBL .F                      999.0000:        CASING LOGGER 1
 DFT .                            Gel:        TYPE FLUID IN HOLE
 DFV .                        45.0000:        VISCOSITY
 DFPH.                         9.5000:        PH
 DFL .                         7.0000:        FLUID LOSS
 RMS .                         5.4300:        RM
 MST .F                       42.0000:        RM MEAS. TEMP.
 RMF .                         5.1700:        RMF
 MFST.F                       59.0000:        RMF MEAS. TEMP.
 RMC .                         5.0900:        RMC
 MCST.F                       56.0000:        RMC MEAS. TEMP.
~OTHER INFORMATION
~A    DEPTH          SP         ILD         ASN        CILD        CALI          DT  
# ...
  1798.0000    -29.7265     11.6634     11.9079     89.9420      9.7086    106.2335  
  1798.5000    -29.7917     11.6385     11.8563     90.3139      9.7232    105.2652  
  1799.0000    -29.9540     11.6136     11.8268     90.7087      9.7512    105.0947  
  1799.5000    -30.0216     11.5888     11.8298     90.5141      9.7725    105.3780  
  1800.0000    -29.9388     11.5639     11.9021     90.2106      9.7758    106.5055  
  1800.5000    -29.8662     11.5390     11.9441     89.8843      9.7739    107.9040  
  1801.0000    -29.7685     11.5141     11.9136     90.0837      9.7581    108.2478  
  1801.5000    -29.8258     11.4892     11.8906     90.3748      9.7392    107.9163  
  1802.0000    -29.8366     11.4643     11.8379     90.7272      9.7369    107.3965  
  1802.5000    -29.7944     11.4395     11.7535     90.8408      9.7334    107.0028  
  1803.0000    -29.6227     11.4561     11.8584     90.7457      9.7392    107.1608  
  1803.5000    -29.7496     11.4993     11.8652     90.4861      9.7401    107.7929  
  1804.0000    -29.8137     11.5425     11.9239     90.0480      9.7354    108.4988  
  1804.5000    -29.8346     11.5857     11.9795     89.2722      9.7393    108.7479  
  1805.0000    -29.7499     11.6288     12.0133     88.9156      9.7349    108.7349  
  1805.5000    -29.5679     11.6720     12.1051     88.6764      9.7220    108.7522  
  1806.0000    -29.7346     11.7152     12.1723     88.5048      9.7027    108.9647  
  1806.5000    -30.0703     11.7583     12.2379     88.4726      9.6902    108.8798  
  1807.0000    -30.2402     11.8015     12.2291     88.6782      9.6802    109.3300  
  1807.5000    -30.3833     11.6853     12.1446     88.9854      9.6683    109.8445  
  1808.0000    -30.6323     11.5294     12.0252     89.9104      9.6724    110.0427  
  1808.5000    -30.8543     11.3735     11.9163     91.2803      9.6727    110.2264  
  1809.0000    -30.3402     11.2176     11.7145     92.7736      9.6769    109.3800  
  1809.5000    -29.2698     11.0617     11.4741     93.8529      9.6731    108.5434  
  1810.0000    -28.2118     10.9058     11.3835     95.1418      9.6806    108.6936  
  1810.5000    -27.5887     10.7499     11.2928     96.8728      9.6839    108.7631  
  1811.0000    -27.3631     10.5940     11.2021     98.1108      9.6744    108.7696  
  1811.5000    -27.1140     10.4381     11.1114     98.6604      9.6987    108.7500  
  1812.0000    -27.2102     10.3314     11.0405     98.7016      9.6988    108.5041  
  1812.5000    -27.5254     10.5197     11.0460     98.1460      9.6975    108.9868  
  1813.0000    -27.8223     10.7081     11.4892     97.4461      9.7035    110.9912  
  1813.5000    -28.0894     10.6900     11.7144     97.0991      9.6944    111.8804  
  1814.0000    -28.4552     10.7160     11.9243     96.9469      9.6907    112.7563  
  1814.5000    -28.6735     10.7287     12.0465     96.8969      9.7077    113.1504  
  1815.0000    -28.7334     10.7566     12.0397     96.8709      9.7215    112.3174  
  1815.5000    -28.8635     10.7214     11.9096     96.9390      9.7147    112.4878  
  1816.0000    -28.9461     10.6757     11.7197     96.9470      9.7075    112.4567  
  1816.5000    -29.3537     10.6300     11.5170     97.3933      9.7003    112.3478  
  1817.0000    -29.5759     10.5843     11.4181     97.9571      9.6932    111.4470  
  1817.5000    -29.6335     10.5386     11.3534     98.3069      9.6860    110.5318  
  1818.0000    -29.2665     10.4928     11.3716     98.8147      9.6789    110.6494  
  1818.5000    -28.7141     10.4405     11.6121     99.2563      9.6717    110.6687  
  1819.0000    -28.1716     10.3703     11.6590    100.1880      9.6645    110.4029  
  1819.5000    -27.7705     10.3001     11.6297    101.7117      9.6574    110.5706  
  1820.0000    -27.3694     10.2198     11.5478    104.0550      9.6645    111.3281  
  1820.5000    -27.2785      9.6676     11.4032    106.9693      9.6740    111.8882  
  1821.0000    -27.4247      9.2840     11.1276    110.1606      9.6739    112.0291  
  1821.5000    -27.4532      9.0885     10.5773    112.4982      9.6870    111.9409  
  1822.0000    -27.5079      9.0691     10.2415    113.8939      9.7088    111.6046  
  1822.5000    -27.5626      9.0497      9.9057    114.7009      9.7198    111.2401  
  1823.0000    -27.6199      8.9390     10.0485    114.6180      9.7185    111.3509  
  1823.5000    -28.0880      8.9771     10.6104    114.4109      9.7020    111.1705  
  1824.0000    -28.3943      9.0726     11.1228    113.4203      9.6855    110.8554  
  1824.5000    -28.2638      9.2580     11.3936    112.0668      9.6690    112.7219  
  1825.0000    -28.1920      9.4902     11.4903    109.6310      9.6525    115.7362  
  1825.5000    -28.1783      9.6611     11.4448    107.4860      9.6654    118.0794  
  1826.0000    -28.1864      9.8234     11.3426    104.8147      9.6809    119.1609  
  1826.5000    -28.0251      9.9470     11.2131    103.5097      9.6964    119.3230  
  1827.0000    -27.6849      9.9955     11.0540    103.1601      9.7119    117.5638  
  1827.5000    -27.1361     10.0162     11.0439    103.2117      9.7105    114.8951  
  1828.0000    -26.9254      9.9207     11.2708    103.4468      9.7087    111.9574  
  1828.5000    -27.3320      9.9043     11.5128    103.7879      9.7069    110.5340  
  1829.0000    -27.7871      9.8676     11.6509    104.0083      9.7034    111.1650  
  1829.5000    -28.1047      9.8593     11.6639    104.3345      9.6993    113.0516  
  1830.0000    -28.2744      9.7843     11.5658    105.3763      9.6981    114.1890  
  1830.5000    -28.1847      9.6687     11.4088    106.5814      9.7117    114.6890  
  1831.0000    -27.8584      9.5532     11.1997    108.0415      9.7120    113.7012  
  1831.5000    -27.4412      9.4377     11.0233    109.3312      9.7122    112.9879  
  1832.0000    -27.0819      9.3241     10.8784    110.8798      9.7125    112.4333  
  1832.5000    -26.7154      9.1675     10.7811    112.1498      9.7127    112.0545  
  1833.0000    -26.4478      9.0509     10.8501    113.6870      9.7130    111.8028  
  1833.5000    -26.4213      8.8881     10.9407    114.7651      9.7132    112.1526  
  1834.0000    -26.3871      8.8847     10.7946    115.4847      9.7254    113.4362  
  1834.5000    -26.2305      8.8952     10.5398    115.6657      9.7442    114.5804  
  1835.0000    -26.3155      8.9220     10.4724    115.2596      9.7312    117.1351  
  1835.5000    -26.4505      9.0101     10.4721    114.3845      9.7127    118.5486  
  1836.0000    -26.5369      9.0625     10.5624    113.7126      9.6997    118.8816  
  1836.5000    -26.4684      9.1393     10.6876    113.0193      9.6628    118.5399  
  1837.0000    -26.2562      9.2403     11.0755    112.1210      9.6614    117.8398  
  1837.5000    -26.0375      9.2879     11.2485    111.2327      9.6623    117.2303  
  1838.0000    -25.7958      9.3357     11.2896    110.6515      9.6632    116.9015  
  1838.5000    -25.2451      9.3025     11.2296    110.7098      9.6673    117.2714  
  1839.0000    -24.9346      9.2194     11.1181    111.6286      9.6735    117.2508  
  1839.5000    -24.6908      9.0020     10.9398    113.6171      9.6884    116.7608  
  1840.0000    -24.4751      8.7490     10.6624    116.1758      9.7032    115.4482  
  1840.5000    -24.2566      8.4859     10.3013    119.8554      9.7181    114.1223  
  1841.0000    -24.0382      8.2291      9.9503    123.1932      9.7333    113.5833  
  1841.5000    -23.8337      7.9475      9.8838    126.9676      9.7545    113.6036  
  1842.0000    -23.5014      7.7309      9.8172    130.6888      9.7281    113.4510  
  1842.5000    -22.9009      7.5419      9.5285    133.7144      9.6954    113.6969  
  1843.0000    -22.1439      7.4312      9.4435    136.0769      9.6627    115.4077  
  1843.5000    -21.3665      7.3367      9.5620    137.1489      9.6357    117.0787  
  1844.0000    -20.9226      7.3863      9.7074    137.1478      9.6785    119.3181  
  1844.5000    -20.4896      7.4527      9.7921    136.3969      9.7213    121.7727  
