~VERSION INFORMATION
 VERS.                           2.00:        CWLS LOG ASCII STANDARD - VERSION 2.00
 WRAP.                             NO:        ONE LINE PER DEPTH STEP
~WELL INFORMATION
#MNEM.UNIT                   DATA             INFORMATION
#----------             --------------        ------------------------------
 STRT.F                     1260.0000:        START DEPTH
 STOP.F                     2340.0000:        STOP DEPTH
 STEP.F                        0.5000:        STEP VALUE
 NULL.                      -999.2500:        NULL VALUE
 COMP.        U.S.NAVY DEEPT NP & OSR:        COMPANY  
 LOC .                  144  22N 18W UPM:        LOCATION   
 DATE.                        2/24/74:        LOG DATE 
 WELL.               SOUTH BARROW #11:        WELL     
 UWI .                    50023200500:        UNIQUE WELL ID 
 API .                    50023200500:        UNIQUE WELL IDENTIFIER 
 FLD .                   SOUTH BARROW:        FIELD    
 CNTY.                          NPR-4:        COUNTY  
 STAT.                         ALASKA:        STATE   
 CTRY.                            USA:        COUNTRY 
 OPER.        U.S.NAVY DEEPT NP & OSR:        OPERATOR  
 SRVC.                   SCHLUMBERGER:        SERVICE COMPANY 
 LAT .                         0.0000:        LATITUDE
 LON .                         0.0000:        LONGITUDE
 DIGS.               CENTER LINE DATA:        DIGITIZING COMPANY 
~CURVE INFORMATION      
#MNEM        .UNIT         API CODE           CURVE DESCRIPTION
#-----------------      --------------        ------------------------------
 DEPT        .F                      :        1  DEPTH
 CALI        .IN                     :        2  
 GR          .GAPI                   :        3  
 RHOB        .G/C3                   :        4  
 NPHI        .%                      :        5  
 DPHI        .%                      :        6  
 SP          .MV                     :        7  
 LL8         .OHMM                   :        8  
 ILD         .OHMM                   :        9  
 CILD        .MMHO                   :        10 
 DT          .US/F                   :        11 
~PARAMETER INFORMATION       
#MNEM.UNIT                  VALUE             DESCRIPTION OF MNEMONIC
#---------             ---------------        ------------------------------
 EKB .F                       36.0000:        KELLY BUSHING
 TD  .F                     2350.0000:        TOTAL DEPTH
 BHT .F                       60.0000:        BOTTOM HOLE TEMPERATURE
 BS  .                         9.6250:        BIT SIZE
 FD  .                        10.8000:        FLUID DENSITY
 CSIZ.                        10.7500:        CASING SIZE
 CBD .F                     1267.0000:        CASING DRILLER 1
 CBL .F                     1267.0000:        CASING LOGGER 1
 DFT .      Salt Water-Lignosulfonate:        TYPE FLUID IN HOLE
 DFV .                        52.0000:        VISCOSITY
 DFPH.                         9.0000:        PH
 DFL .                         4.2000:        FLUID LOSS
 RMS .                         1.8800:        RM
 MST .F                       50.0000:        RM MEAS. TEMP.
 RMF .                         1.1500:        RMF
 MFST.F                       63.0000:        RMF MEAS. TEMP.
 RMC .                         1.5000:        RMC
 MCST.F                       50.0000:        RMC MEAS. TEMP.
~OTHER INFORMATION
~A    DEPTH        CALI          GR        RHOB        NPHI        DPHI          SP         LL8         ILD        CILD          DT  
# ...
  1320.0000      9.9645     82.5852      2.3845     37.6728     15.8954    -30.7822     11.4357     11.5606     89.8852    106.6318  
  1320.5000     10.2603     81.6734      2.3824     35.9729     16.0813    -30.7721     11.6964     11.8527     88.5448    104.7406  
  1321.0000     10.3015     81.6950      2.3717     35.2441     16.3679    -30.7587     11.7572     11.8626     87.6651    102.6104  
  1321.5000     10.2244     82.1053      2.3676     35.4374     16.9266    -30.7453     11.7127     11.7191     87.7010    100.7815  
  1322.0000     10.1948     83.2943      2.3794     35.8255     16.1240    -30.5893     11.5833     11.5698     88.0684     98.9441  
  1322.5000     10.1914     84.9535      2.3926     35.8328     15.5047    -30.4552     11.3905     11.4121     88.3176    100.1761  
  1323.0000     10.1706     87.0657      2.4039     35.9651     14.7038    -30.4816     11.1258     11.2544     89.1250    102.1051  
  1323.5000     10.2193     90.0220      2.3981     36.8345     14.7944    -30.6623     10.9769     11.0968     89.9567    104.1256  
  1324.0000     10.3146     92.0263      2.3938     38.6870     14.8915    -30.9587     10.6939     11.1642     90.2402    107.3984  
  1324.5000     10.4214     91.0329      2.4097     39.0699     14.5954    -31.2782     10.8289     11.2628     91.1102    108.5336  
  1325.0000     10.5042     89.7434      2.4088     38.5777     14.6978    -31.3462     11.0247     11.4060     91.2312    109.0015  
  1325.5000     10.5781     88.5727      2.4087     37.5870     14.6426    -31.4707     11.1868     11.5989     90.9134    108.1759  
  1326.0000     10.7358     87.7026      2.4145     36.6141     14.2037    -31.4607     11.4187     11.7917     89.2302    107.3757  
  1326.5000     10.7899     86.0380      2.4219     35.8396     13.4560    -31.3788     11.5940     11.9846     88.3125    106.1433  
  1327.0000     10.9517     84.8867      2.4194     35.4029     13.3568    -31.0823     11.6361     11.9985     88.7273    104.7614  
  1327.5000     10.4753     84.8085      2.4088     34.8114     14.1229    -30.9457     11.6242     11.9633     88.3847    103.1854  
  1328.0000     10.1648     84.6355      2.3936     34.1072     15.7373    -30.9548     11.5645     11.9471     88.2186    101.9769  
  1328.5000     10.0602     84.9721      2.3870     34.2587     15.7457    -30.8289     11.5312     11.9471     86.9438    101.9562  
  1329.0000     10.2435     86.8818      2.3880     35.6153     15.8129    -30.5888     11.5878     12.0537     86.0676    103.1316  
  1329.5000     10.3296     87.5488      2.3842     36.5619     15.9429    -30.2748     11.6753     12.1675     85.2648    105.1731  
  1330.0000     10.3505     87.1978      2.3756     36.8878     16.4565    -29.8683     11.8605     12.2896     84.9535    106.6276  
  1330.5000     10.3558     87.0005      2.3613     36.7995     17.2597    -29.5721     12.0708     12.4132     84.2984    106.8585  
  1331.0000     10.3681     87.0138      2.3601     36.4541     17.4043    -29.4212     12.2811     12.5421     83.5646    106.0487  
  1331.5000     10.2571     86.6879      2.3633     36.3881     17.1912    -29.4289     12.4621     12.6713     82.8308    103.9087  
  1332.0000     10.1417     86.7549      2.3578     36.2703     16.9119    -29.4342     12.6113     12.8005     81.3613    102.0553  
  1332.5000     10.0391     86.9172      2.3392     34.9718     18.2768    -29.7366     12.6122     12.8694     80.5465    100.2876  
  1333.0000     10.1619     86.4063      2.3350     34.5206     18.8746    -30.0570     12.5697     12.7703     80.1904     99.6404  
  1333.5000     10.2231     85.6043      2.3438     36.1396     18.8343    -30.3799     12.4978     12.6711     80.1861     99.6544  
  1334.0000     10.2485     84.5714      2.3649     36.1711     17.8866    -30.7780     12.4471     12.5729     80.7871    100.4364  
  1334.5000     10.2144     83.8889      2.3837     35.9433     16.4784    -30.6704     12.3681     12.4854     81.6377    101.6263  
  1335.0000     10.1852     83.6861      2.3934     35.1831     15.6697    -30.7638     12.2627     12.3979     82.4534    100.9826  
  1335.5000     10.1979     84.7797      2.3983     34.5103     15.3743    -30.8072     12.1548     12.3105     83.1243    100.0774  
  1336.0000     10.3277     88.0245      2.4044     34.3171     15.0413    -30.8006     12.0853     12.2230     83.8044     99.3934  
  1336.5000     10.4161     91.1102      2.4108     34.2773     14.6074    -30.7897     12.0028     12.1356     84.0069     99.8353  
  1337.0000     10.4797     92.9488      2.4158     34.6547     14.1607    -30.8091     11.8705     12.2129     84.0561    100.5759  
  1337.5000     10.6565     93.5363      2.4182     35.1103     14.0098    -30.7829     11.9370     12.3780     83.7674    101.9029  
  1338.0000     10.5710     94.0233      2.4189     35.7502     13.9308    -30.5769     11.9552     12.4801     83.4499    103.0514  
  1338.5000     10.6551     94.2106      2.4236     36.3547     13.8324    -30.0215     12.0223     12.5597     83.2727    103.8018  
  1339.0000     10.6290     94.2861      2.4228     36.3206     13.7982    -29.6671     12.1352     12.6393     83.1724    104.4775  
  1339.5000     10.6880     94.8524      2.4317     35.7692     13.4648    -29.4438     12.2814     12.7190     82.7810    104.0452  
  1340.0000     10.6715     94.6335      2.4242     34.9419     13.4415    -29.5822     12.2827     12.7986     82.2718    102.7173  
  1340.5000     10.5265     93.6923      2.4062     34.4949     14.0194    -29.9919     12.3051     12.8782     81.7948    101.6117  
  1341.0000     10.7308     92.3024      2.3980     34.0807     14.9443    -30.3529     12.3131     12.9579     81.3869    101.3595  
  1341.5000     10.7681     91.6886      2.3993     34.4061     15.0612    -30.5525     12.3023     12.9074     80.9214    101.5704  
  1342.0000     10.5812     91.3678      2.4064     34.4092     14.9445    -30.6974     12.2675     12.8059     80.8122    102.2605  
  1342.5000     10.5331     90.6505      2.4084     34.3236     14.6585    -30.4537     12.2668     12.7045     81.4014    103.0249  
  1343.0000     10.5486     90.5924      2.4192     34.0820     14.1040    -30.0703     12.2835     12.6030     81.6994    103.2564  
  1343.5000     10.6380     90.7953      2.4155     34.0344     13.7642    -29.8448     12.2509     12.5535     82.0930    102.9782  
  1344.0000     10.4859     90.6424      2.4102     34.0604     14.4825    -29.7309     12.1425     12.5103     82.8678    102.2854  
  1344.5000     10.4800     90.3848      2.4095     33.9811     14.8720    -29.7702     12.0691     12.4672     83.4875    101.3772  
  1345.0000     10.4647     90.0185      2.4082     33.7897     14.7303    -29.9051     12.0259     12.4189     84.0174    100.6466  
  1345.5000     10.3899     89.6602      2.4047     33.7475     14.7332    -30.2534     11.8161     12.3528     84.5473    100.6461  
  1346.0000     10.2204     89.2872      2.3972     33.7625     15.0519    -30.7172     11.7220     12.2867     84.9671    101.7622  
  1346.5000     10.2179     88.8501      2.3833     34.2958     15.5142    -31.0195     11.6781     12.2205     84.9728    103.3702  
  1347.0000     10.2438     88.3647      2.3617     35.5040     16.5603    -31.1712     11.6695     12.1544     84.5823    104.8126  
  1347.5000     10.2732     88.5079      2.3461     37.0444     17.7360    -31.1404     11.7595     12.1665     84.1940    105.9739  
  1348.0000     10.2456     89.1119      2.3377     37.9662     18.4196    -31.1149     11.8804     12.2792     83.9077    107.1027  
  1348.5000     10.2354     90.2800      2.3443     37.8210     18.9926    -30.7927     12.0720     12.3919     83.3615    106.7465  
  1349.0000     10.2431     90.5754      2.3723     37.0574     17.9885    -30.5037     12.2725     12.5046     82.2526    106.2423  
  1349.5000     10.2508     90.0142      2.3915     35.7883     16.7065    -30.4000     12.3632     12.7249     81.3191    104.6061  
