~VERSION INFORMATION
 VERS.                           2.00:        CWLS LOG ASCII STANDARD - VERSION 2.00
 WRAP.                             NO:        ONE LINE PER DEPTH STEP
~WELL INFORMATION
#MNEM.UNIT                   DATA             INFORMATION
#----------             --------------        ------------------------------
 STRT.F                       98.0000:        START DEPTH
 STOP.F                     2124.0000:        STOP DEPTH
 STEP.F                        0.5000:        STEP VALUE
 NULL.                      -999.2500:        NULL VALUE
 COMP.          USGS/NPR-A OPERATIONS:        COMPANY  
 LOC .                   24  22N  17W:        LOCATION   
 DATE.                        10/5/80:        LOG DATE 
 WELL.               SOUTH BARROW #18:        WELL     
 UWI .                   500232001700:        UNIQUE WELL ID 
 API .                   500232001700:        UNIQUE WELL IDENTIFIER 
 FLD .                   SOUTH BARROW:        FIELD    
 CNTY.                    NORTH SLOPE:        COUNTY  
 STAT.                         ALASKA:        STATE   
 CTRY.                            USA:        COUNTRY 
 OPER.          USGS/NPR-A OPERATIONS:        OPERATOR  
 SRVC.                   SCHLUMBERGER:        SERVICE COMPANY 
 LAT .                         0.0000:        LATITUDE
 LON .                         0.0000:        LONGITUDE
 DIGS.               CENTER LINE DATA:        DIGITIZING COMPANY 
~CURVE INFORMATION      
#MNEM        .UNIT         API CODE           CURVE DESCRIPTION
#-----------------      --------------        ------------------------------
 DEPT        .F                      :        1  DEPTH
 CALI        .IN                     :        2  
 GR          .GAPI                   :        3  
 NPHI        .%                      :        4  
 RHOB        .G/C3                   :        5  
 DRHO        .G/C3                   :        6  
 DT          .US/F                   :        7  
 SP          .MV                     :        8  
 ILD         .OHMM                   :        9  
 ILM         .OHMM                   :        10 
 SFL         .OHMM                   :        11 
 LLD         .OHMM                   :        12 
 LLS         .OHMM                   :        13 
 MSFL        .OHMM                   :        14 
~PARAMETER INFORMATION       
#MNEM.UNIT                  VALUE             DESCRIPTION OF MNEMONIC
#---------             ---------------        ------------------------------
 EKB .F                       30.0000:        KELLY BUSHING
 TD  .F                     2125.0000:        TOTAL DEPTH
 BHT .F                        0.0000:        BOTTOM HOLE TEMPERATURE
 BS  .                         8.5000:        BIT SIZE
 FD  .                        10.3000:        FLUID DENSITY
 CSIZ.                         9.6250:        CASING SIZE
 CBD .F                     1519.0000:        CASING DRILLER 1
 CBL .F                     1520.0000:        CASING LOGGER 1
 DFT .                  Miscellaneous:        TYPE FLUID IN HOLE
 DFV .                        47.0000:        VISCOSITY
 DFPH.                         8.5000:        PH
 DFL .                        14.0000:        FLUID LOSS
 RMS .                         0.1600:        RM
 MST .F                       43.0000:        RM MEAS. TEMP.
 RMF .                         0.1100:        RMF
 MFST.F                       43.0000:        RMF MEAS. TEMP.
 RMC .                         0.1200:        RMC
 MCST.F                       43.0000:        RMC MEAS. TEMP.
~OTHER INFORMATION
~A    DEPTH        CALI          GR        NPHI        RHOB        DRHO          DT          SP         ILD         ILM         SFL         LLD         LLS        MSFL  
# ...
  1826.0000     10.2989     99.7801     33.6750      2.4781      0.0223    104.6429   -999.2500   -999.2500   -999.2500   -999.2500      9.7977      8.4262      3.1954  
  1826.5000     10.2526    100.8796     33.9245      2.4923      0.0307    103.9719   -999.2500   -999.2500   -999.2500   -999.2500      9.8557      8.4794      3.1144  
  1827.0000     10.2781    100.8283     34.1580      2.4985      0.0322    103.4418   -999.2500   -999.2500   -999.2500   -999.2500     10.1042      8.6032      3.2633  
  1827.5000     10.2477    100.3142     34.3450      2.4993      0.0226    102.7412   -999.2500   -999.2500   -999.2500   -999.2500     10.3590      8.7725      3.7473  
  1828.0000     10.2577     99.8020     34.5020      2.4969      0.0192    103.1997   -999.2500   -999.2500   -999.2500   -999.2500     10.6201      8.9354      3.9145  
  1828.5000     10.2846     96.0635     34.9740      2.4893      0.0171    103.8732   -999.2500   -999.2500   -999.2500   -999.2500     10.8879      9.0979      3.8604  
  1829.0000     10.2921     93.6770     35.7939      2.4848      0.0186    104.7319   -999.2500   -999.2500   -999.2500   -999.2500     11.1587      9.0141      3.8706  
  1829.5000     10.2646     94.7063     35.3794      2.4926      0.0176    105.4445   -999.2500   -999.2500   -999.2500   -999.2500     10.7607      8.8804      3.8888  
  1830.0000     10.1725     97.6971     34.9751      2.5120      0.0216    106.5139   -999.2500   -999.2500   -999.2500   -999.2500     10.3768      8.6654      3.8380  
  1830.5000     10.1857     95.8539     34.2987      2.4957      0.0186    105.9779   -999.2500   -999.2500   -999.2500   -999.2500     10.0674      8.4292      3.7382  
  1831.0000     10.1792     93.2261     34.1605      2.4849      0.0153    105.3565   -999.2500   -999.2500   -999.2500   -999.2500      9.9694      8.1995      3.5980  
  1831.5000     10.1853     93.7229     34.0874      2.4779      0.0127    104.7838   -999.2500   -999.2500   -999.2500   -999.2500      9.8723      8.0046      3.5282  
  1832.0000     10.2064     97.1237     33.7703      2.4803      0.0138    104.4711   -999.2500   -999.2500   -999.2500   -999.2500      9.9228      8.0768      3.9298  
  1832.5000     10.2200     98.6077     34.1380      2.4847      0.0154    104.6385   -999.2500   -999.2500   -999.2500   -999.2500     10.0755      8.2584      4.3543  
  1833.0000     10.2296     96.1763     34.7083      2.4771      0.0172    105.1874   -999.2500   -999.2500   -999.2500   -999.2500     10.4851      8.4441      4.4612  
  1833.5000     10.2563     94.2645     34.8792      2.4740      0.0140    105.9379   -999.2500   -999.2500   -999.2500   -999.2500     10.1067      8.6072      4.1954  
  1834.0000     10.2755     93.9251     34.5287      2.4747      0.0078    106.6345   -999.2500   -999.2500   -999.2500   -999.2500     10.0341      8.5062      4.1073  
  1834.5000     10.2651     93.6796     34.1801      2.4768      0.0114    106.9933   -999.2500   -999.2500   -999.2500   -999.2500      9.8523      8.4505      4.1706  
  1835.0000     10.2383     93.0619     34.4651      2.4811      0.0196    106.6796   -999.2500   -999.2500   -999.2500   -999.2500      9.6774      8.3951      4.2486  
  1835.5000     10.2230     93.1888     36.2441      2.4840      0.0260    106.2425   -999.2500   -999.2500   -999.2500   -999.2500      9.8739      8.3401      4.3730  
  1836.0000     10.2526     94.9417     37.6003      2.4925      0.0322    105.9055   -999.2500   -999.2500   -999.2500   -999.2500     10.0086      8.3442      4.4096  
  1836.5000     10.2727     96.4212     36.8932      2.5099      0.0383    105.7111   -999.2500   -999.2500   -999.2500   -999.2500     10.1452      8.4527      4.0214  
  1837.0000     10.2585     95.3622     36.2172      2.5136      0.0302    105.8141   -999.2500   -999.2500   -999.2500   -999.2500     10.2837      8.6236      3.6418  
  1837.5000     10.3227     93.7164     36.1210      2.5010      0.0258    106.0122   -999.2500   -999.2500   -999.2500   -999.2500     10.3533      8.6208      3.5462  
  1838.0000     10.2978     92.0607     36.5086      2.5175      0.0354    106.3478   -999.2500   -999.2500   -999.2500   -999.2500     10.3533      8.6179      3.3610  
  1838.5000     10.2645     92.5760     36.4084      2.5371      0.0486    106.7140   -999.2500   -999.2500   -999.2500   -999.2500     10.1459      8.6150      2.9980  
  1839.0000     10.2736     94.0057     35.8802      2.5127      0.0430    107.1820   -999.2500   -999.2500   -999.2500   -999.2500      9.9337      8.5513      2.7572  
  1839.5000     10.2392     94.2529     34.5704      2.4831      0.0163    107.2909   -999.2500   -999.2500   -999.2500   -999.2500      9.8030      8.4502      2.8202  
  1840.0000     10.2407     94.6903     34.0599      2.4714      0.0092    107.0562   -999.2500   -999.2500   -999.2500   -999.2500      9.6739      8.3503      3.1186  
  1840.5000     10.3540     95.2996     34.9418      2.4842      0.0138    107.4239   -999.2500   -999.2500   -999.2500   -999.2500      9.6007      8.3028      3.3960  
  1841.0000     10.2607     95.2127     35.8360      2.4930      0.0224    107.9538   -999.2500   -999.2500   -999.2500   -999.2500      9.5710      8.3804      3.5670  
  1841.5000     10.2546     94.9887     36.0354      2.5117      0.0402    109.3274   -999.2500   -999.2500   -999.2500   -999.2500      9.5414      8.3572      3.6184  
  1842.0000     10.2385     96.2333     36.2803      2.4902      0.0320    110.5095   -999.2500   -999.2500   -999.2500   -999.2500      9.7574      8.3522      3.4921  
  1842.5000     10.2322     98.4160     36.5251      2.4827      0.0292    111.0769   -999.2500   -999.2500   -999.2500   -999.2500      9.9630      8.3473      3.1924  
  1843.0000     10.2424     99.1859     36.8316      2.4778      0.0224    110.2427   -999.2500   -999.2500   -999.2500   -999.2500      9.8848      8.4231      3.0821  
  1843.5000     10.2421     99.0064     37.0016      2.4731      0.0209    108.4794   -999.2500   -999.2500   -999.2500   -999.2500      9.8575      8.5191      3.9758  
  1844.0000     10.2410     98.8947     37.2444      2.4687      0.0241    105.2151   -999.2500   -999.2500   -999.2500   -999.2500     10.1656      8.7069      5.7525  
  1844.5000     10.2601     98.4113     37.4712      2.4784      0.0302    103.9931   -999.2500   -999.2500   -999.2500   -999.2500     10.5077      8.9630      5.6126  
  1845.0000     10.1996     98.1653     37.1590      2.4951      0.0417    103.3649   -999.2500   -999.2500   -999.2500   -999.2500     10.8971      9.2643      4.8193  
  1845.5000     10.1463     97.6549     37.0001      2.5048      0.0445    102.5450   -999.2500   -999.2500   -999.2500   -999.2500     11.2360      9.5391      4.3258  
  1846.0000     10.1573     96.0455     36.1730      2.5161      0.0430    103.6109   -999.2500   -999.2500   -999.2500   -999.2500     11.2010      9.5436      4.1296  
  1846.5000     10.1778     94.1501     34.6678      2.5227      0.0306    104.0754   -999.2500   -999.2500   -999.2500   -999.2500     11.2013      9.5656      4.1310  
  1847.0000     10.2066     93.3978     34.0782      2.5223      0.0338    104.3108   -999.2500   -999.2500   -999.2500   -999.2500     11.1237      9.3680      4.1062  
  1847.5000     10.1867     93.4620     33.7625      2.5221      0.0458    104.8993   -999.2500   -999.2500   -999.2500   -999.2500     10.9222      9.1424      4.0635  
  1848.0000     10.2157     93.2079     33.3583      2.5055      0.0324    105.1473   -999.2500   -999.2500   -999.2500   -999.2500     10.7243      9.0990      4.2335  
  1848.5000     10.3046     92.1799     32.7350      2.4982      0.0325    105.4454   -999.2500   -999.2500   -999.2500   -999.2500     10.5715      9.0986      4.2816  
  1849.0000     10.3376     91.5019     33.5505      2.5080      0.0521    105.2120   -999.2500   -999.2500   -999.2500   -999.2500     10.5117      8.9826      4.2779  
  1849.5000     10.2245     91.2680     33.6847      2.5162      0.0562    104.7936   -999.2500   -999.2500   -999.2500   -999.2500     10.2647      8.7658      4.5192  
