~VERSION INFORMATION
 VERS.                           2.00:        CWLS LOG ASCII STANDARD - VERSION 2.00
 WRAP.                             NO:        ONE LINE PER DEPTH STEP
~WELL INFORMATION
#MNEM.UNIT                   DATA             INFORMATION
#----------             --------------        ------------------------------
 STRT.F                     1088.0000:        START DEPTH
 STOP.F                     2449.0000:        STOP DEPTH
 STEP.F                        0.5000:        STEP VALUE
 NULL.                      -999.2500:        NULL VALUE
 COMP.             UNITED STATES NAVY:        COMPANY  
 LOC .                   11  22N  18W:        LOCATION   
 DATE.                         4/7/70:        LOG DATE 
 WELL.                    GAS WELL #9:        WELL     
 UWI .                   500232000300:        UNIQUE WELL ID 
 API .                   500232000300:        UNIQUE WELL IDENTIFIER 
 FLD .                   SOUTH BARROW:        FIELD    
 CNTY.                   POINT BARROW:        COUNTY  
 STAT.                         ALASKA:        STATE   
 CTRY.                            USA:        COUNTRY 
 OPER.             UNITED STATES NAVY:        OPERATOR  
 SRVC.                   SCHLUMBERGER:        SERVICE COMPANY 
 LAT .                         0.0000:        LATITUDE
 LON .                         0.0000:        LONGITUDE
 DIGS.               CENTER LINE DATA:        DIGITIZING COMPANY 
~CURVE INFORMATION      
#MNEM        .UNIT         API CODE           CURVE DESCRIPTION
#-----------------      --------------        ------------------------------
 DEPT        .F                      :        1  DEPTH
 SP          .MV                     :        2  
 ASN         .OHMM                   :        3  
 ILD         .OHMM                   :        4  
 CILD        .MMHO                   :        5  
 CALI        .IN                     :        6  
 GR          .GAPI                   :        7  
 DRHO        .G/C3                   :        8  
 RHOB        .G/C3                   :        9  
 DT          .US/F                   :        10 
~PARAMETER INFORMATION       
#MNEM.UNIT                  VALUE             DESCRIPTION OF MNEMONIC
#---------             ---------------        ------------------------------
 EKB .F                       29.0000:        KELLY BUSHING
 TD  .F                     2450.0000:        TOTAL DEPTH
 BHT .F                       75.0000:        BOTTOM HOLE TEMPERATURE
 BS  .                         8.6250:        BIT SIZE
 FD  .                        10.7000:        FLUID DENSITY
 CSIZ.                         9.6250:        CASING SIZE
 CBD .F                     1100.0000:        CASING DRILLER 1
 CBL .F                     1102.0000:        CASING LOGGER 1
 DFT .                            Gel:        TYPE FLUID IN HOLE
 DFV .                        45.0000:        VISCOSITY
 DFPH.                         8.8000:        PH
 DFL .                         3.8000:        FLUID LOSS
 RMS .                         2.7500:        RM
 MST .F                       60.0000:        RM MEAS. TEMP.
 RMF .                         2.3600:        RMF
 MFST.F                       60.0000:        RMF MEAS. TEMP.
 RMC .                         3.7800:        RMC
 MCST.F                       60.0000:        RMC MEAS. TEMP.
~OTHER INFORMATION
~A    DEPTH          SP         ASN         ILD        CILD        CALI          GR        DRHO        RHOB          DT  
# ...
  1616.0000    -22.3568     11.2728      9.4286    102.7078      9.9552     71.2910      0.0601      2.4904    111.0740  
  1616.5000    -22.1789     11.2810      9.4912    102.3211      9.9546     70.6349      0.0416      2.4694    110.8375  
  1617.0000    -22.0350     11.2981      9.6436    101.0634      9.9437     70.1203      0.0589      2.4829    110.8150  
  1617.5000    -21.7993     11.3555      9.8054     99.5434      9.9690     71.6609      0.0720      2.4918    110.7924  
  1618.0000    -21.7381     11.4364      9.9675     98.1369      9.9642     73.5928      0.0523      2.4633    110.4700  
  1618.5000    -21.6304     11.5523     10.1296     96.8732      9.9676     74.6937      0.0369      2.4553    109.8267  
  1619.0000    -21.4153     11.6892     10.1396     95.7285      9.9681     75.4909      0.0354      2.4455    108.6890  
  1619.5000    -21.5323     11.8173     10.2541     94.5838      9.9466     76.3026      0.0217      2.4414    107.8258  
  1620.0000    -21.0197     11.9175     10.5028     92.6671      9.9202     74.6256      0.0293      2.4608    107.1706  
  1620.5000    -20.1441     12.0126     10.8709     90.3608      9.8717     71.8047      0.0333      2.4654    106.8844  
  1621.0000    -19.8113     12.0734     11.1715     88.1501      9.8608     69.8854      0.0412      2.4679    106.8533  
  1621.5000    -20.2069     12.2926     11.4143     86.3198      9.8506     69.9875      0.0470      2.4710    106.6578  
  1622.0000    -21.6442     12.5498     11.6137     84.9308      9.8442     70.1195      0.0506      2.4684    106.2432  
  1622.5000    -22.2069     12.8071     11.8130     84.0797      9.8490     70.2516      0.0440      2.4601    105.2862  
  1623.0000    -22.2506     13.0643     11.9496     83.9476      9.8667     70.3836      0.0207      2.4505    104.3668  
  1623.5000    -21.8660     13.1596     11.8460     84.5593      9.8734     70.8026      0.0144      2.4580    103.9049  
  1624.0000    -21.5265     13.2225     11.6580     85.6127      9.8730     70.8253      0.0254      2.4846    103.7669  
  1624.5000    -21.1671     12.9622     11.4527     87.4827      9.8733     72.3653      0.0407      2.4904    103.8140  
  1625.0000    -20.9630     12.6158     11.2120     89.7346      9.8771     73.1267      0.0531      2.5007    104.7072  
  1625.5000    -20.8222     12.0673     10.8649     91.8476      9.8722     74.3103      0.0706      2.5062    106.0684  
  1626.0000    -20.8944     11.7737     10.5012     94.1734      9.8496     75.7818      0.0609      2.4966    107.7955  
  1626.5000    -21.1665     11.5216     10.2405     96.9327      9.8340     75.1363      0.0620      2.4794    109.3982  
  1627.0000    -21.3303     11.4348     10.0098     98.3147      9.8276     73.9241      0.0518      2.4737    110.1112  
  1627.5000    -21.1659     11.3479      9.8385     98.8580      9.8018     72.1690      0.0453      2.4702    110.2981  
  1628.0000    -20.3085     11.3005      9.8729     99.4014      9.7715     73.0716      0.0304      2.4539    110.2376  
  1628.5000    -19.4510     11.3036      9.8951     99.7391      9.7248     75.7780      0.0453      2.4674    109.9959  
  1629.0000    -19.9998     11.3462      9.9142     99.7500      9.6893     77.1402      0.0472      2.4620    109.6643  
  1629.5000    -20.4923     11.4326      9.9332     99.6517      9.6108     79.5388      0.0342      2.4419    109.0406  
  1630.0000    -20.3050     11.5340      9.9521     98.9383      9.5210     77.0282      0.0346      2.4339    108.3724  
  1630.5000    -19.7772     11.6609      9.9429     98.4684      9.3711     72.3157      0.0387      2.4456    107.9300  
  1631.0000    -19.8118     11.8409      9.9062     98.4684      9.3190     67.1040      0.0451      2.4478    107.5866  
  1631.5000    -20.1071     11.8744      9.8696     98.4684      9.4356     64.8300      0.0502      2.4592    107.6676  
  1632.0000    -19.9465     11.7206      9.8329     99.8079      9.6439     66.6809      0.0425      2.4625    107.8837  
  1632.5000    -19.0723     11.5223      9.7955    100.9838      9.8570     70.3511      0.0289      2.4493    108.1532  
  1633.0000    -18.7539     11.3589      9.7464    101.7041      9.7429     73.3143      0.0204      2.4386    108.5873  
  1633.5000    -18.6025     11.3093      9.6256    102.8767      9.7394     74.7097      0.0141      2.4265    109.3952  
  1634.0000    -18.7490     11.3296      9.5234    103.8204      9.7478     75.6121      0.0112      2.4254    110.1314  
  1634.5000    -18.8302     11.2809      9.3503    104.8747      9.7671     76.5212      0.0276      2.4390    110.5832  
  1635.0000    -18.9152     11.1656      9.2155    106.3858      9.8138     78.3267      0.0457      2.4817    110.7655  
  1635.5000    -19.2879     11.0320      9.0564    107.7921      9.8870     77.4772      0.0557      2.4903    110.8785  
  1636.0000    -19.5273     10.8453      8.9414    109.1753      9.9230     74.9766      0.0352      2.4590    111.1157  
  1636.5000    -19.8892     10.6005      8.8193    110.0000      9.9487     73.5153      0.0295      2.4543    111.8151  
  1637.0000    -19.9490     10.3670      8.7721    110.8170      9.9559     73.2603      0.0418      2.4567    112.7883  
  1637.5000    -20.2075     10.1741      8.7002    111.4171      9.9615     75.1055      0.0632      2.4801    113.3445  
  1638.0000    -20.5924     10.2055      8.7160    112.1495      9.9412     75.2881      0.0410      2.4684    113.7217  
  1638.5000    -21.0215     10.2446      8.7599    112.4365      9.9188     75.5607      0.0227      2.4386    113.8396  
  1639.0000    -21.2427     10.2325      8.7342    112.0519      9.8898     76.5854      0.0306      2.4352    113.7156  
  1639.5000    -21.3452     10.2778      8.7387    111.4117      9.8806     78.9830      0.0452      2.4422    113.3870  
  1640.0000    -21.2662     10.2994      8.8219    110.4992      9.8703     79.3434      0.0602      2.4737    113.1683  
  1640.5000    -21.0961     10.2617      8.8935    109.7659      9.8591     77.2789      0.0693      2.4981    112.9859  
  1641.0000    -20.6735     10.2907      8.9343    109.3404      9.8153     73.9424      0.0593      2.4761    112.6749  
  1641.5000    -20.1311     10.3361      8.9544    109.0000      9.7839     73.9283      0.0488      2.4442    112.5215  
  1642.0000    -20.2905     10.3999      8.9070    109.3131      9.7759     75.7193      0.0382      2.4401    112.1415  
  1642.5000    -20.3506     10.4073      8.8997    109.6157      9.7699     75.5369      0.0239      2.4340    111.5556  
  1643.0000    -20.3654     10.3813      8.9069    109.5660      9.7455     73.7615      0.0315      2.4423    111.2635  
  1643.5000    -20.8903     10.3648      8.9117    109.8372      9.7383     71.7619      0.0471      2.4533    111.4977  
  1644.0000    -21.0176     10.3375      8.8480    110.0000      9.7468     73.5123      0.0535      2.4542    112.0648  
  1644.5000    -21.2012     10.2866      8.8204    110.0000      9.7605     76.7554      0.0514      2.4532    112.4803  
  1645.0000    -21.4570     10.2591      8.8000    110.7340      9.8077     77.8615      0.0497      2.4585    112.6217  
  1645.5000    -21.3542     10.2710      8.7490    111.2489      9.8170     77.9159      0.0549      2.4677    112.4751  
  1646.0000    -21.3540     10.2957      8.7458    110.9831      9.8102     75.8132      0.0657      2.4909    112.5535  
  1646.5000    -21.1437     10.2759      8.7187    110.7973      9.7991     73.7892      0.0669      2.4928    112.7996  
  1647.0000    -20.6686     10.2675      8.8334    110.2564      9.7869     76.5684      0.0564      2.4788    112.7914  
  1647.5000    -20.1366     10.3081      8.9537    109.1036      9.7775     78.8737      0.0417      2.4533    112.5503  
  1648.0000    -19.8178     10.4413      9.1171    107.6152      9.7733     81.8103      0.0424      2.4442    112.2515  
  1648.5000    -19.8624     10.6019      9.2425    106.1990      9.7654     80.4833      0.0486      2.4572    111.9341  
