~VERSION INFORMATION
 VERS.                           2.00:        CWLS LOG ASCII STANDARD - VERSION 2.00
 WRAP.                             NO:        ONE LINE PER DEPTH STEP
~WELL INFORMATION
#MNEM.UNIT                   DATA             INFORMATION
#----------             --------------        ------------------------------
 STRT.F                      101.0000:        START DEPTH
 STOP.F                     3666.0000:        STOP DEPTH
 STEP.F                        0.5000:        STEP VALUE
 NULL.                      -999.2500:        NULL VALUE
 COMP.     USGS/NPR HUSKY OIL COMPANY:        COMPANY
 LOC .                      9 20N 19W:        LOCATION
 DATE.                       12/30/79:        LOG DATE
 WELL.           WALAKPA TEST WELL #1:        WELL
 UWI .                   500232001300:        UNIQUE WELL ID
 API .                   500232001300:        UNIQUE WELL IDENTIFIER
 FLD .                        WILDCAT:        FIELD
 CNTY.                    NORTH SLOPE:        COUNTY
 STAT.                         ALASKA:        STATE
 CTRY.                            USA:        COUNTRY
 OPER.     USGS/NPR HUSKY OIL COMPANY:        OPERATOR
 SRVC.                   SCHLUMBERGER:        SERVICE COMPANY
 LAT .                         0.0000:        LATITUDE
 LON .                         0.0000:        LONGITUDE
 DIGS.               CENTER LINE DATA:        DIGITIZING COMPANY
~CURVE INFORMATION      
#MNEM        .UNIT         API CODE           CURVE DESCRIPTION
#-----------------      --------------        ------------------------------
 DEPT        .F                      :        1  DEPTH
 GR          .GAPI                   :        2  
 CALI        .IN                     :        3  
 RHOB        .G/C3                   :        4  
 DRHO        .G/C3                   :        5  
 NPHI        .%                      :        6  
 DT          .US/F                   :        7  
 SP          .MV                     :        8  
 ILD         .OHMM                   :        9  
 ILM         .OHMM                   :        10 
 LL8         .OHMM                   :        11 
 SFL         .OHMM                   :        12 
~PARAMETER INFORMATION
#MNEM.UNIT                  VALUE             DESCRIPTION OF MNEMONIC
#---------             ---------------        ------------------------------
 EKB .F                       50.0000:        KELLY BUSHING
 TD  .F                     3672.0000:        TOTAL DEPTH
 BHT .F                       80.0000:        BOTTOM HOLE TEMPERATURE
 BS  .                        12.2500:        BIT SIZE
 FD  .                         9.9000:        FLUID DENSITY
 CSIZ.                        13.3750:        CASING SIZE
 CBD .F                      100.0000:        CASING DRILLER 1
 CBL .F                      106.0000:        CASING LOGGER 1
 DFT .                             99:        TYPE FLUID IN HOLE
 DFV .                        45.0000:        VISCOSITY
 DFPH.                         8.0000:        PH
 DFL .                        23.0000:        FLUID LOSS
 RMS .                         5.9200:        RM
 MST .F                       58.0000:        RM MEAS. TEMP.
 RMF .                         6.2200:        RMF
 MFST.F                       57.0000:        RMF MEAS. TEMP.
 RMC .                         7.0500:        RMC
 MCST.F                       57.0000:        RMC MEAS. TEMP.
~OTHER INFORMATION
~A    DEPTH          GR        CALI        RHOB        DRHO        NPHI          DT          SP         ILD         ILM         LL8         SFL 
   101.0000   -999.2500   -999.2500   -999.2500   -999.2500     -0.0724   -999.2500   -999.2500   -999.2500   -999.2500   -999.2500   -999.2500 
   101.5000   -999.2500   -999.2500   -999.2500   -999.2500     -0.0736   -999.2500   -999.2500   -999.2500   -999.2500   -999.2500   -999.2500 
   102.0000   -999.2500   -999.2500   -999.2500   -999.2500     -0.0748   -999.2500   -999.2500   -999.2500   -999.2500   -999.2500   -999.2500 
   102.5000   -999.2500   -999.2500   -999.2500   -999.2500     13.5165   -999.2500   -999.2500   -999.2500   -999.2500   -999.2500   -999.2500 
   103.0000     34.3222   -999.2500   -999.2500   -999.2500     36.2902   -999.2500   -999.2500   -999.2500   -999.2500   -999.2500   -999.2500 
   103.5000     37.7630   -999.2500   -999.2500   -999.2500     47.3915   -999.2500   -999.2500   -999.2500   -999.2500   -999.2500   -999.2500 
   104.0000     45.5851   -999.2500   -999.2500   -999.2500     51.3197   -999.2500   -999.2500   -999.2500   -999.2500   -999.2500   -999.2500 
   104.5000     48.7654   -999.2500   -999.2500   -999.2500     50.5115   -999.2500   -999.2500   -999.2500   -999.2500   -999.2500   -999.2500 
   105.0000     51.1488   -999.2500   -999.2500   -999.2500     48.8741   -999.2500   -999.2500   -999.2500   -999.2500   -999.2500   -999.2500 
   105.5000     53.5446   -999.2500   -999.2500   -999.2500     47.3718   -999.2500   -999.2500   -999.2500   -999.2500   -999.2500   -999.2500 
   106.0000     56.8282     12.6775      2.2545     -0.2918     46.5088     60.2606     -9.4190     94.4998   2353.1404      4.0386   -999.2500 
   106.5000     60.9330     12.6786      2.2186     -0.2912     46.5883     61.5615    -25.2248    817.5511   2354.8293      3.7494   -999.2500 
   107.0000     64.5512     12.6798      2.2034     -0.2635     46.8319     76.1717    -41.0306    976.6210   2356.5195      5.2431   -999.2500 
   107.5000     69.0539     12.6809      2.2092     -0.1714     44.9664     99.6976    -57.1619    197.9337   2358.2097      6.8727   -999.2500 
   108.0000     70.9951     12.7416      2.2214      0.0176     42.0335    122.2035    -62.7726     40.1156   2359.9023      5.7149   -999.2500 
   108.5000     69.2044     12.9614      2.2825      0.2012     40.3238    144.7094    -64.3806      8.1303   2361.5962      4.5885   -999.2500 
   109.0000     65.6723     13.4230      2.1253      0.1356     39.8747    190.6119    -63.5073      2.2319   1060.5952      5.0613   -999.2500 
   109.5000     63.3414     13.9049      2.1410      0.0676     39.4675    198.6412    -63.3595      1.7523     82.1670      6.0530   -999.2500 
   110.0000     62.6752     13.9146      2.2561      0.0643     40.0857    194.3481    -64.0306      2.1201      6.3657      6.6700   -999.2500 
   110.5000     63.1517     13.5253      2.3177      0.0905     40.6889    188.5798    -65.2633      2.6264      2.4544      6.9731   -999.2500 
   111.0000     64.0251     13.4047      2.3268      0.1102     40.2677    177.8290    -65.8170      4.5907      2.7406      7.1321   -999.2500 
   111.5000     64.8788     13.4562      2.3139      0.1056     39.4879    157.2315    -66.2025      4.7836      3.0610      8.0154   -999.2500 
   112.0000     65.8733     13.8595      2.2750      0.0660     39.5034    147.5204    -65.8913      3.6592      3.2622      8.3437   -999.2500 
   112.5000     67.0721     13.4333      2.2708      0.0817     40.3011    144.6073    -62.6871      3.3481      3.4136      7.2406   -999.2500 
   113.0000     67.4492     13.2112      2.2603      0.0561     39.3173    144.2272    -60.9838      2.9712      3.3976      5.8327   -999.2500 
   113.5000     66.5118     12.7873      2.3074      0.0938     38.2452    143.7870    -62.0701      2.9776      3.3719      5.1744   -999.2500 
   114.0000     63.5625     12.8964      2.3573      0.1116     37.3958    143.5484    -63.6443      3.3151      3.3336      6.0517   -999.2500 
   114.5000     59.6142     12.9686      2.3555      0.0986     37.5981    143.4810    -65.0746      3.4569      3.2956      8.2100   -999.2500 
   115.0000     57.0260     12.8399      2.3351      0.0834     38.8659    143.4033    -65.4915      3.6046      3.2581     10.0633   -999.2500 
   115.5000     56.6819     12.9744      2.3116      0.0618     40.4098    143.2654    -63.8357      3.9560      3.2236      7.1579   -999.2500 
   116.0000     57.0843     13.0116      2.2963      0.0690     41.9827    142.5452    -64.7301      3.9848      3.2486      5.3589   -999.2500 
   116.5000     56.8496     13.0487      2.2878      0.0810     41.8227    141.9505    -68.1389      4.0050      3.2510      6.4532   -999.2500 
   117.0000     55.7565     13.0859      2.2985      0.0998     40.4814    141.4830    -71.2208      4.0035      3.2395      9.0270   -999.2500 
   117.5000     55.5188     13.2887      2.3077      0.1038     38.3907    140.6776    -69.1044      3.8766      3.2280      8.8005   -999.2500 
   118.0000     56.0473     13.2627      2.2860      0.0894     37.2378    139.8927    -65.1194      3.7537      3.2270      6.7946   -999.2500 
   118.5000     56.3853     13.1427      2.2767      0.0756     36.8257    138.4203    -66.1308      3.6347      3.2770      6.8016   -999.2500 
   119.0000     56.3380     13.1171      2.2783      0.0613     36.2165    137.2773    -70.3642      3.5180      3.3323      8.2408   -999.2500 
   119.5000     55.7410     13.1150      2.2876      0.0484     37.2995    136.4385    -74.4669      3.4762      3.3553     10.8566   -999.2500 
   120.0000     54.5366     13.1201      2.3053      0.0590     38.8467    135.8615    -76.7134      3.5685      3.3364     13.0051   -999.2500 
   120.5000     53.7779     13.1408      2.3322      0.0977     40.4025    136.4801    -76.3413      3.5721      3.3176     12.8447   -999.2500 
   121.0000     54.1347     13.2601      2.3031      0.1091     40.5368    137.3636    -74.8740      3.5688      3.2589     11.7242   -999.2500 
   121.5000     55.6548     13.4894      2.2817      0.1102     38.7552    138.5393    -72.6148      3.5654      3.1879      8.6128   -999.2500 
   122.0000     58.3025     13.6550      2.2763      0.1098     37.9352    139.2380    -69.3713      3.5519      3.1252      6.2329   -999.2500 
   122.5000     60.6991     13.6823      2.2661      0.1152     37.4246    139.5092    -67.4522      3.5199      3.1066      5.6535   -999.2500 
   123.0000     62.1333     13.6709      2.2580      0.1075     37.8915    139.7264    -67.1119      3.4580      3.1340      5.6271   -999.2500 
   123.5000     61.9961     13.5772      2.2216      0.0820     38.8810    139.6828    -68.0897      3.3712      3.1137      7.0489   -999.2500 
   124.0000     62.1548     13.3310      2.1971      0.0839     39.9921    139.4192    -68.5811      3.2778      3.0821      8.5808   -999.2500 
   124.5000     63.7144     12.9728      2.2043      0.1035     40.4078    138.9995    -67.9554      3.2426      3.0509      6.7153   -999.2500 
   125.0000     65.3096     12.8548      2.2035      0.1165     39.1176    139.3015    -67.1252      3.4111      3.0550      5.9130   -999.2500 
   125.5000     65.9146     12.8350      2.2303      0.1521     37.8274    140.7640    -66.3247      3.5609      3.0829      5.7967   -999.2500 
   126.0000     66.3304     12.8233      2.2239      0.1343     37.5614    143.2561    -65.5886      3.7173      3.1377      6.8469   -999.2500 
   126.5000     66.9187     12.7683      2.2077      0.1357     38.0655    142.2854    -63.4500      3.9022      3.1695      6.7683   -999.2500 
   127.0000     67.2967     12.6984      2.1824      0.0823     38.2897    140.1897    -60.5989      4.1434      3.2415      5.5758   -999.2500 
   127.5000     66.7011     12.6350      2.2464      0.1035     38.2106    137.6445    -57.7479      4.3995      3.4138      5.2619   -999.2500 
   128.0000     65.4940     12.8424      2.3065      0.1433     38.1143    134.4957    -59.7283      4.6714      3.8237      6.2131   -999.2500 
   128.5000     63.4927     13.0274      2.3239      0.0996     38.0240    133.8333    -62.5144      4.8692      3.9225      8.4738   -999.2500 
