~VERSION INFORMATION
 VERS.                           2.00:        CWLS LOG ASCII STANDARD - VERSION 2.00
 WRAP.                             NO:        ONE LINE PER DEPTH STEP
~WELL INFORMATION
#MNEM.UNIT                   DATA             INFORMATION
#----------             --------------        ------------------------------
 STRT.F                       52.0000:        START DEPTH
 STOP.F                     2296.0000:        STOP DEPTH
 STEP.F                        0.5000:        STEP VALUE
 NULL.                      -999.2500:        NULL VALUE
 COMP.                     USGS/NPR-A:        COMPANY  
 LOC .                   23  22N  17W:        LOCATION   
 DATE.                        4/30/78:        LOG DATE 
 WELL.               SOUTH BARROW #19:        WELL     
 UWI .                   500232001200:        UNIQUE WELL ID 
 API .                   500232001200:        UNIQUE WELL IDENTIFIER 
 FLD .                   SOUTH BARROW:        FIELD    
 CNTY.                    NORTH SLOPE:        COUNTY  
 STAT.                         ALASKA:        STATE   
 CTRY.                            USA:        COUNTRY 
 OPER.                     USGS/NPR-A:        OPERATOR  
 SRVC.                   SCHLUMBERGER:        SERVICE COMPANY 
 LAT .                         0.0000:        LATITUDE
 LON .                         0.0000:        LONGITUDE
 DIGS.               CENTER LINE DATA:        DIGITIZING COMPANY 
~CURVE INFORMATION      
#MNEM        .UNIT         API CODE           CURVE DESCRIPTION
#-----------------      --------------        ------------------------------
 DEPT        .F                      :        1  DEPTH
 GR          .GAPI                   :        2  
 CALI        .IN                     :        3  
 RHOB        .G/C3                   :        4  
 DRHO        .G/C3                   :        5  
 NPHI        .%                      :        6  
 DT          .US/F                   :        7  
 SP          .MV                     :        8  
 ILD         .OHMM                   :        9  
 ILM         .OHMM                   :        10 
 LL8         .OHMM                   :        11 
 LLD         .OHMM                   :        12 
 LLS         .OHMM                   :        13 
 MSFL        .OHMM                   :        14 
~PARAMETER INFORMATION       
#MNEM.UNIT                  VALUE             DESCRIPTION OF MNEMONIC
#---------             ---------------        ------------------------------
 EKB .F                       30.0000:        KELLY BUSHING
 TD  .F                     2300.0000:        TOTAL DEPTH
 BHT .F                      173.0000:        BOTTOM HOLE TEMPERATURE
 BS  .                         8.5000:        BIT SIZE
 FD  .                        11.6000:        FLUID DENSITY
 CSIZ.                         9.6250:        CASING SIZE
 CBD .F                     1491.0000:        CASING DRILLER 1
 CBL .F                     1490.0000:        CASING LOGGER 1
 DFT .                  Miscellaneous:        TYPE FLUID IN HOLE
 DFV .                        46.0000:        VISCOSITY
 DFPH.                         8.5000:        PH
 DFL .                         6.0000:        FLUID LOSS
 RMS .                         0.1090:        RM
 MST .F                       58.0000:        RM MEAS. TEMP.
 RMF .                         0.0720:        RMF
 MFST.F                       61.0000:        RMF MEAS. TEMP.
 RMC .                         0.3000:        RMC
 MCST.F                       70.0000:        RMC MEAS. TEMP.
~OTHER INFORMATION
~A    DEPTH          GR        CALI        RHOB        DRHO        NPHI          DT          SP         ILD         ILM         LL8         LLD         LLS        MSFL  
# ...
  2260.0000     71.0268      5.0513      2.6063      0.1135     30.4663    101.3636    -42.9376   -999.2500   -999.2500   -999.2500     18.1406     14.3003   -999.2500  
  2260.5000     85.0465      5.1429      2.6953      0.1638     28.4397    102.9365    -42.9325   -999.2500   -999.2500   -999.2500     18.1969     24.7841   -999.2500  
  2261.0000     95.7904      5.2592      2.7446      0.1315     26.1762    101.4139    -42.9784   -999.2500   -999.2500   -999.2500     17.8214     23.7365   -999.2500  
  2261.5000    121.2355      5.3684      2.7854      0.0947     23.8355     97.5893    -42.9896   -999.2500   -999.2500   -999.2500     17.7967     22.7942   -999.2500  
  2262.0000    123.5468      5.5649      2.7671      0.0581     21.5576     99.8957    -42.9698   -999.2500   -999.2500   -999.2500     16.9928     21.8648   -999.2500  
  2262.5000    125.8581      5.7306      2.7790      0.0561     20.8585     94.2849    -42.9588   -999.2500   -999.2500   -999.2500     15.6352     19.7828   -999.2500  
  2263.0000    126.7391      5.7595      2.7984      0.0544     20.5517     93.2349    -42.9590   -999.2500   -999.2500   -999.2500     16.4355     19.8715   -999.2500  
  2263.5000    127.2410      5.7885      2.7860      0.0361     20.3764     92.9800    -42.9529   -999.2500   -999.2500   -999.2500     19.0650     26.1315   -999.2500  
  2264.0000    126.4026      5.8373      2.7446      0.0353     20.1179     90.4655    -42.9358   -999.2500   -999.2500   -999.2500     25.4675     39.1028   -999.2500  
  2264.5000    125.2319      5.8785      2.7354      0.0026     20.1825     85.9932    -42.9475   -999.2500   -999.2500   -999.2500     44.1611     62.4223   -999.2500  
  2265.0000    123.7712      5.8704      2.7243      0.0120     20.4679     80.4493    -42.9631   -999.2500   -999.2500   -999.2500     76.5761     83.7369   -999.2500  
  2265.5000    122.3015      5.8623      2.7151      0.0030     20.6502     74.0180    -42.9382   -999.2500   -999.2500   -999.2500    132.7844    112.3297   -999.2500  
  2266.0000    117.6505      5.8542      2.7131      0.0231     20.6995     68.3853    -42.9394   -999.2500   -999.2500   -999.2500    186.8060    135.5507   -999.2500  
  2266.5000    111.0677      5.8461      2.7389      0.0333     20.9668     65.2503    -42.9505   -999.2500   -999.2500   -999.2500    187.3245    150.8015   -999.2500  
  2267.0000    106.4613      5.8380      2.7473      0.0406     21.1951     64.5905    -42.9494   -999.2500   -999.2500   -999.2500    191.1730    159.0021   -999.2500  
  2267.5000    101.8550      5.8299      2.7718      0.0599     21.3796     63.7698    -42.9578   -999.2500   -999.2500   -999.2500    193.4496    163.9149   -999.2500  
  2268.0000     91.3076      5.8138      2.7694      0.0791     21.5180     63.4139    -42.9590   -999.2500   -999.2500   -999.2500    194.8933    171.8080   -999.2500  
  2268.5000     74.8942      5.7834      2.7551      0.0890     21.6274     63.8084    -42.9359   -999.2500   -999.2500   -999.2500    196.3477    178.0689   -999.2500  
  2269.0000     62.2954      5.7531      2.7556      0.0807     22.1767     64.0761    -42.9282   -999.2500   -999.2500   -999.2500    191.8748    179.9692   -999.2500  
  2269.5000     69.4292      5.7405      2.7633      0.0735     22.3528     64.0593    -42.9204   -999.2500   -999.2500   -999.2500    185.0104    180.2306   -999.2500  
  2270.0000     90.4524      5.7421      2.7594      0.0587     22.0138     64.0390    -42.9549   -999.2500   -999.2500   -999.2500    173.0613    178.6077   -999.2500  
  2270.5000   -999.2500      5.7436      2.7689      0.0533     21.4050     64.0039    -42.9189   -999.2500   -999.2500   -999.2500    136.6537    148.0981   -999.2500  
  2271.0000   -999.2500      5.7452      2.7653      0.0510     20.3997     63.7039    -42.9027   -999.2500   -999.2500   -999.2500    107.9053    108.2536   -999.2500  
  2271.5000   -999.2500      5.7467      2.7665      0.0596     20.1206     64.0311    -42.9103   -999.2500   -999.2500   -999.2500     85.2049     76.6424   -999.2500  
  2272.0000   -999.2500      5.7483      2.7674      0.0541     19.9926     65.4138    -42.9270   -999.2500   -999.2500   -999.2500     70.1730     67.7235   -999.2500  
  2272.5000   -999.2500      5.7498      2.7651      0.0381     19.8616     68.8331    -42.8892   -999.2500   -999.2500   -999.2500     66.8669     70.1925   -999.2500  
  2273.0000   -999.2500      5.7514      2.7651      0.0344     19.8085     70.4979    -42.8842   -999.2500   -999.2500   -999.2500     85.0141     91.1733   -999.2500  
  2273.5000   -999.2500      5.7529      2.7659      0.0357     19.7770     70.9754    -42.9433   -999.2500   -999.2500   -999.2500    117.9166    122.5838   -999.2500  
  2274.0000   -999.2500      5.7545      2.7665      0.0283     19.3572     69.9534    -42.9563   -999.2500   -999.2500   -999.2500    147.4845    167.6872   -999.2500  
  2274.5000   -999.2500      5.7560      2.7434      0.0059     18.7696     66.3168    -42.9437   -999.2500   -999.2500   -999.2500    184.4665    187.6646   -999.2500  
  2275.0000   -999.2500      5.7576      2.7297      0.0013     18.1380     64.6178    -42.9612   -999.2500   -999.2500   -999.2500    200.8778    198.2258   -999.2500  
  2275.5000   -999.2500      5.7591      2.7399      0.0126     17.1606     64.0338    -42.9328   -999.2500   -999.2500   -999.2500    182.5365    184.8175   -999.2500  
  2276.0000   -999.2500      5.7607      2.7289      0.0135     14.9803     63.8936    -42.9571   -999.2500   -999.2500   -999.2500    172.9172    174.4276   -999.2500  
  2276.5000   -999.2500      5.7622      2.7106      0.0117     12.8000     64.4614    -42.9573   -999.2500   -999.2500   -999.2500    177.4247    173.6148   -999.2500  
  2277.0000   -999.2500      5.7637      2.7047      0.0088      6.6336     64.4940    -42.9572   -999.2500   -999.2500   -999.2500    184.9049    178.6419   -999.2500  
  2277.5000   -999.2500      5.7653      2.6987      0.0165      0.2676     64.3103    -42.9571   -999.2500   -999.2500   -999.2500    192.7004    184.8389   -999.2500  
  2278.0000   -999.2500      5.7668      2.7163      0.0280      0.1139     64.1471    -42.9506   -999.2500   -999.2500   -999.2500    196.1600    191.2017   -999.2500  
  2278.5000   -999.2500      5.7648      2.7377      0.0427   -999.2500     64.0562    -42.9617   -999.2500   -999.2500   -999.2500    196.2049    192.1157   -999.2500  
  2279.0000   -999.2500      5.7614      2.7311      0.0475   -999.2500     64.1128    -42.9630   -999.2500   -999.2500   -999.2500    194.1100    190.3189   -999.2500  
  2279.5000   -999.2500      5.7581      2.7030      0.0418   -999.2500     64.3144    -42.9721   -999.2500   -999.2500   -999.2500    191.6071    186.2598   -999.2500  
  2280.0000   -999.2500      5.7548      2.6718      0.0188   -999.2500     64.4080    -42.9884   -999.2500   -999.2500   -999.2500    178.6023    165.3625   -999.2500  
  2280.5000   -999.2500      5.7514      2.6441      0.0051   -999.2500     64.4974    -43.0027   -999.2500   -999.2500   -999.2500    138.4451    121.8543   -999.2500  
  2281.0000   -999.2500      5.7481      2.6363      0.0195   -999.2500     65.2324    -43.0094   -999.2500   -999.2500   -999.2500     97.6542     87.6808   -999.2500  
  2281.5000   -999.2500      5.7448      2.6611      0.0340   -999.2500     67.7820    -43.0160   -999.2500   -999.2500   -999.2500     81.3406     78.8270   -999.2500  
  2282.0000   -999.2500      5.7415      2.6712      0.0488   -999.2500     70.4728    -42.9618   -999.2500   -999.2500   -999.2500     78.0628     81.1680   -999.2500  
  2282.5000   -999.2500      5.7381      2.6721      0.0836   -999.2500     72.5508    -42.6286   -999.2500   -999.2500   -999.2500     92.3396     89.8536   -999.2500  
  2283.0000   -999.2500      5.7383      2.6904      0.1053   -999.2500     72.0701    -40.4304   -999.2500   -999.2500   -999.2500    105.0436    109.0096   -999.2500  
  2283.5000   -999.2500      5.7437      2.6769      0.1195   -999.2500     70.4153    -34.3555   -999.2500   -999.2500   -999.2500    107.9022    113.6589   -999.2500  
