~VERSION INFORMATION
 VERS.                           2.00:        CWLS LOG ASCII STANDARD - VERSION 2.00
 WRAP.                             NO:        ONE LINE PER DEPTH STEP
~WELL INFORMATION
#MNEM.UNIT                   DATA             INFORMATION
#----------             --------------        ------------------------------
 STRT.F                       75.0000:        START DEPTH
 STOP.F                     2534.0000:        STOP DEPTH
 STEP.F                        0.5000:        STEP VALUE
 NULL.                      -999.2500:        NULL VALUE
 COMP.                      HUSKY OIL:        COMPANY  
 LOC .                   14  22N  18W:        LOCATION   
 DATE.                       12/20/76:        LOG DATE 
 WELL.               SOUTH BARROW #13:        WELL     
 UWI .                   500232000800:        UNIQUE WELL ID 
 API .                   500232000800:        UNIQUE WELL IDENTIFIER 
 FLD .                   SOUTH BARROW:        FIELD    
 CNTY.                    NORTH SLOPE:        COUNTY  
 STAT.                         ALASKA:        STATE   
 CTRY.                            USA:        COUNTRY 
 OPER.                      HUSKY OIL:        OPERATOR  
 SRVC.                   SCHLUMBERGER:        SERVICE COMPANY 
 LAT .                         0.0000:        LATITUDE
 LON .                         0.0000:        LONGITUDE
 DIGS.               CENTER LINE DATA:        DIGITIZING COMPANY 
~CURVE INFORMATION      
#MNEM        .UNIT         API CODE           CURVE DESCRIPTION
#-----------------      --------------        ------------------------------
 DEPT        .F                      :        1  DEPTH
 SP          .MV                     :        2  
 ILD         .OHMM                   :        3  
 LL8         .OHMM                   :        4  
 CILD        .MMHO                   :        5  
 ILM         .OHMM                   :        6  
 GR          .GAPI                   :        7  
 CALI        .IN                     :        8  
 DRHO        .G/C3                   :        9  
 RHOB        .G/C3                   :        10 
 NPHI        .%                      :        11 
 DPHI        .%                      :        12 
 DT          .US/F                   :        13 
~PARAMETER INFORMATION       
#MNEM.UNIT                  VALUE             DESCRIPTION OF MNEMONIC
#---------             ---------------        ------------------------------
 EKB .F                       40.0000:        KELLY BUSHING
 TD  .F                     1139.0000:        TOTAL DEPTH
 BHT .F                        0.0000:        BOTTOM HOLE TEMPERATURE
 BS  .                        14.7500:        BIT SIZE
 FD  .                        10.3000:        FLUID DENSITY
 CSIZ.                        20.0000:        CASING SIZE
 CBD .F                       65.0000:        CASING DRILLER 1
 CBL .F                       75.0000:        CASING LOGGER 1
 DFT .                  Miscellaneous:        TYPE FLUID IN HOLE
 DFV .                        34.0000:        VISCOSITY
 DFPH.                         8.5000:        PH
 DFL .                        10.2000:        FLUID LOSS
 RMS .                         5.3200:        RM
 MST .F                       55.0000:        RM MEAS. TEMP.
 RMF .                         3.8000:        RMF
 MFST.F                       55.0000:        RMF MEAS. TEMP.
 RMC .                         6.0000:        RMC
 MCST.F                       55.0000:        RMC MEAS. TEMP.
~OTHER INFORMATION
~A    DEPTH          SP         ILD         LL8        CILD         ILM          GR        CALI        DRHO        RHOB        NPHI        DPHI          DT  
# ...
  2038.5000    -24.4915      8.1516     10.8462   -999.2500      7.9289     47.3019     10.7699      0.0332      2.4381     39.6916     10.8774    105.7411  
  2039.0000    -24.6834      8.3293     10.8892   -999.2500      8.1771     46.6755     10.6418      0.0487      2.4554     39.4499      9.9952    105.4374  
  2039.5000    -24.6069      8.5107     11.2440   -999.2500      8.5830     45.8137     10.5136      0.0534      2.4896     38.6211     10.0313    105.8550  
  2040.0000    -24.1585      8.6765     12.7819   -999.2500      8.9698     45.1976     10.5546      0.0287      2.4946     38.8529      9.5814    106.4994  
  2040.5000    -23.8784      8.6394     12.2792   -999.2500      8.9572     44.6662     10.6641      0.0204      2.4971     38.9007      8.7005    108.6088  
  2041.0000    -24.1209      8.6025     11.3840   -999.2500      8.9446     46.0333     10.5407      0.0538      2.5065     38.2192     11.5338    110.1991  
  2041.5000    -25.3447      8.5658     10.4395   -999.2500      8.9321     47.4005      9.9203      0.1071      2.5044     37.4830     12.3074    109.9760  
  2042.0000    -26.1510      8.5292     10.2961   -999.2500      8.9195     48.7676     10.3720      0.0873      2.4701     37.3373     11.8004    109.3191  
  2042.5000    -26.3851      8.4927     11.0314   -999.2500      8.9070     49.2921     11.1507      0.0706      2.4668     37.6661     12.4705    109.2632  
  2043.0000    -25.6555      8.4564     11.4517   -999.2500      8.8945     48.6398     11.1337      0.0617      2.4584     38.4696     12.8874    109.3959  
  2043.5000    -23.7684      8.4203     11.4015   -999.2500      8.8820     47.9949     10.8584      0.0420      2.4522     39.2535     11.5022    109.2378  
  2044.0000    -22.8686      8.3843     11.1887   -999.2500      8.8695     47.7026     10.8015      0.0295      2.4509     39.4484     10.1320    108.7395  
  2044.5000    -21.9546      8.3485     11.4412   -999.2500      8.8570     47.4103     11.0048      0.0473      2.4749     38.5864      9.9864    107.4542  
  2045.0000    -20.2712      8.3128     12.1770   -999.2500      8.8446     46.7671     11.2329      0.0420      2.4897     38.4984      8.6018    106.5474  
  2045.5000    -20.5551      8.2773     12.3842   -999.2500      8.8172     46.9087     11.2899      0.0298      2.4986     39.4691      7.0117    107.4074  
  2046.0000    -22.7070      8.2420     11.4637   -999.2500      8.6910     48.2028     10.9517      0.0388      2.5211     40.3062      7.4826    109.3799  
  2046.5000    -24.0547      8.2067     10.6108   -999.2500      8.5667     49.6225     10.5757      0.0740      2.5368     41.1750      9.4863    110.1400  
  2047.0000    -24.5039      8.1493     10.4344   -999.2500      8.4441     50.3345     10.5740      0.0739      2.5330     41.4598     11.1779    109.7911  
  2047.5000    -24.0776      8.1082     10.6821   -999.2500      8.3233     50.3873     10.6555      0.0581      2.4967     40.5056     10.4438    109.0734  
  2048.0000    -22.9868      8.0455     11.1726   -999.2500      8.2042     49.7263     10.9067      0.0329      2.4725     39.8242     11.2843    108.8953  
  2048.5000    -22.5700      8.0349     11.1661   -999.2500      8.0868     48.5354     10.8265      0.0229      2.4813     39.0933     10.6101    108.7765  
  2049.0000    -23.0272      8.0767     10.9604   -999.2500      8.0551     47.3447     10.7234      0.0213      2.4799     38.2491     10.7976    108.5630  
  2049.5000    -22.9273      8.1187     10.9001   -999.2500      8.0885     46.1538     10.6204      0.0224      2.4825     37.8146     11.0484    108.6496  
  2050.0000    -23.2944      8.1609     10.7711   -999.2500      8.1219     45.0031     10.5968      0.0189      2.4796     37.9023     10.6146    108.8180  
  2050.5000    -24.0392      8.2033     11.2080   -999.2500      8.1555     45.1009     10.6800      0.0152      2.4764     37.9718     10.9821    108.8662  
  2051.0000    -24.2359      8.2407     11.2153   -999.2500      8.1892     46.1361     10.8068      0.0171      2.4771     37.7608     11.3363    108.1781  
  2051.5000    -23.5999      8.3630     11.2071   -999.2500      8.2227     47.1713     10.9335      0.0323      2.4764     37.9775     10.8514    107.3148  
  2052.0000    -24.3391      8.5935     11.1226   -999.2500      8.3559     47.8391     10.9309      0.0380      2.4667     37.4827     10.0742    106.0764  
  2052.5000    -25.6861      9.1553     10.9981   -999.2500      9.0925     46.9192     10.8392      0.0478      2.4893     36.3118     10.5073    102.7905  
  2053.0000    -26.3991     10.0349     10.8099   -999.2500     10.1922     45.5112     10.7474      0.0516      2.4978     34.7316     11.7515     97.2459  
  2053.5000    -27.0781     11.4492     12.3245   -999.2500     11.4250     41.6877     10.5095      0.0479      2.4875     31.8164     11.7305     95.1050  
  2054.0000    -27.2598     12.5817     18.4811   -999.2500     12.8068     40.3178     10.1797      0.0335      2.4643     28.9265     12.4707     95.9963  
  2054.5000    -27.1405     12.1137     21.4799   -999.2500     12.8316     40.0501      9.8525      0.0499      2.4587     31.1534     12.7433     98.4498  
  2055.0000    -25.9609     11.6632     18.5709   -999.2500     12.6742     41.5536      9.9389      0.0452      2.4528     33.7251      9.9221    102.6201  
  2055.5000    -24.8919     11.2294     14.8444   -999.2500     12.0421     43.7456     10.0967      0.0686      2.4565     37.1131      8.3167    103.9798  
  2056.0000    -24.6137     10.8118     12.7380   -999.2500     11.3411     45.9377     10.2692      0.0785      2.5117     39.1520      7.2883    104.3562  
  2056.5000    -24.5243     10.4097     12.3391   -999.2500     10.6809     47.5991     10.4416      0.0937      2.5340     39.5487      7.3621    105.2611  
  2057.0000    -24.8160      9.9211     12.3090   -999.2500     10.0591     48.3800     10.6141      0.0955      2.5368     39.0636      8.9521    106.4639  
  2057.5000    -24.9846      9.4577     12.1627   -999.2500      9.4736     49.1608     10.7865      0.0883      2.5258     39.0017      9.8216    107.2877  
  2058.0000    -23.9609      9.0652     11.9857   -999.2500      8.9221     49.6178     10.9165      0.0752      2.5078     38.9936      8.6169    107.9643  
  2058.5000    -23.0623      8.8019     11.7490   -999.2500      8.5320     48.2312     10.8055      0.0917      2.5031     39.3970      9.1489    109.1529  
  2059.0000    -23.3809      8.7622     11.5647   -999.2500      8.5425     47.1785     10.6849      0.0956      2.5081     39.7627      8.5014    110.2602  
  2059.5000    -24.5624      8.7443     11.4443   -999.2500      8.5530     47.3350     10.4444      0.0853      2.5043     39.1725      7.6340    110.1591  
  2060.0000    -24.6761      8.7342     11.4488   -999.2500      8.5635     46.9962     10.5336      0.0746      2.5203     37.9383      7.6329    109.3643  
  2060.5000    -23.9238      8.7242     11.6284   -999.2500      8.5740     45.4632     10.7716      0.0775      2.5317     37.8987      7.7961    108.5843  
  2061.0000    -23.0961      8.7141     12.3461   -999.2500      8.5846     45.6846     11.0097      0.0776      2.5306     38.7820      6.6556    108.2535  
  2061.5000    -23.0813      8.6499     12.4837   -999.2500      8.5951     46.0243     11.0839      0.0943      2.5350     39.7857      8.5427    108.5681  
  2062.0000    -24.0821      8.5858     11.5898   -999.2500      8.6057     47.1118     10.4309      0.1263      2.5469     38.4900     10.1211    109.2196  
  2062.5000    -24.2555      8.8224     10.7857   -999.2500      8.8906     46.9708     10.8037      0.1098      2.5099     36.5131     11.8345    109.2443  
  2063.0000    -23.8072      9.1989     10.8498   -999.2500      9.2289     44.3485     11.2937      0.0733      2.4798     35.1656     11.2425    108.0234  
  2063.5000    -23.3650      9.6201     11.5284   -999.2500      9.5801     43.2042     11.7543      0.0495      2.4650     33.9537      9.9246    105.9372  
