~VERSION INFORMATION
 VERS.                           2.00:        CWLS LOG ASCII STANDARD - VERSION 2.00
 WRAP.                             NO:        ONE LINE PER DEPTH STEP
~WELL INFORMATION
#MNEM.UNIT                   DATA             INFORMATION
#----------             --------------        ------------------------------
 STRT.F                      152.0000:        START DEPTH
 STOP.F                     2285.0000:        STOP DEPTH
 STEP.F                        0.5000:        STEP VALUE
 NULL.                      -999.2500:        NULL VALUE
 COMP.                      U.S. NAVY:        COMPANY  
 LOC .                   26  22N  17W:        LOCATION   
 DATE.                         4/1/74:        LOG DATE 
 WELL.            SOUTH BARROW NO. 12:        WELL     
 UWI .                   500232000600:        UNIQUE WELL ID 
 API .                   500232000600:        UNIQUE WELL IDENTIFIER 
 FLD .                   SOUTH BARROW:        FIELD    
 CNTY.                         NPPR-4:        COUNTY  
 STAT.                         ALASKA:        STATE   
 CTRY.                            USA:        COUNTRY 
 OPER.                      U.S. NAVY:        OPERATOR  
 SRVC.                   SCHLUMBERGER:        SERVICE COMPANY 
 LAT .                         0.0000:        LATITUDE
 LON .                         0.0000:        LONGITUDE
 DIGS.               CENTER LINE DATA:        DIGITIZING COMPANY 
~CURVE INFORMATION      
#MNEM        .UNIT         API CODE           CURVE DESCRIPTION
#-----------------      --------------        ------------------------------
 DEPT        .F                      :        1  DEPTH
 RHOB        .G/C3                   :        2  
 DRHO        .G/C3                   :        3  
 GR          .GAPI                   :        4  
 CALI        .IN                     :        5  
 DPHI        .%                      :        6  
 NPHI        .%                      :        7  
 SP          .MV                     :        8  
 ALL8        .OHMM                   :        9  
 ILD         .OHMM                   :        10 
 CILD        .MMHO                   :        11 
 DT          .US/F                   :        12 
~PARAMETER INFORMATION       
#MNEM.UNIT                  VALUE             DESCRIPTION OF MNEMONIC
#---------             ---------------        ------------------------------
 EKB .F                       26.0000:        KELLY BUSHING
 TD  .F                     2285.0000:        TOTAL DEPTH
~OTHER INFORMATION
~A    DEPTH        RHOB        DRHO          GR        CALI        DPHI        NPHI          SP        ALL8         ILD        CILD          DT  
# ...
  2022.0000      2.4443      0.0375     62.9575     10.0997     11.8484     26.1502    -39.6441     16.8417     18.8004     48.3167     86.2647  
  2022.5000      2.4141      0.0297     62.1741     10.0992     12.4947     26.5342    -39.6517     16.8442     18.7106     49.3639     86.3954  
  2023.0000      2.4002      0.0218     62.2015     10.1202     14.2161     26.6203    -39.7294     16.8732     18.3285     50.0244     86.6503  
  2023.5000      2.4012      0.0202     63.8487     10.1535     15.1810     26.5518    -40.0128     16.9623     17.8710     51.3523     87.2332  
  2024.0000      2.4167      0.0169     65.1147     10.2102     15.7928     26.1650    -40.3492     17.0514     17.3408     52.5329     87.7447  
  2024.5000      2.4309      0.0116     64.7683     10.2669     14.3608     26.1789    -40.2707     17.1405     16.8409     54.0918     87.8498  
  2025.0000      2.4273      0.0071     63.9043     10.2720     13.5830     26.1900    -39.8137     17.0586     16.7024     54.9275     87.5153  
  2025.5000      2.4208      0.0053     64.0571     10.2430     13.6301     25.2945    -39.1108     16.8630     16.5639     55.0648     86.9861  
  2026.0000      2.4192      0.0036     67.5336     10.2140     14.2355     24.8738    -38.8143     16.6674     16.4254     54.2282     86.4686  
  2026.5000      2.4102      0.0054     71.8167     10.1878     14.3696     24.4778    -39.0175     16.4718     16.3089     55.4351     86.1948  
  2027.0000      2.3900      0.0054     78.2359     10.1655     14.7044     24.6265    -39.4531     16.5497     16.1664     56.8138     86.1844  
  2027.5000      2.3782     -0.0012     85.1057     10.1547     15.7588     24.8370    -40.2883     16.8516     15.7706     58.4088     86.1518  
  2028.0000      2.3757     -0.0023     88.9715     10.1361     16.4305     25.1278    -41.3203     16.9887     16.1260     58.5967     85.9166  
  2028.5000      2.3744      0.0066     86.3377     10.1163     16.7221     25.6485    -42.2789     17.4082     17.0652     56.4803     85.4393  
  2029.0000      2.3705      0.0022     81.1212     10.0941     16.7895     26.7163    -42.8834     18.1071     17.6925     53.3299     84.8673  
  2029.5000      2.3610      0.0017     74.7056     10.0830     16.9995     28.1176    -43.6142     18.7206     18.9637     50.2882     84.2628  
  2030.0000      2.3298      0.0111     67.0304     10.0760     17.9739     28.9713    -45.0210     20.0460     20.7472     47.3675     83.8854  
  2030.5000      2.2926      0.0169     61.5463     10.0689     19.6043     28.6083    -47.3717     21.8649     22.5308     43.8404     84.1438  
  2031.0000      2.2746      0.0110     61.1847     10.0618     21.5672     28.4342    -49.6932     23.8214     24.3144     40.9632     84.1075  
  2031.5000      2.2749      0.0141     62.3615     10.0548     22.7897     28.3136    -51.5581     26.0483     26.0979     37.0487     84.0002  
  2032.0000      2.2779      0.0034     65.6121     10.0477     22.9369     28.4626    -52.7501     28.2752     28.1974     33.2680     83.3433  
  2032.5000      2.2862      0.0019     67.6685     10.0406     22.5355     28.6120    -53.6492     29.9052     30.5196     29.4873     83.0781  
  2033.0000      2.2888      0.0212     65.6743     10.0335     21.9070     28.6074    -54.3555     31.1838     33.0563     26.7776     83.1522  
  2033.5000      2.2893      0.0408     53.9168     10.0265     21.7779     28.5460    -55.0364     32.2710     34.7784     25.0322     83.9088  
  2034.0000      2.2973      0.0462     42.7917     10.0194     21.8149     27.8229    -55.7320     33.0684     35.2283     24.8689     84.8843  
  2034.5000      2.2957      0.0249     35.8080     10.0148     21.3063     27.0012    -56.4275     34.5970     35.4172     24.7055     85.5350  
  2035.0000      2.3230      0.0160     34.1970     10.0208     21.6520     26.3998    -57.1394     35.9326     35.5966     24.6514     85.9165  
  2035.5000      2.3498      0.0033     34.1699     10.0268     20.1317     26.8580    -57.4834     36.7474     35.7761     24.6016     86.0469  
  2036.0000      2.3504     -0.0036     33.9985     10.0327     18.2888     26.8624    -57.7811     37.4256     35.5602     24.6903     86.5611  
  2036.5000      2.3197      0.0062     33.1604     10.0387     18.7360     26.7634    -57.9745     37.3101     34.3855     24.9885     88.0653  
  2037.0000      2.2535      0.0222     32.9143     10.0415     21.2327     26.6996    -58.1829     35.5970     33.0268     26.0822     88.5758  
  2037.5000      2.2271      0.0095     32.0505     10.0360     23.8860     26.3939    -58.3807     33.4071     31.6680     26.2738     89.2274  
  2038.0000      2.2314      0.0035     31.8904     10.0305     25.4827     25.4531    -58.5095     30.7920     30.7686     27.8140     92.5965  
  2038.5000      2.2325      0.0125     30.9673     10.0255     25.1380     24.9954    -58.5156     30.6072     30.2286     28.7896     95.6430  
  2039.0000      2.2199      0.0209     29.6773     10.0172     25.3003     25.2094    -58.7395     30.4641     30.2841     28.7488     98.0317  
  2039.5000      2.1980      0.0209     28.6412     10.0080     25.8941     25.4235    -59.3539     31.1349     30.3778     28.7081     97.6184  
  2040.0000      2.1817      0.0139     28.2451      9.9987     27.0727     25.7180    -59.8392     33.2707     30.6646     28.6673     95.7922  
  2040.5000      2.1688      0.0046     29.7085      9.9894     28.2787     26.0289    -60.1769     35.6644     30.9515     28.4409     94.6646  
  2041.0000      2.1789      0.0082     31.6040      9.9851     28.6618     26.4822    -60.2668     38.3778     31.9576     27.6371     94.9697  
  2041.5000      2.2086      0.0252     33.6728     10.0167     28.1553     27.1640    -60.1867     40.1939     34.2148     25.9420     95.2671  
  2042.0000      2.2587      0.0512     35.6194     10.0560     26.3806     27.7167    -59.9839     41.1255     38.2845     23.7877     94.7167  
  2042.5000      2.3201      0.0312     36.9348     10.1220     23.4949     28.2425    -59.7412     42.0572     42.5328     21.5730     91.5863  
  2043.0000      2.3698      0.0056     38.1845     10.1427     20.4297     28.7114    -59.3909     42.5264     44.4515     19.7531     88.5478  
  2043.5000      2.4653     -0.0235     39.2272     10.4365     16.9924     28.3401    -58.7612     42.2383     45.7490     18.6956     82.5902  
  2044.0000      2.5091     -0.0046     38.9134     10.9421     11.4810     27.6672    -58.1315     42.1410     45.6590     18.6782     78.0842  
  2044.5000      2.4798      0.0110     38.0090     10.4370      8.3797     27.1713    -57.5018     41.9483     45.5908     18.6983     76.1871  
  2045.0000      2.4230      0.0197     37.5806     10.2131     10.3754     27.3573    -56.8849     40.2407     45.7333     18.6692     77.3061  
  2045.5000      2.4023      0.0316     38.3877     10.2549     13.7818     27.9243    -56.3154     37.7909     45.0505     18.8552     79.3485  
  2046.0000      2.3536      0.0269     40.4680     10.2658     15.3286     27.9070    -56.0426     36.0338     43.1993     19.8080     81.9397  
  2046.5000      2.3085      0.0300     42.5888     10.2665     18.4897     27.5518    -55.7683     33.7951     40.6056     21.1512     86.0570  
  2047.0000      2.2861      0.0493     44.2506     10.2816     20.6095     27.7569    -55.2342     30.1764     37.4430     23.0817     90.9138  
  2047.5000      2.2872      0.0860     46.3473     10.3164     21.9348     28.7273    -54.4424     28.1012     34.8517     25.1276     96.5787  
  2048.0000      2.3070      0.1294     49.9334     10.3870     22.0746     31.1200    -53.8360     26.4934     32.3155     27.3733     96.3345  
  2048.5000      2.3248      0.1429     54.4379     10.4895     20.7878     32.7026    -53.1830     24.6495     29.9599     29.7898     92.8315  
  2049.0000      2.3367      0.0733     58.7239     10.6649     19.8092     33.7910    -52.7643     22.9414     27.5452     32.4152     89.1898  
