~VERSION INFORMATION
 VERS.                           2.00:        CWLS LOG ASCII STANDARD - VERSION 2.00
 WRAP.                             NO:        ONE LINE PER DEPTH STEP
~WELL INFORMATION
#MNEM.UNIT                   DATA             INFORMATION
#----------             --------------        ------------------------------
 STRT.F                       50.0000:        START DEPTH
 STOP.F                     2158.0000:        STOP DEPTH
 STEP.F                        0.5000:        STEP VALUE
 NULL.                      -999.2500:        NULL VALUE
 COMP.              HUSKY OIL COMPANY:        COMPANY  
 LOC .                   25  22N  17W:        LOCATION   
 DATE.                        2-19-77:        LOG DATE 
 WELL.               SOUTH BARROW #14:        WELL     
 UWI .                   500232000900:        UNIQUE WELL ID 
 API .                   500232000900:        UNIQUE WELL IDENTIFIER 
 FLD .               SOUTH BARROW GAS:        FIELD    
 CNTY.                    NORTH SLOPE:        COUNTY  
 STAT.                         ALASKA:        STATE   
 CTRY.                            USA:        COUNTRY 
 OPER.              HUSKY OIL COMPANY:        OPERATOR  
 SRVC.                   SCHLUMBERGER:        SERVICE COMPANY 
 LAT .                         0.0000:        LATITUDE
 LON .                         0.0000:        LONGITUDE
 DIGS.               CENTER LINE DATA:        DIGITIZING COMPANY 
~CURVE INFORMATION      
#MNEM        .UNIT         API CODE           CURVE DESCRIPTION
#-----------------      --------------        ------------------------------
 DEPT        .F                      :        1  DEPTH
 LLS         .OHMM                   :        2  
 LLD         .OHMM                   :        3  
 SP          .MV                     :        4  
 ILD         .OHMM                   :        5  
 ILM         .OHMM                   :        6  
 LL8         .OHMM                   :        7  
 CALI        .IN                     :        8  
 GR          .GAPI                   :        9  
 NPHI        .%                      :        10 
 DPHI        .%                      :        11 
 RHOB        .G/C3                   :        12 
 DRHO        .G/C3                   :        13 
 DT          .US/F                   :        14 
~PARAMETER INFORMATION       
#MNEM.UNIT                  VALUE             DESCRIPTION OF MNEMONIC
#---------             ---------------        ------------------------------
 EKB .F                       31.0000:        KELLY BUSHING
 TD  .F                     1042.0000:        TOTAL DEPTH
 BHT .F                       62.0000:        BOTTOM HOLE TEMPERATURE
 BS  .                         6.0000:        BIT SIZE
 FD  .                        10.7000:        FLUID DENSITY
 CSIZ.                         7.0000:        CASING SIZE
 CBD .F                     1947.0000:        CASING DRILLER 1
 CBL .F                     1946.0000:        CASING LOGGER 1
 DFT .                  Miscellaneous:        TYPE FLUID IN HOLE
 DFV .                        50.0000:        VISCOSITY
 DFPH.                        10.0000:        PH
 DFL .                         0.0000:        FLUID LOSS
 RMS .                         0.1500:        RM
 MST .F                       50.0000:        RM MEAS. TEMP.
 RMF .                         0.1600:        RMF
 MFST.F                       61.0000:        RMF MEAS. TEMP.
 RMC .                         0.0000:        RMC
 MCST.F                        0.0000:        RMC MEAS. TEMP.
~OTHER INFORMATION
~A    DEPTH         LLS         LLD          SP         ILD         ILM         LL8        CALI          GR        NPHI        DPHI        RHOB        DRHO          DT  
# ...
  1778.0000   -999.2500   -999.2500    -46.1782     11.5373     11.8627     14.9235      8.5036     83.0089     35.5182     11.8203      2.4452      0.0228    103.7889  
  1778.5000   -999.2500   -999.2500    -46.9516     12.1040     12.4453     14.0136      8.4349     82.1042     33.4145     12.4436      2.4407      0.0152     99.9579  
  1779.0000   -999.2500   -999.2500    -47.7086     12.2974     12.5484     13.9710      8.4100     81.7682     32.7982     12.8579      2.4361      0.0101     95.5183  
  1779.5000   -999.2500   -999.2500    -48.4349     12.1235     12.3709     13.9314      8.4616     82.0969     32.9437     13.4142      2.4426      0.0256     92.9515  
  1780.0000   -999.2500   -999.2500    -48.7183     11.9520     12.1960     13.7503      8.4720     84.4261     33.2012     14.1209      2.4655      0.0366     91.0098  
  1780.5000   -999.2500   -999.2500    -48.9551     11.7580     12.0063     13.3918      8.4955     84.5406     33.0089     13.3258      2.4812      0.0491     92.0333  
  1781.0000   -999.2500   -999.2500    -49.0649     11.5361     11.7797     13.0426      8.5301     82.2669     32.6775     11.6396      2.4839      0.0595     93.1901  
  1781.5000   -999.2500   -999.2500    -49.4110     11.3185     11.5574     12.7026      8.5428     81.5900     33.2275     10.7497      2.4831      0.0553     93.6168  
  1782.0000   -999.2500   -999.2500    -49.7776     11.2967     11.5169     12.5114      8.5606     82.0583     33.7677     10.6047      2.4707      0.0531     93.9854  
  1782.5000   -999.2500   -999.2500    -50.0793     11.2790     11.4988     12.3979      8.5833     83.2786     34.2462     10.5967      2.4458      0.0414     94.4920  
  1783.0000   -999.2500   -999.2500    -50.2336     11.2613     11.4808     12.2853      8.5842     85.6089     34.3522     11.5928      2.4610      0.0438     94.1936  
  1783.5000   -999.2500   -999.2500    -50.3188     11.2436     11.4628     12.4656      8.5258     88.2386     33.9514     12.4970      2.4470      0.0536     90.6231  
  1784.0000   -999.2500   -999.2500    -50.4039     11.3170     11.5410     12.7767      8.4264     88.2618     33.2140     12.0470      2.4624      0.0531    109.5923  
  1784.5000   -999.2500   -999.2500    -50.4890     11.4129     11.6387     13.0956      8.4200     86.2147     32.8506     12.0503      2.4763      0.0615     83.2325  
  1785.0000   -999.2500   -999.2500    -50.3124     11.5096     11.7373     13.4374      8.5654     84.4064     32.9319     11.5622      2.4705      0.0501     92.9042  
  1785.5000   -999.2500   -999.2500    -49.9218     11.6070     11.8367     13.6662      8.6377     84.0758     33.2860     10.8088      2.4541      0.0390    117.4966  
  1786.0000   -999.2500   -999.2500    -48.6913     11.7054     11.9370     13.8597      8.6443     83.8032     33.5369     11.5549      2.4335      0.0236     72.9646  
  1786.5000   -999.2500   -999.2500    -48.5240     11.8426     12.0808     14.0559      8.6542     82.2017     32.9092     12.4807      2.4128      0.0078     94.0168  
  1787.0000   -999.2500   -999.2500    -48.2164     11.9862     12.2273     13.8788      8.5850     83.5780     32.3994     13.7115      2.4256      0.0053     94.5756  
  1787.5000   -999.2500   -999.2500    -48.1356     11.9600     12.2131     13.4721      8.5460     84.4042     32.2311     14.8955      2.4473      0.0176     95.5243  
  1788.0000   -999.2500   -999.2500    -48.0391     11.7300     11.9782     12.8214      8.3979     85.1813     32.2576     14.1639      2.4691      0.0250     93.9902  
  1788.5000   -999.2500   -999.2500    -47.9137     11.5045     11.7479     11.9938      8.4856     85.3906     31.9032     12.8248      2.4492      0.0238     93.2141  
  1789.0000   -999.2500   -999.2500    -47.7464     11.2832     11.5220     11.8199      8.5264     85.5998     31.2667     11.7839      2.4444      0.0222     94.8003  
  1789.5000   -999.2500   -999.2500    -47.4230     11.1955     11.4148     11.9100      8.5672     85.8774     30.5526     12.6922      2.4663      0.0420     93.3546  
  1790.0000   -999.2500   -999.2500    -47.1683     11.2532     11.4737     12.4515      8.6000     88.6088     30.1769     12.5215      2.4574      0.0283     94.1108  
  1790.5000   -999.2500   -999.2500    -46.9368     11.3113     11.5329     13.2420      8.6035     84.7786     30.8848     11.6410      2.4495      0.0242     94.7902  
  1791.0000   -999.2500   -999.2500    -46.6835     11.3473     11.5783     13.5739      8.5499     83.2289     31.3506     12.7868      2.4621      0.0210     95.3497  
  1791.5000   -999.2500   -999.2500    -46.6607     11.1906     11.4184     13.6368      8.5515     81.6593     31.5138     12.1586      2.4747      0.0294     95.6186  
  1792.0000   -999.2500   -999.2500    -47.0815     11.0361     11.2607     12.7503      8.5506     80.1077     31.3884     11.4692      2.4734      0.0387     95.3109  
  1792.5000   -999.2500   -999.2500    -47.5039     10.8837     11.1052     11.6917      8.5673     81.1649     31.2455     10.1312      2.4574      0.0269     94.6859  
  1793.0000   -999.2500   -999.2500    -47.5027     10.7333     10.9519     11.5483      8.4528     83.0063     31.6292     11.1758      2.4415      0.0265     94.0336  
  1793.5000   -999.2500   -999.2500    -47.2653     10.5851     10.8006     11.7023      8.5563     85.2535     32.6652     11.5561      2.4448      0.0202     93.8076  
  1794.0000   -999.2500   -999.2500    -47.1223     10.4389     10.6515     12.0054      8.6098     88.2613     32.4965     12.6909      2.4614      0.0289     94.5123  
  1794.5000   -999.2500   -999.2500    -47.0310     10.4249     10.6287     12.1477      8.6474     85.7592     31.5890     12.8888      2.4477      0.0203     95.6398  
  1795.0000   -999.2500   -999.2500    -47.0485     10.4684     10.6731     12.1321      8.6411     84.8801     31.5533     12.7753      2.4443      0.0201     96.6140  
  1795.5000   -999.2500   -999.2500    -47.0158     10.5606     10.7735     12.1792      8.6583     84.7162     31.9936     13.6494      2.4555      0.0227     97.1929  
  1796.0000   -999.2500   -999.2500    -47.0344     10.6922     10.9078     12.2886      8.6320     85.1728     32.1881     13.1390      2.4552      0.0358     96.9092  
  1796.5000   -999.2500   -999.2500    -46.8771     10.8255     11.0437     12.3981      8.6156     86.8584     32.3087     12.2704      2.4560      0.0294     96.4154  
  1797.0000   -999.2500   -999.2500    -46.4871     10.9604     11.1814     12.5660      8.6237     88.0767     32.6579     12.0627      2.4651      0.0280     96.3283  
  1797.5000   -999.2500   -999.2500    -46.3557     11.0971     11.3208     12.7831      8.6319     85.7852     32.4619     11.9564      2.4572      0.0241     96.3499  
  1798.0000   -999.2500   -999.2500    -46.6358     11.2354     11.4619     13.0499      8.6294     83.4937     32.2509     11.8618      2.4628      0.0211     96.2393  
  1798.5000   -999.2500   -999.2500    -46.9110     11.3755     11.6048     13.3528      8.6312     84.8873     32.0169     12.3235      2.4707      0.0201     95.9487  
  1799.0000   -999.2500   -999.2500    -46.8761     11.5173     11.7495     13.6628      8.5898     84.1552     31.5384     11.9187      2.4531      0.0220     95.4307  
  1799.5000   -999.2500   -999.2500    -46.7783     11.6608     11.8959     13.3461      8.5831     83.4026     30.8406     11.7818      2.4420      0.0127     95.1170  
  1800.0000   -999.2500   -999.2500    -47.0136     11.8062     12.0442     12.7268      8.5874     82.7803     30.2598     12.1932      2.4589      0.0053     94.7716  
  1800.5000   -999.2500   -999.2500    -47.3175     11.7475     11.9846     12.2971      8.5778     85.0414     29.5938     13.3422      2.4776      0.0142     94.5381  
  1801.0000   -999.2500   -999.2500    -47.3686     11.6042     11.8383     12.5904      8.5784     85.5534     29.3138     12.1541      2.4726      0.0370     94.4159  
  1801.5000   -999.2500   -999.2500    -47.1886     11.4625     11.6938     12.8908      8.5656     86.3838     29.9157     11.3686      2.4544      0.0347     94.3894  
