~VERSION INFORMATION
 VERS.                           2.00:        CWLS LOG ASCII STANDARD - VERSION 2.00
 WRAP.                             NO:        ONE LINE PER DEPTH STEP
~WELL INFORMATION
#MNEM.UNIT                   DATA             INFORMATION
#----------             --------------        ------------------------------
 STRT.F                     1244.0000:        START DEPTH
 STOP.F                     2340.0000:        STOP DEPTH
 STEP.F                        0.5000:        STEP VALUE
 NULL.                      -999.2500:        NULL VALUE
 COMP.        U.S. NAVY DEPT NP & OSR:        COMPANY  
 LOC .                   14  22N  18W:        LOCATION   
 DATE.                        3/16/73:        LOG DATE 
 WELL.               SOUTH BARROW #10:        WELL     
 UWI .                   500232000400:        UNIQUE WELL ID 
 API .                   500232000400:        UNIQUE WELL IDENTIFIER 
 FLD .                   SOUTH BARROW:        FIELD    
 CNTY.                         NPR #4:        COUNTY  
 STAT.                         ALASKA:        STATE   
 CTRY.                            USA:        COUNTRY 
 OPER.        U.S. NAVY DEPT NP & OSR:        OPERATOR  
 SRVC.                   SCHLUMBERGER:        SERVICE COMPANY 
 LAT .                         0.0000:        LATITUDE
 LON .                         0.0000:        LONGITUDE
 DIGS.               CENTER LINE DATA:        DIGITIZING COMPANY 
~CURVE INFORMATION      
#MNEM        .UNIT         API CODE           CURVE DESCRIPTION
#-----------------      --------------        ------------------------------
 DEPT        .F                      :        1  DEPTH
 SP          .MV                     :        2  
 LL8         .OHMM                   :        3  
 ILD         .OHMM                   :        4  
 CILD        .MMHO                   :        5  
 DT          .US/F                   :        6  
~PARAMETER INFORMATION       
#MNEM.UNIT                  VALUE             DESCRIPTION OF MNEMONIC
#---------             ---------------        ------------------------------
 EKB .F                       38.0000:        KELLY BUSHING
 TD  .F                     2349.0000:        TOTAL DEPTH
 BHT .F                       60.0000:        BOTTOM HOLE TEMPERATURE
 BS  .                         9.6250:        BIT SIZE
 FD  .                        10.6000:        FLUID DENSITY
 CSIZ.                        10.7500:        CASING SIZE
 CBD .F                     1240.0000:        CASING DRILLER 1
 CBL .F                     1244.0000:        CASING LOGGER 1
 DFT .                  Miscellaneous:        TYPE FLUID IN HOLE
 DFV .                        15.0000:        VISCOSITY
 DFPH.                        11.0000:        PH
 DFL .                         1.8000:        FLUID LOSS
 RMS .                         1.1900:        RM
 MST .F                       55.0000:        RM MEAS. TEMP.
 RMF .                         0.8500:        RMF
 MFST.F                       55.0000:        RMF MEAS. TEMP.
 RMC .                         1.2000:        RMC
 MCST.F                       55.0000:        RMC MEAS. TEMP.
~OTHER INFORMATION
~A    DEPTH          SP         LL8         ILD        CILD          DT  
# ...
  1952.5000    -18.3512     10.8730      8.4074    115.0899    110.3985  
  1953.0000    -18.2951     10.8438      8.6025    113.5273    109.9019  
  1953.5000    -18.3714     10.7760      8.6833    112.4816    109.4483  
  1954.0000    -18.3487     10.7497      8.7124    112.4229    107.6942  
  1954.5000    -18.5527     10.5691      8.7165    112.5776    109.1614  
  1955.0000    -18.8820     10.2123      8.6555    113.6592    116.6747  
  1955.5000    -19.3944      9.9481      8.5122    115.0267    121.4334  
  1956.0000    -19.9310      9.8954      8.4605    115.7697    118.0606  
  1956.5000    -19.8028      9.9959      8.4780    115.3883    114.5414  
  1957.0000    -19.7530     10.0790      8.5064    114.9532    112.4397  
  1957.5000    -19.8867     10.0858      8.5348    113.8653    117.1817  
  1958.0000    -19.7157     10.0804      8.5633    113.4098    120.2955  
  1958.5000    -19.5447     10.1941      8.5917    113.7407    119.8442  
  1959.0000    -19.3737     10.4961      8.6115    113.9027    119.1831  
  1959.5000    -19.4565     10.8091      8.6238    113.5765    118.5813  
  1960.0000    -19.5679     11.0481      8.6838    112.5898    116.5170  
  1960.5000    -19.6583     11.2539      8.7586    111.1389    111.6320  
  1961.0000    -19.6322     11.5494      9.0159    108.9962    109.4514  
  1961.5000    -19.6791     11.9270      9.2588    106.6026    110.1509  
  1962.0000    -19.6356     11.9974      9.4023    104.8840    109.6673  
  1962.5000    -19.6039     12.0875      9.4527    103.9214    109.5825  
  1963.0000    -19.5875     11.8502      9.3918    104.9019    109.5924  
  1963.5000    -18.7777     11.6939      9.2562    107.0322    109.0498  
  1964.0000    -18.2014     11.4520      9.0690    109.1625    107.2569  
  1964.5000    -18.1000     11.1335      8.8984    111.2928    106.2703  
  1965.0000    -18.8944     10.6557      8.6962    113.4231    107.3758  
  1965.5000    -19.1179     10.3265      8.4447    115.5534    108.3494  
  1966.0000    -19.3408     10.1861      8.2204    118.9602    111.1678  
  1966.5000    -19.6273     10.1408      7.9701    122.1396    112.5157  
  1967.0000    -20.0718     10.2240      7.8890    123.2148    113.1782  
  1967.5000    -20.2785     10.3843      7.8675    123.4588    113.1705  
  1968.0000    -20.1831     10.4235      7.8881    122.9058    112.4987  
  1968.5000    -20.1012     10.4428      7.9152    122.2493    112.1434  
  1969.0000    -20.0290     10.5155      8.0122    121.3390    111.9642  
  1969.5000    -19.8040     10.6063      8.0954    119.6558    111.5067  
  1970.0000    -19.4888     10.7761      8.2567    117.2577    110.2121  
  1970.5000    -19.6052     11.0164      8.4332    114.7143    109.4607  
  1971.0000    -19.9877     11.1347      8.6414    113.0185    109.2849  
  1971.5000    -20.0780     11.0402      8.6863    112.6315    109.6986  
  1972.0000    -20.0274     11.1204      8.6078    113.2440    109.9877  
  1972.5000    -19.8677     11.2300      8.6212    113.3750    108.7737  
  1973.0000    -19.7456     11.4099      8.6609    112.3959    106.6291  
  1973.5000    -19.7195     11.4632      8.8241    111.0202    105.5985  
  1974.0000    -19.7392     11.3273      8.9063    110.0179    104.8326  
  1974.5000    -19.7253     11.0759      8.8559    110.3956    105.5459  
  1975.0000    -19.7114     10.9244      8.7629    112.1710    106.4753  
  1975.5000    -19.6837     10.9443      8.6046    113.8037    106.6590  
  1976.0000    -19.4694     10.9553      8.5743    114.0164    106.9200  
  1976.5000    -19.1176     10.8648      8.7237    112.9841    107.1967  
  1977.0000    -18.8581     10.7705      8.6862    112.3625    107.4294  
  1977.5000    -18.6870     10.7441      8.6717    112.5008    108.1554  
  1978.0000    -18.5358     10.6355      8.5902    113.8022    109.0027  
  1978.5000    -18.3388     10.2269      8.4087    116.2350    109.7404  
  1979.0000    -18.5500      9.7305      8.1687    120.9083    109.7354  
  1979.5000    -18.9837      9.4610      7.9603    125.2987    109.5189  
  1980.0000    -19.2985      9.4739      7.7519    127.2553    108.6810  
  1980.5000    -19.3171      9.4534      7.5893    127.5568    107.1664  
  1981.0000    -19.1753      9.4329      7.5320    127.6530    106.2569  
  1981.5000    -19.0784      9.3695      7.4747    128.2003    107.0412  
  1982.0000    -18.8200      9.4056      7.4175    129.2449    108.9737  
  1982.5000    -18.5888      9.8292      7.4280    129.3156    109.1935  
  1983.0000    -18.5863     10.2482      7.5861    126.6778    109.3267  
  1983.5000    -18.9549     10.3629      7.7442    122.5595    109.5548  
  1984.0000    -19.0823     10.4492      7.9261    119.3528    109.3087  
  1984.5000    -19.0259     10.4968      8.2415    117.4078    108.8646  
  1985.0000    -18.7056     10.4755      8.3704    116.5961    108.6056  
  1985.5000    -18.6258     10.5000      8.3885    116.3524    108.2922  
  1986.0000    -18.4426     10.4976      8.4065    116.4897    107.7780  
  1986.5000    -18.1131     10.4558      8.3782    116.8446    107.6014  
  1987.0000    -17.8529     10.3813      8.3073    117.6989    108.1352  
  1987.5000    -17.5914     10.3117      8.2561    118.7804    108.6804  
  1988.0000    -17.4583     10.1887      8.1437    119.8199    109.5645  
  1988.5000    -17.4935     10.1249      8.0914    120.8333    110.1855  
  1989.0000    -17.6944     10.3485      8.1268    119.7394    110.6239  
  1989.5000    -17.4549     10.6632      8.2718    118.1549    111.0878  
  1990.0000    -17.5797     11.4910      8.5099    115.3299    111.6202  
  1990.5000    -18.7465     12.0335      8.7784    111.5998    111.1845  
  1991.0000    -20.0918     12.2112      8.9588    108.6954    111.4357  
  1991.5000    -21.1218     12.3264      9.1142    107.8072    111.6033  
  1992.0000    -21.1835     12.6033      9.2695    106.9452    109.7149  
  1992.5000    -20.3932     13.0077      9.4248    105.4268    103.7147  
  1993.0000    -19.8893     13.0721      9.5089    103.9084    100.1490  
  1993.5000    -19.5331     12.6843      9.5089    103.2020    100.2092  
  1994.0000    -19.8200     11.8937      9.3900    104.0983    107.3751  
  1994.5000    -20.2658     11.3221      9.2231    106.0737    114.0142  
  1995.0000    -20.7576     11.2622      9.0725    109.8092    111.8366  
  1995.5000    -21.0756     11.3011      8.9547    112.8780    111.7131  
  1996.0000    -21.1147     11.3340      8.8370    113.8969    112.3062  
  1996.5000    -20.6826     11.3137      8.6723    114.2633    116.3952  
  1997.0000    -20.4206     11.2228      8.5148    114.6208    123.5232  
  1997.5000    -20.1445     11.0337      8.4279    116.0192    118.9922  
  1998.0000    -20.2856     10.7753      8.2457    117.7115    115.8640  
  1998.5000    -20.6051     10.5172      8.0756    120.7759    115.5148  
  1999.0000    -20.7791     10.3429      7.9038    123.5900    113.4886  
  1999.5000    -20.8011     10.1257      7.6977    126.1089    112.4084  
  2000.0000    -20.5487      9.8421      7.5662    128.7079    112.2573  
  2000.5000    -20.1149      9.5542      7.4347    130.9841    113.2588  
  2001.0000    -19.5747      9.2663      7.3032    133.2340    114.7240  
  2001.5000    -19.2061      9.4765      7.1717    134.6809    117.8063  
  2002.0000    -19.9393      9.7310      7.2542    134.2776    119.2742  
  2002.5000    -20.4560     10.3206      7.4638    131.7198    120.0675  
  2003.0000    -20.8846     11.3049      7.9695    125.8027    119.5146  
  2003.5000    -21.2423     13.0368      8.4752    115.6948    119.4305  
  2004.0000    -21.9107     15.5946      9.4498    102.3488    120.1697  
  2004.5000    -22.6058     18.4533     11.0787     90.5863    121.7954  
  2005.0000    -23.1862     22.7208     13.1364     76.7042    120.8046  
  2005.5000    -23.6777     26.6677     14.7359     69.5910    118.7440  
  2006.0000    -23.9427     29.8176     16.3039     62.5987    115.7825  
  2006.5000    -23.8767     28.5329     18.2622     56.4254    114.3111  
