~VERSION INFORMATION
 VERS.                           2.00:        CWLS LOG ASCII STANDARD - VERSION 2.00
 WRAP.                             NO:        ONE LINE PER DEPTH STEP
~WELL INFORMATION
#MNEM.UNIT                   DATA             INFORMATION
#----------             --------------        ------------------------------
 STRT.F                      990.0000:        START DEPTH
 STOP.F                     2362.0000:        STOP DEPTH
 STEP.F                        0.5000:        STEP VALUE
 NULL.                      -999.2500:        NULL VALUE
 COMP.                 U.S. AIR FORCE:        COMPANY  
 LOC .                   14  22N  18W:        LOCATION   
 DATE.                        4/21/69:        LOG DATE 
 WELL.       SOUTH BARROW GAS WELL #8:        WELL     
 UWI .                   500232000200:        UNIQUE WELL ID 
 API .                   500232000200:        UNIQUE WELL IDENTIFIER 
 FLD .                S. B. GAS FIELD:        FIELD    
 CNTY.                   POINT BARROW:        COUNTY  
 STAT.                         ALASKA:        STATE   
 CTRY.                            USA:        COUNTRY 
 OPER.                 U.S. AIR FORCE:        OPERATOR  
 SRVC.                   SCHLUMBERGER:        SERVICE COMPANY 
 LAT .                         0.0000:        LATITUDE
 LON .                         0.0000:        LONGITUDE
 DIGS.               CENTER LINE DATA:        DIGITIZING COMPANY 
~CURVE INFORMATION      
#MNEM        .UNIT         API CODE           CURVE DESCRIPTION
#-----------------      --------------        ------------------------------
 DEPT        .F                      :        1  DEPTH
 SP          .MV                     :        2  
 ASN         .OHMM                   :        3  
 ILD         .OHMM                   :        4  
 CILD        .MMHO                   :        5  
 CALI        .IN                     :        6  
 DT          .US/F                   :        7  
~PARAMETER INFORMATION       
#MNEM.UNIT                  VALUE             DESCRIPTION OF MNEMONIC
#---------             ---------------        ------------------------------
 EKB .F                       31.0000:        KELLY BUSHING
 TD  .F                     2363.0000:        TOTAL DEPTH
 BHT .F                       74.0000:        BOTTOM HOLE TEMPERATURE
 BS  .                         8.6250:        BIT SIZE
 FD  .                        10.6000:        FLUID DENSITY
 CSIZ.                         9.6250:        CASING SIZE
 CBD .F                      992.0000:        CASING DRILLER 1
 CBL .F                      990.0000:        CASING LOGGER 1
 DFT .                            Gel:        TYPE FLUID IN HOLE
 DFV .                        54.0000:        VISCOSITY
 DFPH.                        10.0000:        PH
 DFL .                         4.8000:        FLUID LOSS
 RMS .                         2.0000:        RM
 MST .F                       82.0000:        RM MEAS. TEMP.
 RMF .                         2.1800:        RMF
 MFST.F                       61.0000:        RMF MEAS. TEMP.
 RMC .                         4.1900:        RMC
 MCST.F                       53.0000:        RMC MEAS. TEMP.
~OTHER INFORMATION
~A    DEPTH          SP         ASN         ILD        CILD        CALI          DT  
# ...
  2212.0000    -26.8078     13.0003     12.2516     81.1403   -999.2500   -999.2500  
  2212.5000    -26.7411     13.0863     12.2675     81.0581   -999.2500   -999.2500  
  2213.0000    -26.9438     13.1878     12.2833     81.2515   -999.2500   -999.2500  
  2213.5000    -27.0971     13.2892     12.3037     81.1685   -999.2500   -999.2500  
  2214.0000    -26.8844     13.3907     12.4670     80.9255   -999.2500   -999.2500  
  2214.5000    -26.8191     13.4497     12.6302     80.3348   -999.2500   -999.2500  
  2215.0000    -26.9126     13.4673     12.7935     79.2596   -999.2500   -999.2500  
  2215.5000    -27.1416     13.4848     12.9590     78.1844   -999.2500   -999.2500  
  2216.0000    -27.4777     13.6339     13.1468     76.8004   -999.2500   -999.2500  
  2216.5000    -27.8269     13.9860     13.3346     75.5508   -999.2500   -999.2500  
  2217.0000    -27.9992     14.2617     13.5225     74.6515   -999.2500   -999.2500  
  2217.5000    -28.1475     14.5060     13.6923     73.1778   -999.2500   -999.2500  
  2218.0000    -28.2509     14.5647     13.8830     72.2509   -999.2500   -999.2500  
  2218.5000    -28.3620     14.6062     14.1243     70.5486   -999.2500   -999.2500  
  2219.0000    -28.3662     14.7585     14.3656     69.3194   -999.2500   -999.2500  
  2219.5000    -28.2135     14.9409     14.6069     68.3598   -999.2500   -999.2500  
  2220.0000    -27.8130     15.1318     14.8482     67.4162   -999.2500   -999.2500  
  2220.5000    -27.3478     15.2954     15.0582     66.4725   -999.2500   -999.2500  
  2221.0000    -27.2475     15.5280     15.2121     65.5288   -999.2500   -999.2500  
  2221.5000    -27.0831     15.8354     15.3661     64.5852   -999.2500   -999.2500  
  2222.0000    -26.9784     16.2709     16.0737     63.3210   -999.2500   -999.2500  
  2222.5000    -27.0527     16.7078     16.7978     60.8526   -999.2500   -999.2500  
  2223.0000    -27.1018     17.2669     17.5219     57.8358   -999.2500   -999.2500  
  2223.5000    -27.3977     18.1124     18.2460     56.0651   -999.2500   -999.2500  
  2224.0000    -27.9072     18.9234     18.7637     55.2363   -999.2500   -999.2500  
  2224.5000    -28.9935     19.4665     18.9171     53.1318   -999.2500   -999.2500  
  2225.0000    -30.9265     20.0096     19.0575     53.1318   -999.2500   -999.2500  
  2225.5000    -33.5882     20.2462     19.0775     53.1318   -999.2500   -999.2500  
  2226.0000    -34.1802     19.7817     19.0832     53.0563   -999.2500   -999.2500  
  2226.5000    -31.8248     19.1100     18.9076     53.4889   -999.2500   -999.2500  
  2227.0000    -30.1049     18.5197     18.2837     55.1016   -999.2500   -999.2500  
  2227.5000    -29.4454     17.7869     17.4856     57.1569   -999.2500   -999.2500  
  2228.0000    -28.8893     17.5434     16.9281     59.5435   -999.2500   -999.2500  
  2228.5000    -28.9835     17.4830     16.4434     61.1848   -999.2500   -999.2500  
  2229.0000    -28.8859     17.5283     16.3787     61.8288   -999.2500   -999.2500  
  2229.5000    -28.7396     17.7573     16.5492     61.0872   -999.2500   -999.2500  
  2230.0000    -28.7966     18.1053     17.2306     59.4997   -999.2500   -999.2500  
  2230.5000    -28.8922     18.5503     18.1379     56.4731   -999.2500   -999.2500  
  2231.0000    -28.6964     19.1469     19.0452     53.6376   -999.2500   -999.2500  
  2231.5000    -28.5147     19.9660     19.9524     50.9233   -999.2500   -999.2500  
  2232.0000    -28.5359     20.7203     20.5856     49.1358   -999.2500   -999.2500  
  2232.5000    -28.7093     21.5923     20.6472     48.9291   -999.2500   -999.2500  
  2233.0000    -29.0990     22.0995     19.9265     50.2648   -999.2500   -999.2500  
  2233.5000    -29.5972     21.9020     18.9941     52.3835   -999.2500   -999.2500  
  2234.0000    -29.4893     20.9121     18.0231     56.0234   -999.2500   -999.2500  
  2234.5000    -29.1820     19.3192     16.9924     58.6853   -999.2500   -999.2500  
  2235.0000    -29.0265     17.7713     15.9263     62.1882   -999.2500   -999.2500  
  2235.5000    -28.3578     16.3920     15.1303     65.3609   -999.2500   -999.2500  
  2236.0000    -27.8698     15.9550     14.3344     68.9885   -999.2500   -999.2500  
  2236.5000    -27.3658     15.7783     13.5251     72.8071   -999.2500   -999.2500  
  2237.0000    -26.8672     15.6016     12.7554     76.4598   -999.2500   -999.2500  
  2237.5000    -26.8241     15.9503     12.2241     80.6541   -999.2500   -999.2500  
  2238.0000    -27.1423     16.1247     11.9388     84.0193   -999.2500   -999.2500  
  2238.5000    -27.7766     15.8161     11.7867     84.2556   -999.2500   -999.2500  
  2239.0000    -28.1398     15.1867     11.7683     84.6576   -999.2500   -999.2500  
  2239.5000    -28.1659     14.3569     11.7684     84.8773   -999.2500   -999.2500  
  2240.0000    -28.1971     13.6885     11.5587     85.9405   -999.2500   -999.2500  
  2240.5000    -28.2023     13.3874     11.3584     87.5097   -999.2500   -999.2500  
  2241.0000    -28.4196     13.0878     11.1944     89.0870   -999.2500   -999.2500  
  2241.5000    -28.4700     12.6897     11.1694     89.3938   -999.2500   -999.2500  
  2242.0000    -28.3298     12.5166     11.3106     88.6705   -999.2500   -999.2500  
  2242.5000    -28.1570     12.9039     11.5040     87.3016   -999.2500   -999.2500  
  2243.0000    -27.7844     13.3268     11.7276     85.6311   -999.2500   -999.2500  
  2243.5000    -27.6202     13.5820     11.9706     84.0447   -999.2500   -999.2500  
  2244.0000    -27.3362     13.5327     12.1330     83.1816   -999.2500   -999.2500  
  2244.5000    -27.2150     13.3311     12.2763     82.0850   -999.2500   -999.2500  
  2245.0000    -27.4128     13.2517     12.4585     81.1459   -999.2500   -999.2500  
  2245.5000    -27.2439     13.3129     12.6121     80.2068   -999.2500   -999.2500  
  2246.0000    -27.4208     13.3363     12.3831     80.3017   -999.2500   -999.2500  
  2246.5000    -27.7111     13.3598     12.1541     81.3400   -999.2500   -999.2500  
  2247.0000    -27.9743     13.2903     11.9251     83.6039   -999.2500   -999.2500  
  2247.5000    -28.1988     12.9419     11.3327     87.7421   -999.2500   -999.2500  
  2248.0000    -28.0970     12.3199     10.9117     92.8224   -999.2500   -999.2500  
  2248.5000    -28.0884     11.3855     10.4506     97.5015   -999.2500   -999.2500  
  2249.0000    -27.9943     10.8005      9.9895    101.6432   -999.2500   -999.2500  
  2249.5000    -27.6245     10.2384      9.5283    106.2912   -999.2500   -999.2500  
  2250.0000    -27.5384      9.8017      9.0131    111.9620   -999.2500   -999.2500  
  2250.5000    -27.4611      9.9184      8.6827    115.3354   -999.2500   -999.2500  
  2251.0000    -27.6781     10.1028      8.6772    116.5302   -999.2500   -999.2500  
  2251.5000    -27.9197     10.3467      8.9246    114.1268   -999.2500   -999.2500  
  2252.0000    -28.0342     10.5905      9.1370    109.7417   -999.2500   -999.2500  
  2252.5000    -28.1401     10.8344      9.3457    106.9577   -999.2500   -999.2500  
  2253.0000    -28.0250     11.0783      9.1363    109.2871   -999.2500   -999.2500  
  2253.5000    -27.8986     11.0069      8.8241    113.1291   -999.2500   -999.2500  
  2254.0000    -27.6203     10.8974      8.6034    117.9574   -999.2500   -999.2500  
  2254.5000    -27.1534     10.1445      8.1378    123.0336   -999.2500   -999.2500  
  2255.0000    -26.9594      9.6393      7.8727    127.0554   -999.2500   -999.2500  
  2255.5000    -26.7385      9.1341      7.6803    130.9883   -999.2500   -999.2500  
  2256.0000    -26.5585      8.7207      7.4405    135.3646   -999.2500   -999.2500  
  2256.5000    -26.5330      8.7242      7.4097    137.2496   -999.2500   -999.2500  
  2257.0000    -26.4777      8.9718      7.5891    134.6214   -999.2500   -999.2500  
  2257.5000    -26.4224      9.8106      7.8836    128.9720   -999.2500   -999.2500  
  2258.0000    -26.5334     10.2453      8.2893    121.0863   -999.2500   -999.2500  
  2258.5000    -26.9429     11.5926      9.1217    111.7905   -999.2500   -999.2500  
