~VERSION INFORMATION
 VERS.                           2.00:        CWLS LOG ASCII STANDARD - VERSION 2.00
 WRAP.                             NO:        ONE LINE PER DEPTH STEP
~WELL INFORMATION
#MNEM.UNIT                   DATA             INFORMATION
#----------             --------------        ------------------------------
 STRT.F                     1260.0000:        START DEPTH
 STOP.F                     2340.0000:        STOP DEPTH
 STEP.F                        0.5000:        STEP VALUE
 NULL.                      -999.2500:        NULL VALUE
 COMP.        U.S.NAVY DEEPT NP & OSR:        COMPANY  
 LOC .                  144  22N 18W UPM:        LOCATION   
 DATE.                        2/24/74:        LOG DATE 
 WELL.               SOUTH BARROW #11:        WELL     
 UWI .                    50023200500:        UNIQUE WELL ID 
 API .                    50023200500:        UNIQUE WELL IDENTIFIER 
 FLD .                   SOUTH BARROW:        FIELD    
 CNTY.                          NPR-4:        COUNTY  
 STAT.                         ALASKA:        STATE   
 CTRY.                            USA:        COUNTRY 
 OPER.        U.S.NAVY DEEPT NP & OSR:        OPERATOR  
 SRVC.                   SCHLUMBERGER:        SERVICE COMPANY 
 LAT .                         0.0000:        LATITUDE
 LON .                         0.0000:        LONGITUDE
 DIGS.               CENTER LINE DATA:        DIGITIZING COMPANY 
~CURVE INFORMATION      
#MNEM        .UNIT         API CODE           CURVE DESCRIPTION
#-----------------      --------------        ------------------------------
 DEPT        .F                      :        1  DEPTH
 CALI        .IN                     :        2  
 GR          .GAPI                   :        3  
 RHOB        .G/C3                   :        4  
 NPHI        .%                      :        5  
 DPHI        .%                      :        6  
 SP          .MV                     :        7  
 LL8         .OHMM                   :        8  
 ILD         .OHMM                   :        9  
 CILD        .MMHO                   :        10 
 DT          .US/F                   :        11 
~PARAMETER INFORMATION       
#MNEM.UNIT                  VALUE             DESCRIPTION OF MNEMONIC
#---------             ---------------        ------------------------------
 EKB .F                       36.0000:        KELLY BUSHING
 TD  .F                     2350.0000:        TOTAL DEPTH
 BHT .F                       60.0000:        BOTTOM HOLE TEMPERATURE
 BS  .                         9.6250:        BIT SIZE
 FD  .                        10.8000:        FLUID DENSITY
 CSIZ.                        10.7500:        CASING SIZE
 CBD .F                     1267.0000:        CASING DRILLER 1
 CBL .F                     1267.0000:        CASING LOGGER 1
 DFT .      Salt Water-Lignosulfonate:        TYPE FLUID IN HOLE
 DFV .                        52.0000:        VISCOSITY
 DFPH.                         9.0000:        PH
 DFL .                         4.2000:        FLUID LOSS
 RMS .                         1.8800:        RM
 MST .F                       50.0000:        RM MEAS. TEMP.
 RMF .                         1.1500:        RMF
 MFST.F                       63.0000:        RMF MEAS. TEMP.
 RMC .                         1.5000:        RMC
 MCST.F                       50.0000:        RMC MEAS. TEMP.
~OTHER INFORMATION
~A    DEPTH        CALI          GR        RHOB        NPHI        DPHI          SP         LL8         ILD        CILD          DT  
# ...
  2280.0000      9.8123     78.3906      2.3177     23.8996     19.9102    -30.8093     15.4132     15.3886     67.6601     93.8260  
  2280.5000      9.8143     77.4386      2.3176     24.3750     19.8484    -30.3206     15.3248     15.2620     68.3762     94.0885  
  2281.0000      9.8344     76.2425      2.3171     24.4166     19.8999    -29.7420     15.2982     15.3355     68.4245     94.2342  
  2281.5000      9.8558     75.6807      2.3157     24.3362     19.9163    -28.7517     15.4121     15.5205     67.4345     94.0999  
  2282.0000      9.8607     76.2418      2.3179     24.4279     19.7697    -27.9512     15.7769     16.0824     65.8160     93.7216  
  2282.5000      9.8667     78.1493      2.3299     24.6423     19.3178    -28.0075     16.4081     16.8163     63.8282     93.6002  
  2283.0000      9.8828     80.6620      2.3472     24.8562     18.3666    -28.6944     16.7939     17.4702     61.4948     94.5323  
  2283.5000      9.9002     81.6037      2.3548     25.0619     17.8290    -28.8362     17.1797     18.0619     59.6147     95.2923  
  2284.0000      9.9322     80.6196      2.3607     25.5464     17.7030    -28.8188     17.5655     18.8394     57.9967     95.1135  
  2284.5000      9.9159     78.8069      2.3570     26.1102     17.5780    -29.7009     17.9229     19.3855     56.1667     94.4487  
  2285.0000      9.8904     77.6502      2.3627     26.8503     17.1281    -30.7026     17.9951     19.4274     56.0813     93.3390  
  2285.5000      9.8785     76.6311      2.3901     27.7364     16.6487    -31.2860     17.4972     19.0581     56.8218     91.1503  
  2286.0000      9.8426     75.4635      2.4234     28.0836     14.8318    -31.4320     16.0048     18.3977     58.2025     89.6339  
  2286.5000      9.8620     74.1066      2.4412     27.7798     13.1791    -31.4951     15.0337     17.6308     60.3968     88.5417  
  2287.0000      9.8404     73.7002      2.4250     27.4428     13.1179    -31.5709     14.4251     17.1048     62.1808     87.9789  
  2287.5000      9.8132     75.0491      2.3705     27.0056     15.6471    -31.7782     13.5072     16.7231     63.6771     88.4269  
  2288.0000      9.8086     76.8716      2.3398     26.2694     18.4786    -31.8537     13.2317     16.2969     65.0552     90.1617  
  2288.5000      9.8008     77.7454      2.3267     25.3196     19.3091    -31.6299     13.8558     15.8803     66.4660     91.6948  
  2289.0000      9.7974     77.8196      2.3231     24.0183     19.5141    -31.7447     14.4368     15.6403     67.6365     92.3600  
  2289.5000      9.8245     77.3797      2.3238     23.8311     19.5321    -32.1774     15.2772     15.7082     68.2987     92.8391  
  2290.0000      9.8190     77.4787      2.3112     24.2137     20.0438    -32.2594     15.9182     16.2391     67.5876     92.8375  
  2290.5000      9.8025     77.6939      2.2970     24.1203     20.7340    -32.5094     16.5593     16.5012     66.4968     92.7873  
  2291.0000      9.8025     77.8629      2.2934     23.3068     21.1860    -33.2374     17.1585     16.8626     64.6548     93.1088  
  2291.5000      9.8047     77.2528      2.2952     22.5138     21.3181    -34.1857     17.4867     17.2241     62.4760     93.2244  
  2292.0000      9.8217     76.6766      2.2869     21.5674     21.6809    -35.0910     17.7991     17.5767     60.5655     93.5635  
  2292.5000      9.8382     76.4412      2.2682     20.9769     22.2976    -35.7196     18.0882     17.7766     59.2238     94.0790  
  2293.0000      9.8330     76.4425      2.2598     21.0018     23.0626    -36.2627     18.2645     17.9764     58.7643     94.3200  
  2293.5000      9.8325     77.0372      2.2580     21.1011     23.3805    -36.8280     18.4825     18.1763     59.4019     94.3604  
  2294.0000      9.8264     77.5853      2.2524     21.2612     23.7681    -37.3142     18.6056     18.2771     60.0673     94.2504  
  2294.5000      9.8075     77.2780      2.2481     21.4094     24.0949    -37.4738     18.6660     18.2917     58.8972     93.9899  
  2295.0000      9.7964     76.6699      2.2466     21.8360     24.1974    -37.2991     18.7249     18.3063     58.7863     94.1389  
  2295.5000      9.8029     76.2368      2.2390     22.0021     24.2746    -36.9792     18.8814     18.3209     58.9970     94.4202  
  2296.0000      9.8041     75.6609      2.2287     22.0557     24.9357    -36.5377     19.4432     18.3355     59.7005     94.8083  
  2296.5000      9.7995     75.3747      2.2288     21.6076     25.2883    -35.9164     20.0088     18.3346     59.7798     95.1646  
  2297.0000      9.7917     76.1210      2.2465     21.3574     25.1892    -35.4663     20.9917     18.3321     59.3494     95.2335  
  2297.5000      9.7827     77.5301      2.2722     21.0498     24.7073    -35.1872     21.9032     18.3297     59.3040     95.2746  
  2298.0000      9.7365     78.8643      2.3182     20.9031     22.3799    -35.1151     22.6366     18.3272     59.2586     95.2968  
  2298.5000      9.6525     79.4697      2.3707     21.1509     19.8163    -35.3849     23.2963     18.3247     59.2132     95.2762  
  2299.0000      9.5168     80.5501      2.4078     21.4705     17.2721    -38.8998     26.1404     21.7658     52.2030     95.1733  
  2299.5000      9.3763     81.4927      2.4050     21.9017     15.2719    -38.8519     25.7034     20.2188     55.6353     95.0817  
  2300.0000      9.2525     81.9917      2.3353     22.5766     16.0934    -37.9622     24.8944     19.4907     59.3147     95.0456  
  2300.5000      9.1480     82.3992      2.2560     23.1243     21.1752    -37.4476     23.4800     19.1539     61.5385   -999.2500  
  2301.0000      8.9265     82.4787      2.2371     23.6719     24.4011    -37.2332     22.3454     17.1651     63.7622   -999.2500  
  2301.5000      8.7313     81.9626      2.2242     24.1074     25.3543    -36.7930     21.6536     16.3686     65.9860   -999.2500  
  2302.0000      8.8163     81.4185      2.2189     24.1618     25.9630    -36.6208     21.1836     16.1066     68.2097   -999.2500  
  2302.5000      8.5479     81.6018      2.2262     24.1637     25.6629    -36.4882     20.8035     15.8179     70.3588   -999.2500  
  2303.0000      8.3212     82.1074      2.2243     24.1345     25.3886    -36.0579     20.6824     15.4438     71.6624   -999.2500  
  2303.5000      8.1677     83.0621      2.1913     24.4517     26.1430    -36.0740     20.5020     15.0210     73.1827   -999.2500  
  2304.0000      8.0771     84.5318      2.1637     24.6772     28.2826    -35.5839     19.8201     14.5600     75.8641   -999.2500  
  2304.5000   -999.2500   -999.2500   -999.2500   -999.2500   -999.2500    -34.7860     18.6911     14.0973     78.7664   -999.2500  
  2305.0000   -999.2500   -999.2500   -999.2500   -999.2500   -999.2500    -33.9820     17.7894     13.4001     81.2128   -999.2500  
  2305.5000   -999.2500   -999.2500   -999.2500   -999.2500   -999.2500    -32.8646     17.3352     13.1464     81.3265   -999.2500  
  2306.0000   -999.2500   -999.2500   -999.2500   -999.2500   -999.2500    -31.6086     17.1182     13.6919     77.0204   -999.2500  
  2306.5000   -999.2500   -999.2500   -999.2500   -999.2500   -999.2500    -30.5653     16.9502     14.9279     73.7352   -999.2500  
  2307.0000   -999.2500   -999.2500   -999.2500   -999.2500   -999.2500    -29.7836     17.0497     15.1062     72.8977   -999.2500  
  2307.5000   -999.2500   -999.2500   -999.2500   -999.2500   -999.2500    -29.2054     17.4017     15.2088     71.7033   -999.2500  
  2308.0000   -999.2500   -999.2500   -999.2500   -999.2500   -999.2500    -28.2456     18.8336     15.8471     66.0328   -999.2500  
  2308.5000   -999.2500   -999.2500   -999.2500   -999.2500   -999.2500    -27.7955     20.0075     17.7275     59.8376   -999.2500  
  2309.0000   -999.2500   -999.2500   -999.2500   -999.2500   -999.2500    -27.3753     21.1813     23.5221     52.5915   -999.2500  
  2309.5000   -999.2500   -999.2500   -999.2500   -999.2500   -999.2500    -27.1380     21.9912     24.2972     47.7426   -999.2500  
