~VERSION INFORMATION
 VERS.                           2.00:        CWLS LOG ASCII STANDARD - VERSION 2.00
 WRAP.                             NO:        ONE LINE PER DEPTH STEP
~WELL INFORMATION
#MNEM.UNIT                   DATA             INFORMATION
#----------             --------------        ------------------------------
 STRT.F                      151.0000:        START DEPTH
 STOP.F                     2726.0000:        STOP DEPTH
 STEP.F                        0.5000:        STEP VALUE
 NULL.                      -999.2500:        NULL VALUE
 COMP.                      U.S. NAVY:        COMPANY  
 WELL.                     IKO BAY #1:        WELL     
 FLD .                        WILDCAT:        FIELD    
 LOC .                   16  21N  16W:        LOCATION   
 CNTY.                    NORTH SLOPE:        COUNTY  
 STAT.                         ALASKA:        STATE   
 CTRY.                            USA:        COUNTRY 
 DATE.                         2/8/75:        LOG DATE 
 API .                   502790000000:        UNIQUE WELL IDENTIFIER 
 OPER.                      U.S. NAVY:        OPERATOR  
 SRVC.                            440:        SERVICE COMPANY 
 UWI .                   502790000000:        UNIQUE WELL ID 
 LAT .                         0.0000:        LATITUDE
 LON .                         0.0000:        LONGITUDE
 DIGS.                             65:        DIGITIZING COMPANY 
~CURVE INFORMATION      
#MNEM.UNIT                 API CODE           CURVE DESCRIPTION
#---------              --------------        ------------------------------
 DEPT.F                              :        1  DEPTH
 SP  .MV                             :        2
 ILD .OHMM                           :        3
 LL8 .OHMM                           :        4
 ILM .OHMM                           :        5
 RHOB.G/C3                           :        6
 DRHO.G/C3                           :        7
 CALI.IN                             :        8
 GR  .GAPI                           :        9
 NPHI.%                              :       10
 DT  .US/F                           :       11
~PARAMETER INFORMATION       
#MNEM.UNIT                  VALUE             DESCRIPTION OF MNEMONIC
#---------             ---------------        ------------------------------
 EKB .F                        0.0000:        KELLY BUSHING
 TD  .F                     2731.0000:        TOTAL DEPTH
 BHT .F                             0.0000:        BOTTOM HOLE TEMPERATURE
 BS  .                             14.7500:        BIT SIZE
 FD  .                              0.0000:        FLUID DENSITY
 CSIZ.                             16.0000:        CASING SIZE
 CBD .F                           149.0000:        CASING DRILLER 1
 CBL .F                           152.0000:        CASING LOGGER 1
 DFT .                            Gel:        TYPE FLUID IN HOLE
 DFV .                              0.0000:        VISCOSITY
 DFPH.                              0.0000:        PH
 DFL .                              0.0000:        FLUID LOSS
 RMS .                              0.3000:        RM
 MST .F                       49.0000:        RM MEAS. TEMP.
 RMF .                              0.2300:        RMF
 MFST.F                       49.0000:        RMF MEAS. TEMP.
 RMC .                              0.4600:        RMC
 MCST.F                       49.0000:        RMC MEAS. TEMP.
 UWI .                   502790000000:        UNIQUE WELL ID
~OTHER INFORMATION
~A    DEPTH          SP         ILD         LL8         ILM        RHOB        DRHO        CALI          GR        NPHI          DT  
# ...
   361.0000    -58.7499     10.5890     13.4006   -999.2500   -999.2500   -999.2500     14.0359   -999.2500   -999.2500    152.7342  
   361.5000    -58.8280     11.1366     14.3068   -999.2500   -999.2500   -999.2500     14.0362   -999.2500   -999.2500    151.7060  
   362.0000    -59.1997     11.4850     15.1260   -999.2500   -999.2500   -999.2500     14.0117   -999.2500   -999.2500    149.1831  
   362.5000    -59.7170     11.7163     15.8821   -999.2500   -999.2500   -999.2500     13.9583   -999.2500   -999.2500    148.2419  
   363.0000    -59.8703     11.5240     16.5971   -999.2500   -999.2500   -999.2500     13.9588   -999.2500   -999.2500    149.4888  
   363.5000    -59.6074     10.9234     17.1189   -999.2500   -999.2500   -999.2500     13.9529   -999.2500   -999.2500    150.2468  
   364.0000    -59.3445     10.5445     17.5079   -999.2500   -999.2500   -999.2500     13.9484   -999.2500   -999.2500    152.8799  
   364.5000    -59.1348     10.6586     17.9142   -999.2500   -999.2500   -999.2500     13.9524   -999.2500   -999.2500    154.6493  
   365.0000    -59.2071     11.1467     18.3866   -999.2500   -999.2500   -999.2500     13.9565   -999.2500   -999.2500    155.3535  
   365.5000    -58.9891     11.7145     18.8970   -999.2500   -999.2500   -999.2500     13.9605   -999.2500   -999.2500    155.7601  
   366.0000    -58.8106     11.9664     19.4664   -999.2500   -999.2500   -999.2500     13.9645   -999.2500   -999.2500    157.8454  
   366.5000    -58.9177     11.3929     20.1475   -999.2500   -999.2500   -999.2500     13.9685   -999.2500   -999.2500    162.6394  
   367.0000    -59.8130     10.5160     20.7891   -999.2500   -999.2500   -999.2500     13.9726   -999.2500   -999.2500    165.1173  
   367.5000    -60.9367     10.1335     21.1486   -999.2500   -999.2500   -999.2500     13.9766   -999.2500   -999.2500    167.1070  
   368.0000    -61.9496     10.3832     21.1660   -999.2500   -999.2500   -999.2500     13.9806   -999.2500   -999.2500    168.3515  
   368.5000    -62.4125     11.0008     20.9720   -999.2500   -999.2500   -999.2500     13.9554   -999.2500   -999.2500    169.5602  
   369.0000    -61.7078     11.4164     20.3859   -999.2500   -999.2500   -999.2500     13.8710   -999.2500   -999.2500    177.8882  
   369.5000    -61.5445     11.3600     19.8009   -999.2500   -999.2500   -999.2500     13.7866   -999.2500   -999.2500    179.9689  
   370.0000    -61.5696     10.7194     19.1540   -999.2500   -999.2500   -999.2500     13.6351   -999.2500   -999.2500    189.0872  
   370.5000    -61.1914      9.5862     18.4401   -999.2500   -999.2500   -999.2500     13.1586   -999.2500   -999.2500    189.7836  
   371.0000    -60.9274      8.8053     17.9979   -999.2500   -999.2500   -999.2500     12.6516   -999.2500   -999.2500    185.3946  
   371.5000    -61.3823      8.5165     17.7051   -999.2500   -999.2500   -999.2500     12.8290   -999.2500   -999.2500    176.4552  
   372.0000    -61.0591      8.6680     17.3945   -999.2500   -999.2500   -999.2500     13.4509   -999.2500   -999.2500    167.5157  
   372.5000    -59.6293      8.9332     17.1129   -999.2500   -999.2500   -999.2500     13.8349   -999.2500   -999.2500    158.5762  
   373.0000    -58.7703      9.4714     16.9818   -999.2500   -999.2500   -999.2500     13.9066   -999.2500   -999.2500    150.0564  
   373.5000    -58.5470      9.9798     16.8626   -999.2500   -999.2500   -999.2500     13.9083   -999.2500   -999.2500    150.0581  
   374.0000    -58.3333     10.2226     16.7365   -999.2500   -999.2500   -999.2500     13.8625   -999.2500   -999.2500    150.0597  
   374.5000    -58.8348     10.1081     16.7125   -999.2500   -999.2500   -999.2500     13.2259   -999.2500   -999.2500    150.0614  
   375.0000    -59.5738      9.5768     16.5714   -999.2500   -999.2500   -999.2500     13.2975   -999.2500   -999.2500    150.0630  
   375.5000    -59.9705      9.3977     16.2551   -999.2500   -999.2500   -999.2500     13.6299   -999.2500   -999.2500    150.0647  
   376.0000    -60.1992      9.7573     15.9222   -999.2500   -999.2500   -999.2500     13.9313   -999.2500   -999.2500    150.0664  
   376.5000    -59.8997     10.4119     15.5914   -999.2500   -999.2500   -999.2500     14.0895   -999.2500   -999.2500    150.0680  
   377.0000    -58.8348     11.4441     15.3246   -999.2500   -999.2500   -999.2500     14.0911   -999.2500   -999.2500    150.0697  
   377.5000    -56.9847     12.4168     15.2473   -999.2500   -999.2500   -999.2500     14.0994   -999.2500   -999.2500    150.0714  
   378.0000    -55.8670     11.5793     15.5218   -999.2500   -999.2500   -999.2500     14.1205   -999.2500   -999.2500    150.0730  
   378.5000    -55.1394     10.6354     16.0114   -999.2500   -999.2500   -999.2500     14.1173   -999.2500   -999.2500    150.0747  
   379.0000    -54.5425      9.9522     16.7725   -999.2500   -999.2500   -999.2500     14.1268   -999.2500   -999.2500    150.0763  
   379.5000    -54.4500      9.9674     17.5205   -999.2500   -999.2500   -999.2500     14.1396   -999.2500   -999.2500    150.0780  
   380.0000    -55.4098     10.9457     18.7236   -999.2500   -999.2500   -999.2500     14.1446   -999.2500   -999.2500    150.0797  
   380.5000    -57.7099     11.8355     19.2438   -999.2500   -999.2500   -999.2500     14.1324   -999.2500   -999.2500    150.0813  
   381.0000    -58.1653     12.3476     19.2716   -999.2500   -999.2500   -999.2500     14.1435   -999.2500   -999.2500    150.0830  
   381.5000    -57.9183     11.9966     19.1880   -999.2500   -999.2500   -999.2500     14.1545   -999.2500   -999.2500    150.0846  
   382.0000    -58.7479     11.3648     18.6647   -999.2500   -999.2500   -999.2500     14.1634   -999.2500   -999.2500    150.0863  
   382.5000    -60.3802     10.6136     17.7782   -999.2500   -999.2500   -999.2500     14.1714   -999.2500   -999.2500    150.0880  
   383.0000    -61.9717     10.8659     17.2942   -999.2500   -999.2500   -999.2500     14.1776   -999.2500   -999.2500    150.0896  
   383.5000    -62.7807     10.8205     16.9948   -999.2500   -999.2500   -999.2500     14.1700   -999.2500   -999.2500    150.0913  
   384.0000    -62.0549     10.2052     16.7358   -999.2500   -999.2500   -999.2500     14.1667   -999.2500   -999.2500    150.0929  
   384.5000    -62.0494      9.9729     16.6423   -999.2500   -999.2500   -999.2500     14.1770   -999.2500   -999.2500    150.0946  
   385.0000    -63.5723     10.2896     16.8079   -999.2500   -999.2500   -999.2500     14.1801   -999.2500   -999.2500    150.0963  
   385.5000    -63.4917     10.5664     16.9893   -999.2500   -999.2500   -999.2500     14.1710   -999.2500   -999.2500    150.0979  
   386.0000    -61.2013     11.0698     17.1459   -999.2500   -999.2500   -999.2500     14.1333   -999.2500   -999.2500    150.0996  
   386.5000    -58.5560     11.7066     17.2974   -999.2500   -999.2500   -999.2500     14.0598   -999.2500   -999.2500    150.1012  
   387.0000    -57.4935     11.8576     17.4489   -999.2500   -999.2500   -999.2500     14.0418   -999.2500   -999.2500    150.1029  
   387.5000    -57.7794     11.4527     17.5167   -999.2500   -999.2500   -999.2500     14.0291   -999.2500   -999.2500    150.1046  
   388.0000    -58.8421     11.5937     17.4077   -999.2500   -999.2500   -999.2500     14.0164   -999.2500   -999.2500    150.1062  
   388.5000    -60.1678     11.7384     17.2181   -999.2500   -999.2500   -999.2500     14.0024   -999.2500   -999.2500    150.1079  
   389.0000    -61.4734     12.5379     17.1643   -999.2500   -999.2500   -999.2500     13.9697   -999.2500   -999.2500    150.1095  
   389.5000    -63.0202     13.4806     17.1314   -999.2500   -999.2500   -999.2500     13.9121   -999.2500   -999.2500    150.1112  
   390.0000    -64.1076     14.3322     17.1014   -999.2500   -999.2500   -999.2500     13.6379   -999.2500   -999.2500    150.1129  
   390.5000    -64.5420     15.0327     17.1744   -999.2500   -999.2500   -999.2500     12.8389   -999.2500   -999.2500    150.1145  
