~VERSION INFORMATION
 VERS.                           2.00:        CWLS LOG ASCII STANDARD - VERSION 2.00
 WRAP.                             NO:        ONE LINE PER DEPTH STEP
~WELL INFORMATION
#MNEM.UNIT                   DATA             INFORMATION
#----------             --------------        ------------------------------
 STRT.F                       52.0000:        START DEPTH
 STOP.F                     2296.0000:        STOP DEPTH
 STEP.F                        0.5000:        STEP VALUE
 NULL.                      -999.2500:        NULL VALUE
 COMP.                     USGS/NPR-A:        COMPANY  
 LOC .                   23  22N  17W:        LOCATION   
 DATE.                        4/30/78:        LOG DATE 
 WELL.               SOUTH BARROW #19:        WELL     
 UWI .                   500232001200:        UNIQUE WELL ID 
 API .                   500232001200:        UNIQUE WELL IDENTIFIER 
 FLD .                   SOUTH BARROW:        FIELD    
 CNTY.                    NORTH SLOPE:        COUNTY  
 STAT.                         ALASKA:        STATE   
 CTRY.                            USA:        COUNTRY 
 OPER.                     USGS/NPR-A:        OPERATOR  
 SRVC.                   SCHLUMBERGER:        SERVICE COMPANY 
 LAT .                         0.0000:        LATITUDE
 LON .                         0.0000:        LONGITUDE
 DIGS.               CENTER LINE DATA:        DIGITIZING COMPANY 
~CURVE INFORMATION      
#MNEM        .UNIT         API CODE           CURVE DESCRIPTION
#-----------------      --------------        ------------------------------
 DEPT        .F                      :        1  DEPTH
 GR          .GAPI                   :        2  
 CALI        .IN                     :        3  
 RHOB        .G/C3                   :        4  
 DRHO        .G/C3                   :        5  
 NPHI        .%                      :        6  
 DT          .US/F                   :        7  
 SP          .MV                     :        8  
 ILD         .OHMM                   :        9  
 ILM         .OHMM                   :        10 
 LL8         .OHMM                   :        11 
 LLD         .OHMM                   :        12 
 LLS         .OHMM                   :        13 
 MSFL        .OHMM                   :        14 
~PARAMETER INFORMATION       
#MNEM.UNIT                  VALUE             DESCRIPTION OF MNEMONIC
#---------             ---------------        ------------------------------
 EKB .F                       30.0000:        KELLY BUSHING
 TD  .F                     2300.0000:        TOTAL DEPTH
 BHT .F                      173.0000:        BOTTOM HOLE TEMPERATURE
 BS  .                         8.5000:        BIT SIZE
 FD  .                        11.6000:        FLUID DENSITY
 CSIZ.                         9.6250:        CASING SIZE
 CBD .F                     1491.0000:        CASING DRILLER 1
 CBL .F                     1490.0000:        CASING LOGGER 1
 DFT .                  Miscellaneous:        TYPE FLUID IN HOLE
 DFV .                        46.0000:        VISCOSITY
 DFPH.                         8.5000:        PH
 DFL .                         6.0000:        FLUID LOSS
 RMS .                         0.1090:        RM
 MST .F                       58.0000:        RM MEAS. TEMP.
 RMF .                         0.0720:        RMF
 MFST.F                       61.0000:        RMF MEAS. TEMP.
 RMC .                         0.3000:        RMC
 MCST.F                       70.0000:        RMC MEAS. TEMP.
~OTHER INFORMATION
~A    DEPTH          GR        CALI        RHOB        DRHO        NPHI          DT          SP         ILD         ILM         LL8         LLD         LLS        MSFL  
# ...
  1684.0000     76.4371      8.9912      2.4887      0.0030     37.2333     99.4439    -43.8907   -999.2500   -999.2500   -999.2500     18.5313     13.5397     12.0489  
  1684.5000     75.9389      8.9802      2.4823     -0.0024     37.7437     99.0678    -43.9588   -999.2500   -999.2500   -999.2500     16.5116     13.8197     12.3763  
  1685.0000     75.5464      8.9611      2.4854     -0.0057     38.0589     98.5784    -44.2233   -999.2500   -999.2500   -999.2500     17.5127     14.2842     12.1858  
  1685.5000     75.1329      8.9510      2.4903     -0.0086     37.7505     97.6821    -44.4287   -999.2500   -999.2500   -999.2500     18.5745     14.1454     11.9880  
  1686.0000     75.2702      8.9521      2.4967     -0.0123     37.1324     96.4588    -43.9105   -999.2500   -999.2500   -999.2500     17.1759     14.2115     11.9511  
  1686.5000     75.2241      8.9512      2.4893     -0.0094     36.3554     95.4506    -43.5419   -999.2500   -999.2500   -999.2500     16.9269     14.5512     11.9836  
  1687.0000     74.6483      8.9504      2.4941     -0.0156     35.5053     94.8918    -43.5296   -999.2500   -999.2500   -999.2500     18.8487     14.6668     12.2387  
  1687.5000     74.5480      8.9504      2.4941     -0.0117     34.7380     94.9319    -43.7842   -999.2500   -999.2500   -999.2500     18.0287     15.1195     12.6921  
  1688.0000     75.0552      8.9505      2.4937     -0.0049     35.0014     95.5794    -43.9846   -999.2500   -999.2500   -999.2500     17.3894     15.2696     13.0276  
  1688.5000     75.5981      8.9513      2.4972     -0.0071     35.2648     95.4168    -43.9075   -999.2500   -999.2500   -999.2500     17.7574     15.7380     13.4233  
  1689.0000     75.0527      8.9603      2.5057     -0.0027     35.2371     94.5989    -42.6524   -999.2500   -999.2500   -999.2500     18.0190     16.1745     13.8980  
  1689.5000     74.4320      8.9594      2.5164      0.0011     34.5240     93.6587    -42.2563   -999.2500   -999.2500   -999.2500     17.1500     16.5558     13.8165  
  1690.0000     73.6802      8.9583      2.5250      0.0079     34.1425     93.2531    -42.1502   -999.2500   -999.2500   -999.2500     16.3416     16.5119     13.0754  
  1690.5000     73.2046      8.9572      2.5435      0.0234     33.9151     92.7554    -42.0291   -999.2500   -999.2500   -999.2500     15.6107     16.2231     12.5661  
  1691.0000     73.3933      8.9276      2.5518      0.0257     33.2556     91.4575    -41.9272   -999.2500   -999.2500   -999.2500     17.2791     16.8705     13.9213  
  1691.5000     73.1286      8.8914      2.5399      0.0157     32.9379     90.9846    -41.7326   -999.2500   -999.2500   -999.2500     19.5640     18.2181     18.7299  
  1692.0000     72.0231      8.8813      2.5388      0.0246     33.1201     91.2202    -41.8075   -999.2500   -999.2500   -999.2500     22.1510     19.0429     20.0222  
  1692.5000     71.0121      8.8768      2.5238      0.0044     33.3497     91.5526    -42.0871   -999.2500   -999.2500   -999.2500     23.9246     19.0407     21.3760  
  1693.0000     69.9977      8.8695      2.5122     -0.0022     33.2506     91.9198    -42.3843   -999.2500   -999.2500   -999.2500     23.9934     18.9980     17.2480  
  1693.5000     67.7537      8.8639      2.5049     -0.0049     32.7155     92.7103    -42.5833   -999.2500   -999.2500   -999.2500     26.8147     18.4598     17.4756  
  1694.0000     64.5033      8.8659      2.5032     -0.0026     31.4019     92.5925    -42.6599   -999.2500   -999.2500   -999.2500     28.8416     17.9369     15.9657  
  1694.5000     62.1909      8.8524      2.4950      0.0028     29.8148     91.7267    -42.3405   -999.2500   -999.2500   -999.2500     29.4599     17.4802     14.4945  
  1695.0000     63.6446      8.8410      2.4805     -0.0001     28.2620     91.2583    -41.7606   -999.2500   -999.2500   -999.2500     28.1730     17.0392     13.9256  
  1695.5000     66.3863      8.8481      2.4823     -0.0031     27.1038     90.3226    -41.8371   -999.2500   -999.2500   -999.2500     25.1333     16.4720     13.8475  
  1696.0000     68.2328      8.8707      2.5066      0.0048     27.9610     89.1462    -42.0405   -999.2500   -999.2500   -999.2500     23.0055     15.9237     13.5810  
  1696.5000     69.1311      8.9077      2.5238      0.0079     28.8667     89.9456    -42.2182   -999.2500   -999.2500   -999.2500     22.2354     15.4620     13.1257  
  1697.0000     70.3005      8.8894      2.5244      0.0051     29.7938     90.6148    -42.4700   -999.2500   -999.2500   -999.2500     23.8587     15.2487     12.7549  
  1697.5000     72.4054      8.8630      2.5260      0.0054     30.7209     91.4775    -42.7348   -999.2500   -999.2500   -999.2500     23.7067     15.4568     12.6611  
  1698.0000     74.6328      8.8670      2.5318      0.0064     31.3866     92.3382    -42.5363   -999.2500   -999.2500   -999.2500     22.9009     15.2968     12.6613  
  1698.5000     75.5802      8.8659      2.5315      0.0095     31.9877     92.6659    -42.3656   -999.2500   -999.2500   -999.2500     21.4091     15.2290     12.6007  
  1699.0000     75.1709      8.8460      2.5173      0.0114     32.5888     92.9134    -42.2493   -999.2500   -999.2500   -999.2500     19.1328     15.1615     12.6090  
  1699.5000     74.6802      8.8476      2.5253      0.0124     33.1898     93.1635    -42.1786   -999.2500   -999.2500   -999.2500     13.9557     15.0942     12.4492  
  1700.0000     75.3331      8.8541      2.5376      0.0204     33.7909     93.1870    -42.0288   -999.2500   -999.2500   -999.2500     12.1247     15.0273     10.3780  
  1700.5000     76.0525      8.8607      2.5447      0.0283     34.2500     93.2140    -41.8594   -999.2500   -999.2500   -999.2500     11.3903     14.9607      8.4330  
  1701.0000     76.9882      8.8679      2.5518      0.0364     34.4313     93.1240    -41.7315   -999.2500   -999.2500   -999.2500     12.0899     15.1525      8.0259  
  1701.5000     77.4824      8.8757      2.5535      0.0404     34.4636     93.3275    -41.5359   -999.2500   -999.2500   -999.2500     14.3936     15.6901     10.0974  
  1702.0000     76.6488      8.8767      2.5407      0.0292     34.2828     93.7644    -41.5645   -999.2500   -999.2500   -999.2500     17.3208     15.7131     12.0274  
  1702.5000     75.1894      8.8763      2.5192      0.0180     34.0629     94.0993    -41.7506   -999.2500   -999.2500   -999.2500     16.1324     15.4316     12.4160  
  1703.0000     73.2599      8.8768      2.5146      0.0127     33.8652     94.2683    -41.7366   -999.2500   -999.2500   -999.2500     14.4339     14.9311      9.0221  
  1703.5000     71.5154      8.8742      2.5157      0.0206     33.7798     94.1163    -41.6123   -999.2500   -999.2500   -999.2500     12.2659     14.6316      7.6786  
  1704.0000     71.7169      8.8636      2.5254      0.0262     33.4608     93.5185    -41.4909   -999.2500   -999.2500   -999.2500     12.9409     14.5721     10.4725  
  1704.5000     72.1338      8.8541      2.5198      0.0189     33.6163     92.6557    -41.5781   -999.2500   -999.2500   -999.2500     13.9940     15.1931     12.7486  
  1705.0000     71.8521      8.8461      2.5147      0.0051     33.7221     93.0134    -41.8750   -999.2500   -999.2500   -999.2500     15.1328     16.8967     14.4373  
  1705.5000     71.4843      8.8394      2.5167      0.0067     32.8401     93.9191    -42.2352   -999.2500   -999.2500   -999.2500     13.7355     18.6041     14.3967  
  1706.0000     71.9732      8.8418      2.5381      0.0313     32.1206     94.1548    -42.2754   -999.2500   -999.2500   -999.2500     13.1407     19.3705     11.6117  
  1706.5000     70.7329      8.8410      2.5426      0.0378     32.5549     94.3181    -42.1615   -999.2500   -999.2500   -999.2500     12.8396     20.1685     13.0228  
  1707.0000     68.0932      8.8324      2.5220      0.0164     32.9893     92.4026    -42.2073   -999.2500   -999.2500   -999.2500     12.6806     20.9994     17.9576  
  1707.5000     64.9877      8.7846      2.5260      0.0194     33.2053     91.0929    -42.1821   -999.2500   -999.2500   -999.2500     12.7953     21.6692     22.1520  
