~VERSION INFORMATION
 VERS.                           2.00:        CWLS LOG ASCII STANDARD - VERSION 2.00
 WRAP.                             NO:        ONE LINE PER DEPTH STEP
~WELL INFORMATION
#MNEM.UNIT                   DATA             INFORMATION
#----------             --------------        ------------------------------
 STRT.F                     1260.0000:        START DEPTH
 STOP.F                     2340.0000:        STOP DEPTH
 STEP.F                        0.5000:        STEP VALUE
 NULL.                      -999.2500:        NULL VALUE
 COMP.        U.S.NAVY DEEPT NP & OSR:        COMPANY  
 LOC .                  144  22N 18W UPM:        LOCATION   
 DATE.                        2/24/74:        LOG DATE 
 WELL.               SOUTH BARROW #11:        WELL     
 UWI .                    50023200500:        UNIQUE WELL ID 
 API .                    50023200500:        UNIQUE WELL IDENTIFIER 
 FLD .                   SOUTH BARROW:        FIELD    
 CNTY.                          NPR-4:        COUNTY  
 STAT.                         ALASKA:        STATE   
 CTRY.                            USA:        COUNTRY 
 OPER.        U.S.NAVY DEEPT NP & OSR:        OPERATOR  
 SRVC.                   SCHLUMBERGER:        SERVICE COMPANY 
 LAT .                         0.0000:        LATITUDE
 LON .                         0.0000:        LONGITUDE
 DIGS.               CENTER LINE DATA:        DIGITIZING COMPANY 
~CURVE INFORMATION      
#MNEM        .UNIT         API CODE           CURVE DESCRIPTION
#-----------------      --------------        ------------------------------
 DEPT        .F                      :        1  DEPTH
 CALI        .IN                     :        2  
 GR          .GAPI                   :        3  
 RHOB        .G/C3                   :        4  
 NPHI        .%                      :        5  
 DPHI        .%                      :        6  
 SP          .MV                     :        7  
 LL8         .OHMM                   :        8  
 ILD         .OHMM                   :        9  
 CILD        .MMHO                   :        10 
 DT          .US/F                   :        11 
~PARAMETER INFORMATION       
#MNEM.UNIT                  VALUE             DESCRIPTION OF MNEMONIC
#---------             ---------------        ------------------------------
 EKB .F                       36.0000:        KELLY BUSHING
 TD  .F                     2350.0000:        TOTAL DEPTH
 BHT .F                       60.0000:        BOTTOM HOLE TEMPERATURE
 BS  .                         9.6250:        BIT SIZE
 FD  .                        10.8000:        FLUID DENSITY
 CSIZ.                        10.7500:        CASING SIZE
 CBD .F                     1267.0000:        CASING DRILLER 1
 CBL .F                     1267.0000:        CASING LOGGER 1
 DFT .      Salt Water-Lignosulfonate:        TYPE FLUID IN HOLE
 DFV .                        52.0000:        VISCOSITY
 DFPH.                         9.0000:        PH
 DFL .                         4.2000:        FLUID LOSS
 RMS .                         1.8800:        RM
 MST .F                       50.0000:        RM MEAS. TEMP.
 RMF .                         1.1500:        RMF
 MFST.F                       63.0000:        RMF MEAS. TEMP.
 RMC .                         1.5000:        RMC
 MCST.F                       50.0000:        RMC MEAS. TEMP.
~OTHER INFORMATION
~A    DEPTH        CALI          GR        RHOB        NPHI        DPHI          SP         LL8         ILD        CILD          DT  
# ...
  1590.0000     10.1587     91.6514      2.3980     37.3840     15.3353    -29.3986     10.2646     10.0531    103.6724    109.2089  
  1590.5000     10.1632     93.8664      2.3981     39.1909     15.4495    -29.2868     10.2808     10.0634    102.7016    111.4809  
  1591.0000     10.2452     94.4194      2.3912     39.8318     15.7126    -29.1850     10.2255     10.0634    101.8180    115.6787  
  1591.5000     10.1617     93.2344      2.3840     39.8511     16.0305    -29.1954     10.1966     10.0728    101.4085    118.0366  
  1592.0000     10.1141     91.5070      2.3732     39.1314     16.5734    -29.2651     10.1802     10.0933    101.4056    110.9534  
  1592.5000     10.0992     89.9534      2.3693     37.7540     16.9778    -29.3951     10.1132     10.1138    101.6066    109.5780  
  1593.0000     10.1065     88.7514      2.3712     37.0424     16.9191    -29.4210     10.1323     10.1343    101.6001    109.5272  
  1593.5000     10.1253     87.9510      2.3719     36.9022     16.9041    -29.3691     10.1928     10.1600    101.7053    109.6991  
  1594.0000     10.1307     89.1501      2.3698     36.7318     17.0630    -29.3774     10.2680     10.1890    101.6320    110.4938  
  1594.5000     10.1078     90.4991      2.3685     36.3503     17.2144    -29.3552     10.3279     10.2180    101.3353    111.3891  
  1595.0000     10.0952     93.1238      2.3783     36.1257     17.2175    -29.4371     10.3867     10.2471    100.9340    111.8800  
  1595.5000     10.1175     93.9725      2.3914     36.5126     16.5306    -29.4316     10.4714     10.2761    100.5522    112.6243  
  1596.0000     10.1094     94.5624      2.3963     37.0685     15.7936    -29.3393     10.3886     10.2821    100.8800    112.4883  
  1596.5000     10.1098     96.7910      2.4044     37.6705     15.2100    -29.3028     10.2795     10.1001    102.1012    110.7757  
  1597.0000     10.1489     98.5966      2.4089     38.3830     14.9581    -29.2311     10.1501      9.8623    103.7985    109.5426  
  1597.5000     10.1520    100.4487      2.4034     40.4693     14.9309    -28.9233     10.0222      9.6245    105.8839    108.8134  
  1598.0000     10.1498    100.8370      2.4063     41.2855     14.9027    -28.4389      9.8944      9.3866    107.7405    109.5111  
  1598.5000     10.1467    100.3163      2.3979     42.1970     14.9680    -28.2008      9.7665      9.2758    108.8643    110.6808  
  1599.0000     10.1354     99.4824      2.3989     42.2192     15.1276    -28.1935      9.7035      9.1831    109.9265    112.0042  
  1599.5000     10.1471     99.8041      2.4098     41.7023     14.9784    -28.3205      9.7560      9.1330    111.4572    112.9012  
  1600.0000     10.1342    100.4297      2.4186     41.3531     13.9353    -28.3839      9.8085      9.1765    112.0466    112.7896  
  1600.5000     10.0702     99.7663      2.4138     41.2058     14.4251    -28.3491      9.8611      9.2201    112.5901    112.2883  
  1601.0000     10.0325     98.8948      2.4122     40.8953     14.6069    -28.2387      9.9136      9.2637    111.6614    111.9181  
  1601.5000     10.1056     97.9098      2.4081     38.9065     14.7214    -28.1834     10.0400      9.2856    109.8445    111.3724  
  1602.0000     10.1661     96.3154      2.3994     38.9819     15.0400    -28.2127     10.1781      9.3022    109.0976    110.8179  
  1602.5000     10.1591     95.1241      2.3915     39.0743     15.4315    -28.2338     10.3163      9.3188    107.4469    110.2634  
  1603.0000     10.1019     94.5320      2.3828     38.6157     16.2229    -28.3317     10.4544      9.3355    106.3980    109.7089  
  1603.5000     10.0071     95.7417      2.3698     37.1327     16.8233    -28.3366     10.5947      9.3630    106.2753    109.1544  
  1604.0000      9.9187     97.7363      2.3666     36.8449     17.0306    -28.1671     10.4378      9.3015    106.9578    108.3414  
  1604.5000      9.8252     99.0246      2.3692     38.4817     17.0849    -28.0554     10.1989      9.1919    107.9065    107.7068  
  1605.0000      9.8049     99.2869      2.3701     40.6590     16.9524    -28.1255     10.1379      9.1106    108.8862    107.7491  
  1605.5000      9.7990     98.2356      2.3711     41.9750     16.9816    -28.2386     10.0912      9.0145    110.0393    108.8681  
  1606.0000      9.7824     96.7478      2.3686     41.4088     17.1833    -28.2171     10.0444      8.7745    110.9103    110.2479  
  1606.5000      9.7523     96.2812      2.3675     40.1843     17.3172    -28.2037      9.9976      8.7127    112.3238    111.8322  
  1607.0000      9.7479     95.7318      2.3662     39.5448     17.5149    -28.1966      9.8801      8.6509    113.6928    112.2452  
  1607.5000      9.7611     94.4715      2.3611     39.7379     17.7510    -28.1407      9.6848      8.6187    114.9782    112.0967  
  1608.0000      9.7768     94.5116      2.3617     40.8596     17.2700    -28.1324      9.6348      8.5092    115.9864    111.5444  
  1608.5000      9.7901     96.4530      2.3756     42.3015     16.5598    -28.1191      9.7092      8.4470    116.3639    110.9802  
  1609.0000      9.7907     98.3283      2.3848     42.9254     16.0205    -28.0489      9.7010      8.5223    116.1173    110.6227  
  1609.5000      9.7972    100.2206      2.3897     43.5439     15.6807    -27.9422      9.5884      8.4893    115.6445    110.5785  
  1610.0000      9.8244    100.0386      2.3944     43.9935     15.6328    -27.9950      9.5973      8.5707    115.2315    110.7467  
  1610.5000      9.8446     96.2809      2.3902     44.0665     15.8954    -28.1525      9.6390      8.5778    114.5215    110.9819  
  1611.0000      9.8292     90.8834      2.3850     42.9193     15.9822    -28.2508      9.6459      8.5490    114.6052    111.2170  
  1611.5000      9.8027     87.7296      2.3817     41.5906     16.1555    -28.6665      9.6528      8.5948    114.9510    110.9178  
  1612.0000      9.8085     87.1421      2.3685     40.3069     17.1651    -29.7117      9.5837      8.5323    115.4896    110.3929  
  1612.5000      9.8262     88.5947      2.3593     39.4344     17.8110    -30.6837      9.7410      8.4793    115.7139    109.8667  
  1613.0000      9.8670     89.5446      2.3590     40.2059     17.8329    -31.1475      9.7430      8.5418    115.2697    109.3405  
  1613.5000      9.8678     89.1700      2.3507     40.2231     18.0777    -30.6552      9.6395      8.6059    114.3719    108.9280  
  1614.0000      9.8006     87.0931      2.3429     39.2969     18.5451    -30.2217      9.7756      8.7022    113.3384    109.1534  
  1614.5000      9.8261     85.6029      2.3583     37.6781     17.9886    -30.0975      9.9117      8.8149    112.3959    109.2641  
  1615.0000      9.9014     85.5367      2.3783     37.8792     16.8029    -29.8823     10.0477      8.9317    111.2273    109.2114  
  1615.5000      9.9148     85.8527      2.3833     38.1075     16.2212    -29.6139     10.2112      8.9736    110.2845    108.2838  
  1616.0000      9.8733     85.6679      2.3779     37.4622     16.3392    -29.6161     10.4039      9.0481    109.6848    107.1312  
  1616.5000      9.8328     85.6163      2.3680     35.0625     16.8564    -30.2170     10.5404      9.0716    109.2076    105.7779  
  1617.0000      9.8449     86.8845      2.3606     34.2788     17.1692    -31.2335     10.5906      9.0363    109.1698    103.9986  
  1617.5000      9.8711     89.1820      2.3605     35.7527     17.3540    -32.0328     10.5682      9.1547    108.0254    102.9421  
  1618.0000      9.9163     90.6712      2.3609     36.8306     17.3573    -32.4633     10.5263      9.4264    106.7036    102.1086  
  1618.5000      9.9426     91.7915      2.3600     37.3705     17.3849    -32.6056     10.5757      9.7612    104.1912    103.7438  
  1619.0000     10.0099     93.1498      2.3629     37.1992     17.4028    -32.6678     10.6098     10.0960    102.4236    105.3658  
  1619.5000     10.3036     93.9368      2.3707     36.9978     17.1905    -32.1524     10.5447     10.4308    100.4874    106.5723  
