~VERSION INFORMATION
 VERS.                           2.00:        CWLS LOG ASCII STANDARD - VERSION 2.00
 WRAP.                             NO:        ONE LINE PER DEPTH STEP
~WELL INFORMATION
#MNEM.UNIT                   DATA             INFORMATION
#----------             --------------        ------------------------------
 STRT.F                      152.0000:        START DEPTH
 STOP.F                     2285.0000:        STOP DEPTH
 STEP.F                        0.5000:        STEP VALUE
 NULL.                      -999.2500:        NULL VALUE
 COMP.                      U.S. NAVY:        COMPANY  
 LOC .                   26  22N  17W:        LOCATION   
 DATE.                         4/1/74:        LOG DATE 
 WELL.            SOUTH BARROW NO. 12:        WELL     
 UWI .                   500232000600:        UNIQUE WELL ID 
 API .                   500232000600:        UNIQUE WELL IDENTIFIER 
 FLD .                   SOUTH BARROW:        FIELD    
 CNTY.                         NPPR-4:        COUNTY  
 STAT.                         ALASKA:        STATE   
 CTRY.                            USA:        COUNTRY 
 OPER.                      U.S. NAVY:        OPERATOR  
 SRVC.                   SCHLUMBERGER:        SERVICE COMPANY 
 LAT .                         0.0000:        LATITUDE
 LON .                         0.0000:        LONGITUDE
 DIGS.               CENTER LINE DATA:        DIGITIZING COMPANY 
~CURVE INFORMATION      
#MNEM        .UNIT         API CODE           CURVE DESCRIPTION
#-----------------      --------------        ------------------------------
 DEPT        .F                      :        1  DEPTH
 RHOB        .G/C3                   :        2  
 DRHO        .G/C3                   :        3  
 GR          .GAPI                   :        4  
 CALI        .IN                     :        5  
 DPHI        .%                      :        6  
 NPHI        .%                      :        7  
 SP          .MV                     :        8  
 ALL8        .OHMM                   :        9  
 ILD         .OHMM                   :        10 
 CILD        .MMHO                   :        11 
 DT          .US/F                   :        12 
~PARAMETER INFORMATION       
#MNEM.UNIT                  VALUE             DESCRIPTION OF MNEMONIC
#---------             ---------------        ------------------------------
 EKB .F                       26.0000:        KELLY BUSHING
 TD  .F                     2285.0000:        TOTAL DEPTH
~OTHER INFORMATION
~A    DEPTH        RHOB        DRHO          GR        CALI        DPHI        NPHI          SP        ALL8         ILD        CILD          DT  
# ...
  1472.0000      2.4634      0.0576     99.4955     10.4597     10.8912     41.6619    -33.6356      9.6303      8.8275    104.3299    107.4177  
  1472.5000      2.4626      0.0442     99.8069     10.3817     11.3893     40.9415    -33.3905      9.3880      8.5377    107.9031    108.6068  
  1473.0000      2.4677      0.0308     99.1910     10.3879     11.3770     40.7684    -33.1402      9.2412      8.3719    111.0399    110.0879  
  1473.5000      2.4812      0.0174     98.1844     10.4151     11.2051     38.5660    -32.8280      9.1601      8.2931    112.1076    111.2270  
  1474.0000      2.4949      0.0359     99.2359     10.4804     10.4634     36.0005    -32.5531      9.1018      8.2743    111.8473    111.8852  
  1474.5000      2.4846      0.0592    101.2506     10.5936      9.5559     37.1730    -32.6444      9.1445      8.3042    111.4983    111.5518  
  1475.0000      2.4417      0.0500    101.9030     10.6084     10.3047     38.3456    -32.8827      9.3418      8.4353    111.2535    109.3469  
  1475.5000      2.4258      0.0419    100.7998     10.6140     12.7374     39.5182    -33.1157      9.5752      8.5688    111.1369    106.7687  
  1476.0000      2.4298      0.0467     98.5451     10.6318     14.1597     40.0313    -33.3476      9.7781      8.7753    110.3544    105.4161  
  1476.5000      2.4478      0.0535     97.0854     10.7261     13.4311     38.7284    -33.5922     10.0085      9.0003    108.9316    106.2707  
  1477.0000      2.4738      0.0581     96.2828     10.7378     12.4086     38.2542    -33.6915     10.0086      9.2626    106.7025    109.2914  
  1477.5000      2.4811      0.0541     95.0812     10.7413     11.0148     38.8080    -33.5115     10.0087      9.2798    105.5635    111.2427  
  1478.0000      2.4622      0.0530     93.0522     10.7396     10.3290     40.0557    -33.4524     10.0088      9.2374    104.8193    110.5231  
  1478.5000      2.4588      0.0555     92.2067     10.7380     11.5379     41.3035    -33.5063     10.0088      9.2012    103.8794    108.9967  
  1479.0000      2.4601      0.0580     92.6234     10.7363     11.8144     42.5512    -33.4908     10.0089      9.1976    103.0808    107.5188  
  1479.5000      2.4690      0.0578     91.8458     10.7504     11.6802     42.4449    -33.4505     10.0090      9.1119    102.6082    106.5840  
  1480.0000      2.4708      0.0540     90.3097     10.7894     11.2712     41.4226    -33.3971     10.0091      9.0995    104.0013    106.1488  
  1480.5000      2.4748      0.0462     88.7737     10.8448     10.8622     40.5217    -33.2516     10.0092      9.0415    105.3483    106.3103  
  1481.0000      2.4730      0.0313     87.0471     10.6516     10.8502     40.6813    -33.0806      9.8786      8.9175    106.6126    105.3105  
  1481.5000      2.4780      0.0409     85.5386     10.5526     11.2278     41.1866    -32.8957      9.9201      8.9433    106.3944    101.3971  
  1482.0000      2.5260      0.0508     80.9627     10.4640     10.3717     41.6040    -32.7741     10.1085      9.2331    103.9725     96.9995  
  1482.5000      2.5787      0.0420     74.4837     10.3463      8.0353     41.2160    -32.7259     10.2969      9.6024     99.9789    100.7339  
  1483.0000      2.6299      0.0211     70.3761     10.2288      4.5212     37.9196    -32.5214     10.9296     10.0467     95.7869    105.3812  
  1483.5000      2.6825      0.0220     71.3045     10.1804      1.5931     33.0875    -32.3296     12.3680     10.1761     93.3302    106.2284  
  1484.0000      2.6991      0.0444     79.6182     10.1760     -0.0541     29.5523    -32.4302     14.6680      9.9774     94.6517    104.1887  
  1484.5000      2.6760      0.0808     90.3596     10.2849     -0.0571     28.9220    -32.7876     15.6258      9.8612     95.9732     98.7154  
  1485.0000      2.6680      0.1421    100.2854     10.3898     -0.0601     32.0715    -32.9929     15.5527      9.7547     97.6512     89.6298  
  1485.5000      2.5673      0.1051    105.8981     10.5015     -0.0031     35.8207    -32.8879     14.5902      9.8173     97.0268     78.0328  
  1486.0000      2.4903      0.0680    107.8043     10.7390      5.5586     38.1963    -32.6738     12.3047      9.9537     96.1035     71.2809  
  1486.5000      2.4686      0.0466    106.1513     10.9091     10.4478     38.0514    -32.5799     10.7948      9.9105     95.9123     74.5562  
  1487.0000      2.4684      0.0382    102.9324     10.9417     11.2147     37.3688    -32.5173     10.0588      9.8162     97.6729     84.5513  
  1487.5000      2.4659      0.0325    100.5221     10.9451     11.2108     36.7861    -32.4865      9.8831      9.6296     99.6255     99.6233  
  1488.0000      2.4659      0.0470    100.9015     10.9135     11.2063     35.7981    -32.8017      9.9167      9.4430    101.5781    107.9660  
  1488.5000      2.4675      0.0556    102.4869     10.9277     11.1948     35.2571    -33.2457      9.9503      9.4143    102.9897    110.8890  
  1489.0000      2.4667      0.0483    103.4566     10.8842     11.4361     34.6937    -33.6484     10.1359      9.4173    103.9575    110.8183  
  1489.5000      2.4697      0.0380    102.9602     10.9023     11.5994     35.2840    -33.8862     10.2831      9.5394    101.4708    109.2436  
  1490.0000      2.4805      0.0458    101.5770     10.8408     11.1584     36.0358    -33.8812     10.2831      9.6924     98.9023    106.9244  
  1490.5000      2.4738      0.0484    101.3417     10.8837     10.7173     36.8388    -33.8065     10.2831      9.7637     96.5044    105.6111  
  1491.0000      2.4600      0.0438     99.2857     10.9399     10.8815     37.3217    -33.8692     10.2831      9.8030     94.1931    105.2420  
  1491.5000      2.4529      0.0306     95.2009     10.9322     11.6306     38.5967    -34.1263     10.4140      9.9576     92.0416    105.6354  
  1492.0000      2.4397      0.0282     88.1630     10.9523     12.1542     39.6964    -34.4704     10.7919     10.4498     88.4237    106.9073  
  1492.5000      2.4339      0.0262     80.8672     10.9618     12.7786     39.6424    -34.7094     11.2375     11.3728     83.4282    108.3723  
  1493.0000      2.4117      0.0191     73.6641     10.9694     13.2492     36.3297    -34.7857     11.9570     12.2415     76.9636    107.0435  
  1493.5000      2.3969      0.0286     70.1045     10.9769     14.4145     32.2290    -34.9300     13.4657     14.0637     70.8515    104.3705  
  1494.0000      2.3862      0.0523     75.6023     11.3776     15.8233     30.4035    -35.3724     15.0761     15.8190     64.7112     99.5152  
  1494.5000      2.3350      0.0430     83.4212     12.2008     17.1506     31.8480    -36.1160     16.4043     16.5010     58.9817     95.1405  
  1495.0000      2.3706      0.0447     91.2434     12.6301     19.0948     34.2839    -36.7552     16.6652     16.7042     54.6929     93.6517  
  1495.5000      2.4166      0.0433     97.1623     12.2969     17.1989     35.7189    -36.7680     16.5855     16.4860     54.0929     97.7735  
  1496.0000      2.4517      0.0327    101.0845     11.5041     14.3713     37.0342    -36.1721     15.5795     15.8513     57.9948    105.1987  
  1496.5000      2.4768      0.0266    103.0780     10.9118     11.9705     37.8273    -34.7382     14.0887     14.5428     62.7436    112.4757  
  1497.0000      2.4643      0.0046    103.9019     10.8587     11.0592     37.3950    -33.5972     12.6680     13.1485     68.3206    113.2654  
  1497.5000      2.4653      0.0242    103.1491     10.8587     11.0766     36.9626    -32.8744     11.9773     11.7542     77.1657    109.1196  
  1498.0000      2.4606      0.0349    100.5062     10.8679     10.9708     36.7946    -32.5059     11.2958     10.8081     85.6763    103.6126  
  1498.5000      2.4583      0.0329     97.4984     10.9061     11.5872     37.2422    -32.2671     10.6142     10.2385     94.1604    101.5956  
  1499.0000      2.4558      0.0310     95.4988     10.9112     11.7468     37.8044    -32.0056     10.2819      9.6689     99.8431    104.7426  
