~VERSION INFORMATION
 VERS.                           2.00:        CWLS LOG ASCII STANDARD - VERSION 2.00
 WRAP.                             NO:        ONE LINE PER DEPTH STEP
~WELL INFORMATION
#MNEM.UNIT                   DATA             INFORMATION
#----------             --------------        ------------------------------
 STRT.F                      152.0000:        START DEPTH
 STOP.F                     2285.0000:        STOP DEPTH
 STEP.F                        0.5000:        STEP VALUE
 NULL.                      -999.2500:        NULL VALUE
 COMP.                      U.S. NAVY:        COMPANY  
 LOC .                   26  22N  17W:        LOCATION   
 DATE.                         4/1/74:        LOG DATE 
 WELL.            SOUTH BARROW NO. 12:        WELL     
 UWI .                   500232000600:        UNIQUE WELL ID 
 API .                   500232000600:        UNIQUE WELL IDENTIFIER 
 FLD .                   SOUTH BARROW:        FIELD    
 CNTY.                         NPPR-4:        COUNTY  
 STAT.                         ALASKA:        STATE   
 CTRY.                            USA:        COUNTRY 
 OPER.                      U.S. NAVY:        OPERATOR  
 SRVC.                   SCHLUMBERGER:        SERVICE COMPANY 
 LAT .                         0.0000:        LATITUDE
 LON .                         0.0000:        LONGITUDE
 DIGS.               CENTER LINE DATA:        DIGITIZING COMPANY 
~CURVE INFORMATION      
#MNEM        .UNIT         API CODE           CURVE DESCRIPTION
#-----------------      --------------        ------------------------------
 DEPT        .F                      :        1  DEPTH
 RHOB        .G/C3                   :        2  
 DRHO        .G/C3                   :        3  
 GR          .GAPI                   :        4  
 CALI        .IN                     :        5  
 DPHI        .%                      :        6  
 NPHI        .%                      :        7  
 SP          .MV                     :        8  
 ALL8        .OHMM                   :        9  
 ILD         .OHMM                   :        10 
 CILD        .MMHO                   :        11 
 DT          .US/F                   :        12 
~PARAMETER INFORMATION       
#MNEM.UNIT                  VALUE             DESCRIPTION OF MNEMONIC
#---------             ---------------        ------------------------------
 EKB .F                       26.0000:        KELLY BUSHING
 TD  .F                     2285.0000:        TOTAL DEPTH
~OTHER INFORMATION
~A    DEPTH        RHOB        DRHO          GR        CALI        DPHI        NPHI          SP        ALL8         ILD        CILD          DT  
# ...
  1307.0000      2.4536      0.0135     99.9407     10.8995     10.6920     35.3611    -38.5921     10.8114     11.7825     80.0821    112.0583  
  1307.5000      2.4437      0.0160    100.5195     10.8784     11.8674     35.7323    -38.3589     10.6726     11.8873     79.2462    109.8617  
  1308.0000      2.4429      0.0254    101.3477     10.8193     12.5340     36.9713    -38.1461     10.6889     11.7469     79.7648    107.0920  
  1308.5000      2.4418      0.0144    101.5211     10.7691     12.3937     37.7787    -37.8858     10.7052     11.5714     81.0074    105.6973  
  1309.0000      2.4475      0.0121    100.6362     10.7853     12.7020     36.9351    -37.9312     10.7214     11.4196     82.6060    105.8787  
  1309.5000      2.4565      0.0201     98.7032     10.7927     12.5166     36.8272    -38.1560     10.6675     11.2793     83.1810    107.2354  
  1310.0000      2.4610      0.0328     99.2269     10.7894     12.1626     36.4492    -38.3575     10.6078     11.3909     82.7366    108.3898  
  1310.5000      2.4652      0.0437    100.6503     10.7535     11.8652     36.5461    -38.4650     10.5482     11.5228     82.0008    108.5261  
  1311.0000      2.4674      0.0497    100.9030     10.7308     11.5721     36.8416    -38.5639     10.4885     11.5789     81.4163    107.5239  
  1311.5000      2.4976      0.0732    100.0293     10.7151     11.3175     37.3271    -38.6841     10.5252     11.6646     81.0240    105.9324  
  1312.0000      2.5110      0.0977     98.2843     10.7215      9.9170     37.9391    -38.7002     10.5760     11.6631     80.9008    106.3023  
  1312.5000      2.5118      0.0783     95.9882     10.7418      8.7645     38.1034    -38.7070     10.6267     11.6702     80.6895    107.4182  
  1313.0000      2.4926      0.0575     95.3804     10.7150      8.7325     37.4043    -38.7156     10.6774     11.7567     80.5361    108.3682  
  1313.5000      2.4708      0.0355     95.7676     10.6792      9.0807     36.8919    -38.7329     10.7281     11.6587     80.4556    108.7113  
  1314.0000      2.4626      0.0248     97.2040     10.7005     10.7525     37.1942    -38.6905     10.7228     11.7430     80.3462    108.2982  
  1314.5000      2.4562      0.0255     98.4093     10.7589     11.6053     35.8425    -38.6454     10.7090     11.7639     80.2367    107.3711  
  1315.0000      2.4594      0.0365     98.5383     10.7624     11.8169     36.6369    -38.5722     10.6953     11.7449     80.1273    106.4673  
  1315.5000      2.4800      0.0472     98.2312     10.7714     11.8442     36.9601    -38.4386     10.6815     11.6905     80.0179    105.8665  
  1316.0000      2.4913      0.0532     98.1998     10.7824     10.5570     38.1649    -38.1867     10.6678     11.6641     79.9085    105.7994  
  1316.5000      2.4971      0.0520     99.3077     10.8070      9.5233     38.2963    -37.9084     10.6541     11.6267     79.7990    106.4725  
  1317.0000      2.4986      0.0494     99.9195     10.7887      9.5866     37.7359    -38.0879     10.6403     11.5755     80.3804    108.2537  
  1317.5000      2.4787      0.0462    100.5270     10.8127      9.4895     37.2840    -38.1642     10.6266     11.5708     81.3898    109.4784  
  1318.0000      2.4730      0.0437    101.4804     10.8112     10.2484     36.8253    -38.2364     10.6128     11.4018     82.6408    110.0635  
  1318.5000      2.4648      0.0394    103.1734     10.8096     10.7751     36.6393    -38.2049     10.4465     11.0270     84.7818    110.3295  
  1319.0000      2.4570      0.0319    104.3915     10.7997     11.2700     36.7025    -37.8935     10.2203     10.6414     87.6950    110.1777  
  1319.5000      2.4473      0.0246    106.6822     10.7896     11.6376     36.7696    -37.7602     10.0001     10.2559     91.9628    110.0407  
  1320.0000      2.4489      0.0213    111.9214     10.7802     11.8617     37.2704    -37.5422     10.0022      9.9584     95.7795    110.5182  
  1320.5000      2.4508      0.0328    116.9014     10.7676     12.2464     39.4952    -37.1271      9.9772      9.7329     98.3577    110.2934  
  1321.0000      2.4522      0.0464    121.2860     10.7598     12.2691     41.6002    -36.5814      9.7315      9.5639    100.2015    109.8565  
  1321.5000      2.4528      0.0642    123.0165     10.7552     12.2003     42.3801    -36.2559      9.6941      9.4605    101.6356    109.2860  
  1322.0000      2.4492      0.0646    121.9840     10.7390     12.1338     42.4314    -36.2622      9.8885      9.3715    102.9849    109.8562  
  1322.5000      2.4448      0.0502    118.3750     10.7170     12.1291     42.4261    -36.4126     10.0057      9.3358    104.3341    110.1159  
  1323.0000      2.4498      0.0472    113.8477     10.7418     12.3878     42.1693    -36.5784     10.0056      9.3002    105.6833    111.3575  
  1323.5000      2.4530      0.0507    110.8677     10.7665     12.4516     41.7539    -36.6550     10.0055      9.2657    106.2195    113.6485  
  1324.0000      2.4517      0.0396    111.5079     10.7913     12.4328     40.4130    -36.5993     10.0054      9.2312    105.1484    116.0815  
  1324.5000      2.4503      0.0325    111.9953     10.8161     12.1648     38.9557    -36.4299     10.0053      9.1806    104.4714    118.5328  
  1325.0000      2.4511      0.0305    114.1722     10.8347     12.1813     39.4513    -36.2432     10.0052      9.0868    104.4701    119.6148  
  1325.5000      2.4602      0.0333    118.5836     10.8931     12.2208     39.4455    -35.9778     10.0051      9.0041    105.1764    119.7099  
  1326.0000      2.4655      0.0361    122.5517     10.9193     12.0637     39.1791    -35.6950     10.0050      8.9237    107.1260    118.9784  
  1326.5000      2.4653      0.0410    127.9697     10.8594     11.6929     40.3021    -35.4375     10.0049      8.8434    109.3149    117.3736  
  1327.0000      2.4633      0.0496    135.4778     10.8455     11.5586     42.6928    -34.8579     10.0048      8.7630    110.7483    115.9830  
  1327.5000      2.4700      0.0613    141.1478     10.7592     11.3247     43.6169    -34.2032     10.0047      8.6858    111.1870    115.3820  
  1328.0000      2.4881      0.0725    141.9356     10.7120     10.6926     43.5369    -34.2876     10.0046      8.6989    110.4233    115.3543  
  1328.5000      2.4787      0.0512    140.3746     10.7231     10.0606     42.3027    -34.8925     10.0045      8.7120    109.9578    115.6709  
  1329.0000      2.4540      0.0457    136.9567     10.7432      9.6850     42.4537    -35.6242     10.0043      8.7251    109.7232    115.9617  
  1329.5000      2.4663      0.0497    136.3407     10.8137      9.7344     42.1687    -35.9201     10.0042      8.7381    109.6287    115.9567  
  1330.0000      2.4504      0.0423    138.9612     10.8633     11.3325     41.8349    -35.7888     10.0041      8.7512    109.3681    115.7938  
  1330.5000      2.4445      0.0352    145.0591     10.8737     12.0835     42.3341    -35.6422     10.0040      8.7643    109.0876    115.9143  
  1331.0000      2.4431      0.0412    143.9922     10.8841     12.8345     43.3130    -35.7218     10.0039      8.7774    109.3103    116.9471  
  1331.5000      2.4373      0.0472    140.0877     10.8944     12.2427     43.7941    -35.6880     10.0038      8.7315    110.4657    117.7963  
  1332.0000      2.4490      0.0531    139.4713     10.9048     12.6732     44.2752    -35.3347     10.0037      8.6350    112.1584    118.3513  
  1332.5000      2.4674      0.0634    144.0071     10.9051     12.7477     44.9386    -34.8161     10.0036      8.5385    113.6795    118.4893  
  1333.0000      2.4657      0.0584    147.7886     10.8747     11.6924     44.9279    -34.4710     10.0035      8.4420    114.6959    117.6061  
  1333.5000      2.4455      0.0460    146.5030     10.8492     11.2045     44.2327    -34.4865      9.9932      8.3455    115.0782    116.6547  
  1334.0000      2.4367      0.0398    143.4315     10.8444     11.0264     44.5921    -34.5862      9.9437      8.2490    115.1852    116.8503  
