~VERSION INFORMATION
 VERS.                           2.00:        CWLS LOG ASCII STANDARD - VERSION 2.00
 WRAP.                             NO:        ONE LINE PER DEPTH STEP
~WELL INFORMATION
#MNEM.UNIT                   DATA             INFORMATION
#----------             --------------        ------------------------------
 STRT.F                       98.0000:        START DEPTH
 STOP.F                     2124.0000:        STOP DEPTH
 STEP.F                        0.5000:        STEP VALUE
 NULL.                      -999.2500:        NULL VALUE
 COMP.          USGS/NPR-A OPERATIONS:        COMPANY  
 LOC .                   24  22N  17W:        LOCATION   
 DATE.                        10/5/80:        LOG DATE 
 WELL.               SOUTH BARROW #18:        WELL     
 UWI .                   500232001700:        UNIQUE WELL ID 
 API .                   500232001700:        UNIQUE WELL IDENTIFIER 
 FLD .                   SOUTH BARROW:        FIELD    
 CNTY.                    NORTH SLOPE:        COUNTY  
 STAT.                         ALASKA:        STATE   
 CTRY.                            USA:        COUNTRY 
 OPER.          USGS/NPR-A OPERATIONS:        OPERATOR  
 SRVC.                   SCHLUMBERGER:        SERVICE COMPANY 
 LAT .                         0.0000:        LATITUDE
 LON .                         0.0000:        LONGITUDE
 DIGS.               CENTER LINE DATA:        DIGITIZING COMPANY 
~CURVE INFORMATION      
#MNEM        .UNIT         API CODE           CURVE DESCRIPTION
#-----------------      --------------        ------------------------------
 DEPT        .F                      :        1  DEPTH
 CALI        .IN                     :        2  
 GR          .GAPI                   :        3  
 NPHI        .%                      :        4  
 RHOB        .G/C3                   :        5  
 DRHO        .G/C3                   :        6  
 DT          .US/F                   :        7  
 SP          .MV                     :        8  
 ILD         .OHMM                   :        9  
 ILM         .OHMM                   :        10 
 SFL         .OHMM                   :        11 
 LLD         .OHMM                   :        12 
 LLS         .OHMM                   :        13 
 MSFL        .OHMM                   :        14 
~PARAMETER INFORMATION       
#MNEM.UNIT                  VALUE             DESCRIPTION OF MNEMONIC
#---------             ---------------        ------------------------------
 EKB .F                       30.0000:        KELLY BUSHING
 TD  .F                     2125.0000:        TOTAL DEPTH
 BHT .F                        0.0000:        BOTTOM HOLE TEMPERATURE
 BS  .                         8.5000:        BIT SIZE
 FD  .                        10.3000:        FLUID DENSITY
 CSIZ.                         9.6250:        CASING SIZE
 CBD .F                     1519.0000:        CASING DRILLER 1
 CBL .F                     1520.0000:        CASING LOGGER 1
 DFT .                  Miscellaneous:        TYPE FLUID IN HOLE
 DFV .                        47.0000:        VISCOSITY
 DFPH.                         8.5000:        PH
 DFL .                        14.0000:        FLUID LOSS
 RMS .                         0.1600:        RM
 MST .F                       43.0000:        RM MEAS. TEMP.
 RMF .                         0.1100:        RMF
 MFST.F                       43.0000:        RMF MEAS. TEMP.
 RMC .                         0.1200:        RMC
 MCST.F                       43.0000:        RMC MEAS. TEMP.
~OTHER INFORMATION
~A    DEPTH        CALI          GR        NPHI        RHOB        DRHO          DT          SP         ILD         ILM         SFL         LLD         LLS        MSFL  
# ...
  1586.0000      9.7889     91.3879     38.4886      2.5018      0.0124    107.7704   -999.2500   -999.2500   -999.2500   -999.2500     11.5891      9.8827      5.2076  
  1586.5000      9.7577     92.3354     39.0634      2.4958      0.0160    107.8951   -999.2500   -999.2500   -999.2500   -999.2500     13.4953     10.0579      6.1862  
  1587.0000      9.7728     93.5570     39.3572      2.5058      0.0280    109.8755   -999.2500   -999.2500   -999.2500   -999.2500     12.0983     10.2414      7.3210  
  1587.5000      9.8175     94.6776     39.4840      2.5114      0.0324    111.9955   -999.2500   -999.2500   -999.2500   -999.2500     11.8497     10.5122      5.8354  
  1588.0000     10.0895     96.5250     38.8082      2.5116      0.0249    112.7518   -999.2500   -999.2500   -999.2500   -999.2500     11.3119     10.2544      4.4394  
  1588.5000      9.8512     99.0836     38.0194      2.5068      0.0287    109.8501   -999.2500   -999.2500   -999.2500   -999.2500     10.1813      9.9654      4.2738  
  1589.0000      9.8115     99.5078     37.7621      2.5030      0.0452    108.7135   -999.2500   -999.2500   -999.2500   -999.2500     10.0518      9.8974      4.7510  
  1589.5000      9.9042     99.0470     38.7782      2.4917      0.0420    109.0509   -999.2500   -999.2500   -999.2500   -999.2500     11.0908     10.4537      5.2493  
  1590.0000     10.1002     98.0349     39.8024      2.4757      0.0444    108.5455   -999.2500   -999.2500   -999.2500   -999.2500     12.5143     11.8336      6.0435  
  1590.5000     10.1505     96.0144     41.0156      2.5081      0.0547    106.9782   -999.2500   -999.2500   -999.2500   -999.2500     12.9692     12.9142      5.5703  
  1591.0000     10.1134     92.0384     40.3457      2.5065      0.0471    105.7885   -999.2500   -999.2500   -999.2500   -999.2500     13.7185     15.2412      5.7696  
  1591.5000     10.0259     89.3156     38.9751      2.4994      0.0330    103.0838   -999.2500   -999.2500   -999.2500   -999.2500     16.2826     16.9852      8.8075  
  1592.0000      9.8480     84.6714     36.7975      2.4703      0.0408    105.6397   -999.2500   -999.2500   -999.2500   -999.2500     18.8269     19.1544     16.8007  
  1592.5000      9.8961     76.9342     36.1680      2.4503      0.0431    109.3461   -999.2500   -999.2500   -999.2500   -999.2500     21.7689     21.2114     19.3331  
  1593.0000     10.0514     71.2326     35.9012      2.4301      0.0303    110.7667   -999.2500   -999.2500   -999.2500   -999.2500     31.0479     24.6079     20.5135  
  1593.5000     10.0802     67.6241     34.4135      2.4245      0.0318    104.0726   -999.2500   -999.2500   -999.2500   -999.2500     33.8279     28.8088     24.3091  
  1594.0000      9.9634     64.0179     29.9144      2.4041      0.0216    115.9348   -999.2500   -999.2500   -999.2500   -999.2500     37.2523     32.6392     26.5756  
  1594.5000      9.9534     60.7620     27.0513      2.4086      0.0446    117.1960   -999.2500   -999.2500   -999.2500   -999.2500     54.0174     41.9674     25.8731  
  1595.0000      9.9115     57.6778     26.3520      2.4003      0.0591    117.1676   -999.2500   -999.2500   -999.2500   -999.2500     66.3035     50.8788     24.8088  
  1595.5000      9.8641     55.4137     25.9235      2.3596      0.0561    117.0932   -999.2500   -999.2500   -999.2500   -999.2500     72.3277     51.8192     21.2215  
  1596.0000      9.8513     56.5309     25.4851      2.3347      0.0522    115.6849   -999.2500   -999.2500   -999.2500   -999.2500     62.8164     49.8318     16.3459  
  1596.5000      9.8327     59.4974     25.3622      2.3334      0.0559    113.2667   -999.2500   -999.2500   -999.2500   -999.2500     41.4731     39.2718     10.7015  
  1597.0000      9.8051     62.9388     25.4969      2.3232      0.0488    111.6704   -999.2500   -999.2500   -999.2500   -999.2500     25.6852     26.3492      7.1221  
  1597.5000      9.7104     69.9950     25.9678      2.3509      0.0508    110.5952   -999.2500   -999.2500   -999.2500   -999.2500     18.5801     16.8766      6.4573  
  1598.0000      9.6710     79.7035     27.2684      2.3794      0.0436    110.6250   -999.2500   -999.2500   -999.2500   -999.2500     16.1575     14.1219      6.6562  
  1598.5000      9.6521     90.1763     28.9728      2.4071      0.0236    111.6707   -999.2500   -999.2500   -999.2500   -999.2500     12.6012     12.2225      5.3334  
  1599.0000      9.6874     98.1232     31.0442      2.4437      0.0169    112.2744   -999.2500   -999.2500   -999.2500   -999.2500     12.1071     11.5341      3.7343  
  1599.5000      9.7386    101.0546     34.1855      2.4671      0.0255    112.6752   -999.2500   -999.2500   -999.2500   -999.2500     11.7938     10.9538      3.6751  
  1600.0000      9.7240    102.1436     37.0540      2.4879      0.0435    112.4968   -999.2500   -999.2500   -999.2500   -999.2500     11.4650     10.5122      3.4316  
  1600.5000      9.8480    101.7152     38.3375      2.4791      0.0459    113.4237   -999.2500   -999.2500   -999.2500   -999.2500     11.1372     10.4523      2.7524  
  1601.0000      9.8947    100.3093     39.1117      2.4742      0.0494    114.0351   -999.2500   -999.2500   -999.2500   -999.2500     11.1828     10.6806      2.8305  
  1601.5000     10.2302    100.1694     40.1652      2.4840      0.0649    114.8554   -999.2500   -999.2500   -999.2500   -999.2500     11.2305     10.8006      4.2638  
  1602.0000     10.2059    101.6304     40.4780      2.4647      0.0523    114.9449   -999.2500   -999.2500   -999.2500   -999.2500     11.2383     10.7436      4.2286  
  1602.5000     10.0460    102.0197     40.5948      2.4456      0.0328     96.2977   -999.2500   -999.2500   -999.2500   -999.2500     11.0292     10.6200      3.5926  
  1603.0000      9.9982     99.8951     40.9565      2.4549      0.0394    116.5804   -999.2500   -999.2500   -999.2500   -999.2500     10.3789     10.2862      3.2477  
  1603.5000      9.9407     98.6354     41.2476      2.4769      0.0620    115.9098   -999.2500   -999.2500   -999.2500   -999.2500      9.1178     10.0394      3.1756  
  1604.0000     10.0484     99.8616     41.5722      2.4628      0.0693     97.4740   -999.2500   -999.2500   -999.2500   -999.2500      9.8349      9.8035      3.3825  
  1604.5000     10.3631    101.4904     42.0069      2.4453      0.0559    112.4268   -999.2500   -999.2500   -999.2500   -999.2500     10.8737     10.0555      3.3550  
  1605.0000     10.0041    101.0549     42.2484      2.4372      0.0331    109.9078   -999.2500   -999.2500   -999.2500   -999.2500     12.1547     10.7481      3.1491  
  1605.5000     10.0026     98.4137     41.8770      2.4656      0.0470    108.0231   -999.2500   -999.2500   -999.2500   -999.2500     13.6288     11.3900      3.6055  
  1606.0000     10.0928     96.1185     41.1354      2.5025      0.0461    108.7047   -999.2500   -999.2500   -999.2500   -999.2500     15.4696     13.6669      5.2893  
  1606.5000     10.1309     94.0232     40.4901      2.4947      0.0390    109.4604   -999.2500   -999.2500   -999.2500   -999.2500     17.5590     15.5414      8.5881  
  1607.0000     10.0878     90.4047     40.4185      2.4758      0.0352    112.3355   -999.2500   -999.2500   -999.2500   -999.2500     18.0798     14.8063      8.9309  
  1607.5000     10.0054     86.5954     40.7530      2.4734      0.0477    115.3154   -999.2500   -999.2500   -999.2500   -999.2500     17.1917     14.0939      5.7914  
  1608.0000      9.7980     83.7281     40.1722      2.4689      0.0629    112.7321   -999.2500   -999.2500   -999.2500   -999.2500     14.6522     13.5297      5.6465  
  1608.5000      9.7554     88.2034     37.9578      2.4580      0.0586    111.5180   -999.2500   -999.2500   -999.2500   -999.2500     12.2109     10.4229      6.6879  
  1609.0000      9.7337     93.4021     36.1672      2.4432      0.0396    110.7219   -999.2500   -999.2500   -999.2500   -999.2500     12.1244     10.3625      6.9790  
  1609.5000      9.8011     96.7384     38.2492      2.4444      0.0579    108.5900   -999.2500   -999.2500   -999.2500   -999.2500     12.9239     10.8196      7.7818  
