~VERSION INFORMATION
 VERS.                           2.00:        CWLS LOG ASCII STANDARD - VERSION 2.00
 WRAP.                             NO:        ONE LINE PER DEPTH STEP
~WELL INFORMATION
#MNEM.UNIT                   DATA             INFORMATION
#----------             --------------        ------------------------------
 STRT.F                       68.0000:        START DEPTH
 STOP.F                     2380.0000:        STOP DEPTH
 STEP.F                        0.5000:        STEP VALUE
 NULL.                      -999.2500:        NULL VALUE
 COMP.                     USGS/NPR-A:        COMPANY  
 LOC .                   30  22N  16W:        LOCATION   
 DATE.                        3/18/78:        LOG DATE 
 WELL.               SOUTH BARROW #17:        WELL     
 UWI .                   500232001100:        UNIQUE WELL ID 
 API .                   500232001100:        UNIQUE WELL IDENTIFIER 
 FLD .                   SOUTH BARROW:        FIELD    
 CNTY.                     NOTH SLOPE:        COUNTY  
 STAT.                         ALASKA:        STATE   
 CTRY.                            USA:        COUNTRY 
 OPER.                     USGS/NPR-A:        OPERATOR  
 SRVC.                   SCHLUMBERGER:        SERVICE COMPANY 
 LAT .                         0.0000:        LATITUDE
 LON .                         0.0000:        LONGITUDE
 DIGS.               CENTER LINE DATA:        DIGITIZING COMPANY 
~CURVE INFORMATION      
#MNEM        .UNIT         API CODE           CURVE DESCRIPTION
#-----------------      --------------        ------------------------------
 DEPT        .F                      :        1  DEPTH
 CALI        .IN                     :        2  
 GR          .GAPI                   :        3  
 NPHI        .%                      :        4  
 RHOB        .G/C3                   :        5  
 DRHO        .G/C3                   :        6  
 DT          .US/F                   :        7  
 SP          .MV                     :        8  
 ILD         .OHMM                   :        9  
 ILM         .OHMM                   :        10 
 LL8         .OHMM                   :        11 
 LLD         .OHMM                   :        12 
 LLS         .OHMM                   :        13 
~PARAMETER INFORMATION       
#MNEM.UNIT                  VALUE             DESCRIPTION OF MNEMONIC
#---------             ---------------        ------------------------------
 EKB .F                       33.0000:        KELLY BUSHING
 TD  .F                     2382.0000:        TOTAL DEPTH
 BHT .F                        0.0000:        BOTTOM HOLE TEMPERATURE
 BS  .                         8.5000:        BIT SIZE
 FD  .                        10.8000:        FLUID DENSITY
 CSIZ.                         9.6250:        CASING SIZE
 CBD .F                     1512.0000:        CASING DRILLER 1
 CBL .F                     1512.0000:        CASING LOGGER 1
 DFT .                  Miscellaneous:        TYPE FLUID IN HOLE
 DFV .                        43.0000:        VISCOSITY
 DFPH.                         8.5000:        PH
 DFL .                         4.0000:        FLUID LOSS
 RMS .                         0.0760:        RM
 MST .F                       60.0000:        RM MEAS. TEMP.
 RMF .                         0.0000:        RMF
 MFST.F                        0.0000:        RMF MEAS. TEMP.
 RMC .                         0.1640:        RMC
 MCST.F                       55.0000:        RMC MEAS. TEMP.
~OTHER INFORMATION
~A    DEPTH        CALI          GR        NPHI        RHOB        DRHO          DT          SP         ILD         ILM         LL8         LLD         LLS  
# ...
  2031.5000      8.5774     62.0407     29.2990      2.4276      0.0171     95.0697     50.6622   -999.2500   -999.2500   -999.2500     22.3716     15.6528  
  2032.0000      8.5439     61.4690     29.2592      2.4255      0.0219     95.3125     51.0308   -999.2500   -999.2500   -999.2500     22.9048     15.8521  
  2032.5000      8.4845     60.6865     28.6985      2.4217      0.0195     95.6326     51.2915   -999.2500   -999.2500   -999.2500     23.5704     15.9391  
  2033.0000      8.4322     60.2448     27.7161      2.4208      0.0109     95.9527     51.4415   -999.2500   -999.2500   -999.2500     23.4946     16.1765  
  2033.5000      8.3822     59.7566     26.5616      2.4294      0.0259     96.2727     51.6250   -999.2500   -999.2500   -999.2500     22.7358     16.2156  
  2034.0000      8.3841     59.7538     26.0073      2.4264      0.0286     96.6594     51.5818   -999.2500   -999.2500   -999.2500     21.4383     15.8647  
  2034.5000      8.4495     59.2739     26.4203      2.4218      0.0262     97.0928     51.5073   -999.2500   -999.2500   -999.2500     20.8153     15.6013  
  2035.0000      8.5150     58.1794     27.3481      2.4092      0.0128     97.6498     51.4823   -999.2500   -999.2500   -999.2500     20.6314     15.5174  
  2035.5000      8.5804     57.5458     28.0039      2.4089      0.0034     98.2051     51.4356   -999.2500   -999.2500   -999.2500     20.5260     15.6200  
  2036.0000      8.6458     57.4072     28.8828      2.4058      0.0040     98.7416     51.3671   -999.2500   -999.2500   -999.2500     20.4957     15.7234  
  2036.5000      8.6929     57.1497     29.7617      2.4007      0.0046     98.3192     51.3357   -999.2500   -999.2500   -999.2500     20.3848     15.8273  
  2037.0000      8.7177     57.2238     30.5362      2.4014      0.0044     97.8074     51.3123   -999.2500   -999.2500   -999.2500     20.1232     15.9320  
  2037.5000      8.7425     58.0506     30.8794      2.4148      0.0043     97.5239     51.4596   -999.2500   -999.2500   -999.2500     19.9927     16.0289  
  2038.0000      8.7673     58.2925     31.2770      2.4312      0.0070     97.7423     51.6627   -999.2500   -999.2500   -999.2500     20.4695     16.1162  
  2038.5000      8.7455     56.3706     31.5654      2.4360     -0.0002     97.9556     51.8895   -999.2500   -999.2500   -999.2500     21.5216     16.6813  
  2039.0000      8.7200     54.0427     31.6353      2.4295     -0.0098     97.2386     52.2184   -999.2500   -999.2500   -999.2500     22.3915     17.7508  
  2039.5000      8.6341     52.9827     31.4489      2.4186     -0.0112     96.2020     52.4224   -999.2500   -999.2500   -999.2500     22.7263     18.6613  
  2040.0000      8.6042     53.0981     30.9491      2.4000     -0.0123     95.2683     52.6054   -999.2500   -999.2500   -999.2500     23.5142     19.4680  
  2040.5000      8.5822     53.3287     30.4407      2.3902     -0.0133     94.4969     52.7114   -999.2500   -999.2500   -999.2500     24.5398     20.3096  
  2041.0000      8.5800     52.3182     29.6082      2.3816     -0.0141     95.4240     52.9494   -999.2500   -999.2500   -999.2500     24.6843     21.1876  
  2041.5000      8.5798     50.5405     28.9699      2.3838     -0.0018     96.5776     53.0832   -999.2500   -999.2500   -999.2500     22.2882     21.2720  
  2042.0000      8.5703     49.2665     29.1808      2.3904      0.0095     97.8184     53.3885   -999.2500   -999.2500   -999.2500     18.9803     17.9011  
  2042.5000      8.5618     48.9359     29.6859      2.3919      0.0120     98.7183     53.7738   -999.2500   -999.2500   -999.2500     15.5691     15.0644  
  2043.0000      8.5639     49.5187     30.3112      2.3833      0.0015     99.4458     54.0384   -999.2500   -999.2500   -999.2500     13.9423     13.7526  
  2043.5000      8.5210     50.7114     30.7492      2.3667     -0.0081     99.7836     54.3728   -999.2500   -999.2500   -999.2500     13.8094     13.3002  
  2044.0000      8.4706     52.6611     30.3574      2.3508     -0.0087    100.0208     54.5532   -999.2500   -999.2500   -999.2500     13.8146     12.8044  
  2044.5000      8.4203     53.6212     30.5475      2.3382     -0.0045     99.8253     54.6716   -999.2500   -999.2500   -999.2500     13.8197     12.8621  
  2045.0000      8.4079     53.7628     30.8087      2.3362     -0.0139     99.5841     54.9658   -999.2500   -999.2500   -999.2500     13.7390     12.9201  
  2045.5000      8.4134     53.3152     30.4437      2.3400     -0.0154     99.5680     55.1844   -999.2500   -999.2500   -999.2500     13.0988     12.9372  
  2046.0000      8.4189     52.4138     29.6260      2.3383     -0.0051    100.3688     55.4115   -999.2500   -999.2500   -999.2500     12.4885     12.3211  
  2046.5000      8.4299     51.2261     28.9955      2.3410      0.0030    101.5391     55.5824   -999.2500   -999.2500   -999.2500     11.6719     11.7343  
  2047.0000      8.4447     51.1154     29.0474      2.3488      0.0048    101.7536     55.7665   -999.2500   -999.2500   -999.2500     11.2211     11.1754  
  2047.5000      8.4595     52.8664     29.5480      2.3612      0.0048    101.0906     55.9404   -999.2500   -999.2500   -999.2500     11.3270     10.6432  
  2048.0000      8.4742     56.1220     29.7000      2.3889      0.0034     99.5490     55.9095   -999.2500   -999.2500   -999.2500     12.7035     12.2527  
  2048.5000      8.4862     59.2604     29.8230      2.4304     -0.0039     97.9349     55.9754   -999.2500   -999.2500   -999.2500     14.9024     14.2270  
  2049.0000      8.4859     60.0567     30.2349      2.4460     -0.0049     98.3580     56.0804   -999.2500   -999.2500   -999.2500     16.6159     16.5194  
  2049.5000      8.4855     59.1950     30.4661      2.4297      0.0007     98.9961     56.3055   -999.2500   -999.2500   -999.2500     16.7437     16.0028  
  2050.0000      8.4852     57.5793     30.4655      2.4358     -0.0086     97.8120     56.5639   -999.2500   -999.2500   -999.2500     15.6082     15.4857  
  2050.5000      8.4848     57.5188     30.4650      2.4529     -0.0283     96.1362     56.7599   -999.2500   -999.2500   -999.2500     15.5045     15.4501  
  2051.0000      8.4870     59.9656     30.3148      2.4843     -0.0204     97.0125     56.8254   -999.2500   -999.2500   -999.2500     16.0029     16.0732  
  2051.5000      8.4905     60.8164     29.6396      2.4635      0.0003    100.1693     56.9471   -999.2500   -999.2500   -999.2500     16.9534     16.7215  
  2052.0000      8.4690     55.3682     28.8693      2.4008      0.0188    106.6549     56.9816   -999.2500   -999.2500   -999.2500     14.7252     14.4533  
  2052.5000      8.4446     48.3769     28.1701      2.3562      0.0077    108.6454     57.0191   -999.2500   -999.2500   -999.2500     12.4658     12.4314  
  2053.0000      8.4277     46.3600     28.5132      2.3586      0.0118    107.4552     57.0599   -999.2500   -999.2500   -999.2500     11.9598     11.7202  
  2053.5000      8.4374     45.9259     28.9249      2.3818      0.0017    104.4050     57.1604   -999.2500   -999.2500   -999.2500     12.7579     12.9409  
  2054.0000      8.4471     46.6445     28.5881      2.4003     -0.0076    101.1708     57.2571   -999.2500   -999.2500   -999.2500     15.2900     14.8290  
  2054.5000      8.4566     47.6492     28.2651      2.4025     -0.0037    102.5161     57.4068   -999.2500   -999.2500   -999.2500     17.1470     16.9927  
  2055.0000      8.4605     47.9860     27.9552      2.3754      0.0079    104.9427     57.6204   -999.2500   -999.2500   -999.2500     16.9821     16.9682  
  2055.5000      8.4527     47.2051     27.7446      2.3468      0.0178    108.4864     57.8130   -999.2500   -999.2500   -999.2500     15.0410     14.7817  
  2056.0000      8.4142     45.4892     27.6017      2.3373      0.0256    111.7225     58.0037   -999.2500   -999.2500   -999.2500     12.2541     12.8769  
  2056.5000      8.3783     44.3668     27.8609      2.3298      0.0198    112.2190     58.1675   -999.2500   -999.2500   -999.2500     11.0084     11.2176  
