~VERSION INFORMATION
 VERS.                           2.00:        CWLS LOG ASCII STANDARD - VERSION 2.00
 WRAP.                             NO:        ONE LINE PER DEPTH STEP
~WELL INFORMATION
#MNEM.UNIT                   DATA             INFORMATION
#----------             --------------        ------------------------------
 STRT.F                       52.0000:        START DEPTH
 STOP.F                     2296.0000:        STOP DEPTH
 STEP.F                        0.5000:        STEP VALUE
 NULL.                      -999.2500:        NULL VALUE
 COMP.                     USGS/NPR-A:        COMPANY  
 LOC .                   23  22N  17W:        LOCATION   
 DATE.                        4/30/78:        LOG DATE 
 WELL.               SOUTH BARROW #19:        WELL     
 UWI .                   500232001200:        UNIQUE WELL ID 
 API .                   500232001200:        UNIQUE WELL IDENTIFIER 
 FLD .                   SOUTH BARROW:        FIELD    
 CNTY.                    NORTH SLOPE:        COUNTY  
 STAT.                         ALASKA:        STATE   
 CTRY.                            USA:        COUNTRY 
 OPER.                     USGS/NPR-A:        OPERATOR  
 SRVC.                   SCHLUMBERGER:        SERVICE COMPANY 
 LAT .                         0.0000:        LATITUDE
 LON .                         0.0000:        LONGITUDE
 DIGS.               CENTER LINE DATA:        DIGITIZING COMPANY 
~CURVE INFORMATION      
#MNEM        .UNIT         API CODE           CURVE DESCRIPTION
#-----------------      --------------        ------------------------------
 DEPT        .F                      :        1  DEPTH
 GR          .GAPI                   :        2  
 CALI        .IN                     :        3  
 RHOB        .G/C3                   :        4  
 DRHO        .G/C3                   :        5  
 NPHI        .%                      :        6  
 DT          .US/F                   :        7  
 SP          .MV                     :        8  
 ILD         .OHMM                   :        9  
 ILM         .OHMM                   :        10 
 LL8         .OHMM                   :        11 
 LLD         .OHMM                   :        12 
 LLS         .OHMM                   :        13 
 MSFL        .OHMM                   :        14 
~PARAMETER INFORMATION       
#MNEM.UNIT                  VALUE             DESCRIPTION OF MNEMONIC
#---------             ---------------        ------------------------------
 EKB .F                       30.0000:        KELLY BUSHING
 TD  .F                     2300.0000:        TOTAL DEPTH
 BHT .F                      173.0000:        BOTTOM HOLE TEMPERATURE
 BS  .                         8.5000:        BIT SIZE
 FD  .                        11.6000:        FLUID DENSITY
 CSIZ.                         9.6250:        CASING SIZE
 CBD .F                     1491.0000:        CASING DRILLER 1
 CBL .F                     1490.0000:        CASING LOGGER 1
 DFT .                  Miscellaneous:        TYPE FLUID IN HOLE
 DFV .                        46.0000:        VISCOSITY
 DFPH.                         8.5000:        PH
 DFL .                         6.0000:        FLUID LOSS
 RMS .                         0.1090:        RM
 MST .F                       58.0000:        RM MEAS. TEMP.
 RMF .                         0.0720:        RMF
 MFST.F                       61.0000:        RMF MEAS. TEMP.
 RMC .                         0.3000:        RMC
 MCST.F                       70.0000:        RMC MEAS. TEMP.
~OTHER INFORMATION
~A    DEPTH          GR        CALI        RHOB        DRHO        NPHI          DT          SP         ILD         ILM         LL8         LLD         LLS        MSFL  
# ...
  1108.0000     81.6968     12.3802   -999.2500   -999.2500   -999.2500    115.2948    -52.6600     10.2321      9.5101     10.9639   -999.2500   -999.2500   -999.2500  
  1108.5000     81.2487     12.3332   -999.2500   -999.2500   -999.2500    115.2171    -52.9949     10.2740      9.5318     10.9787   -999.2500   -999.2500   -999.2500  
  1109.0000     80.4140     12.3344   -999.2500   -999.2500   -999.2500    115.3148    -53.1747     10.3161      9.5534     10.9936   -999.2500   -999.2500   -999.2500  
  1109.5000     79.4317     12.4063   -999.2500   -999.2500   -999.2500    115.3443    -53.2095     10.3255      9.5752     11.0085   -999.2500   -999.2500   -999.2500  
  1110.0000     78.9856     12.4725   -999.2500   -999.2500   -999.2500    114.9997    -52.9299     10.3235      9.5969     11.0235   -999.2500   -999.2500   -999.2500  
  1110.5000     79.1711     12.5386   -999.2500   -999.2500   -999.2500    114.5980    -52.5541     10.3216      9.6188     11.0338   -999.2500   -999.2500   -999.2500  
  1111.0000     79.5452     12.6203   -999.2500   -999.2500   -999.2500    114.4883    -52.2365     10.3196      9.6406     10.9453   -999.2500   -999.2500   -999.2500  
  1111.5000     79.8115     12.6653   -999.2500   -999.2500   -999.2500    114.4688    -51.9902     10.3176      9.6626     10.8576   -999.2500   -999.2500   -999.2500  
  1112.0000     79.3518     12.5817   -999.2500   -999.2500   -999.2500    114.4273    -51.7765     10.3157      9.6845     10.7705   -999.2500   -999.2500   -999.2500  
  1112.5000     78.5437     12.4419   -999.2500   -999.2500   -999.2500    114.6902    -51.6549     10.3137      9.6781     10.6841   -999.2500   -999.2500   -999.2500  
  1113.0000     78.0628     12.2830   -999.2500   -999.2500   -999.2500    115.1361    -51.6902     10.3117      9.6652     10.5985   -999.2500   -999.2500   -999.2500  
  1113.5000     78.3516     12.3253   -999.2500   -999.2500   -999.2500    115.7382    -51.7601     10.3098      9.6523     10.5790   -999.2500   -999.2500   -999.2500  
  1114.0000     78.4291     12.3429   -999.2500   -999.2500   -999.2500    116.3322    -51.8328     10.3078      9.6395     10.5833   -999.2500   -999.2500   -999.2500  
  1114.5000     78.5593     12.3435   -999.2500   -999.2500   -999.2500    116.5960    -51.8712     10.3059      9.6267     10.5875   -999.2500   -999.2500   -999.2500  
  1115.0000     78.8170     12.3486   -999.2500   -999.2500   -999.2500    116.0792    -51.7709     10.3039      9.6138     10.5918   -999.2500   -999.2500   -999.2500  
  1115.5000     78.8925     12.3271   -999.2500   -999.2500   -999.2500    115.1558    -51.5112     10.3019      9.6010     10.5960   -999.2500   -999.2500   -999.2500  
  1116.0000     78.7928     12.3642   -999.2500   -999.2500   -999.2500    114.9055    -51.3929     10.3000      9.5883     10.6003   -999.2500   -999.2500   -999.2500  
  1116.5000     78.7303     12.4262   -999.2500   -999.2500   -999.2500    114.7782    -51.0498     10.2980      9.5755     10.6045   -999.2500   -999.2500   -999.2500  
  1117.0000     78.7401     12.5377   -999.2500   -999.2500   -999.2500    114.8576    -50.7863     10.3247      9.5627     10.6088   -999.2500   -999.2500   -999.2500  
  1117.5000     78.6534     12.4108   -999.2500   -999.2500   -999.2500    114.9075    -50.6801     10.3577      9.5500     10.6130   -999.2500   -999.2500   -999.2500  
  1118.0000     78.2278     12.3651   -999.2500   -999.2500   -999.2500    115.2004    -50.9868     10.3908      9.5373     10.6684   -999.2500   -999.2500   -999.2500  
  1118.5000     77.8720     12.4202   -999.2500   -999.2500   -999.2500    115.5639    -51.4359     10.4240      9.5246     10.7976   -999.2500   -999.2500   -999.2500  
  1119.0000     78.4918     12.4580   -999.2500   -999.2500   -999.2500    115.1150    -51.7319     10.4573      9.5119     10.9283   -999.2500   -999.2500   -999.2500  
  1119.5000     78.9179     12.4852   -999.2500   -999.2500   -999.2500    115.1922    -51.8741     10.4907      9.4993     11.0606   -999.2500   -999.2500   -999.2500  
  1120.0000     79.0876     12.5578   -999.2500   -999.2500   -999.2500    115.5765    -51.8594     10.5242      9.4866     11.1858   -999.2500   -999.2500   -999.2500  
  1120.5000     79.6221     12.6415   -999.2500   -999.2500   -999.2500    115.9748    -51.8093     10.5579      9.5260     11.2204   -999.2500   -999.2500   -999.2500  
  1121.0000     81.0126     12.5641   -999.2500   -999.2500   -999.2500    116.3302    -51.6690     10.5916      9.5694     11.1884   -999.2500   -999.2500   -999.2500  
  1121.5000     82.0736     12.5416   -999.2500   -999.2500   -999.2500    116.0394    -51.5243     10.5118      9.6131     11.0817   -999.2500   -999.2500   -999.2500  
  1122.0000     82.2205     12.5004   -999.2500   -999.2500   -999.2500    115.8163    -51.5970     10.1748      9.5046     10.9761   -999.2500   -999.2500   -999.2500  
  1122.5000     83.0781     12.4572   -999.2500   -999.2500   -999.2500    115.3504    -51.8392      9.8526      9.2865     10.8715   -999.2500   -999.2500   -999.2500  
  1123.0000     84.3546     12.4227   -999.2500   -999.2500   -999.2500    115.4264    -51.9596      9.7656      9.0734     10.7678   -999.2500   -999.2500   -999.2500  
  1123.5000     85.1348     12.3659   -999.2500   -999.2500   -999.2500    116.9574    -51.8602      9.8114      8.8651     10.6652   -999.2500   -999.2500   -999.2500  
  1124.0000     84.7552     12.4084   -999.2500   -999.2500   -999.2500    119.1566    -51.6492      9.5800      8.6617     10.5635   -999.2500   -999.2500   -999.2500  
  1124.5000     83.3144     12.4478   -999.2500   -999.2500   -999.2500    120.3286    -51.3714      9.3187      8.4629     10.4628   -999.2500   -999.2500   -999.2500  
  1125.0000     81.8307     12.4452   -999.2500   -999.2500   -999.2500    120.5101    -51.1882      9.3023      8.4519     10.3631   -999.2500   -999.2500   -999.2500  
  1125.5000     81.2877     12.4343   -999.2500   -999.2500   -999.2500    119.9726    -51.2114      9.3153      8.5038     10.2643   -999.2500   -999.2500   -999.2500  
  1126.0000     82.5804     12.4027   -999.2500   -999.2500   -999.2500    118.1103    -51.2246      9.3284      8.5559     10.2108   -999.2500   -999.2500   -999.2500  
  1126.5000     83.0248     12.3279   -999.2500   -999.2500   -999.2500    117.6706    -50.7798      9.3414      8.6084     10.2108   -999.2500   -999.2500   -999.2500  
  1127.0000     82.2667     12.2466   -999.2500   -999.2500   -999.2500    118.1976    -50.7105      9.3545      8.6612     10.2108   -999.2500   -999.2500   -999.2500  
  1127.5000     81.4079     12.2652   -999.2500   -999.2500   -999.2500    118.6749    -50.8450      9.3675      8.7143     10.2108   -999.2500   -999.2500   -999.2500  
  1128.0000     82.0437     12.3030   -999.2500   -999.2500   -999.2500    119.4890    -51.1296      9.3806      8.7678     10.2108   -999.2500   -999.2500   -999.2500  
  1128.5000     82.9390     12.1918   -999.2500   -999.2500   -999.2500    119.8807    -51.1889      9.3937      8.7294     10.2108   -999.2500   -999.2500   -999.2500  
  1129.0000     82.4614     12.1877   -999.2500   -999.2500   -999.2500    120.0059    -51.1268      9.4069      8.6911     10.2108   -999.2500   -999.2500   -999.2500  
  1129.5000     80.9799     12.1846   -999.2500   -999.2500   -999.2500    120.0941    -51.2123      9.4200      8.6530     10.2108   -999.2500   -999.2500   -999.2500  
  1130.0000     79.3053     12.1881   -999.2500   -999.2500   -999.2500    119.9873    -51.1826      9.4172      8.6151     10.2108   -999.2500   -999.2500   -999.2500  
  1130.5000     77.6911     12.1924   -999.2500   -999.2500   -999.2500    119.2223    -50.7912      9.3896      8.5773     10.2108   -999.2500   -999.2500   -999.2500  
  1131.0000     77.6563     12.2579   -999.2500   -999.2500   -999.2500    118.5491    -50.4565      9.3622      8.5397     10.2108   -999.2500   -999.2500   -999.2500  
  1131.5000     79.0051     12.2928   -999.2500   -999.2500   -999.2500    118.7065    -50.3366      9.3349      8.5023     10.2108   -999.2500   -999.2500   -999.2500  
