~VERSION INFORMATION
 VERS.                           2.00:        CWLS LOG ASCII STANDARD - VERSION 2.00
 WRAP.                             NO:        ONE LINE PER DEPTH STEP
~WELL INFORMATION
#MNEM.UNIT                   DATA             INFORMATION
#----------             --------------        ------------------------------
 STRT.F                     1088.0000:        START DEPTH
 STOP.F                     2449.0000:        STOP DEPTH
 STEP.F                        0.5000:        STEP VALUE
 NULL.                      -999.2500:        NULL VALUE
 COMP.             UNITED STATES NAVY:        COMPANY  
 LOC .                   11  22N  18W:        LOCATION   
 DATE.                         4/7/70:        LOG DATE 
 WELL.                    GAS WELL #9:        WELL     
 UWI .                   500232000300:        UNIQUE WELL ID 
 API .                   500232000300:        UNIQUE WELL IDENTIFIER 
 FLD .                   SOUTH BARROW:        FIELD    
 CNTY.                   POINT BARROW:        COUNTY  
 STAT.                         ALASKA:        STATE   
 CTRY.                            USA:        COUNTRY 
 OPER.             UNITED STATES NAVY:        OPERATOR  
 SRVC.                   SCHLUMBERGER:        SERVICE COMPANY 
 LAT .                         0.0000:        LATITUDE
 LON .                         0.0000:        LONGITUDE
 DIGS.               CENTER LINE DATA:        DIGITIZING COMPANY 
~CURVE INFORMATION      
#MNEM        .UNIT         API CODE           CURVE DESCRIPTION
#-----------------      --------------        ------------------------------
 DEPT        .F                      :        1  DEPTH
 SP          .MV                     :        2  
 ASN         .OHMM                   :        3  
 ILD         .OHMM                   :        4  
 CILD        .MMHO                   :        5  
 CALI        .IN                     :        6  
 GR          .GAPI                   :        7  
 DRHO        .G/C3                   :        8  
 RHOB        .G/C3                   :        9  
 DT          .US/F                   :        10 
~PARAMETER INFORMATION       
#MNEM.UNIT                  VALUE             DESCRIPTION OF MNEMONIC
#---------             ---------------        ------------------------------
 EKB .F                       29.0000:        KELLY BUSHING
 TD  .F                     2450.0000:        TOTAL DEPTH
 BHT .F                       75.0000:        BOTTOM HOLE TEMPERATURE
 BS  .                         8.6250:        BIT SIZE
 FD  .                        10.7000:        FLUID DENSITY
 CSIZ.                         9.6250:        CASING SIZE
 CBD .F                     1100.0000:        CASING DRILLER 1
 CBL .F                     1102.0000:        CASING LOGGER 1
 DFT .                            Gel:        TYPE FLUID IN HOLE
 DFV .                        45.0000:        VISCOSITY
 DFPH.                         8.8000:        PH
 DFL .                         3.8000:        FLUID LOSS
 RMS .                         2.7500:        RM
 MST .F                       60.0000:        RM MEAS. TEMP.
 RMF .                         2.3600:        RMF
 MFST.F                       60.0000:        RMF MEAS. TEMP.
 RMC .                         3.7800:        RMC
 MCST.F                       60.0000:        RMC MEAS. TEMP.
~OTHER INFORMATION
~A    DEPTH          SP         ASN         ILD        CILD        CALI          GR        DRHO        RHOB          DT  
# ...
  1187.0000    -31.4080     10.9296      9.8010    101.1586      9.6615     72.2820      0.0656      2.4695    116.7686  
  1187.5000    -31.0516     10.9115      9.8878     99.3527      9.6741     70.6725      0.0514      2.4689    116.1316  
  1188.0000    -31.1117     10.9057      9.9746     97.0210      9.7887     71.9569      0.0318      2.4538    116.1256  
  1188.5000    -31.3306     10.9048     10.0614     96.5232      9.8685     74.0077      0.0402      2.4547    117.0226  
  1189.0000    -31.5645     11.1112     10.1482     95.7396      9.9067     73.4509      0.0508      2.4533    116.9071  
  1189.5000    -32.0523     11.2838     10.1935     94.9560     10.1092     71.5717      0.0650      2.4508    116.0621  
  1190.0000    -32.3834     11.3066     10.1762     93.8621     10.1474     69.6845      0.0563      2.4457    115.1764  
  1190.5000    -32.5308     11.2915     10.1830     94.0069     10.0763     69.1865      0.0583      2.4510    113.8481  
  1191.0000    -33.0212     11.3186     10.1898     94.3334     10.1060     70.2494      0.0554      2.4525    112.7015  
  1191.5000    -33.3709     11.3290     10.1965     94.4501     10.1272     71.0396      0.0526      2.4454    112.3220  
  1192.0000    -33.3233     11.3487     10.2012     95.1575     10.2348     71.2051      0.0502      2.4388    112.1457  
  1192.5000    -33.0553     11.4113     10.0924     96.2498     10.3832     70.0072      0.0551      2.4469    112.4100  
  1193.0000    -32.7652     11.4509     10.0427     98.2629     10.3992     68.6571      0.0599      2.4602    113.0486  
  1193.5000    -32.4324     11.3356      9.8234    100.1103     10.4369     66.6899      0.0542      2.4551    113.5933  
  1194.0000    -31.7774     11.0441      9.8039    101.9411     10.3091     66.1257      0.0716      2.4702    114.2083  
  1194.5000    -30.7791     10.6913      9.7543    102.4014     10.0895     69.0803      0.0752      2.4806    114.3476  
  1195.0000    -30.2162     10.6571      9.7046    102.9524     10.0642     70.4712      0.0497      2.4570    114.5396  
  1195.5000    -29.9365     10.7596      9.6549    103.3999     10.0702     71.7021      0.0306      2.4382    115.1942  
  1196.0000    -29.8261     10.8620      9.6218    102.9404     10.0683     71.7263      0.0445      2.4439    115.5060  
  1196.5000    -29.7298     10.9644      9.6461    102.2239     10.0535     70.8547      0.0551      2.4520    115.1568  
  1197.0000    -29.7561     11.1474      9.6705    101.5074     10.0336     72.0864      0.0563      2.4591    114.3911  
  1197.5000    -29.5680     11.3464      9.6948    100.7910      9.9650     73.8203      0.0498      2.4533    113.5072  
  1198.0000    -29.0883     11.4874      9.7183    101.8909      9.8504     73.4788      0.0438      2.4317    112.8721  
  1198.5000    -29.3461     11.5213      9.7128    102.3469      9.8415     72.7372      0.0587      2.4540    112.6316  
  1199.0000    -29.9291     11.3980      9.7007    102.8517      9.9049     72.0792      0.0654      2.4693    113.1001  
  1199.5000    -30.8882     11.2305      9.5564    104.3375      9.9199     71.7578      0.0566      2.4654    114.2003  
  1200.0000    -31.8641     10.9941      9.3301    107.5220      9.9000     72.3910      0.0507      2.4574    115.6851  
  1200.5000    -31.2026     10.7493      9.1493    106.7251      9.8766     74.0114      0.0455      2.4489    117.2580  
  1201.0000    -30.8293     10.5364      9.0674    107.9018      9.8903     75.5355      0.0482      2.4579    118.9574  
  1201.5000    -30.3951     10.5131      8.9438    108.6327      9.9090     73.4175      0.0533      2.4744    119.9124  
  1202.0000    -29.7733     10.5441      8.9391    108.5828      9.9277     69.8127      0.0513      2.4671    120.0664  
  1202.5000    -29.3521     10.5752      8.9513    108.2828      9.9465     68.3204      0.0451      2.4495    119.7128  
  1203.0000    -29.6330     10.7651      9.0410    107.2157      9.9313     69.7170      0.0506      2.4421    119.0590  
  1203.5000    -30.3530     10.9804      9.1972    105.9624      9.8940     71.4962      0.0502      2.4364    118.1507  
  1204.0000    -30.9226     11.1651      9.2907    105.0893      9.8546     69.8912      0.0489      2.4282    116.9177  
  1204.5000    -31.0044     11.3249      9.3431    104.3950      9.8205     68.1936      0.0385      2.4215    115.6520  
  1205.0000    -30.9435     11.3674      9.4298    103.6598      9.8005     66.9214      0.0414      2.4295    114.2383  
  1205.5000    -31.3617     11.3578      9.5221    102.7125      9.7888     66.3455      0.0491      2.4333    113.2856  
  1206.0000    -31.9014     11.2280      9.5935    101.0214      9.7775     66.2965      0.0604      2.4562    113.5098  
  1206.5000    -32.2770     10.9934      9.9162     99.0439      9.7758     66.7344      0.0709      2.4775    114.0507  
  1207.0000    -32.4948     10.9242     10.2157     97.0664      9.8229     69.6764      0.0658      2.4791    114.9488  
  1207.5000    -32.7588     11.0990     10.5152     94.3292      9.8568     72.4739      0.0576      2.4608    115.6784  
  1208.0000    -33.1495     11.4490     10.8147     91.6075      9.8611     71.0282      0.0495      2.4532    114.7048  
  1208.5000    -33.5769     12.1207     11.1142     89.7690      9.8879     70.1961      0.0356      2.4504    112.5863  
  1209.0000    -33.3423     12.5670     11.2006     88.0549      9.9429     70.0528      0.0246      2.4386    110.0287  
  1209.5000    -32.5637     12.8097     11.4191     86.5588      9.9721     66.9501      0.0216      2.4497    107.6777  
  1210.0000    -32.0614     12.7940     11.5538     85.9266     10.1804     64.1057      0.0178      2.4567    106.3668  
  1210.5000    -31.9319     12.6841     11.5411     86.3028     10.3337     64.9647      0.0196      2.4643    106.1315  
  1211.0000    -32.4211     12.4149     11.3345     87.6929     10.3533     67.4721      0.0315      2.4731    107.1838  
  1211.5000    -33.2190     12.1437     11.0624     89.6851     10.3545     69.0900      0.0420      2.4789    108.6761  
  1212.0000    -33.4962     11.8524     10.7465     91.8953     10.3591     70.3260      0.0547      2.4947    110.9154  
  1212.5000    -33.4875     11.5914     10.3732     94.6632     10.3653     72.4721      0.0665      2.4867    112.3175  
  1213.0000    -33.3606     11.4669     10.1847     96.5207     10.3713     74.5861      0.0651      2.4774    112.8155  
  1213.5000    -33.0916     11.3616     10.0479     97.3103     10.3699     72.9504      0.0835      2.4801    113.0375  
  1214.0000    -32.5196     11.1868      9.9806     98.4478     10.1526     71.1343      0.0741      2.4514    113.4688  
  1214.5000    -31.8591     11.0065      9.9220     99.4392      9.8868     69.6608      0.0543      2.4386    113.8227  
  1215.0000    -31.1683     10.9472      9.8634     99.8213      9.8360     67.9743      0.0715      2.4694    113.9445  
  1215.5000    -30.8342     11.0277      9.8155    100.9375      9.7867     66.7174      0.0736      2.4779    114.0383  
  1216.0000    -30.6289     11.1023      9.6294    102.1723      9.7236     65.8370      0.0601      2.4732    113.7351  
  1216.5000    -30.5531     11.1441      9.7283    102.4433      9.6922     67.2426      0.0493      2.4615    113.6988  
  1217.0000    -30.8551     11.1021      9.6107    101.8676      9.6888     68.8243      0.0365      2.4370    114.2633  
  1217.5000    -31.2338     10.9472      9.6552    101.3444      9.6882     69.4368      0.0367      2.4238    115.1174  
  1218.0000    -31.4145     10.7344      9.6997    101.0382      9.6910     70.0623      0.0543      2.4386    116.1511  
  1218.5000    -30.9035     10.5217      9.7443    100.5830      9.6942     70.0567      0.0539      2.4442    115.9739  
  1219.0000    -30.5355     10.6314      9.7888    100.1279      9.6950     70.5851      0.0367      2.4241    115.0344  
  1219.5000    -30.7128     10.8214      9.8333     99.5463      9.7235     72.7003      0.0236      2.4136    113.7727  
