~VERSION INFORMATION
 VERS.                           2.00:        CWLS LOG ASCII STANDARD - VERSION 2.00
 WRAP.                             NO:        ONE LINE PER DEPTH STEP
~WELL INFORMATION
#MNEM.UNIT                   DATA             INFORMATION
#----------             --------------        ------------------------------
 STRT.F                      101.0000:        START DEPTH
 STOP.F                     3666.0000:        STOP DEPTH
 STEP.F                        0.5000:        STEP VALUE
 NULL.                      -999.2500:        NULL VALUE
 COMP.     USGS/NPR HUSKY OIL COMPANY:        COMPANY
 LOC .                      9 20N 19W:        LOCATION
 DATE.                       12/30/79:        LOG DATE
 WELL.           WALAKPA TEST WELL #1:        WELL
 UWI .                   500232001300:        UNIQUE WELL ID
 API .                   500232001300:        UNIQUE WELL IDENTIFIER
 FLD .                        WILDCAT:        FIELD
 CNTY.                    NORTH SLOPE:        COUNTY
 STAT.                         ALASKA:        STATE
 CTRY.                            USA:        COUNTRY
 OPER.     USGS/NPR HUSKY OIL COMPANY:        OPERATOR
 SRVC.                   SCHLUMBERGER:        SERVICE COMPANY
 LAT .                         0.0000:        LATITUDE
 LON .                         0.0000:        LONGITUDE
 DIGS.               CENTER LINE DATA:        DIGITIZING COMPANY
~CURVE INFORMATION      
#MNEM        .UNIT         API CODE           CURVE DESCRIPTION
#-----------------      --------------        ------------------------------
 DEPT        .F                      :        1  DEPTH
 GR          .GAPI                   :        2  
 CALI        .IN                     :        3  
 RHOB        .G/C3                   :        4  
 DRHO        .G/C3                   :        5  
 NPHI        .%                      :        6  
 DT          .US/F                   :        7  
 SP          .MV                     :        8  
 ILD         .OHMM                   :        9  
 ILM         .OHMM                   :        10 
 LL8         .OHMM                   :        11 
 SFL         .OHMM                   :        12 
~PARAMETER INFORMATION
#MNEM.UNIT                  VALUE             DESCRIPTION OF MNEMONIC
#---------             ---------------        ------------------------------
 EKB .F                       50.0000:        KELLY BUSHING
 TD  .F                     3672.0000:        TOTAL DEPTH
 BHT .F                       80.0000:        BOTTOM HOLE TEMPERATURE
 BS  .                        12.2500:        BIT SIZE
 FD  .                         9.9000:        FLUID DENSITY
 CSIZ.                        13.3750:        CASING SIZE
 CBD .F                      100.0000:        CASING DRILLER 1
 CBL .F                      106.0000:        CASING LOGGER 1
 DFT .                             99:        TYPE FLUID IN HOLE
 DFV .                        45.0000:        VISCOSITY
 DFPH.                         8.0000:        PH
 DFL .                        23.0000:        FLUID LOSS
 RMS .                         5.9200:        RM
 MST .F                       58.0000:        RM MEAS. TEMP.
 RMF .                         6.2200:        RMF
 MFST.F                       57.0000:        RMF MEAS. TEMP.
 RMC .                         7.0500:        RMC
 MCST.F                       57.0000:        RMC MEAS. TEMP.
~OTHER INFORMATION
~A    DEPTH          GR        CALI        RHOB        DRHO        NPHI          DT          SP         ILD         ILM         LL8         SFL 
# ...
  3405.0000    123.7990      8.3805      2.5867      0.0294     30.3175     88.1019     -5.0465     16.6140     14.0912   -999.2500     15.9478 
  3405.5000    107.2312      8.3861      2.5538      0.0222     33.4746     89.1789     -6.6017     17.8535     16.2065   -999.2500     16.6773 
  3406.0000     91.0119      8.3768      2.5439      0.0102     36.6546     85.6260     -7.6028     19.3119     17.6058   -999.2500     18.7451 
  3406.5000     75.9801      8.3614      2.5220     -0.0035     35.3634     80.1328     -7.9562     21.0428     19.0798   -999.2500     22.5024 
  3407.0000     70.8237      8.3721      2.5345     -0.0008     28.5128     74.7130     -8.1299     22.9289     20.7900   -999.2500     28.8469 
  3407.5000     69.3415      8.3831      2.5486      0.0076     24.1256     70.6957     -8.8449     24.9840     22.6535   -999.2500     33.6266 
  3408.0000     68.4168      8.3841      2.5608      0.0123     19.9750     70.1639    -10.0157     27.2233     24.6841   -999.2500     39.4270 
  3408.5000     65.8260      8.3829      2.5660      0.0054     18.7102     70.8454    -10.3513     29.6634     26.8966   -999.2500     35.8643 
  3409.0000     63.4384      8.3876      2.5716      0.0108     18.6794     71.1021    -10.1585     31.3395     29.3075   -999.2500     31.0054 
  3409.5000     64.0738      8.3887      2.5755      0.0139     19.2651     70.2937     -9.4699     31.2044     29.5674   -999.2500     31.9249 
  3410.0000     67.7764      8.3874      2.5891      0.0141     19.4500     69.4125     -8.4866     30.3515     28.7591   -999.2500     39.3323 
  3410.5000     73.9002      8.3910      2.6063      0.0124     18.7596     67.6194     -7.5747     29.5218     27.9729   -999.2500     50.5084 
  3411.0000     79.4683      8.3981      2.6151      0.0137     17.5338     67.9167     -7.0808     28.7149     27.1919   -999.2500     50.3444 
  3411.5000     82.5646      8.4052      2.5899      0.0113     16.3079     70.2448     -6.7723     27.7969     26.1908   -999.2500     34.1716 
  3412.0000     86.7294      8.4122      2.5978      0.0124     17.2470     72.6450     -6.4618     26.7736     25.2265   -999.2500     25.3883 
  3412.5000     92.5596      8.4119      2.6097      0.0130     18.8396     73.6167     -6.4613     25.8300     24.6451   -999.2500     25.8103 
  3413.0000     96.7378      8.3985      2.6199      0.0106     20.0443     73.8517     -7.2674     25.6303     24.4546   -999.2500     28.6798 
  3413.5000     95.1482      8.3998      2.6202      0.0057     20.6246     73.5042     -7.8443     25.4322     24.2656   -999.2500     27.6005 
  3414.0000     87.4349      8.3974      2.6016     -0.0003     21.1492     72.6652     -7.6828     25.2357     24.0780   -999.2500     26.5618 
  3414.5000     83.0216      8.3954      2.5633     -0.0054     21.8644     73.4617     -7.3138     25.0406     23.8919   -999.2500     26.0000 
  3415.0000     83.8789      8.3994      2.5486     -0.0046     22.8897     73.8406     -7.0457     24.9727     23.8376   -999.2500     29.3336 
  3415.5000     87.7558      8.4013      2.5570     -0.0008     23.0800     73.5418     -7.2680     25.0769     23.9372   -999.2500     33.7437 
  3416.0000     91.2345      8.4008      2.5677      0.0021     22.6255     73.7573     -8.5669     25.1815     24.0373   -999.2500     32.0658 
  3416.5000     91.3232      8.3978      2.5777      0.0043     22.4148     74.0873     -8.6389     25.2866     24.1378   -999.2500     26.4085 
  3417.0000     90.0954      8.4148      2.5730      0.0034     22.4031     74.1540     -8.2661     25.3922     24.2387   -999.2500     25.8215 
  3417.5000     87.5399      8.4119      2.5513      0.0036     21.8357     73.5400     -7.3656     25.4856     24.3322   -999.2500     27.5296 
  3418.0000     84.5766      8.4033      2.5447      0.0052     20.5299     71.7281     -6.8309     25.4856     24.3322   -999.2500     31.5054 
  3418.5000     84.1367      8.4014      2.5559      0.0066     19.5570     70.9566     -6.4917     25.4856     24.3322   -999.2500     34.1530 
  3419.0000     83.1033      8.4038      2.5651      0.0080     19.3367     71.7347     -6.4267     25.4856     24.3322   -999.2500     28.9590 
  3419.5000     82.1402      8.4009      2.5603      0.0094     19.5955     73.1714     -6.4972     25.4856     24.3322   -999.2500     24.5549 
  3420.0000     80.8822      8.3859      2.5508      0.0124     20.4973     74.7054     -6.5943     25.4856     24.3322   -999.2500     25.4856 
  3420.5000     80.2077      8.3800      2.5541      0.0119     21.0419     73.2270     -6.6119     25.3457     24.1865   -999.2500     26.5856 
  3421.0000     81.4302      8.3826      2.5594      0.0129     20.0916     72.3759     -6.4183     25.2004     24.0599   -999.2500     27.7689 
  3421.5000     83.2873      8.3764      2.5602      0.0148     19.6257     72.5337     -6.3260     25.2004     24.0599   -999.2500     26.8257 
  3422.0000     87.0016      8.3650      2.5610      0.0124     19.5399     72.7527     -5.9972     25.2004     23.8963   -999.2500     25.4784 
  3422.5000     91.7355      8.3757      2.5609      0.0099     19.5993     72.8564     -5.5777     24.5287     23.0704   -999.2500     24.2468 
  3423.0000     97.0943      8.3806      2.5551      0.0043     19.8994     73.3911     -5.6734     23.5127     22.0152   -999.2500     26.6686 
  3423.5000    102.3882      8.3820      2.5456     -0.0022     20.4860     73.9250     -5.8754     22.6233     21.5029   -999.2500     23.7509 
  3424.0000    108.6402      8.3796      2.5360     -0.0087     20.5439     75.0106     -5.8867     22.1585     21.0611   -999.2500     22.3618 
  3424.5000    107.7564      8.3850      2.5303     -0.0089     20.4909     75.6506     -5.7432     21.8200     20.7818   -999.2500     21.6849 
  3425.0000    100.2131      8.3861      2.5349     -0.0062     20.7021     74.1028     -5.7696     22.1602     21.1055   -999.2500     22.8334 
  3425.5000     90.4294      8.3935      2.5410     -0.0033     21.1763     73.3594     -5.9353     22.5058     21.4343   -999.2500     25.4873 
  3426.0000     87.8817      8.3229      2.5673     -0.0005     21.1816     72.2325     -6.4475     23.2828     21.9772   -999.2500     26.8229 
  3426.5000     90.1208      8.3842      2.5659      0.0020     20.0630     73.0735     -6.7901     22.5021     21.2324   -999.2500     24.1400 
  3427.0000     95.6998      8.4024      2.5619      0.0003     19.8040     74.2231     -6.5675     21.7321     20.5059   -999.2500     23.5693 
  3427.5000    102.9045      8.3940      2.5531     -0.0003     20.0806     74.0376     -5.4000     20.9885     19.8043   -999.2500     25.2306 
  3428.0000    112.1433      8.3924      2.5510     -0.0033     20.1907     73.0777     -4.6320     20.2703     19.1266   -999.2500     26.7703 
  3428.5000    120.5975      8.3982      2.5549     -0.0007     20.4193     74.0132     -4.0893     19.5303     17.7877   -999.2500     26.8225 
  3429.0000    126.0301      8.3937      2.5605      0.0041     21.0895     75.4328     -4.2575     18.5470     15.6176   -999.2500     23.5338 
  3429.5000    124.8921      8.3919      2.5842      0.0207     22.6234     79.4888     -4.8273     17.6131     15.3793   -999.2500     17.4816 
  3430.0000    113.6188      8.3952      2.5657      0.0390     24.7782     84.8008     -6.8876     17.7630     15.7197   -999.2500     14.9294 
  3430.5000     96.4462      8.4001      2.5546      0.0618     28.2987     87.2065     -8.6351     17.9569     16.6200   -999.2500     12.4495 
  3431.0000     87.2892      8.4134      2.5417      0.0345     30.9329     84.5626     -9.1509     18.1528     17.5720   -999.2500     14.8625 
  3431.5000     75.8095      8.4047      2.5365      0.0019     32.2999     79.5599     -9.4406     18.3509     18.5784   -999.2500     21.6727 
  3432.0000     70.1200      8.4864      2.5893      0.0125     28.6597     73.9383     -9.7240     19.2419     19.5162   -999.2500     29.7706 
  3432.5000     73.4487      8.4017      2.5768      0.0164     23.1463     70.8408     -9.9305     20.3455     20.3980   -999.2500     31.7312 
