~VERSION INFORMATION
 VERS.                           2.00:        CWLS LOG ASCII STANDARD - VERSION 2.00
 WRAP.                             NO:        ONE LINE PER DEPTH STEP
~WELL INFORMATION
#MNEM.UNIT                   DATA             INFORMATION
#----------             --------------        ------------------------------
 STRT.F                       98.0000:        START DEPTH
 STOP.F                     2124.0000:        STOP DEPTH
 STEP.F                        0.5000:        STEP VALUE
 NULL.                      -999.2500:        NULL VALUE
 COMP.          USGS/NPR-A OPERATIONS:        COMPANY  
 LOC .                   24  22N  17W:        LOCATION   
 DATE.                        10/5/80:        LOG DATE 
 WELL.               SOUTH BARROW #18:        WELL     
 UWI .                   500232001700:        UNIQUE WELL ID 
 API .                   500232001700:        UNIQUE WELL IDENTIFIER 
 FLD .                   SOUTH BARROW:        FIELD    
 CNTY.                    NORTH SLOPE:        COUNTY  
 STAT.                         ALASKA:        STATE   
 CTRY.                            USA:        COUNTRY 
 OPER.          USGS/NPR-A OPERATIONS:        OPERATOR  
 SRVC.                   SCHLUMBERGER:        SERVICE COMPANY 
 LAT .                         0.0000:        LATITUDE
 LON .                         0.0000:        LONGITUDE
 DIGS.               CENTER LINE DATA:        DIGITIZING COMPANY 
~CURVE INFORMATION      
#MNEM        .UNIT         API CODE           CURVE DESCRIPTION
#-----------------      --------------        ------------------------------
 DEPT        .F                      :        1  DEPTH
 CALI        .IN                     :        2  
 GR          .GAPI                   :        3  
 NPHI        .%                      :        4  
 RHOB        .G/C3                   :        5  
 DRHO        .G/C3                   :        6  
 DT          .US/F                   :        7  
 SP          .MV                     :        8  
 ILD         .OHMM                   :        9  
 ILM         .OHMM                   :        10 
 SFL         .OHMM                   :        11 
 LLD         .OHMM                   :        12 
 LLS         .OHMM                   :        13 
 MSFL        .OHMM                   :        14 
~PARAMETER INFORMATION       
#MNEM.UNIT                  VALUE             DESCRIPTION OF MNEMONIC
#---------             ---------------        ------------------------------
 EKB .F                       30.0000:        KELLY BUSHING
 TD  .F                     2125.0000:        TOTAL DEPTH
 BHT .F                        0.0000:        BOTTOM HOLE TEMPERATURE
 BS  .                         8.5000:        BIT SIZE
 FD  .                        10.3000:        FLUID DENSITY
 CSIZ.                         9.6250:        CASING SIZE
 CBD .F                     1519.0000:        CASING DRILLER 1
 CBL .F                     1520.0000:        CASING LOGGER 1
 DFT .                  Miscellaneous:        TYPE FLUID IN HOLE
 DFV .                        47.0000:        VISCOSITY
 DFPH.                         8.5000:        PH
 DFL .                        14.0000:        FLUID LOSS
 RMS .                         0.1600:        RM
 MST .F                       43.0000:        RM MEAS. TEMP.
 RMF .                         0.1100:        RMF
 MFST.F                       43.0000:        RMF MEAS. TEMP.
 RMC .                         0.1200:        RMC
 MCST.F                       43.0000:        RMC MEAS. TEMP.
~OTHER INFORMATION
~A    DEPTH        CALI          GR        NPHI        RHOB        DRHO          DT          SP         ILD         ILM         SFL         LLD         LLS        MSFL  
# ...
  1634.0000     10.6231     95.0820     40.2347      2.5017      0.0292    111.9155   -999.2500   -999.2500   -999.2500   -999.2500     11.6658      8.9559      2.6901  
  1634.5000     10.5187     92.8895     39.9252      2.5076      0.0234    110.7027   -999.2500   -999.2500   -999.2500   -999.2500     11.3004      8.7885      2.4971  
  1635.0000     10.2445     92.1964     38.9460      2.5107      0.0369    109.7287   -999.2500   -999.2500   -999.2500   -999.2500     11.2654      8.6563      3.8867  
  1635.5000      9.8011     92.7163     38.2355      2.5225      0.0588    108.8899   -999.2500   -999.2500   -999.2500   -999.2500     11.5373      8.8607      5.9441  
  1636.0000      9.9771     93.4405     38.5803      2.5177      0.0545    109.0787   -999.2500   -999.2500   -999.2500   -999.2500     11.7843      9.4310      6.0897  
  1636.5000     10.1923     94.1676     40.0442      2.5199      0.0358    109.6688   -999.2500   -999.2500   -999.2500   -999.2500     12.0366     10.0380      5.9997  
  1637.0000     10.2267     94.7454     41.5658      2.5297      0.0490    110.0795   -999.2500   -999.2500   -999.2500   -999.2500     13.5465     10.0152      6.4128  
  1637.5000      9.9857     94.5359     41.8679      2.5236      0.0528    111.2605   -999.2500   -999.2500   -999.2500   -999.2500     12.4823      9.5601      6.0418  
  1638.0000      9.8697     93.4927     41.2995      2.4953      0.0291    112.5023   -999.2500   -999.2500   -999.2500   -999.2500     11.7960      9.0077      4.6061  
  1638.5000     10.1003     95.5921     40.0073      2.4866      0.0422    111.5727   -999.2500   -999.2500   -999.2500   -999.2500     11.3043      8.7315      4.1459  
  1639.0000     10.0557     97.7429     38.8669      2.5183      0.0706    110.6115   -999.2500   -999.2500   -999.2500   -999.2500     11.4541      8.7197      4.6567  
  1639.5000      9.8170    100.0975     38.6604      2.5257      0.0882    110.8901   -999.2500   -999.2500   -999.2500   -999.2500     11.8506      9.0379      5.5508  
  1640.0000      9.9957    101.9458     39.7939      2.5096      0.0767    111.8313   -999.2500   -999.2500   -999.2500   -999.2500     11.9119      9.4968      4.6373  
  1640.5000     10.5319    100.8229     40.4096      2.4965      0.0619    112.7761   -999.2500   -999.2500   -999.2500   -999.2500     11.5138      9.2733      3.6687  
  1641.0000     10.4396     98.9462     39.6567      2.5142      0.0763    112.9295   -999.2500   -999.2500   -999.2500   -999.2500     11.4335      9.1493      3.6130  
  1641.5000     10.3048     96.4902     38.2248      2.5007      0.0831    112.5526   -999.2500   -999.2500   -999.2500   -999.2500     11.8029      8.5722      4.3682  
  1642.0000     10.1037     98.2765     38.2672      2.4848      0.0841    111.5669   -999.2500   -999.2500   -999.2500   -999.2500     11.6096      8.4517      4.3349  
  1642.5000     10.0197     99.9292     38.6126      2.4747      0.0732    110.4849   -999.2500   -999.2500   -999.2500   -999.2500     11.1434      8.7520      4.7125  
  1643.0000     10.0402     98.6266     39.9528      2.4656      0.0591    109.8189   -999.2500   -999.2500   -999.2500   -999.2500     11.2720      9.6023      6.2128  
  1643.5000     10.1687     98.0608     41.4004      2.4525      0.0495    109.0788   -999.2500   -999.2500   -999.2500   -999.2500     12.5599     10.0901      6.1690  
  1644.0000     10.0907     99.4424     42.1428      2.4719      0.0405    109.8082   -999.2500   -999.2500   -999.2500   -999.2500     12.1375      9.6433      4.4909  
  1644.5000      9.9552     99.4071     41.0141      2.4946      0.0609    110.2970   -999.2500   -999.2500   -999.2500   -999.2500     11.4792      9.2656      3.5562  
  1645.0000      9.9628     96.0604     39.1927      2.4856      0.0567    109.3284   -999.2500   -999.2500   -999.2500   -999.2500     11.1459      9.0627      3.4435  
  1645.5000     10.0050     93.9208     38.9670      2.4741      0.0560    108.9027   -999.2500   -999.2500   -999.2500   -999.2500     10.9827      9.0908      3.5606  
  1646.0000      9.9060     94.7443     39.1481      2.4712      0.0489    109.1290   -999.2500   -999.2500   -999.2500   -999.2500     11.3992      9.1541      3.9702  
  1646.5000     10.0550     96.8364     40.0789      2.4697      0.0400     97.3252   -999.2500   -999.2500   -999.2500   -999.2500     11.4628      9.3151      4.2746  
  1647.0000     10.0762     99.9330     39.9435      2.4696      0.0381    108.2342   -999.2500   -999.2500   -999.2500   -999.2500     11.5027      9.3420      3.6176  
  1647.5000     10.0305    101.8578     39.7699      2.4654      0.0386    107.4929   -999.2500   -999.2500   -999.2500   -999.2500     11.8302      9.3337      2.7844  
  1648.0000      9.9674    101.6629     40.3242      2.4620      0.0375    106.5541   -999.2500   -999.2500   -999.2500   -999.2500     11.6459      9.5122      3.4949  
  1648.5000      9.9136     99.2190     39.7716      2.4747      0.0518    107.4654   -999.2500   -999.2500   -999.2500   -999.2500     11.2050      9.7944      4.8569  
  1649.0000      9.8788     96.7607     38.4782      2.4876      0.0533    109.7192   -999.2500   -999.2500   -999.2500   -999.2500     11.8531     10.0546      4.6356  
  1649.5000      9.8506     96.2041     38.5635      2.4980      0.0501    109.4867   -999.2500   -999.2500   -999.2500   -999.2500     12.5830     10.2467      2.8917  
  1650.0000      9.9323     95.6908     39.0118      2.4906      0.0424    106.2753   -999.2500   -999.2500   -999.2500   -999.2500     11.9478      9.6159      2.0060  
  1650.5000      9.9376     95.2000     38.5981      2.4834      0.0600    112.0311   -999.2500   -999.2500   -999.2500   -999.2500     11.2757      9.1338      1.8832  
  1651.0000      9.8262     95.1432     39.2449      2.4886      0.0830    110.3252   -999.2500   -999.2500   -999.2500   -999.2500     10.4265      9.1378      2.0091  
  1651.5000      9.7884     94.8153     40.8356      2.4803      0.0896    118.8046   -999.2500   -999.2500   -999.2500   -999.2500     11.4072      9.1419      2.9975  
  1652.0000     10.1651     94.4699     42.4643      2.4698      0.0725    136.9393   -999.2500   -999.2500   -999.2500   -999.2500     11.4890      9.7746      3.1954  
  1652.5000      9.9755     93.7579     43.6094      2.4641      0.0496    111.8844   -999.2500   -999.2500   -999.2500   -999.2500     11.5715     10.3677      2.6162  
  1653.0000      9.9881     92.5026     44.0255      2.4683      0.0334    111.3072   -999.2500   -999.2500   -999.2500   -999.2500     11.4952     10.1467      2.0856  
  1653.5000      9.9449     90.6927     43.9051      2.4901      0.0332    109.7233   -999.2500   -999.2500   -999.2500   -999.2500     11.1494     10.0269      2.1769  
  1654.0000      9.7498     88.8269     43.0045      2.5061      0.0466    106.3220   -999.2500   -999.2500   -999.2500   -999.2500     11.6004     10.1375      3.3009  
  1654.5000      9.6386     85.9186     42.6857      2.5092      0.0475     98.8928   -999.2500   -999.2500   -999.2500   -999.2500     12.0266     10.6173      5.4939  
  1655.0000      9.6406     81.6634     43.0788      2.5179      0.0261     95.9184   -999.2500   -999.2500   -999.2500   -999.2500     14.2564     11.8803      6.0807  
  1655.5000      9.6737     75.8413     43.7702      2.5221      0.0040     93.4930   -999.2500   -999.2500   -999.2500   -999.2500     18.4033     14.1272     11.0004  
  1656.0000      9.6484     71.3022     42.7270      2.5369      0.0422     91.1527   -999.2500   -999.2500   -999.2500   -999.2500     26.1959     23.8772     22.2434  
  1656.5000      9.5277     67.3837     40.7065      2.5355      0.0619     98.6964   -999.2500   -999.2500   -999.2500   -999.2500     52.9731     41.4756     20.3666  
  1657.0000      9.4666     61.7187     38.2884      2.4730      0.0551     90.3780   -999.2500   -999.2500   -999.2500   -999.2500     70.1893     49.5391     10.4227  
  1657.5000      9.4836     57.4982     33.6197      2.4476      0.0384     66.7893   -999.2500   -999.2500   -999.2500   -999.2500     31.8201     29.6276      5.3027  
