~VERSION INFORMATION
 VERS.                           2.00:        CWLS LOG ASCII STANDARD - VERSION 2.00
 WRAP.                             NO:        ONE LINE PER DEPTH STEP
~WELL INFORMATION
#MNEM.UNIT                   DATA             INFORMATION
#----------             --------------        ------------------------------
 STRT.F                      101.0000:        START DEPTH
 STOP.F                     3666.0000:        STOP DEPTH
 STEP.F                        0.5000:        STEP VALUE
 NULL.                      -999.2500:        NULL VALUE
 COMP.     USGS/NPR HUSKY OIL COMPANY:        COMPANY
 LOC .                      9 20N 19W:        LOCATION
 DATE.                       12/30/79:        LOG DATE
 WELL.           WALAKPA TEST WELL #1:        WELL
 UWI .                   500232001300:        UNIQUE WELL ID
 API .                   500232001300:        UNIQUE WELL IDENTIFIER
 FLD .                        WILDCAT:        FIELD
 CNTY.                    NORTH SLOPE:        COUNTY
 STAT.                         ALASKA:        STATE
 CTRY.                            USA:        COUNTRY
 OPER.     USGS/NPR HUSKY OIL COMPANY:        OPERATOR
 SRVC.                   SCHLUMBERGER:        SERVICE COMPANY
 LAT .                         0.0000:        LATITUDE
 LON .                         0.0000:        LONGITUDE
 DIGS.               CENTER LINE DATA:        DIGITIZING COMPANY
~CURVE INFORMATION      
#MNEM        .UNIT         API CODE           CURVE DESCRIPTION
#-----------------      --------------        ------------------------------
 DEPT        .F                      :        1  DEPTH
 GR          .GAPI                   :        2  
 CALI        .IN                     :        3  
 RHOB        .G/C3                   :        4  
 DRHO        .G/C3                   :        5  
 NPHI        .%                      :        6  
 DT          .US/F                   :        7  
 SP          .MV                     :        8  
 ILD         .OHMM                   :        9  
 ILM         .OHMM                   :        10 
 LL8         .OHMM                   :        11 
 SFL         .OHMM                   :        12 
~PARAMETER INFORMATION
#MNEM.UNIT                  VALUE             DESCRIPTION OF MNEMONIC
#---------             ---------------        ------------------------------
 EKB .F                       50.0000:        KELLY BUSHING
 TD  .F                     3672.0000:        TOTAL DEPTH
 BHT .F                       80.0000:        BOTTOM HOLE TEMPERATURE
 BS  .                        12.2500:        BIT SIZE
 FD  .                         9.9000:        FLUID DENSITY
 CSIZ.                        13.3750:        CASING SIZE
 CBD .F                      100.0000:        CASING DRILLER 1
 CBL .F                      106.0000:        CASING LOGGER 1
 DFT .                             99:        TYPE FLUID IN HOLE
 DFV .                        45.0000:        VISCOSITY
 DFPH.                         8.0000:        PH
 DFL .                        23.0000:        FLUID LOSS
 RMS .                         5.9200:        RM
 MST .F                       58.0000:        RM MEAS. TEMP.
 RMF .                         6.2200:        RMF
 MFST.F                       57.0000:        RMF MEAS. TEMP.
 RMC .                         7.0500:        RMC
 MCST.F                       57.0000:        RMC MEAS. TEMP.
~OTHER INFORMATION
~A    DEPTH          GR        CALI        RHOB        DRHO        NPHI          DT          SP         ILD         ILM         LL8         SFL 
# ...
  2929.0000     97.2593      8.6719      2.3993      0.1386     33.1192     92.0666    -16.0879      7.0150      6.2495   -999.2500      8.4882 
  2929.5000     98.9182      8.6714      2.3901      0.1709     33.7812     92.2713    -16.2024      7.0066      6.2361   -999.2500      8.1616 
  2930.0000     99.5986      8.6709      2.3452      0.1728     34.6439     92.6674    -15.7950      6.9981      6.2228   -999.2500      7.6268 
  2930.5000     99.7075      8.6703      2.3155      0.1526     35.9615     92.8394    -15.3817      6.9896      6.2095   -999.2500      7.1271 
  2931.0000     98.7869      8.6698      2.3392      0.1356     36.8169     93.2133    -15.4011      6.9812      6.2091   -999.2500      6.6744 
  2931.5000     97.8548      8.6693      2.3721      0.1415     37.2690     93.7576    -15.5849      6.9728      6.2203   -999.2500      6.8981 
  2932.0000     97.1975      8.6688      2.3906      0.1480     37.8384     93.1464    -15.8265      6.9643      6.2315   -999.2500      7.4491 
  2932.5000     95.8943      8.6682      2.4149      0.1599     38.4224     92.6853    -15.9705      6.9559      6.2427   -999.2500      7.7422 
  2933.0000     95.3572      8.6572      2.4001      0.1365     39.0065     92.2589    -16.1383      6.9475      6.2540   -999.2500      7.5218 
  2933.5000     96.4510      8.6640      2.4020      0.1238     38.2853     91.4726    -16.2818      6.9391      6.2653   -999.2500      7.6327 
  2934.0000     98.5797      8.6697      2.4150      0.1439     37.3409     91.9554    -16.0901      6.9424      6.2765   -999.2500      8.2425 
  2934.5000     99.9279      8.6554      2.3920      0.1269     35.7364     92.3811    -15.9096      6.9557      6.2878   -999.2500      8.8776 
  2935.0000    100.5725      8.6681      2.3872      0.1393     34.8691     93.7582    -15.9026      6.9691      6.2992   -999.2500      8.8105 
  2935.5000    100.1213      8.6753      2.4084      0.1834     36.0085     94.2700    -15.8089      6.9826      6.3105   -999.2500      8.2199 
  2936.0000     98.8186      8.6879      2.3633      0.1578     37.0864     94.5081    -15.7823      6.9960      6.3219   -999.2500      7.7280 
  2936.5000     98.6750      8.6718      2.3486      0.1487     38.1655     94.2583    -15.9792      7.0095      6.3333   -999.2500      7.3092 
  2937.0000    101.1681      8.6847      2.3344      0.1561     39.3499     93.3404    -16.2000      7.0230      6.3447   -999.2500      7.2671 
  2937.5000    103.0216      8.6783      2.3552      0.1665     39.9995     94.0427    -16.0044      7.0365      6.3561   -999.2500      7.2374 
  2938.0000    103.1994      8.6782      2.3172      0.1333     39.1437     93.5747    -16.2590      7.0501      6.3676   -999.2500      7.2985 
  2938.5000    100.8790      8.6771      2.3247      0.1365     37.5183     93.6162    -16.6163      7.0637      6.3790   -999.2500      7.3600 
  2939.0000     99.0587      8.6780      2.3662      0.1592     37.1617     92.5672    -16.6777      7.0773      6.3905   -999.2500      7.5282 
  2939.5000     97.1982      8.6790      2.3412      0.1259     37.2211     96.8462    -16.4742      7.0909      6.4020   -999.2500      7.8434 
  2940.0000     95.9523      8.6744      2.3617      0.1262     36.9968     96.3512    -16.5711      7.1046      6.4136   -999.2500      8.2267 
  2940.5000     95.4201      8.6691      2.3928      0.1522     36.6484     91.8993    -16.6109      7.1182      6.4083   -999.2500      8.8160 
  2941.0000     95.5010      8.6662      2.4028      0.1684     35.8979     91.4709    -16.5801      7.1319      6.3973   -999.2500      8.7041 
  2941.5000     95.7011      8.6632      2.4157      0.1612     36.3484     92.5064    -16.4552      7.1457      6.3864   -999.2500      8.3881 
  2942.0000     95.7974      8.6708      2.4147      0.1195     36.8850     92.9482    -16.0629      7.1595      6.3755   -999.2500      8.1409 
  2942.5000     96.2577      8.6792      2.4231      0.1063     37.4217     93.4426    -15.5779      7.1732      6.3646   -999.2500      8.0129 
  2943.0000     98.7143      8.6699      2.4212      0.0871     37.8634     92.8050    -15.7219      7.1393      6.3537   -999.2500      7.8984 
  2943.5000    101.2057      8.6599      2.3999      0.0653     38.0840     92.9254    -16.1329      7.1040      6.3383   -999.2500      7.7966 
  2944.0000    101.5692      8.6548      2.4154      0.0809     37.1694     92.5468    -16.4292      7.0689      6.2993   -999.2500      8.0081 
  2944.5000    101.9713      8.6505      2.4094      0.0921     36.2495     91.8932    -16.3593      7.0339      6.2606   -999.2500      8.3084 
  2945.0000    103.3790      8.6523      2.4040      0.1270     35.7068     91.1213    -16.2500      6.9810      6.2222   -999.2500      8.6199 
  2945.5000    104.5604      8.6552      2.3859      0.1851     35.3575     92.1892    -16.1860      6.9155      6.1840   -999.2500      8.5515 
  2946.0000    103.3448      8.6866      2.3360      0.2051     35.8285     93.2104    -16.1182      6.8506      6.1460   -999.2500      8.2961 
  2946.5000    101.6093      8.6653      2.2593      0.1791     36.6874     94.4524    -16.0913      6.7863      6.1082   -999.2500      8.0483 
  2947.0000    100.0209      8.6360      2.2417      0.1530     38.2540     95.0486    -16.0759      6.7226      6.0707   -999.2500      7.7708 
  2947.5000     99.4119      8.6729      2.2083      0.1324     39.1763     95.0110    -16.0132      6.6596      6.0334   -999.2500      7.5478 
  2948.0000    100.3000      8.6902      2.1722      0.1292     38.5818     94.3156    -16.0954      6.5971      5.9964   -999.2500      7.5605 
  2948.5000    101.3707      8.6824      2.1759      0.1314     37.7896     94.9425    -16.0366      6.5322      5.9595   -999.2500      7.6475 
  2949.0000    102.0115      8.6947      2.1931      0.1208     38.3533    102.9371    -16.3184      6.4670      5.8930   -999.2500      7.7375 
  2949.5000    102.5144      8.6873      2.1842      0.1493     38.7926     94.7192    -16.5959      6.4025      5.8245   -999.2500      7.6358 
  2950.0000    102.1184      8.6903      2.1464      0.1778     39.9195     95.5513    -16.3203      6.3386      5.7568   -999.2500      7.3310 
  2950.5000     99.8425      8.6991      2.1699      0.1757     40.9240     96.3793    -15.9323      6.2754      5.6900   -999.2500      7.0032 
  2951.0000     98.0187      8.6996      2.1734      0.1516     41.4280     97.1255    -15.9049      6.2416      5.6532   -999.2500      6.6902 
  2951.5000     96.1754      8.6786      2.1572      0.1317     41.5952     97.4345    -15.8828      6.2540      5.6907   -999.2500      6.4283 
  2952.0000     93.8095      8.6870      2.1679      0.1508     41.3077     98.1385    -15.7959      6.2663      5.7285   -999.2500      6.3722 
  2952.5000     93.1658      8.6967      2.1961      0.1737     42.0016     97.7309    -15.9147      6.2787      5.7665   -999.2500      6.4980 
  2953.0000     93.1515      8.6900      2.2345      0.1724     42.0924     95.9220    -16.1245      6.2911      5.7957   -999.2500      6.6387 
  2953.5000     95.3570      8.6864      2.2508      0.1284     42.2198     95.7358    -16.0374      6.3036      5.8195   -999.2500      6.8657 
  2954.0000     98.8284      8.6917      2.2563      0.0369     41.8269     94.6794    -15.6813      6.3160      5.8434   -999.2500      7.3829 
  2954.5000    101.4948      8.6844      2.3152      0.1377     41.4340     93.3597    -15.4091      6.3402      5.8675   -999.2500      7.7389 
  2955.0000    103.0595      8.6734      2.3437      0.2011     40.5823     95.0790    -15.4279      6.3904      5.8916   -999.2500      7.4951 
  2955.5000    104.2858      8.6793      2.2194      0.1753     41.1860     95.1300    -15.5268      6.4410      5.9158   -999.2500      7.2590 
  2956.0000    105.4986      8.6779      2.2044      0.1593     41.6315     92.7488    -15.6023      6.4920      5.9401   -999.2500      7.0927 
  2956.5000    105.3895      8.6739      2.2111      0.1572     41.2117     94.2402    -15.4793      6.5434      5.9646   -999.2500      7.3519 
