~VERSION INFORMATION
 VERS.                           2.00:        CWLS LOG ASCII STANDARD - VERSION 2.00
 WRAP.                             NO:        ONE LINE PER DEPTH STEP
~WELL INFORMATION
#MNEM.UNIT                   DATA             INFORMATION
#----------             --------------        ------------------------------
 STRT.F                      990.0000:        START DEPTH
 STOP.F                     2362.0000:        STOP DEPTH
 STEP.F                        0.5000:        STEP VALUE
 NULL.                      -999.2500:        NULL VALUE
 COMP.                 U.S. AIR FORCE:        COMPANY  
 LOC .                   14  22N  18W:        LOCATION   
 DATE.                        4/21/69:        LOG DATE 
 WELL.       SOUTH BARROW GAS WELL #8:        WELL     
 UWI .                   500232000200:        UNIQUE WELL ID 
 API .                   500232000200:        UNIQUE WELL IDENTIFIER 
 FLD .                S. B. GAS FIELD:        FIELD    
 CNTY.                   POINT BARROW:        COUNTY  
 STAT.                         ALASKA:        STATE   
 CTRY.                            USA:        COUNTRY 
 OPER.                 U.S. AIR FORCE:        OPERATOR  
 SRVC.                   SCHLUMBERGER:        SERVICE COMPANY 
 LAT .                         0.0000:        LATITUDE
 LON .                         0.0000:        LONGITUDE
 DIGS.               CENTER LINE DATA:        DIGITIZING COMPANY 
~CURVE INFORMATION      
#MNEM        .UNIT         API CODE           CURVE DESCRIPTION
#-----------------      --------------        ------------------------------
 DEPT        .F                      :        1  DEPTH
 SP          .MV                     :        2  
 ASN         .OHMM                   :        3  
 ILD         .OHMM                   :        4  
 CILD        .MMHO                   :        5  
 CALI        .IN                     :        6  
 DT          .US/F                   :        7  
~PARAMETER INFORMATION       
#MNEM.UNIT                  VALUE             DESCRIPTION OF MNEMONIC
#---------             ---------------        ------------------------------
 EKB .F                       31.0000:        KELLY BUSHING
 TD  .F                     2363.0000:        TOTAL DEPTH
 BHT .F                       74.0000:        BOTTOM HOLE TEMPERATURE
 BS  .                         8.6250:        BIT SIZE
 FD  .                        10.6000:        FLUID DENSITY
 CSIZ.                         9.6250:        CASING SIZE
 CBD .F                      992.0000:        CASING DRILLER 1
 CBL .F                      990.0000:        CASING LOGGER 1
 DFT .                            Gel:        TYPE FLUID IN HOLE
 DFV .                        54.0000:        VISCOSITY
 DFPH.                        10.0000:        PH
 DFL .                         4.8000:        FLUID LOSS
 RMS .                         2.0000:        RM
 MST .F                       82.0000:        RM MEAS. TEMP.
 RMF .                         2.1800:        RMF
 MFST.F                       61.0000:        RMF MEAS. TEMP.
 RMC .                         4.1900:        RMC
 MCST.F                       53.0000:        RMC MEAS. TEMP.
~OTHER INFORMATION
~A    DEPTH          SP         ASN         ILD        CILD        CALI          DT  
# ...
  1977.0000    -29.3871     10.2913     10.1702     96.8975   -999.2500   -999.2500  
  1977.5000    -29.4365     10.2225     10.1606     97.5973   -999.2500   -999.2500  
  1978.0000    -29.3740     10.2328     10.1510     96.8472   -999.2500   -999.2500  
  1978.5000    -29.3539     10.2768     10.1414     98.5694   -999.2500   -999.2500  
  1979.0000    -29.5143     10.3331     10.1318     99.5766   -999.2500   -999.2500  
  1979.5000    -29.3608     10.3895     10.1262     99.7121   -999.2500   -999.2500  
  1980.0000    -29.3541     10.5070     10.1512     98.2617   -999.2500   -999.2500  
  1980.5000    -29.5808     10.6654     10.1761     98.1362   -999.2500   -999.2500  
  1981.0000    -29.6258     10.7941     10.2011     98.5815   -999.2500   -999.2500  
  1981.5000    -30.0008     10.8268     10.1996     98.6767   -999.2500   -999.2500  
  1982.0000    -30.4356     10.9839     10.1640     98.6778   -999.2500   -999.2500  
  1982.5000    -30.6492     11.1332     10.1283     98.6529   -999.2500   -999.2500  
  1983.0000    -30.7610     11.2485     10.1211     98.5625   -999.2500   -999.2500  
  1983.5000    -30.6311     11.3655     10.1465     98.4722   -999.2500   -999.2500  
  1984.0000    -30.7791     11.5350     10.4220     95.8911   -999.2500   -999.2500  
  1984.5000    -30.7858     11.6960     10.8841     92.4733   -999.2500   -999.2500  
  1985.0000    -30.7300     12.0067     11.9056     86.8777   -999.2500   -999.2500  
  1985.5000    -30.6272     12.9704     13.1700     78.0891   -999.2500   -999.2500  
  1986.0000    -30.6689     14.3323     14.5081     69.7600   -999.2500   -999.2500  
  1986.5000    -30.8237     16.2699     15.8463     62.5617   -999.2500   -999.2500  
  1987.0000    -31.2152     18.4145     17.1844     57.3906   -999.2500   -999.2500  
  1987.5000    -32.3073     21.0796     18.4124     55.5617   -999.2500   -999.2500  
  1988.0000    -33.4397     22.3068     18.4214     55.4815   -999.2500   -999.2500  
  1988.5000    -34.1250     21.2072     18.0404     55.5689   -999.2500   -999.2500  
  1989.0000    -34.2182     18.0092     17.2338     58.2412   -999.2500   -999.2500  
  1989.5000    -33.6260     15.6561     15.6226     63.1982   -999.2500   -999.2500  
  1990.0000    -32.1824     13.8048     13.9358     71.1952   -999.2500   -999.2500  
  1990.5000    -30.5762     12.1408     12.2490     81.2026   -999.2500   -999.2500  
  1991.0000    -30.2517     11.3462     10.5622     89.3859   -999.2500   -999.2500  
  1991.5000    -30.0049     11.1605     10.2307     96.2604   -999.2500   -999.2500  
  1992.0000    -29.9744     10.9547      9.9383    100.3704   -999.2500   -999.2500  
  1992.5000    -30.0342     10.7612      9.6460    103.0865   -999.2500   -999.2500  
  1993.0000    -30.0583     10.6275      9.6763    103.4802   -999.2500   -999.2500  
  1993.5000    -30.2297     10.4955      9.7409    103.1388   -999.2500   -999.2500  
  1994.0000    -30.2393     10.3821      9.8055    103.2029   -999.2500   -999.2500  
  1994.5000    -30.2805     10.2687      9.8581    102.0916   -999.2500   -999.2500  
  1995.0000    -30.2521     10.1552      9.9026    102.0916   -999.2500   -999.2500  
  1995.5000    -30.3590     10.0418      9.9471    102.0916   -999.2500   -999.2500  
  1996.0000    -30.7283     10.0539      9.9915    101.5544   -999.2500   -999.2500  
  1996.5000    -30.5349     10.1773     10.0360    100.4800   -999.2500   -999.2500  
  1997.0000    -30.0654     10.2355     10.0805     99.7831   -999.2500   -999.2500  
  1997.5000    -29.5530     10.3259     10.1249     98.5495   -999.2500   -999.2500  
  1998.0000    -29.2087     10.4336     10.2569     96.8251   -999.2500   -999.2500  
  1998.5000    -28.8969     10.5919     10.4229     95.6360   -999.2500   -999.2500  
  1999.0000    -29.0366     10.6790     10.5889     95.0877   -999.2500   -999.2500  
  1999.5000    -28.8034     10.7908     10.7549     94.3879   -999.2500   -999.2500  
  2000.0000    -28.6463     10.8238     10.7900     93.9947   -999.2500   -999.2500  
  2000.5000    -28.5047     10.8278     10.8029     93.7598   -999.2500   -999.2500  
  2001.0000    -28.3928     10.8297     10.8159     93.0864   -999.2500   -999.2500  
  2001.5000    -28.3433     10.7507     10.8288     93.1468   -999.2500   -999.2500  
  2002.0000    -28.0904     10.7072     10.7692     94.9097   -999.2500   -999.2500  
  2002.5000    -27.9514     10.7072     10.4523     97.2346   -999.2500   -999.2500  
  2003.0000    -27.8636     10.7140     10.1878     98.8425   -999.2500   -999.2500  
  2003.5000    -27.9584     10.5605     10.1397     99.4412   -999.2500   -999.2500  
  2004.0000    -28.3134     10.3944     10.0915    100.0400   -999.2500   -999.2500  
  2004.5000    -28.4426     10.1592     10.0433    100.6387   -999.2500   -999.2500  
  2005.0000    -28.6369      9.9552      9.9865    101.6559   -999.2500   -999.2500  
  2005.5000    -29.0464      9.8523      9.9162    102.7385   -999.2500   -999.2500  
  2006.0000    -29.1327      9.8823      9.8460    103.3102   -999.2500   -999.2500  
  2006.5000    -29.3984      9.9284      9.7758    103.0301   -999.2500   -999.2500  
  2007.0000    -29.4658      9.9484      9.7055    103.9091   -999.2500   -999.2500  
  2007.5000    -29.2694      9.9587      9.5658    105.0716   -999.2500   -999.2500  
  2008.0000    -29.1242      9.9690      9.3808    106.7239   -999.2500   -999.2500  
  2008.5000    -28.9679      9.9793      9.2960    107.8418   -999.2500   -999.2500  
  2009.0000    -29.3772      9.9872      9.3296    108.2805   -999.2500   -999.2500  
  2009.5000    -29.4102      9.8938      9.3418    108.1788   -999.2500   -999.2500  
  2010.0000    -29.1919      9.8004      9.1808    108.7646   -999.2500   -999.2500  
  2010.5000    -29.5251      9.8374      9.0629    109.9276   -999.2500   -999.2500  
  2011.0000    -29.6329     10.0825      9.1609    109.8338   -999.2500   -999.2500  
  2011.5000    -29.7406     10.3877      9.4639    108.3603   -999.2500   -999.2500  
  2012.0000    -29.8484     10.6978      9.7729    102.1447   -999.2500   -999.2500  
  2012.5000    -30.0025     11.0778     10.0818    100.2138   -999.2500   -999.2500  
  2013.0000    -31.0238     11.5153     10.3019     97.6830   -999.2500   -999.2500  
  2013.5000    -32.2364     11.9278     10.6068     94.8848   -999.2500   -999.2500  
  2014.0000    -32.8831     12.1940     10.8968     90.9092   -999.2500   -999.2500  
  2014.5000    -32.4024     12.3864     11.3719     89.2243   -999.2500   -999.2500  
  2015.0000    -32.2654     12.2959     11.9504     86.3073   -999.2500   -999.2500  
  2015.5000    -32.2466     12.6603     12.5290     81.5570   -999.2500   -999.2500  
  2016.0000    -32.3226     13.3639     13.4200     75.1636   -999.2500   -999.2500  
  2016.5000    -32.3035     14.2972     14.4159     68.7702   -999.2500   -999.2500  
  2017.0000    -31.8719     15.8370     15.7538     62.3769   -999.2500   -999.2500  
  2017.5000    -32.4572     17.5198     17.1264     56.2598   -999.2500   -999.2500  
  2018.0000    -33.0655     19.4682     18.0960     53.7423   -999.2500   -999.2500  
  2018.5000    -33.4788     20.9527     17.6630     55.6497   -999.2500   -999.2500  
  2019.0000    -34.6929     20.6006     16.8097     58.3062   -999.2500   -999.2500  
  2019.5000    -34.8618     18.2740     16.0616     60.9626   -999.2500   -999.2500  
  2020.0000    -34.6191     15.8322     14.4899     67.6375   -999.2500   -999.2500  
  2020.5000    -33.0368     13.3514     13.0386     75.3827   -999.2500   -999.2500  
  2021.0000    -30.7067     12.0665     12.1432     81.3210   -999.2500   -999.2500  
  2021.5000    -29.8100     11.2365     11.2478     87.2933   -999.2500   -999.2500  
  2022.0000    -28.8626     10.6871     10.3525     96.5442   -999.2500   -999.2500  
  2022.5000    -28.8977     10.5575      9.8181    102.3557   -999.2500   -999.2500  
  2023.0000    -28.9387     10.6555      9.4657    104.6163   -999.2500   -999.2500  
  2023.5000    -29.0668     10.7156      9.3291    107.1687   -999.2500   -999.2500  
