~VERSION INFORMATION
 VERS.                           2.00:        CWLS LOG ASCII STANDARD - VERSION 2.00
 WRAP.                             NO:        ONE LINE PER DEPTH STEP
~WELL INFORMATION
#MNEM.UNIT                   DATA             INFORMATION
#----------             --------------        ------------------------------
 STRT.F                       75.0000:        START DEPTH
 STOP.F                     2534.0000:        STOP DEPTH
 STEP.F                        0.5000:        STEP VALUE
 NULL.                      -999.2500:        NULL VALUE
 COMP.                      HUSKY OIL:        COMPANY  
 LOC .                   14  22N  18W:        LOCATION   
 DATE.                       12/20/76:        LOG DATE 
 WELL.               SOUTH BARROW #13:        WELL     
 UWI .                   500232000800:        UNIQUE WELL ID 
 API .                   500232000800:        UNIQUE WELL IDENTIFIER 
 FLD .                   SOUTH BARROW:        FIELD    
 CNTY.                    NORTH SLOPE:        COUNTY  
 STAT.                         ALASKA:        STATE   
 CTRY.                            USA:        COUNTRY 
 OPER.                      HUSKY OIL:        OPERATOR  
 SRVC.                   SCHLUMBERGER:        SERVICE COMPANY 
 LAT .                         0.0000:        LATITUDE
 LON .                         0.0000:        LONGITUDE
 DIGS.               CENTER LINE DATA:        DIGITIZING COMPANY 
~CURVE INFORMATION      
#MNEM        .UNIT         API CODE           CURVE DESCRIPTION
#-----------------      --------------        ------------------------------
 DEPT        .F                      :        1  DEPTH
 SP          .MV                     :        2  
 ILD         .OHMM                   :        3  
 LL8         .OHMM                   :        4  
 CILD        .MMHO                   :        5  
 ILM         .OHMM                   :        6  
 GR          .GAPI                   :        7  
 CALI        .IN                     :        8  
 DRHO        .G/C3                   :        9  
 RHOB        .G/C3                   :        10 
 NPHI        .%                      :        11 
 DPHI        .%                      :        12 
 DT          .US/F                   :        13 
~PARAMETER INFORMATION       
#MNEM.UNIT                  VALUE             DESCRIPTION OF MNEMONIC
#---------             ---------------        ------------------------------
 EKB .F                       40.0000:        KELLY BUSHING
 TD  .F                     1139.0000:        TOTAL DEPTH
 BHT .F                        0.0000:        BOTTOM HOLE TEMPERATURE
 BS  .                        14.7500:        BIT SIZE
 FD  .                        10.3000:        FLUID DENSITY
 CSIZ.                        20.0000:        CASING SIZE
 CBD .F                       65.0000:        CASING DRILLER 1
 CBL .F                       75.0000:        CASING LOGGER 1
 DFT .                  Miscellaneous:        TYPE FLUID IN HOLE
 DFV .                        34.0000:        VISCOSITY
 DFPH.                         8.5000:        PH
 DFL .                        10.2000:        FLUID LOSS
 RMS .                         5.3200:        RM
 MST .F                       55.0000:        RM MEAS. TEMP.
 RMF .                         3.8000:        RMF
 MFST.F                       55.0000:        RMF MEAS. TEMP.
 RMC .                         6.0000:        RMC
 MCST.F                       55.0000:        RMC MEAS. TEMP.
~OTHER INFORMATION
~A    DEPTH          SP         ILD         LL8        CILD         ILM          GR        CALI        DRHO        RHOB        NPHI        DPHI          DT  
# ...
  1783.5000    -33.9857      8.3201     10.4232   -999.2500      8.6675     46.4354     10.5875      0.0169      2.4090     37.8684     14.0914    118.8487  
  1784.0000    -34.1903      8.2945     10.7392   -999.2500      8.5574     45.9974     10.5124      0.0124      2.4162     38.6238     14.0376    128.6029  
  1784.5000    -34.5480      8.2690     10.6309   -999.2500      8.5201     45.6123     10.4742      0.0276      2.4321     39.3792     14.7717    141.2121  
  1785.0000    -34.7585      8.2435     10.4406   -999.2500      8.5019     46.9729     10.5916      0.0292      2.4281     40.2015     15.0780    134.3047  
  1785.5000    -35.4656      8.2182     10.4478   -999.2500      8.4838     47.5684     10.7090      0.0386      2.4165     41.1281     14.4011    141.5960  
  1786.0000    -35.2507      8.1946     10.6596   -999.2500      8.4657     48.4637     10.8264      0.0497      2.4149     40.4097     13.3727    123.8899  
  1786.5000    -34.0923      8.1877     10.3124   -999.2500      8.4476     48.9993     10.9166      0.0682      2.4332     39.3081     13.5692    125.8677  
  1787.0000    -33.1951      8.2435      9.6947   -999.2500      8.4295     49.1299     10.8701      0.0700      2.4473     38.6333     14.9391    142.2329  
  1787.5000    -33.4872      8.3491      9.1140   -999.2500      8.4115     48.8942     10.8236      0.0684      2.4315     37.9584     15.9154    124.2760  
  1788.0000    -34.1648      8.3859     10.0880   -999.2500      8.3936     48.0370     10.7609      0.0578      2.4144     37.6572     15.1512    141.9782  
  1788.5000    -33.8804      8.4229     11.3497   -999.2500      8.5166     47.4050     10.6880      0.0411      2.3998     38.7039     13.8974    158.2794  
  1789.0000    -33.4203      8.4601     11.5891   -999.2500      8.6656     47.8341     10.7270      0.0528      2.4081     39.5375     13.6424    144.9086  
  1789.5000    -33.1994      8.4974     11.2816   -999.2500      8.8171     48.2633     11.0054      0.0594      2.4307     39.5897     14.0116    159.1746  
  1790.0000    -31.9789      8.6076     10.9126   -999.2500      8.9714     46.5390     11.3121      0.0632      2.4330     37.7664     14.1828    173.4406  
  1790.5000    -31.4064      8.8758     10.5187   -999.2500      9.1283     44.2595     11.6451      0.0536      2.4297     35.5946     14.0490    168.7166  
  1791.0000    -32.5584      9.1523     10.5950   -999.2500      9.2880     42.5451     11.6726      0.0457      2.4281     33.4227     12.0896    180.1330  
  1791.5000    -33.2775      9.3276     11.8006   -999.2500      9.7491     41.1000     12.0488      0.0341      2.4292     31.2508     10.2842    169.6998  
  1792.0000    -34.4104      9.3152     13.7634   -999.2500     10.2409     40.2628     12.0089      0.0354      2.4661     28.8858     10.0790    141.0672  
  1792.5000    -35.1781      9.3028     17.0241   -999.2500     10.5038     40.1600     10.7090      0.0167      2.4915     28.8218      9.7165    120.7390  
  1793.0000    -35.1827      9.2904     17.9989   -999.2500     10.3718     41.2479     10.6716      0.0012      2.4958     31.1338      9.0022    144.7374  
  1793.5000    -34.5782      9.2781     17.7939   -999.2500     10.2121     42.7356     10.5987      0.0011      2.4996     33.4458      9.4581    185.1376  
  1794.0000    -32.9617      9.2657     14.2496   -999.2500      9.9100     44.2234     10.5323      0.0708      2.5159     35.7578     12.5005    181.7593  
  1794.5000    -32.2449      9.1643     11.8579   -999.2500      9.6169     45.7111     10.5511      0.0591      2.4882     38.0698     15.0331    175.5869  
  1795.0000    -32.8175      8.9254     10.1765   -999.2500      9.3324     46.3755     10.5843      0.0474      2.4410     39.2008     15.4274    157.8698  
  1795.5000    -32.8025      8.6927      9.8351   -999.2500      9.0564     47.3160     10.6266      0.0492      2.4243     39.9356     16.3416    149.4267  
  1796.0000    -32.4377      8.4660     10.3304   -999.2500      8.8359     48.5511     10.4265      0.0466      2.4033     40.8158     18.0431    138.2284  
  1796.5000    -31.1308      8.2453     10.5623   -999.2500      8.7100     49.7862     10.4033      0.0426      2.3835     41.3604     18.6951    136.4616  
  1797.0000    -30.8945      8.0303     10.8059   -999.2500      8.5860     49.7182     10.5054      0.0298      2.3617     41.6830     17.9839    134.6949  
  1797.5000    -32.0359      8.2392     10.8354   -999.2500      8.5772     48.1411     10.7642      0.0143      2.3603     41.1288     16.8588    133.8323  
  1798.0000    -32.6143      8.4887     10.6325   -999.2500      8.6507     45.0566     10.6027      0.0240      2.3702     39.7817     16.2642    141.3629  
  1798.5000    -33.4763      8.7268     10.2815   -999.2500      8.8428     44.5318     10.3655      0.0465      2.3877     38.2085     16.1176    126.6420  
  1799.0000    -33.4196      8.9397      9.9421   -999.2500      9.0489     43.8525     10.3195      0.0497      2.3975     36.2919     15.9496    141.7857  
  1799.5000    -33.4455      9.1578      9.8457   -999.2500      9.2599     43.7241     10.3151      0.0500      2.3973     35.9199     15.5314    181.6880  
  1800.0000    -34.4343      9.3811     15.1660   -999.2500      9.4757     44.3034     10.3573      0.0466      2.4021     36.3582     15.0463    185.6326  
  1800.5000    -35.7049      9.3354     16.5114   -999.2500      9.5918     44.8827     10.8304      0.0376      2.4071     37.1039     14.6636    167.0086  
  1801.0000    -36.1427      9.2482     12.9894   -999.2500      9.4149     45.7166     11.3977      0.0301      2.4123     37.6618     14.6608    124.0815  
  1801.5000    -35.4153      9.1618     10.4473   -999.2500      9.2413     46.9838     11.5160      0.0298      2.4203     38.0202     15.2755    122.5629  
  1802.0000    -35.6545      9.2379      9.8869   -999.2500      9.2357     46.2668     10.8761      0.0263      2.4169     36.5640     17.1872    137.3351  
  1802.5000    -35.5611      9.3414      9.9036   -999.2500      9.5078     43.7920     10.5551      0.0198      2.3980     34.4058     18.5854    171.3903  
  1803.0000    -35.1920      9.4462     11.4278   -999.2500      9.7880     41.3173     10.5926      0.0155      2.3714     31.8120     19.1461    176.8271  
  1803.5000    -36.0955      9.4985     13.4011   -999.2500     10.0462     39.2305     10.6736      0.0163      2.3551     32.2273     19.8927    179.5284  
  1804.0000    -40.7458      9.4272     14.9806   -999.2500      9.8696     37.5684     10.8540      0.0339      2.3432     34.5595     19.1731    153.4826  
  1804.5000    -41.5868      9.3564     14.9852   -999.2500      9.6961     40.3227     10.9151      0.0434      2.3418     36.8916     18.3571    144.0905  
  1805.0000    -40.6053      9.2862     13.1954   -999.2500      9.5257     42.7924     10.9426      0.0301      2.3492     39.2238     17.7790    143.6026  
  1805.5000    -38.5111      9.1464     11.3095   -999.2500      9.3583     45.3078     11.1767      0.0169      2.3589     41.5560     15.2457    120.0638  
  1806.0000    -36.1575      9.0073      9.7733   -999.2500      9.1938     47.8023     11.5433      0.0220      2.3755     41.8878     13.4816    116.9468  
  1806.5000    -35.0804      8.8703      9.6820   -999.2500      9.0322     46.9115     10.9623      0.0477      2.4246     40.8798     12.7974    120.9362  
  1807.0000    -34.5330      8.7354     10.1638   -999.2500      8.8735     46.0207     10.6622      0.0524      2.4454     40.2172     12.8290    121.9614  
  1807.5000    -33.7146      8.6025     10.6696   -999.2500      8.7175     45.5530     10.5935      0.0491      2.4535     39.7302     13.2748    123.7487  
  1808.0000    -32.9672      8.4717     10.6690   -999.2500      8.5643     47.5826     10.7021      0.0344      2.4436     39.5143     13.3476    135.3102  
  1808.5000    -32.7349      8.3578     10.2607   -999.2500      8.4138     48.9575     10.8307      0.0224      2.4442     38.7507     13.3613    125.5011  
