~VERSION INFORMATION
 VERS.                           2.00:        CWLS LOG ASCII STANDARD - VERSION 2.00
 WRAP.                             NO:        ONE LINE PER DEPTH STEP
~WELL INFORMATION
#MNEM.UNIT                   DATA             INFORMATION
#----------             --------------        ------------------------------
 STRT.F                      152.0000:        START DEPTH
 STOP.F                     2285.0000:        STOP DEPTH
 STEP.F                        0.5000:        STEP VALUE
 NULL.                      -999.2500:        NULL VALUE
 COMP.                      U.S. NAVY:        COMPANY  
 LOC .                   26  22N  17W:        LOCATION   
 DATE.                         4/1/74:        LOG DATE 
 WELL.            SOUTH BARROW NO. 12:        WELL     
 UWI .                   500232000600:        UNIQUE WELL ID 
 API .                   500232000600:        UNIQUE WELL IDENTIFIER 
 FLD .                   SOUTH BARROW:        FIELD    
 CNTY.                         NPPR-4:        COUNTY  
 STAT.                         ALASKA:        STATE   
 CTRY.                            USA:        COUNTRY 
 OPER.                      U.S. NAVY:        OPERATOR  
 SRVC.                   SCHLUMBERGER:        SERVICE COMPANY 
 LAT .                         0.0000:        LATITUDE
 LON .                         0.0000:        LONGITUDE
 DIGS.               CENTER LINE DATA:        DIGITIZING COMPANY 
~CURVE INFORMATION      
#MNEM        .UNIT         API CODE           CURVE DESCRIPTION
#-----------------      --------------        ------------------------------
 DEPT        .F                      :        1  DEPTH
 RHOB        .G/C3                   :        2  
 DRHO        .G/C3                   :        3  
 GR          .GAPI                   :        4  
 CALI        .IN                     :        5  
 DPHI        .%                      :        6  
 NPHI        .%                      :        7  
 SP          .MV                     :        8  
 ALL8        .OHMM                   :        9  
 ILD         .OHMM                   :        10 
 CILD        .MMHO                   :        11 
 DT          .US/F                   :        12 
~PARAMETER INFORMATION       
#MNEM.UNIT                  VALUE             DESCRIPTION OF MNEMONIC
#---------             ---------------        ------------------------------
 EKB .F                       26.0000:        KELLY BUSHING
 TD  .F                     2285.0000:        TOTAL DEPTH
~OTHER INFORMATION
~A    DEPTH        RHOB        DRHO          GR        CALI        DPHI        NPHI          SP        ALL8         ILD        CILD          DT  
# ...
  2269.5000      2.7158     -0.0045     62.7689      7.9907      0.1633     22.1096    -32.7789     63.8272     49.9076     14.8269     71.0053  
  2270.0000      2.7286      0.0025     63.7936      7.9880      0.1612     21.7248    -32.2864     64.8595     49.9089     14.9803     70.9623  
  2270.5000      2.7256     -0.0009     65.2515      7.9853      0.1592     21.4860    -31.6854     64.7095     49.9101     15.0057     70.9241  
  2271.0000      2.7200     -0.0089     65.5760      7.9862      0.1571     21.3865    -31.0440     65.1976     49.9114     15.0311     70.8946  
  2271.5000      2.7308     -0.0153     66.0715      7.9900      0.1550     21.4259    -30.5913     66.4416     49.9127     15.0565     70.8790  
  2272.0000      2.7482     -0.0071     66.1741      7.9893      0.1529     21.7624    -30.1895     66.6998     49.9140     15.0819     70.8240  
  2272.5000      2.7576      0.0026     65.9867      7.9866      0.1508     22.1850    -29.9626     66.6420     49.9153     15.1073     70.7843  
  2273.0000      2.7604      0.0124     65.8461      7.9786      0.1487     22.2891    -29.8135     65.9841     49.9166     15.1327     70.8526  
  2273.5000      2.7574      0.0187     66.2769      7.9865      0.1466     22.2707    -29.6645     65.7691     49.9179     15.1581     70.9259  
  2274.0000      2.7508      0.0250     67.5490      7.9807      0.1445     22.1986    -29.5154     65.1594     49.9192     15.1835     71.0111  
  2274.5000      2.7613      0.0312     68.9188      7.9750      0.1424     22.0638    -29.2062     63.4691     49.9204     15.2089     71.0528  
  2275.0000      2.7527      0.0341     70.0869      7.9692      0.1403     21.4538    -28.7500     62.4320     49.9217     15.2343     71.0430  
  2275.5000      2.7534      0.0266     72.1661      7.9635      0.1382     21.3130    -28.2938     62.5766     49.9230     15.2597     71.0269  
  2276.0000      2.7524      0.0192     72.7807      7.9577      0.1361     21.3407    -27.8376     62.8000     49.9243     15.2851     71.0326  
  2276.5000      2.7463      0.0118     72.1424      7.9520      0.1340     21.3684   -999.2500   -999.2500   -999.2500   -999.2500     70.9832  
  2277.0000      2.7374      0.0226     71.8962      7.9462      0.1319     21.3080   -999.2500   -999.2500   -999.2500   -999.2500     70.9053  
  2277.5000      2.7394      0.0167     72.8031      7.9405      0.1298     21.2695   -999.2500   -999.2500   -999.2500   -999.2500     70.9427  
  2278.0000      2.7493      0.0239     73.3366      7.9346      0.1277     21.2684   -999.2500   -999.2500   -999.2500   -999.2500     70.9706  
  2278.5000      2.7694      0.0340     72.9308      7.9205      0.1257     21.3192   -999.2500   -999.2500   -999.2500   -999.2500     70.9561  
  2279.0000      2.7653      0.0226     71.6350      7.9064      0.1236     21.5198   -999.2500   -999.2500   -999.2500   -999.2500     70.9764  
  2279.5000      2.7427      0.0273     70.7867      7.8924      0.1215     21.8119   -999.2500   -999.2500   -999.2500   -999.2500     70.9828  
  2280.0000      2.7395      0.0393     70.7626      7.8577      0.1194     21.8870   -999.2500   -999.2500   -999.2500   -999.2500     70.9893  
  2280.5000      2.7597      0.0650     70.3306      7.8028      0.1173     21.9012   -999.2500   -999.2500   -999.2500   -999.2500     70.9957  
  2281.0000      2.7740      0.0915     68.4149      7.7140      0.1152     21.8418   -999.2500   -999.2500   -999.2500   -999.2500     71.0021  
  2281.5000      2.7669      0.0902     66.8824      7.4542      0.1131     21.7740   -999.2500   -999.2500   -999.2500   -999.2500     71.0086  
  2282.0000      2.7536      0.0794     67.2510      7.4507      0.1110     21.5631   -999.2500   -999.2500   -999.2500   -999.2500     71.0150  
  2282.5000      2.7447      0.0932     68.1064      7.4472      0.1089     21.3823   -999.2500   -999.2500   -999.2500   -999.2500     71.0214  
  2283.0000      2.7703      0.1099     68.6358      7.4437      0.1068     21.3335   -999.2500   -999.2500   -999.2500   -999.2500     71.0278  
  2283.5000      2.7839      0.1299     70.1541      7.4402      0.1047     21.4605   -999.2500   -999.2500   -999.2500   -999.2500     71.0343  
  2284.0000      2.7729      0.1156     70.1705      7.4367      0.1026     21.5101   -999.2500   -999.2500   -999.2500   -999.2500     71.0407  
  2284.5000      2.7513      0.1012     68.9328      7.4331      0.1005     21.5657   -999.2500   -999.2500   -999.2500   -999.2500     71.0471  
  2285.0000      2.7353      0.0869     67.6951      7.4296      0.0984     21.6212   -999.2500   -999.2500   -999.2500   -999.2500     71.0536  
