~VERSION INFORMATION
 VERS.                           2.00:        CWLS LOG ASCII STANDARD - VERSION 2.00
 WRAP.                             NO:        ONE LINE PER DEPTH STEP
~WELL INFORMATION
#MNEM.UNIT                   DATA             INFORMATION
#----------             --------------        ------------------------------
 STRT.F                      884.0000:        START DEPTH
 STOP.F                     2365.0000:        STOP DEPTH
 STEP.F                        0.5000:        STEP VALUE
 NULL.                      -999.2500:        NULL VALUE
 COMP.                      U.S. NAVY:        COMPANY  
 LOC .                   14  22N  18W:        LOCATION   
 DATE.                        3/19/64:        LOG DATE 
 WELL.                SOUTH BARROW #6:        WELL     
 UWI .                   500231001500:        UNIQUE WELL ID 
 API .                   500231001500:        UNIQUE WELL IDENTIFIER 
 FLD .                   SOUTH BARROW:        FIELD    
 CNTY.                         NPR #4:        COUNTY  
 STAT.                         ALASKA:        STATE   
 CTRY.                            USA:        COUNTRY 
 OPER.                      U.S. NAVY:        OPERATOR  
 SRVC.                   SCHLUMBERGER:        SERVICE COMPANY 
 LAT .                         0.0000:        LATITUDE
 LON .                         0.0000:        LONGITUDE
 DIGS.               CENTER LINE DATA:        DIGITIZING COMPANY 
~CURVE INFORMATION      
#MNEM        .UNIT         API CODE           CURVE DESCRIPTION
#-----------------      --------------        ------------------------------
 DEPT        .F                      :        1  DEPTH
 SP          .MV                     :        2  
 SN          .OHMM                   :        3  
 ILD         .OHMM                   :        4  
 CILD        .OHMM                   :        5  
 DT          .US/F                   :        6  
~PARAMETER INFORMATION       
#MNEM.UNIT                  VALUE             DESCRIPTION OF MNEMONIC
#---------             ---------------        ------------------------------
 EKB .F                       40.0000:        KELLY BUSHING
 TD  .F                     2366.0000:        TOTAL DEPTH
 BHT .F                        0.0000:        BOTTOM HOLE TEMPERATURE
 BS  .                         9.6250:        BIT SIZE
 FD  .                        85.0000:        FLUID DENSITY
 CSIZ.                        11.7500:        CASING SIZE
 CBD .F                      884.0000:        CASING DRILLER 1
 CBL .F                      884.0000:        CASING LOGGER 1
 DFT .                  Miscellaneous:        TYPE FLUID IN HOLE
 DFV .                        45.0000:        VISCOSITY
 DFPH.                         0.0000:        PH
 DFL .                         2.8000:        FLUID LOSS
 RMS .                         5.3700:        RM
 MST .F                       33.0000:        RM MEAS. TEMP.
 RMF .                         2.9500:        RMF
 MFST.F                       45.0000:        RMF MEAS. TEMP.
 RMC .                         2.4800:        RMC
 MCST.F                       35.0000:        RMC MEAS. TEMP.
~OTHER INFORMATION
~A    DEPTH          SP          SN         ILD        CILD          DT  
# ...
  1429.0000    -40.6355     11.3366     10.0247     97.5708   -999.2500  
  1429.5000    -40.4950     11.1733      9.8745     98.7557   -999.2500  
  1430.0000    -40.3544     11.0200      9.6995    100.1507   -999.2500  
  1430.5000    -40.2656     10.9726      9.6924    101.5234   -999.2500  
  1431.0000    -40.1994     10.9862      9.4942    102.4776   -999.2500  
  1431.5000    -39.9816     10.9887      9.4572    103.1694   -999.2500  
  1432.0000    -39.5724     10.9416      9.4427    103.2927   -999.2500  
  1432.5000    -39.0805     10.8517      9.3776    103.2986   -999.2500  
  1433.0000    -38.4864     10.7980      9.2690    103.7834   -999.2500  
  1433.5000    -38.0875     10.8050      9.0934    106.1314   -999.2500  
  1434.0000    -37.9951     10.7987      8.9352    108.0155   -999.2500  
  1434.5000    -37.9905     10.7470      8.7632    109.6927   -999.2500  
  1435.0000    -38.1042     10.6153      8.7365    110.7554   -999.2500  
  1435.5000    -38.2804     10.4125      8.7584    111.0905   -999.2500  
  1436.0000    -38.4437     10.2609      8.8560    110.3093   -999.2500  
  1436.5000    -38.5613     10.1811      8.9808    108.9538   -999.2500  
  1437.0000    -38.6991     10.2793      9.1219    107.6753   -999.2500  
  1437.5000    -38.8888     10.5956      9.1894    106.5084   -999.2500  
  1438.0000    -39.1046     11.1266      9.2882    105.2932   -999.2500  
  1438.5000    -39.2708     11.4715      9.6636    103.3132   -999.2500  
  1439.0000    -39.1372     11.5700      9.9564    100.4532   -999.2500  
  1439.5000    -39.0499     11.4868     10.3019     97.2286   -999.2500  
  1440.0000    -39.2576     11.3848     10.5719     94.2780   -999.2500  
  1440.5000    -39.4791     11.3807     10.6533     93.3489   -999.2500  
  1441.0000    -39.6578     11.5204     10.5922     93.3214   -999.2500  
  1441.5000    -39.6786     11.7360     10.5462     94.0721   -999.2500  
  1442.0000    -39.5693     11.9135     10.4485     94.5093   -999.2500  
  1442.5000    -39.4062     11.9588     10.4733     94.5759   -999.2500  
  1443.0000    -39.4388     11.7802     10.5459     94.0089   -999.2500  
  1443.5000    -39.6641     11.5412     10.5600     93.6806   -999.2500  
  1444.0000    -39.8895     11.3763     10.5302     93.9670   -999.2500  
  1444.5000    -40.0110     11.3276     10.4897     95.0943   -999.2500  
  1445.0000    -40.0554     11.3776     10.4493     96.0451   -999.2500  
  1445.5000    -40.0425     11.4519     10.4088     96.3271   -999.2500  
  1446.0000    -40.0295     11.5192     10.3678     96.4691   -999.2500  
  1446.5000    -40.0165     11.5441     10.3077     96.4827   -999.2500  
  1447.0000    -39.9404     11.5445     10.2476     96.4061   -999.2500  
  1447.5000    -39.8890     11.5038     10.1876     96.2686   -999.2500  
  1448.0000    -39.7557     11.4466     10.1355     96.0797   -999.2500  
  1448.5000    -39.4423     11.4450     10.0928     96.3898   -999.2500  
  1449.0000    -39.0564     11.4673     10.0500     96.9498   -999.2500  
  1449.5000    -38.7684     11.4882      9.9949     97.6400   -999.2500  
  1450.0000    -38.6963     11.4396      9.9284     98.3619   -999.2500  
  1450.5000    -38.7762     11.3568      9.8619     98.9759   -999.2500  
  1451.0000    -39.0903     11.2234      9.8329     99.4803   -999.2500  
  1451.5000    -39.6181     11.0969      9.7558     99.9848   -999.2500  
  1452.0000    -39.8276     11.0152      9.6367    100.9452   -999.2500  
  1452.5000    -39.9203     10.9614      9.5658    101.7790   -999.2500  
  1453.0000    -39.8368     10.9144      9.5000    102.1054   -999.2500  
  1453.5000    -39.7762     10.8771      9.4467    102.3914   -999.2500  
  1454.0000    -39.6524     10.8835      9.4187    102.5500   -999.2500  
  1454.5000    -39.3138     10.8957      9.4340    102.5820   -999.2500  
  1455.0000    -38.8832     10.9073      9.4587    102.4979   -999.2500  
  1455.5000    -38.4276     10.9328      9.4739    102.2596   -999.2500  
  1456.0000    -38.1959     10.9335      9.4770    102.2956   -999.2500  
  1456.5000    -38.0791     10.9776      9.4553    102.4980   -999.2500  
  1457.0000    -38.1946     10.9833      9.3821    102.6348   -999.2500  
  1457.5000    -38.3151     10.9566      9.3891    102.7716   -999.2500  
  1458.0000    -38.3731     10.8778      9.3593    102.9567   -999.2500  
  1458.5000    -38.2671     10.7870      9.3158    103.0750   -999.2500  
  1459.0000    -38.0828     10.7332      9.2663    103.2573   -999.2500  
  1459.5000    -37.8890     10.6933      9.1799    103.5005   -999.2500  
  1460.0000    -37.7561     10.6527      9.1992    103.8820   -999.2500  
  1460.5000    -37.6813     10.6407      9.1675    103.8832   -999.2500  
  1461.0000    -37.6155     10.6997      9.2182    103.5238   -999.2500  
  1461.5000    -37.6733     10.7439      9.2606    103.2993   -999.2500  
  1462.0000    -37.7678     10.7739      9.3048    103.1284   -999.2500  
  1462.5000    -37.7248     10.8200      9.3078    102.8972   -999.2500  
  1463.0000    -37.3426     10.8720      9.2798    102.7867   -999.2500  
  1463.5000    -37.0524     10.9224      9.2534    103.0000   -999.2500  
  1464.0000    -37.0589     10.9755      9.2534    103.0000   -999.2500  
  1464.5000    -37.1196     11.0018      9.2498    103.0000   -999.2500  
  1465.0000    -36.8816     10.9341      9.2310    103.1544   -999.2500  
  1465.5000    -36.2903     10.8704      9.1948    103.5516   -999.2500  
  1466.0000    -36.0145     10.8595      9.1848    104.2311   -999.2500  
  1466.5000    -36.0486     10.8361      9.1645    104.6846   -999.2500  
  1467.0000    -36.0925     10.8374      9.0669    105.1719   -999.2500  
  1467.5000    -36.1028     10.8726      9.1178    105.2500   -999.2500  
  1468.0000    -36.1281     10.9573      9.1751    104.8941   -999.2500  
  1468.5000    -36.3477     11.0923      9.3269    103.9212   -999.2500  
  1469.0000    -37.1700     11.2409      9.4585    102.3355   -999.2500  
  1469.5000    -38.3694     11.3668      9.8085    100.9236   -999.2500  
  1470.0000    -39.8893     11.5833      9.9996     99.2518   -999.2500  
  1470.5000    -40.3057     11.8288     10.1666     97.1961   -999.2500  
  1471.0000    -39.9744     11.9359     10.3439     95.1379   -999.2500  
  1471.5000    -39.8080     11.9713     10.5347     93.1317   -999.2500  
  1472.0000    -39.7740     12.0120     10.7168     91.7153   -999.2500  
  1472.5000    -39.7066     12.0610     10.8801     90.2755   -999.2500  
  1473.0000    -39.2333     12.0619     11.1168     88.8376   -999.2500  
  1473.5000    -38.4346     12.0131     11.3003     87.3618   -999.2500  
  1474.0000    -37.5390     12.1027     11.4904     86.1193   -999.2500  
  1474.5000    -36.7742     12.3139     11.4770     85.7500   -999.2500  
  1475.0000    -35.9441     12.6819     11.2952     86.3354   -999.2500  
  1475.5000    -35.0591     12.9232     11.0616     87.7708   -999.2500  
  1476.0000    -34.4691     12.8702     10.8166     89.4111   -999.2500  
  1476.5000    -34.2598     12.5747     10.6076     91.1758   -999.2500  
  1477.0000    -34.1961     12.1280     10.3234     93.3189   -999.2500  
  1477.5000    -34.3548     11.6718     10.1475     95.4670   -999.2500  
  1478.0000    -34.7347     11.3181      9.8667     97.4313   -999.2500  
  1478.5000    -35.2169     11.2072      9.7350     99.1810   -999.2500  
  1479.0000    -35.5795     11.2083      9.6752     99.9895   -999.2500  
  1479.5000    -35.7301     11.2781      9.7268    100.4501   -999.2500  
  1480.0000    -35.7968     11.4796      9.5840    100.2746   -999.2500  
  1480.5000    -36.0237     11.7362      9.7760    100.1272   -999.2500  
  1481.0000    -36.1615     11.7562      9.7479     99.5149   -999.2500  
  1481.5000    -35.9459     11.5768      9.7782     98.8067   -999.2500  
  1482.0000    -35.7174     11.4314      9.7683     98.5615   -999.2500  
  1482.5000    -35.6021     11.3849      9.7159     99.3341   -999.2500  
  1483.0000    -35.4139     11.3436      9.6158    100.4209   -999.2500  
