~VERSION INFORMATION
 VERS.                           2.00:        CWLS LOG ASCII STANDARD - VERSION 2.00
 WRAP.                             NO:        ONE LINE PER DEPTH STEP
~WELL INFORMATION
#MNEM.UNIT                   DATA             INFORMATION
#----------             --------------        ------------------------------
 STRT.F                      152.0000:        START DEPTH
 STOP.F                     2285.0000:        STOP DEPTH
 STEP.F                        0.5000:        STEP VALUE
 NULL.                      -999.2500:        NULL VALUE
 COMP.                      U.S. NAVY:        COMPANY  
 LOC .                   26  22N  17W:        LOCATION   
 DATE.                         4/1/74:        LOG DATE 
 WELL.            SOUTH BARROW NO. 12:        WELL     
 UWI .                   500232000600:        UNIQUE WELL ID 
 API .                   500232000600:        UNIQUE WELL IDENTIFIER 
 FLD .                   SOUTH BARROW:        FIELD    
 CNTY.                         NPPR-4:        COUNTY  
 STAT.                         ALASKA:        STATE   
 CTRY.                            USA:        COUNTRY 
 OPER.                      U.S. NAVY:        OPERATOR  
 SRVC.                   SCHLUMBERGER:        SERVICE COMPANY 
 LAT .                         0.0000:        LATITUDE
 LON .                         0.0000:        LONGITUDE
 DIGS.               CENTER LINE DATA:        DIGITIZING COMPANY 
~CURVE INFORMATION      
#MNEM        .UNIT         API CODE           CURVE DESCRIPTION
#-----------------      --------------        ------------------------------
 DEPT        .F                      :        1  DEPTH
 RHOB        .G/C3                   :        2  
 DRHO        .G/C3                   :        3  
 GR          .GAPI                   :        4  
 CALI        .IN                     :        5  
 DPHI        .%                      :        6  
 NPHI        .%                      :        7  
 SP          .MV                     :        8  
 ALL8        .OHMM                   :        9  
 ILD         .OHMM                   :        10 
 CILD        .MMHO                   :        11 
 DT          .US/F                   :        12 
~PARAMETER INFORMATION       
#MNEM.UNIT                  VALUE             DESCRIPTION OF MNEMONIC
#---------             ---------------        ------------------------------
 EKB .F                       26.0000:        KELLY BUSHING
 TD  .F                     2285.0000:        TOTAL DEPTH
~OTHER INFORMATION
~A    DEPTH        RHOB        DRHO          GR        CALI        DPHI        NPHI          SP        ALL8         ILD        CILD          DT  
# ...
  1857.0000      2.4875      0.0809     83.4800     12.4104     11.3789     31.3889    -29.5386     10.5096     10.2473     92.3575     97.2367  
  1857.5000      2.5016      0.0842     83.2268     12.7000     10.0609     31.1548    -29.6411     10.7532     10.4022     90.5917     95.9616  
  1858.0000      2.4967      0.0759     83.4836     12.8236      9.2486     31.4444    -29.7436     10.9969     10.5571     88.5368     95.3928  
  1858.5000      2.4816      0.0586     83.9642     12.6754      9.4924     31.9027    -30.0210     11.0620     10.7234     86.6569     95.4583  
  1859.0000      2.4843      0.0681     84.5316     12.7424     10.4938     32.0209    -30.4262     11.1580     10.8910     85.3319     95.2361  
  1859.5000      2.4931      0.0721     85.0714     12.8375     10.2383     31.9657    -30.8253     11.2163     10.8968     84.1496     94.6284  
  1860.0000      2.4816      0.0689     85.5463     12.8178     10.1608     31.8993    -31.1776     11.2383     10.8993     83.4220     94.1922  
  1860.5000      2.4940      0.0756     85.7320     12.6510     10.3992     31.7966    -31.3496     11.2353     10.8757     83.0075     93.9687  
  1861.0000      2.4964      0.0734     85.0872     12.4843      9.4728     32.0690    -31.4320     11.2506     10.8426     82.9242     93.9234  
  1861.5000      2.4936      0.0674     84.8269     12.3175      9.2685     33.0643    -31.3830     11.2754     10.8096     83.1408     93.8204  
  1862.0000      2.4723      0.0586     86.0379     12.1507      9.7270     33.5008    -31.2372     11.1944     10.7766     83.3574     93.6562  
  1862.5000      2.4573      0.0409     88.3111     12.4884     11.2972     33.7084    -31.2199     11.0709     10.7158     83.8108     93.6324  
  1863.0000      2.4579      0.0363     89.0841     12.3192     11.9071     33.3798    -31.3681     10.9108     10.5803     85.3578     94.2630  
  1863.5000      2.4833      0.0547     89.0941     12.1207     11.7698     32.9512    -31.5417     10.7676     10.4447     86.7467     95.1365  
  1864.0000      2.4951      0.0594     89.0220     11.9704     10.2061     32.6269    -31.7154     10.6244     10.3092     88.4066     96.0101  
  1864.5000      2.4976      0.0536     90.3422     11.8201      9.7409     33.6729    -31.9282     10.4812     10.1737     89.7941     96.4895  
  1865.0000      2.4991      0.0429     92.3307     11.7322      9.5477     34.6101    -32.0741     10.3380     10.0381     91.4539     96.5536  
  1865.5000      2.5005      0.0448     94.5501     11.6864      9.5842     34.9644    -32.1267     10.1947      9.9026     92.8848     96.4268  
  1866.0000      2.5159      0.0569     94.6048     11.3602      9.3196     34.0921    -32.1354     10.0850      9.7671     93.4028     96.3338  
  1866.5000      2.5344      0.0689     93.8400     11.1617      8.6051     32.9628    -32.2219     10.0187      9.7023     94.9372     96.2489  
  1867.0000      2.5402      0.0809     92.9246     11.1464      7.3457     32.1037    -32.2856      9.9741      9.6549     95.8097     95.8197  
  1867.5000      2.5194      0.0765     93.4075     11.6290      7.0281     32.2220    -32.3013      9.9120      9.6075     96.7615     95.6623  
  1868.0000      2.5011      0.0833     93.2574     11.7922      8.2999     32.9436    -32.3468      9.8824      9.5130     98.3000     95.6734  
  1868.5000      2.5145      0.0879     93.0416     11.4068      9.3685     34.1867    -32.3683      9.9907      9.3908    100.1605     95.6845  
  1869.0000      2.5176      0.0794     93.5386     11.0569      8.6099     34.7483    -32.2187      9.9939      9.2685    102.0211     96.2307  
  1869.5000      2.5226      0.0773     95.3546     11.0037      8.3496     35.6002    -32.0922      9.9971      9.1187    103.8816     97.6412  
  1870.0000      2.5286      0.0799     96.4246     10.9505      8.0750     35.9164    -32.3850     10.0004      8.9353    105.7422     99.2619  
  1870.5000      2.5211      0.0679     96.9014     10.8973      7.6170     35.2901    -32.7371      9.9544      8.7519    107.6027    100.7793  
  1871.0000      2.5058      0.0503     95.5701     10.8929      8.1091     34.7533    -32.8908      9.8177      8.5685    108.9767    101.3871  
  1871.5000      2.4850      0.0400     93.6855     10.8850      8.9010     34.3343    -32.8752      9.7368      8.5367    109.8957    101.5844  
  1872.0000      2.4795      0.0329     92.5016     10.8391      9.4951     33.2111    -32.7808      9.7795      8.6010    110.4281    101.6675  
  1872.5000      2.4743      0.0388     92.3636     10.8114     10.4703     33.3317    -32.5269      9.9035      8.6653    110.5578    101.4006  
  1873.0000      2.4771      0.0419     93.7070     10.7970     10.7831     33.9739    -32.2247      9.9363      8.7297    110.0056    100.5648  
  1873.5000      2.4831      0.0488     95.8608     10.7955     10.7112     35.0426    -31.8756      9.9467      8.7612    109.0986     99.6342  
  1874.0000      2.4874      0.0528     96.9345     10.7939     10.3954     35.9592    -31.9529      9.9572      8.7827    108.2070     98.3650  
  1874.5000      2.4973      0.0478     97.5254     10.7924     10.0664     36.8758    -31.7134      9.9677      8.8042    107.4472     97.6878  
  1875.0000      2.4915      0.0459     98.5694     10.7898      9.7165     36.8678    -31.6647      9.9782      8.8257    107.2194     97.7963  
  1875.5000      2.4811      0.0438     99.2602     10.7845      9.9566     35.9681    -31.6730      9.9886      8.7881    107.4237     98.1927  
  1876.0000      2.4737      0.0482     98.9406     10.8091     10.2110     35.1324    -31.7491      9.9991      8.7109    107.9339     99.0852  
  1876.5000      2.4646      0.0470     97.2789     10.8143     10.5890     34.6724    -31.8263      9.9906      8.6336    108.5435     99.9537  
  1877.0000      2.4521      0.0423     95.5948     10.8126     11.0223     34.5882    -31.9651      9.9251      8.5564    109.6539    100.4904  
  1877.5000      2.4494      0.0426     95.9542     10.8054     11.9462     34.1427    -32.1462      9.7924      8.4792    111.0866    101.1014  
  1878.0000      2.4520      0.0340     97.2365     10.7943     12.6497     32.8034    -32.3660      9.6994      8.4159    112.8997    102.0211  
  1878.5000      2.4583      0.0462     99.0636     10.7742     12.2657     32.1880    -32.5858      9.6590      8.3611    114.1482    102.8896  
  1879.0000      2.4962      0.0693    100.2323     10.7545     11.7883     33.0575    -32.8056      9.6488      8.3062    114.7688    103.1616  
  1879.5000      2.5025      0.0751    102.5869     10.7403      9.9625     33.6005    -33.0118      9.6785      8.3295    114.9983    103.0681  
  1880.0000      2.4948      0.0614    105.4887     10.7441      9.2952     33.3909    -32.9908      9.7729      8.3540    114.8035    102.5277  
  1880.5000      2.4774      0.0489    107.4653     10.7536      9.8132     32.9515    -32.8450      9.9000      8.3786    114.3813    101.5025  
  1881.0000      2.4785      0.0623    106.9890     10.7334     10.6130     32.9534    -32.7574      9.9563      8.4031    113.9592    100.8304  
  1881.5000      2.4805      0.0710    105.7452     10.7318     10.6342     33.5286    -32.7084      9.9895      8.4277    113.5371    100.8842  
  1882.0000      2.4868      0.0655    104.4702     10.7433     10.4070     34.1384    -32.4678     10.0208      8.4522    113.1990    100.9805  
  1882.5000      2.4860      0.0568    103.7796     10.7421     10.1034     34.6435    -32.3328     10.0060      8.4768    113.2300    100.8048  
  1883.0000      2.4778      0.0428    102.6020     10.7940     10.1451     35.0951    -32.1101      9.9391      8.4781    113.5379    100.7396  
  1883.5000      2.4735      0.0372    100.7396     10.7380     10.6234     35.5521    -31.9540      9.8431      8.4734    113.8436    100.7565  
  1884.0000      2.4783      0.0377     98.5523     10.7579     11.0362     35.9260    -31.6969      9.8213      8.4688    113.7080    101.0573  
