~VERSION INFORMATION
 VERS.                           2.00:        CWLS LOG ASCII STANDARD - VERSION 2.00
 WRAP.                             NO:        ONE LINE PER DEPTH STEP
~WELL INFORMATION
#MNEM.UNIT                   DATA             INFORMATION
#----------             --------------        ------------------------------
 STRT.F                       25.0000:        START DEPTH
 STOP.F                     4165.0000:        STOP DEPTH
 STEP.F                        0.5000:        STEP VALUE
 NULL.                      -999.2500:        NULL VALUE
 COMP.    USGS/NPR HUSKY OIL OPERATOR:        COMPANY
 LOC .                     21 21N 14W:        LOCATION
 DATE.                         3/3/80:        LOG DATE
 WELL.                 WEST  DEASE #1:        WELL
 UWI .                   500232001400:        UNIQUE WELL ID
 API .                   500232001400:        UNIQUE WELL IDENTIFIER
 FLD .                        WILDCAT:        FIELD
 CNTY.                    NORTH SLOPE:        COUNTY
 STAT.                         ALASKA:        STATE
 CTRY.                            USA:        COUNTRY
 OPER.    USGS/NPR HUSKY OIL OPERATOR:        OPERATOR
 SRVC.                   SCHLUMBERGER:        SERVICE COMPANY
 LAT .                         0.0000:        LATITUDE
 LON .                         0.0000:        LONGITUDE
 DIGS.               CENTER LINE DATA:        DIGITIZING COMPANY
~CURVE INFORMATION      
#MNEM        .UNIT         API CODE           CURVE DESCRIPTION
#-----------------      --------------        ------------------------------
 DEPT        .F                      :        1  DEPTH
 SP          .MV                     :        2  
 LLD         .OHMM                   :        3  
 LLS         .OHMM                   :        4  
 MSFL        .OHMM                   :        5  
 CALI        .IN                     :        6  
 RHOB        .G/C3                   :        7  
 DRHO        .G/C3                   :        8  
 NPHI        .%                      :        9  
 GR          .GAPI                   :        10 
 DT          .US/F                   :        11 
~PARAMETER INFORMATION
#MNEM.UNIT                  VALUE             DESCRIPTION OF MNEMONIC
#---------             ---------------        ------------------------------
 EKB .F                       24.0000:        KELLY BUSHING
 TD  .F                     4173.0000:        TOTAL DEPTH
 BHT .F                       85.0000:        BOTTOM HOLE TEMPERATURE
 BS  .                        12.2500:        BIT SIZE
 FD  .                        10.4000:        FLUID DENSITY
 CSIZ.                        13.3750:        CASING SIZE
 CBD .F                      288.0000:        CASING DRILLER 1
 CBL .F                      292.0000:        CASING LOGGER 1
 DFT .                             99:        TYPE FLUID IN HOLE
 DFV .                        52.0000:        VISCOSITY
 DFPH.                         8.0000:        PH
 DFL .                         7.5000:        FLUID LOSS
 RMS .                         0.1250:        RM
 MST .F                       35.0000:        RM MEAS. TEMP.
 RMF .                         0.1440:        RMF
 MFST.F                       44.0000:        RMF MEAS. TEMP.
 RMC .                         0.2360:        RMC
 MCST.F                       36.0000:        RMC MEAS. TEMP.
~OTHER INFORMATION
~A    DEPTH          SP         LLD         LLS        MSFL        CALI        RHOB        DRHO        NPHI          GR          DT 
# ...
  2617.5000   -147.4454      8.5255      7.4590      1.4210     13.3236      2.5370      0.0729     45.5169     65.2077     97.3105 
  2618.0000   -147.6335      8.2491      7.1153      1.7509     13.4168      2.5226      0.0667     45.8661     64.9115     99.7363 
  2618.5000   -147.8660      7.9405      6.7234      1.6279     13.5786      2.5309      0.0657     45.5308     64.5366    101.1872 
  2619.0000   -147.6509      7.7229      6.6126      1.4100     13.3164      2.5408      0.0716     44.2164     64.3256    102.5367 
  2619.5000   -147.7474      7.8034      6.5398      1.2893     13.3362      2.5696      0.0948     43.6404     64.1973    100.9205 
  2620.0000   -147.7957      7.8897      6.5678      1.1559     13.4246      2.5692      0.0925     42.0825     63.8793    100.4680 
  2620.5000   -147.7516      7.8244      6.6157      1.0328     13.5209      2.5805      0.1043     39.4385     65.7290    101.0321 
  2621.0000   -147.5551      7.9719      6.8153      1.1300     13.2975      2.5814      0.1052     39.4154     67.0466    101.2277 
  2621.5000   -147.7339      8.0382      7.1994      1.2567     13.5083      2.5801      0.0963     41.3856     68.5972    100.7712 
  2622.0000   -147.8376      8.2811      7.5024      1.1194     13.3474      2.5831      0.1040     42.9268     69.2767     99.8676 
  2622.5000   -147.8277      9.0423      7.8023      0.9496     13.1189      2.5921      0.1164     43.1385     66.6945     97.2279 
  2623.0000   -147.8987      9.5344      7.8662      0.7668     13.3036      2.5989      0.1313     42.9371     65.4593     95.5796 
  2623.5000   -148.0299      9.5330      7.8791      0.9633     13.3129      2.6058      0.1438     43.8727     64.9884     97.0748 
  2624.0000   -148.1087      9.4392      7.7178      1.0879     13.0268      2.5805      0.1329     45.0313     64.3863     97.3429 
  2624.5000   -148.2312      9.2276      7.5623      1.0758     13.0328      2.5592      0.1254     45.1607     63.8740     98.4580 
  2625.0000   -148.4170      9.0016      7.4445      1.0047     12.9820      2.5438      0.1251     44.7167     64.5351     98.3736 
  2625.5000   -148.1162      8.7404      7.2201      1.0060     12.9842      2.5596      0.1480     44.4218     65.6367     97.5773 
  2626.0000   -147.8791      8.4815      7.0321      0.7599     13.0428      2.5739      0.1522     45.2703     66.7107     99.2669 
  2626.5000   -147.8203      8.1485      6.8665      0.7355     12.9238      2.5526      0.1514     47.0249     67.6974    100.4172 
  2627.0000   -147.8545      8.0619      7.0388      0.9798     12.8779      2.5161      0.1336     48.4990     66.1926    101.4579 
  2627.5000   -147.6296      8.1679      7.0083      1.0762     13.0026      2.5430      0.1439     49.2333     64.4169    100.4223 
  2628.0000   -147.7156      8.2753      6.9486      1.4503     13.1252      2.5420      0.1228     49.0712     62.2744    100.0655 
  2628.5000   -148.1159      8.4602      7.2010      1.0389     12.8768      2.5445      0.1280     48.0853     60.5189    100.8587 
  2629.0000   -148.0587      8.3788      7.3970      1.0237     12.9518      2.5758      0.1518     45.8943     59.6194     99.5512 
  2629.5000   -148.0014      8.2850      7.2390      1.0217     13.2283      2.5742      0.1518     44.1092     59.4052    100.3717 
  2630.0000   -148.0043      8.3981      7.1594      0.8768     13.1166      2.5640      0.1559     43.5289     61.4064    101.3822 
  2630.5000   -147.7880      8.4374      7.3317      0.7143     13.0048      2.5633      0.1416     43.8470     61.2579     99.3340 
  2631.0000   -147.6223      8.3653      7.5383      0.6459     12.9569      2.5143      0.0835     44.5635     61.0247     99.0508 
  2631.5000   -147.7724      8.6022      7.3972      0.7644     12.9098      2.5081      0.0463     44.3513     61.1382     98.8152 
  2632.0000   -148.1223      8.3786      7.2588      0.7963     12.8486      2.5428      0.0480     42.8849     62.0228     98.0073 
  2632.5000   -147.9837      7.7672      7.1223      0.8285     12.8689      2.5716      0.0554     41.4929     63.3004     98.9984 
  2633.0000   -147.5079      7.9439      6.9818      0.8959     12.9565      2.5979      0.0745     39.9848     64.1700    100.6364 
  2633.5000   -148.0189      8.1247      7.0475      0.9629     12.9568      2.5888      0.0886     39.6801     65.1274    100.7086 
  2634.0000   -148.1668      8.7255      7.4682      1.6530     13.0087      2.5959      0.0984     40.7676     64.0198     99.9277 
  2634.5000   -147.7907      9.8061      8.1364      1.2368     13.0187      2.5854      0.0789     41.1637     62.3679     97.2161 
  2635.0000   -146.9845      9.9853      8.5869      0.9369     12.9867      2.5629      0.0733     41.0384     61.2171     94.6184 
  2635.5000   -147.3924      9.9573      8.8335      0.8835     12.9759      2.5522      0.0813     41.0646     60.7175     92.2773 
  2636.0000   -147.3902      9.9880      8.8621      1.0206     12.9978      2.5345      0.0770     41.0911     61.0302     94.2019 
  2636.5000   -147.3443     10.0867      8.8909      1.6123     13.0502      2.5002      0.0586     41.0956     61.5559     95.4474 
  2637.0000   -147.1736      9.9477      8.7499      2.0036     13.1023      2.5156      0.0981     41.7342     62.5441     95.4802 
  2637.5000   -147.5479      9.6336      8.4449      1.5457     13.0958      2.5457      0.1114     43.2803     63.5575     95.3781 
  2638.0000   -147.5499      9.1304      8.0174      1.0696     13.1478      2.5072      0.0715     44.6868     65.3179     94.3180 
  2638.5000   -147.2191      8.5011      7.6082      0.9374     13.2020      2.5155      0.0652     44.7588     65.0870     96.1159 
  2639.0000   -146.8502      7.8236      7.2267      0.8236     13.0595      2.5617      0.0770     43.8506     65.3169     97.5418 
  2639.5000   -146.7829      7.5141      7.0183      0.5589     13.0030      2.5878      0.0763     42.6307     65.8093     98.5395 
  2640.0000   -146.8100      7.6021      6.8198      0.7071     12.9783      2.5788      0.0710     41.3297     65.7896    102.0161 
  2640.5000   -146.8582      7.7985      7.0149      0.9804     12.9535      2.5970      0.0922     40.8372     65.3808    101.2941 
  2641.0000   -147.1767      8.0560      7.2444      1.0288     12.9320      2.5979      0.0810     40.3171     65.0618    100.7379 
  2641.5000   -147.2863      8.5905      7.5495      0.8846     12.9145      2.5742      0.0558     39.1573     65.6254    100.1778 
  2642.0000   -147.1627      9.1325      7.8286      0.7245     12.8971      2.5602      0.0533     38.5039     65.4941     97.9599 
  2642.5000   -147.3060      9.2264      7.9636      0.7623     12.8796      2.5581      0.0530     37.5986     64.6087     96.5698 
  2643.0000   -147.5607      9.3559      8.1081      0.6725     12.8791      2.5815      0.0788     36.9501     63.6711     96.3638 
  2643.5000   -147.0981      9.6670      8.3524      0.6393     12.8801      2.5853      0.0845     37.1824     63.4398     96.3205 
  2644.0000   -146.9995      9.9997      8.6079      0.7519     12.8891      2.5901      0.0790     38.2593     64.0478     95.5383 
  2644.5000   -147.0587     10.3683      8.8713      0.9915     12.9030      2.5828      0.0740     39.6996     64.7815     93.3187 
  2645.0000   -147.0653     10.8672      9.1130      0.8693     12.9248      2.5568      0.0526     41.2577     64.7120     92.1955 
  2645.5000   -146.9200     10.8873      9.3458      0.7098     12.9455      2.5611      0.0525     41.7251     64.7526     91.0193 
  2646.0000   -146.9829     10.6022      9.3867      0.7569     12.9634      2.5847      0.0674     40.8413     64.5863     90.2261 
  2646.5000   -147.0469     10.2687      9.0047      0.8564     12.9561      2.6048      0.0848     40.1915     64.4837     91.4935 
  2647.0000   -146.7640      9.9440      8.3901      0.9042     12.9488      2.5932      0.0859     40.3435     64.3164     93.6606 
  2647.5000   -146.7084      9.7489      8.1515      0.9535     12.9588      2.5670      0.0750     40.3708     63.4416     95.2318 
