~VERSION INFORMATION
 VERS.                           2.00:        CWLS LOG ASCII STANDARD - VERSION 2.00
 WRAP.                             NO:        ONE LINE PER DEPTH STEP
~WELL INFORMATION
#MNEM.UNIT                   DATA             INFORMATION
#----------             --------------        ------------------------------
 STRT.F                       96.0000:        START DEPTH
 STOP.F                     2280.0000:        STOP DEPTH
 STEP.F                        0.5000:        STEP VALUE
 NULL.                      -999.2500:        NULL VALUE
 COMP.    USGS/NPR HUSKY OIL OPERATOR:        COMPANY  
 LOC .                   23  22N  17W:        LOCATION   
 DATE.                        9/11/80:        LOG DATE 
 WELL.               SOUTH BARROW #15:        WELL     
 UWI .                   500232001600:        UNIQUE WELL ID 
 API .                   500232001600:        UNIQUE WELL IDENTIFIER 
 FLD .                   SOUTH BARROW:        FIELD    
 CNTY.                    NORTH SLOPE:        COUNTY  
 STAT.                         ALASKA:        STATE   
 CTRY.                            USA:        COUNTRY 
 OPER.    USGS/NPR HUSKY OIL OPERATOR:        OPERATOR  
 SRVC.                   SCHLUMBERGER:        SERVICE COMPANY 
 LAT .                         0.0000:        LATITUDE
 LON .                         0.0000:        LONGITUDE
 DIGS.               CENTER LINE DATA:        DIGITIZING COMPANY 
~CURVE INFORMATION      
#MNEM        .UNIT         API CODE           CURVE DESCRIPTION
#-----------------      --------------        ------------------------------
 DEPT        .F                      :        1  DEPTH
 CALI        .IN                     :        2  
 GR          .GAPI                   :        3  
 RHOB        .G/C3                   :        4  
 DRHO        .G/C3                   :        5  
 NPHI        .%                      :        6  
 DT          .US/F                   :        7  
 SP          .MV                     :        8  
 ILD         .OHMM                   :        9  
 ILM         .OHMM                   :        10 
 SFL         .OHMM                   :        11 
 LLD         .OHMM                   :        12 
 LLS         .OHMM                   :        13 
 MSFL        .OHMM                   :        14 
~PARAMETER INFORMATION       
#MNEM.UNIT                  VALUE             DESCRIPTION OF MNEMONIC
#---------             ---------------        ------------------------------
 EKB .F                       30.0000:        KELLY BUSHING
 TD  .F                     2279.0000:        TOTAL DEPTH
 BHT .F                        0.0000:        BOTTOM HOLE TEMPERATURE
 BS  .                         8.5000:        BIT SIZE
 FD  .                        10.3000:        FLUID DENSITY
 CSIZ.                         9.6250:        CASING SIZE
 CBD .F                     1514.0000:        CASING DRILLER 1
 CBL .F                     1520.0000:        CASING LOGGER 1
 DFT .                  Miscellaneous:        TYPE FLUID IN HOLE
 DFV .                        43.0000:        VISCOSITY
 DFPH.                         0.0000:        PH
 DFL .                         0.0000:        FLUID LOSS
 RMS .                         0.1800:        RM
 MST .F                       48.0000:        RM MEAS. TEMP.
 RMF .                         0.1400:        RMF
 MFST.F                       48.0000:        RMF MEAS. TEMP.
 RMC .                         0.0000:        RMC
 MCST.F                        0.0000:        RMC MEAS. TEMP.
~OTHER INFORMATION
~A    DEPTH        CALI          GR        RHOB        DRHO        NPHI          DT          SP         ILD         ILM         SFL         LLD         LLS        MSFL  
# ...
  2064.0000     10.2150     62.4581      2.3841      0.1692     27.9294     92.2214   -999.2500   -999.2500   -999.2500   -999.2500     12.4141     10.7129      8.5392  
  2064.5000     10.0177     63.0274      2.3407      0.1413     28.0902     91.8265   -999.2500   -999.2500   -999.2500   -999.2500     12.6557     10.7037      8.3511  
  2065.0000     10.5790     63.7978      2.3215      0.1354     28.6532     91.8195   -999.2500   -999.2500   -999.2500   -999.2500     12.3630     10.5808      7.7014  
  2065.5000     11.1064     65.9292      2.2784      0.1154     29.9201     92.0985   -999.2500   -999.2500   -999.2500   -999.2500     12.4882     10.4592      6.9276  
  2066.0000     10.3224     69.3488      2.2447      0.0946     30.7146     92.3928   -999.2500   -999.2500   -999.2500   -999.2500     13.0041     10.4255      7.9477  
  2066.5000      9.7217     71.0261      2.2470      0.0826     30.5069     93.1720   -999.2500   -999.2500   -999.2500   -999.2500     13.7025     10.4721      9.6043  
  2067.0000     10.1564     70.6757      2.2318      0.0838     29.2931     93.8586   -999.2500   -999.2500   -999.2500   -999.2500     13.7755     10.5755      9.6224  
  2067.5000     11.3011     69.7157      2.2131      0.0290     28.5995     94.2761   -999.2500   -999.2500   -999.2500   -999.2500     13.2495     10.5446      9.0916  
  2068.0000     10.0775     68.8136      2.3079      0.0082     29.1965     95.4092   -999.2500   -999.2500   -999.2500   -999.2500     12.1851     10.4690      8.6682  
  2068.5000      9.8545     68.8374      2.3937      0.1007     29.9136     94.6337   -999.2500   -999.2500   -999.2500   -999.2500     11.2061     10.3940      8.5186  
  2069.0000     10.4494     69.1479      2.3821      0.1902     30.2611     93.8406   -999.2500   -999.2500   -999.2500   -999.2500     10.9993     10.3028      8.8304  
  2069.5000     11.1796     69.5231      2.2970      0.1555     30.8629     93.4367   -999.2500   -999.2500   -999.2500   -999.2500     10.9763     10.2213      9.0020  
  2070.0000     11.3717     68.8774      2.2699      0.1375     30.2552     93.5113   -999.2500   -999.2500   -999.2500   -999.2500     11.0426     10.1778      9.1770  
  2070.5000     11.7226     67.7145      2.2782      0.1432     29.2862     93.7077   -999.2500   -999.2500   -999.2500   -999.2500     11.1371     10.1345      9.2966  
  2071.0000     11.6968     66.3768      2.2804      0.1413     27.8894     93.8839   -999.2500   -999.2500   -999.2500   -999.2500     11.2592     10.1223      9.3370  
  2071.5000     12.2113     66.4745      2.2693      0.1034     26.4777     92.2164   -999.2500   -999.2500   -999.2500   -999.2500     11.2618     10.1246      9.0738  
  2072.0000     12.2701     68.3604      2.2868      0.0814     26.8779     92.7590   -999.2500   -999.2500   -999.2500   -999.2500     11.2644     10.1269      8.8081  
  2072.5000     11.7584     70.3386      2.3230      0.1188     26.1921     92.1554   -999.2500   -999.2500   -999.2500   -999.2500     11.2670     10.0561      8.5966  
  2073.0000     11.6522     73.5706      2.3381      0.1401     25.8153     92.2441   -999.2500   -999.2500   -999.2500   -999.2500     11.2696      9.9322      8.5042  
  2073.5000     11.3771     74.9557      2.3550      0.1363     26.2998     93.8402   -999.2500   -999.2500   -999.2500   -999.2500     11.2722      9.8098      8.4575  
  2074.0000     11.6251     73.3958      2.3140      0.1269     27.2606     92.5721   -999.2500   -999.2500   -999.2500   -999.2500     11.1310      9.8910      8.3756  
  2074.5000     11.6507     72.1971      2.2636      0.1085     26.9311     93.0753   -999.2500   -999.2500   -999.2500   -999.2500     10.9958     10.0079      8.1069  
  2075.0000     11.7413     72.2984      2.2401      0.0857     26.7040     94.0670   -999.2500   -999.2500   -999.2500   -999.2500     11.0053     10.3587      7.0298  
  2075.5000     11.9818     73.1201      2.2685      0.1058     26.9849     94.6143   -999.2500   -999.2500   -999.2500   -999.2500     10.7303     10.5060      7.6835  
  2076.0000     11.6568     74.0541      2.2922      0.1297     26.8914     95.4074   -999.2500   -999.2500   -999.2500   -999.2500     11.1952     10.4108      8.3448  
  2076.5000     11.0799     72.5309      2.2800      0.1297     26.8113     94.9456   -999.2500   -999.2500   -999.2500   -999.2500     11.8801     10.2396      8.6539  
  2077.0000     11.0853     70.1431      2.2716      0.1049     26.8240     93.9733   -999.2500   -999.2500   -999.2500   -999.2500     12.2824     10.0446      8.5420  
  2077.5000     11.8212     66.7685      2.2857      0.1078     27.5407     93.1421   -999.2500   -999.2500   -999.2500   -999.2500     11.8200      9.8874      8.5293  
  2078.0000     10.9761     65.3586      2.2599      0.1406     28.4799     94.0168   -999.2500   -999.2500   -999.2500   -999.2500     11.1118      9.7741      8.5574  
  2078.5000     11.1652     70.0853      2.2172      0.1322     29.0980     95.0981   -999.2500   -999.2500   -999.2500   -999.2500     10.7443      9.6907      8.5939  
  2079.0000     11.5792     72.6680      2.1741      0.0959     29.5297     94.9484   -999.2500   -999.2500   -999.2500   -999.2500     10.6090      9.6088      8.4878  
  2079.5000     11.9962     72.8679      2.1822      0.0601     29.6789     95.0426   -999.2500   -999.2500   -999.2500   -999.2500     10.6328      9.5794      7.7305  
  2080.0000     12.2850     70.7163      2.2177      0.0789     29.3661     95.4504   -999.2500   -999.2500   -999.2500   -999.2500     10.5551      9.5790      7.5878  
  2080.5000     12.3716     69.0396      2.2444      0.1313     28.6700     95.1477   -999.2500   -999.2500   -999.2500   -999.2500     10.4228      9.5900      7.5862  
  2081.0000     12.6961     70.0625      2.2179      0.1359     28.3850     94.9195   -999.2500   -999.2500   -999.2500   -999.2500     10.4356      9.5785      7.3898  
  2081.5000     12.8524     71.3643      2.2036      0.1214     28.3613     94.4278   -999.2500   -999.2500   -999.2500   -999.2500     10.4937      9.5056      6.9763  
  2082.0000     12.5562     71.9263      2.2196      0.1202     29.3182     94.3612   -999.2500   -999.2500   -999.2500   -999.2500     10.3235      9.4333      6.0032  
  2082.5000     12.5790     71.3683      2.2371      0.1252     29.8181     94.1341   -999.2500   -999.2500   -999.2500   -999.2500     10.1473      9.3616      4.9324  
  2083.0000     12.7824     70.6370      2.2219      0.1244     30.2191     93.8028   -999.2500   -999.2500   -999.2500   -999.2500     10.1419      9.2904      4.8016  
  2083.5000     12.6433     69.8692      2.2050      0.1330     31.1204     92.3562   -999.2500   -999.2500   -999.2500   -999.2500     10.1035      9.2305      4.9566  
  2084.0000     11.8424     70.0356      2.2178      0.1586     31.7675     94.7668   -999.2500   -999.2500   -999.2500   -999.2500      9.9624      9.1884      5.5236  
  2084.5000     12.0554     69.9384      2.2091      0.1550     31.8991    101.8070   -999.2500   -999.2500   -999.2500   -999.2500      9.7750      9.1919      5.6138  
  2085.0000     12.3554     69.4610      2.2040      0.1470     31.6095     96.4078   -999.2500   -999.2500   -999.2500   -999.2500      9.7450      9.2570      5.6858  
  2085.5000     11.9252     69.6370      2.2266      0.1559     31.6678     95.9574   -999.2500   -999.2500   -999.2500   -999.2500      9.8205      9.3149      6.2002  
  2086.0000     11.9184     70.2211      2.2697      0.1477     31.6219     96.0371   -999.2500   -999.2500   -999.2500   -999.2500     10.4699      9.3013      6.7427  
  2086.5000     12.8893     71.9552      2.2369      0.1290     31.6022     96.0795   -999.2500   -999.2500   -999.2500   -999.2500     10.6599      9.2878      5.6933  
  2087.0000     12.9671     71.3146      2.2035      0.0951     32.4354     96.2217   -999.2500   -999.2500   -999.2500   -999.2500     10.3760      9.2742      4.6923  
  2087.5000     12.7557     69.4711      2.2148      0.0782     33.8020     97.1222   -999.2500   -999.2500   -999.2500   -999.2500     10.1874      9.2607      4.3516  
