~VERSION INFORMATION
 VERS.                           2.00:        CWLS LOG ASCII STANDARD - VERSION 2.00
 WRAP.                             NO:        ONE LINE PER DEPTH STEP
~WELL INFORMATION
#MNEM.UNIT                   DATA             INFORMATION
#----------             --------------        ------------------------------
 STRT.F                      884.0000:        START DEPTH
 STOP.F                     2365.0000:        STOP DEPTH
 STEP.F                        0.5000:        STEP VALUE
 NULL.                      -999.2500:        NULL VALUE
 COMP.                      U.S. NAVY:        COMPANY  
 LOC .                   14  22N  18W:        LOCATION   
 DATE.                        3/19/64:        LOG DATE 
 WELL.                SOUTH BARROW #6:        WELL     
 UWI .                   500231001500:        UNIQUE WELL ID 
 API .                   500231001500:        UNIQUE WELL IDENTIFIER 
 FLD .                   SOUTH BARROW:        FIELD    
 CNTY.                         NPR #4:        COUNTY  
 STAT.                         ALASKA:        STATE   
 CTRY.                            USA:        COUNTRY 
 OPER.                      U.S. NAVY:        OPERATOR  
 SRVC.                   SCHLUMBERGER:        SERVICE COMPANY 
 LAT .                         0.0000:        LATITUDE
 LON .                         0.0000:        LONGITUDE
 DIGS.               CENTER LINE DATA:        DIGITIZING COMPANY 
~CURVE INFORMATION      
#MNEM        .UNIT         API CODE           CURVE DESCRIPTION
#-----------------      --------------        ------------------------------
 DEPT        .F                      :        1  DEPTH
 SP          .MV                     :        2  
 SN          .OHMM                   :        3  
 ILD         .OHMM                   :        4  
 CILD        .OHMM                   :        5  
 DT          .US/F                   :        6  
~PARAMETER INFORMATION       
#MNEM.UNIT                  VALUE             DESCRIPTION OF MNEMONIC
#---------             ---------------        ------------------------------
 EKB .F                       40.0000:        KELLY BUSHING
 TD  .F                     2366.0000:        TOTAL DEPTH
 BHT .F                        0.0000:        BOTTOM HOLE TEMPERATURE
 BS  .                         9.6250:        BIT SIZE
 FD  .                        85.0000:        FLUID DENSITY
 CSIZ.                        11.7500:        CASING SIZE
 CBD .F                      884.0000:        CASING DRILLER 1
 CBL .F                      884.0000:        CASING LOGGER 1
 DFT .                  Miscellaneous:        TYPE FLUID IN HOLE
 DFV .                        45.0000:        VISCOSITY
 DFPH.                         0.0000:        PH
 DFL .                         2.8000:        FLUID LOSS
 RMS .                         5.3700:        RM
 MST .F                       33.0000:        RM MEAS. TEMP.
 RMF .                         2.9500:        RMF
 MFST.F                       45.0000:        RMF MEAS. TEMP.
 RMC .                         2.4800:        RMC
 MCST.F                       35.0000:        RMC MEAS. TEMP.
~OTHER INFORMATION
~A    DEPTH          SP          SN         ILD        CILD          DT  
# ...
  1047.5000    -42.2345     10.0656      8.8997    108.0944   -999.2500  
  1048.0000    -42.3375     10.0936      9.0254    105.4201   -999.2500  
  1048.5000    -42.3797     10.2265      9.1405    103.4171   -999.2500  
  1049.0000    -42.2177     10.4043      9.1619    103.2821   -999.2500  
  1049.5000    -42.0660     10.4679      9.1380    103.4471   -999.2500  
  1050.0000    -42.1044     10.1876      9.1285    103.5744   -999.2500  
  1050.5000    -42.1759     10.0184      9.1389    103.5012   -999.2500  
  1051.0000    -42.3348     10.2367      9.1756    103.3135   -999.2500  
  1051.5000    -42.7428     10.4324      9.0837    103.4697   -999.2500  
  1052.0000    -43.1624     10.4042      8.9269    105.6455   -999.2500  
  1052.5000    -43.4028     10.2010      8.7803    108.2758   -999.2500  
  1053.0000    -43.5771     10.1190      8.5893    110.3736   -999.2500  
  1053.5000    -43.7429     10.0360      8.4837    111.8809   -999.2500  
  1054.0000    -43.9209      9.9530      8.4273    112.7509   -999.2500  
  1054.5000    -44.0160      9.8700      8.4176    113.0692   -999.2500  
  1055.0000    -43.9474      9.7883      8.4080    113.3987   -999.2500  
  1055.5000    -43.7983      9.7389      8.3561    113.8900   -999.2500  
  1056.0000    -43.6984      9.6114      8.3292    114.3384   -999.2500  
  1056.5000    -43.5853      9.6651      8.3373    114.4917   -999.2500  
  1057.0000    -43.5358      9.6419      8.3739    114.2418   -999.2500  
  1057.5000    -43.5641      9.6578      8.4509    113.8025   -999.2500  
  1058.0000    -43.5821      9.7439      8.5264    112.6573   -999.2500  
  1058.5000    -43.5708      9.8372      8.6804    111.2377   -999.2500  
  1059.0000    -43.7236      9.9381      8.8485    109.5670   -999.2500  
  1059.5000    -43.9645     10.0351      8.9549    108.0410   -999.2500  
  1060.0000    -44.2731     10.1321      9.0011    107.4675   -999.2500  
  1060.5000    -44.6693     10.1634      9.0008    107.5303   -999.2500  
  1061.0000    -45.0901     10.1445      8.9603    107.8881   -999.2500  
  1061.5000    -45.5525     10.1256      8.9080    108.4878   -999.2500  
  1062.0000    -45.7500     10.0645      8.8866    108.8393   -999.2500  
  1062.5000    -45.9054      9.9813      8.8519    109.2167   -999.2500  
  1063.0000    -45.6563      9.8980      8.8376    109.3751   -999.2500  
  1063.5000    -45.2335      9.8217      8.8682    109.2398   -999.2500  
  1064.0000    -45.0046      9.8001      8.8931    109.1409   -999.2500  
  1064.5000    -44.8832      9.8756      8.9441    108.8496   -999.2500  
  1065.0000    -44.7611     10.0413      8.9586    108.4099   -999.2500  
  1065.5000    -44.8665     10.1869      9.0275    107.7008   -999.2500  
  1066.0000    -44.9331     10.2320      9.1145    106.8104   -999.2500  
  1066.5000    -44.9348     10.2521      9.1545    105.8885   -999.2500  
  1067.0000    -44.9814     10.2183      9.1508    105.3142   -999.2500  
  1067.5000    -45.0494     10.2047      9.1252    105.8899   -999.2500  
  1068.0000    -45.1658     10.1857      9.0864    106.5016   -999.2500  
  1068.5000    -45.2859     10.1396      9.0546    106.8312   -999.2500  
  1069.0000    -45.3438     10.0936      9.0121    107.4011   -999.2500  
  1069.5000    -45.4238     10.0476      8.9368    108.0272   -999.2500  
  1070.0000    -45.6006     10.0016      8.8901    108.4616   -999.2500  
  1070.5000    -45.7023      9.9555      8.8343    109.1118   -999.2500  
  1071.0000    -45.7447      9.9095      8.7570    109.9428   -999.2500  
  1071.5000    -45.9720      9.8635      8.6558    111.0126   -999.2500  
  1072.0000    -46.1793      9.7623      8.5203    112.6183   -999.2500  
  1072.5000    -46.1489      9.6244      8.3856    114.1467   -999.2500  
  1073.0000    -46.2780      9.5494      8.2548    115.9952   -999.2500  
  1073.5000    -46.2778      9.4336      8.1371    117.4462   -999.2500  
  1074.0000    -46.0834      9.3572      8.0635    118.7400   -999.2500  
  1074.5000    -45.7677      9.2868      8.0049    119.5894   -999.2500  
  1075.0000    -45.5845      9.2272      7.9863    120.0091   -999.2500  
  1075.5000    -45.6808      9.2296      7.9851    120.2187   -999.2500  
  1076.0000    -45.8095      9.2793      8.0936    119.7852   -999.2500  
  1076.5000    -45.9475      9.3402      8.1737    118.6044   -999.2500  
  1077.0000    -46.0684      9.4200      8.2836    117.0805   -999.2500  
  1077.5000    -46.3525      9.5253      8.4257    115.2486   -999.2500  
  1078.0000    -46.1574      9.6643      8.5397    113.6134   -999.2500  
  1078.5000    -45.9968      9.7659      8.6431    112.2066   -999.2500  
  1079.0000    -45.9257      9.8074      8.7606    110.9093   -999.2500  
  1079.5000    -46.0351      9.8490      8.7913    110.0049   -999.2500  
  1080.0000    -46.0803      9.8834      8.8080    109.5306   -999.2500  
  1080.5000    -46.2827      9.8693      8.8367    109.3910   -999.2500  
  1081.0000    -46.2840      9.8552      8.8171    109.6089   -999.2500  
  1081.5000    -46.3676      9.8411      8.8004    109.9481   -999.2500  
  1082.0000    -46.3575      9.8270      8.7773    110.2882   -999.2500  
  1082.5000    -46.1169      9.8129      8.7166    110.6367   -999.2500  
  1083.0000    -45.7175      9.7988      8.6996    110.9002   -999.2500  
  1083.5000    -45.3733      9.7817      8.6771    111.1244   -999.2500  
  1084.0000    -45.2682      9.7629      8.6666    111.2262   -999.2500  
  1084.5000    -45.3771      9.7441      8.6346    111.4867   -999.2500  
  1085.0000    -45.5865      9.7253      8.6016    111.8704   -999.2500  
  1085.5000    -45.7836      9.7065      8.5646    112.2650   -999.2500  
  1086.0000    -45.9608      9.6234      8.4984    113.0302   -999.2500  
  1086.5000    -46.2628      9.5341      8.4314    113.8534   -999.2500  
  1087.0000    -46.2076      9.4802      8.3615    114.6530   -999.2500  
  1087.5000    -46.0551      9.4412      8.3001    115.4724   -999.2500  
  1088.0000    -46.0639      9.3902      8.2755    116.1004   -999.2500  
  1088.5000    -46.0635      9.3609      8.3226    116.0887   -999.2500  
  1089.0000    -45.9947      9.3784      8.3630    115.4723   -999.2500  
  1089.5000    -45.7921      9.4084      8.4708    114.5671   -999.2500  
  1090.0000    -45.5342      9.4187      8.5198    113.3439   -999.2500  
  1090.5000    -45.1400      9.4715      8.5967    112.2783   -999.2500  
  1091.0000    -44.6284      9.5810      8.6653    111.3972   -999.2500  
  1091.5000    -44.2212      9.9503      8.6754    111.1181   -999.2500  
  1092.0000    -43.7781     10.2468      8.6579    111.0224   -999.2500  
  1092.5000    -43.0555     10.2480      8.6731    110.9944   -999.2500  
  1093.0000    -43.0536     10.1762      8.6811    110.8010   -999.2500  
  1093.5000    -43.5376     10.0963      8.7268    110.5044   -999.2500  
  1094.0000    -44.0817     10.0164      8.6646    110.6827   -999.2500  
  1094.5000    -44.2428      9.9364      8.6108    111.3709   -999.2500  
  1095.0000    -43.7035      9.9117      8.4905    112.3353   -999.2500  
  1095.5000    -43.0242      9.8943      8.4819    112.9645   -999.2500  
  1096.0000    -42.6306      9.8770      8.5089    112.8019   -999.2500  
  1096.5000    -41.9070      9.8597      8.5942    112.2785   -999.2500  
  1097.0000    -41.1415      9.9821      8.6454    111.4533   -999.2500  
  1097.5000    -40.5417     10.1461      8.7155    110.5241   -999.2500  
  1098.0000    -40.4524     10.2757      8.7513    110.0087   -999.2500  
  1098.5000    -40.4326     10.3438      8.7346    109.8630   -999.2500  
  1099.0000    -40.5070     10.3846      8.8347    109.4041   -999.2500  
  1099.5000    -41.0599     10.3915      8.8822    108.8469   -999.2500  
  1100.0000    -41.4476     10.3839      8.9723    107.9826   -999.2500  
  1100.5000    -41.6426     10.3790      9.0635    107.0257   -999.2500  
  1101.0000    -41.7651     10.4403      9.0704    106.5627   -999.2500  
  1101.5000    -41.9624     10.5875      9.0531    106.5122   -999.2500  
