~VERSION INFORMATION
 VERS.                           2.00:        CWLS LOG ASCII STANDARD - VERSION 2.00
 WRAP.                             NO:        ONE LINE PER DEPTH STEP
~WELL INFORMATION
#MNEM.UNIT                   DATA             INFORMATION
#----------             --------------        ------------------------------
 STRT.F                      999.0000:        START DEPTH
 STOP.F                     2350.0000:        STOP DEPTH
 STEP.F                        0.5000:        STEP VALUE
 NULL.                      -999.2500:        NULL VALUE
 COMP.             UNITED STATES NAVY:        COMPANY  
 LOC .                   14  22N  18W:        LOCATION   
 DATE.                        3/19/68:        LOG DATE 
 WELL.                SOUTH BARROW #7:        WELL     
 UWI .                   500232000100:        UNIQUE WELL ID 
 API .                   500232000100:        UNIQUE WELL IDENTIFIER 
 FLD .                   SOUTH BARROW:        FIELD    
 CNTY.                         NPR #4:        COUNTY  
 STAT.                         ALASKA:        STATE   
 CTRY.                            USA:        COUNTRY 
 OPER.             UNITED STATES NAVY:        OPERATOR  
 SRVC.                   SCHLUMBERGER:        SERVICE COMPANY 
 LAT .                         0.0000:        LATITUDE
 LON .                         0.0000:        LONGITUDE
 DIGS.               CENTER LINE DATA:        DIGITIZING COMPANY 
~CURVE INFORMATION      
#MNEM        .UNIT         API CODE           CURVE DESCRIPTION
#-----------------      --------------        ------------------------------
 DEPT        .F                      :        1  DEPTH
 SP          .MV                     :        2  
 ILD         .OHMM                   :        3  
 ASN         .OHMM                   :        4  
 CILD        .OHMM                   :        5  
 CALI        .IN                     :        6  
 DT          .US/F                   :        7  
~PARAMETER INFORMATION       
#MNEM.UNIT                  VALUE             DESCRIPTION OF MNEMONIC
#---------             ---------------        ------------------------------
 EKB .F                       36.0000:        KELLY BUSHING
 TD  .F                     2351.0000:        TOTAL DEPTH
 BHT .F                        0.0000:        BOTTOM HOLE TEMPERATURE
 BS  .                         9.6250:        BIT SIZE
 FD  .                        76.5000:        FLUID DENSITY
 CSIZ.                        10.7500:        CASING SIZE
 CBD .F                      998.0000:        CASING DRILLER 1
 CBL .F                      999.0000:        CASING LOGGER 1
 DFT .                            Gel:        TYPE FLUID IN HOLE
 DFV .                        45.0000:        VISCOSITY
 DFPH.                         9.5000:        PH
 DFL .                         7.0000:        FLUID LOSS
 RMS .                         5.4300:        RM
 MST .F                       42.0000:        RM MEAS. TEMP.
 RMF .                         5.1700:        RMF
 MFST.F                       59.0000:        RMF MEAS. TEMP.
 RMC .                         5.0900:        RMC
 MCST.F                       56.0000:        RMC MEAS. TEMP.
~OTHER INFORMATION
~A    DEPTH          SP         ILD         ASN        CILD        CALI          DT  
# ...
  2127.0000    -17.5165      9.9676     11.2303    103.8309      9.7797    103.7537  
  2127.5000    -17.6369      9.9711     11.3664    103.7559      9.7637    103.6946  
  2128.0000    -18.1673     10.0182     11.5710    103.2348      9.7716    103.8263  
  2128.5000    -18.6830     10.0829     11.6890    102.3324      9.7893    103.9638  
  2129.0000    -18.8208     10.1305     11.6448    101.9944      9.7873    103.7240  
  2129.5000    -18.7431     10.1356     11.6279    101.9580      9.7880    103.5980  
  2130.0000    -18.7716     10.1200     11.5935    102.0060      9.7728    103.8164  
  2130.5000    -18.7985     10.1049     11.5354    102.1081      9.7517    103.9587  
  2131.0000    -18.8339     10.1257     11.5161    101.6996      9.7603    104.0524  
  2131.5000    -18.9457     10.2702     11.4988    100.6488      9.7611    104.0460  
  2132.0000    -19.0322     10.6893     11.6720     98.6671      9.7394    103.7688  
  2132.5000    -19.4795     11.1406     12.0950     96.1776      9.7176    103.1870  
  2133.0000    -20.2021     11.1015     12.5673     94.7441      9.7003    100.0642  
  2133.5000    -21.4049     11.0770     13.4409     94.2630      9.6557     95.3900  
  2134.0000    -23.7149     11.0516     14.0532     94.4703      9.6748     94.5442  
  2134.5000    -25.6523     11.0546     14.0185     94.4513      9.7358     94.8176  
  2135.0000    -24.7203     11.1818     13.6873     93.8604      9.7695     97.4489  
  2135.5000    -21.8962     11.2608     12.9460     93.3009      9.7749    100.5484  
  2136.0000    -19.3796     11.1281     12.0860     93.5790      9.7725    101.1937  
  2136.5000    -18.1148     10.9215     11.9297     95.3960      9.7832    101.3263  
  2137.0000    -17.6009     10.5232     11.8273     97.2860      9.7893    101.9074  
  2137.5000    -17.1887     10.1824     11.6797     98.6813      9.7891    102.6094  
  2138.0000    -16.9279     10.2184     11.6364     99.5273      9.7986    103.0953  
  2138.5000    -16.9142     10.2544     11.6698     99.8543      9.8099    103.0237  
  2139.0000    -17.0780     10.2903     11.7070     99.4839      9.8111    102.7135  
  2139.5000    -16.8386     10.3263     11.6972     99.1868      9.7859    102.5344  
  2140.0000    -16.7861     10.3622     11.6932     98.9316      9.7885    102.4799  
  2140.5000    -16.8664     10.4188     11.7382     98.6341      9.7965    102.4253  
  2141.0000    -17.1255     10.5512     11.8617     98.1759      9.8275    102.6475  
  2141.5000    -17.3429     10.6837     11.9207     97.4237      9.8626    102.9262  
  2142.0000    -17.2879     10.8090     12.0268     96.6680      9.8976    102.7827  
  2142.5000    -16.9830     10.8394     12.1488     96.4898      9.8734    102.6000  
  2143.0000    -16.4503     10.8399     12.3167     96.5047      9.8359    101.5155  
  2143.5000    -16.0869     10.7905     12.3325     96.7242      9.8078    100.7886  
  2144.0000    -15.6944     10.7852     12.1710     96.7598      9.7848    100.8368  
  2144.5000    -15.4950     10.8030     11.9679     96.7184      9.7692    101.7018  
  2145.0000    -15.5375     10.8110     11.9472     96.7728      9.7686    103.1120  
  2145.5000    -15.6661     10.7943     11.9585     96.9056      9.7588    103.3312  
  2146.0000    -15.8688     10.6449     11.9698     97.8621      9.7526    103.4352  
  2146.5000    -16.1233     10.5313     12.0099     98.3839      9.7549    103.3845  
  2147.0000    -16.2221     10.5862     12.0850     98.4202      9.7790    103.3962  
  2147.5000    -16.2521     10.8608     12.1853     97.3389      9.7833    103.6800  
  2148.0000    -16.2265     11.1749     12.3526     94.7285      9.7666    103.6638  
  2148.5000    -16.2946     11.4891     12.6112     92.1181      9.7529    103.2795  
  2149.0000    -16.8149     11.8032     13.3570     89.7434      9.7523    102.8983  
  2149.5000    -18.0380     11.9503     14.6531     88.5274      9.7304    102.0324  
  2150.0000    -20.6192     11.8190     15.9177     89.1286      9.6252    100.2863  
  2150.5000    -23.5423     11.6680     16.6567     90.1176      9.5534     99.8505  
  2151.0000    -24.8193     11.6016     15.6439     90.8949      9.6013    100.5225  
  2151.5000    -22.1785     11.4937     14.2245     91.4393      9.6543    101.8073  
  2152.0000    -17.6597     11.2088     12.5837     92.2221      9.7073    103.6200  
  2152.5000    -15.4498     10.9238     11.4560     94.2915      9.7269    104.9450  
  2153.0000    -14.8434     10.6389     11.4778     97.6151      9.7336    106.3033  
  2153.5000    -14.5954     10.3253     11.4764    100.3871      9.7286    112.2949  
  2154.0000    -14.4558     10.0300     11.4033    102.9488      9.7383    108.7852  
  2154.5000    -14.4434      9.8677     11.4025    104.0148      9.7686    103.6898  
  2155.0000    -14.4693      9.8651     11.4652    104.6125      9.7914    103.6428  
  2155.5000    -14.5214      9.9127     11.3827    104.7054      9.7743    104.2065  
  2156.0000    -14.6573      9.7843     11.1732    105.4463      9.7564    104.5515  
  2156.5000    -14.8301      9.7831     10.9933    106.2466      9.7478    104.8169  
  2157.0000    -14.9823      9.6560     10.9201    106.7970      9.7446    104.8715  
  2157.5000    -14.9894      9.5034     10.8872    107.8988      9.7446    104.7783  
  2158.0000    -15.0160      9.3809     10.8642    109.1943      9.7435    104.6590  
  2158.5000    -15.2622      9.3314     10.8343    110.3689      9.7427    104.5505  
  2159.0000    -15.4911      9.2599     10.7788    111.4477      9.7148    104.6732  
  2159.5000    -15.8588      9.1433     10.6684    112.4485      9.7112    105.0973  
  2160.0000    -16.2024      9.1174     10.5426    112.8871      9.7082    105.7646  
  2160.5000    -16.4360      9.1787     10.4169    112.4186      9.7432    105.9217  
  2161.0000    -16.2947      9.4073     10.2911    110.2041      9.7538    105.9912  
  2161.5000    -16.0644      9.7506     10.1653    106.3592      9.7672    105.3846  
  2162.0000    -15.9630     10.3146     10.9987    100.8285      9.7806    104.7893  
  2162.5000    -16.0934     11.0888     12.3594     95.2978      9.7632    104.2187  
  2163.0000    -17.3497     11.8629     14.0060     89.5672      9.6911    102.9031  
  2163.5000    -19.9543     12.3989     16.2746     86.7226      9.5505     99.1323  
  2164.0000    -24.4410     12.6061     18.4354     84.8648      9.4601     96.0501  
  2164.5000    -28.9770     12.7486     19.3652     83.6569      9.4596     94.9902  
  2165.0000    -29.1144     12.7748     17.8541     83.6704      9.5828     95.3025  
  2165.5000    -25.3365     12.5494     15.1625     84.8720      9.6781     97.8728  
  2166.0000    -21.2946     12.0791     13.3104     88.7336      9.7233    100.5123  
  2166.5000    -19.4163     11.3389     11.4584     94.9404      9.7277    102.4185  
  2167.0000    -17.8827     10.5827     10.8888    100.8804      9.7277    104.7104  
  2167.5000    -17.2241      9.8264     10.8345    104.7727      9.7288    105.7094  
  2168.0000    -17.1644      9.7470     10.7853    107.6026      9.7340    106.2005  
  2168.5000    -17.2280      9.7307     10.7693    108.3278      9.7415    105.3934  
  2169.0000    -17.5164      9.7157     10.7534    108.1057      9.7565    103.8156  
  2169.5000    -17.9629      9.7400     10.7374    107.2744      9.7717    103.2055  
  2170.0000    -18.3928      9.7642     10.7214    106.3725      9.7809    102.5821  
  2170.5000    -17.8577      9.7885     11.0387    105.4707      9.8097    102.1568  
  2171.0000    -17.5528      9.8741     11.2658    104.5688      9.8392    102.2520  
  2171.5000    -17.6964      9.9881     11.3028    103.6670      9.8687    102.5408  
  2172.0000    -17.6522     10.1279     11.3413    102.9386      9.8849    102.3998  
  2172.5000    -17.6081     10.2894     11.4604    101.7186      9.8358    101.9418  
  2173.0000    -17.5639     10.4346     11.5871    100.2477      9.7868    101.5402  
  2173.5000    -17.4570     10.6593     11.7404     98.5052      9.7894    100.8431  
