~VERSION INFORMATION
 VERS.                           2.00:        CWLS LOG ASCII STANDARD - VERSION 2.00
 WRAP.                             NO:        ONE LINE PER DEPTH STEP
~WELL INFORMATION
#MNEM.UNIT                   DATA             INFORMATION
#----------             --------------        ------------------------------
 STRT.F                      990.0000:        START DEPTH
 STOP.F                     2362.0000:        STOP DEPTH
 STEP.F                        0.5000:        STEP VALUE
 NULL.                      -999.2500:        NULL VALUE
 COMP.                 U.S. AIR FORCE:        COMPANY  
 LOC .                   14  22N  18W:        LOCATION   
 DATE.                        4/21/69:        LOG DATE 
 WELL.       SOUTH BARROW GAS WELL #8:        WELL     
 UWI .                   500232000200:        UNIQUE WELL ID 
 API .                   500232000200:        UNIQUE WELL IDENTIFIER 
 FLD .                S. B. GAS FIELD:        FIELD    
 CNTY.                   POINT BARROW:        COUNTY  
 STAT.                         ALASKA:        STATE   
 CTRY.                            USA:        COUNTRY 
 OPER.                 U.S. AIR FORCE:        OPERATOR  
 SRVC.                   SCHLUMBERGER:        SERVICE COMPANY 
 LAT .                         0.0000:        LATITUDE
 LON .                         0.0000:        LONGITUDE
 DIGS.               CENTER LINE DATA:        DIGITIZING COMPANY 
~CURVE INFORMATION      
#MNEM        .UNIT         API CODE           CURVE DESCRIPTION
#-----------------      --------------        ------------------------------
 DEPT        .F                      :        1  DEPTH
 SP          .MV                     :        2  
 ASN         .OHMM                   :        3  
 ILD         .OHMM                   :        4  
 CILD        .MMHO                   :        5  
 CALI        .IN                     :        6  
 DT          .US/F                   :        7  
~PARAMETER INFORMATION       
#MNEM.UNIT                  VALUE             DESCRIPTION OF MNEMONIC
#---------             ---------------        ------------------------------
 EKB .F                       31.0000:        KELLY BUSHING
 TD  .F                     2363.0000:        TOTAL DEPTH
 BHT .F                       74.0000:        BOTTOM HOLE TEMPERATURE
 BS  .                         8.6250:        BIT SIZE
 FD  .                        10.6000:        FLUID DENSITY
 CSIZ.                         9.6250:        CASING SIZE
 CBD .F                      992.0000:        CASING DRILLER 1
 CBL .F                      990.0000:        CASING LOGGER 1
 DFT .                            Gel:        TYPE FLUID IN HOLE
 DFV .                        54.0000:        VISCOSITY
 DFPH.                        10.0000:        PH
 DFL .                         4.8000:        FLUID LOSS
 RMS .                         2.0000:        RM
 MST .F                       82.0000:        RM MEAS. TEMP.
 RMF .                         2.1800:        RMF
 MFST.F                       61.0000:        RMF MEAS. TEMP.
 RMC .                         4.1900:        RMC
 MCST.F                       53.0000:        RMC MEAS. TEMP.
~OTHER INFORMATION
~A    DEPTH          SP         ASN         ILD        CILD        CALI          DT  
# ...
  1413.0000    -45.9131      8.0416      8.6941    110.9051   -999.2500   -999.2500  
  1413.5000    -45.7644      7.8556      8.6440    111.4209   -999.2500   -999.2500  
  1414.0000    -45.6859      7.7103      8.6096    111.7860   -999.2500   -999.2500  
  1414.5000    -45.5546      7.7108      8.5985    111.9401   -999.2500   -999.2500  
  1415.0000    -45.7437      7.7857      8.6352    111.9936   -999.2500   -999.2500  
  1415.5000    -46.1115      7.8962      8.5845    111.8273   -999.2500   -999.2500  
  1416.0000    -46.6466      7.9418      8.6426    111.4545   -999.2500   -999.2500  
  1416.5000    -47.4077      7.9861      8.7633    110.4613   -999.2500   -999.2500  
  1417.0000    -47.9663      8.0574      8.8839    108.6749   -999.2500   -999.2500  
  1417.5000    -48.5773      8.1666      9.0433    106.6057   -999.2500   -999.2500  
  1418.0000    -49.0397      8.3622      9.2403    104.3499   -999.2500   -999.2500  
  1418.5000    -49.4417      8.5006      9.4132    102.3423   -999.2500   -999.2500  
  1419.0000    -49.8800      8.5887      9.4906    100.9674   -999.2500   -999.2500  
  1419.5000    -50.0388      8.7181      9.6141    100.8118   -999.2500   -999.2500  
  1420.0000    -49.8077      8.9045      9.5648    100.7270   -999.2500   -999.2500  
  1420.5000    -49.5767      8.9945      9.4755    100.5808   -999.2500   -999.2500  
  1421.0000    -49.3723      8.8946      9.3862    100.9769   -999.2500   -999.2500  
  1421.5000    -49.3766      8.7031      9.1755    101.9168   -999.2500   -999.2500  
  1422.0000    -49.4492      8.5116      8.9573    104.0955   -999.2500   -999.2500  
  1422.5000    -49.4965      8.3580      8.7395    107.5569   -999.2500   -999.2500  
  1423.0000    -49.5795      8.2179      8.5404    111.6128   -999.2500   -999.2500  
  1423.5000    -49.3318      7.9915      8.3412    115.0034   -999.2500   -999.2500  
  1424.0000    -48.0607      7.6837      8.1420    117.0106   -999.2500   -999.2500  
  1424.5000    -47.1367      7.4132      7.9429    119.3440   -999.2500   -999.2500  
  1425.0000    -46.4674      7.2656      7.8091    120.9859   -999.2500   -999.2500  
  1425.5000    -46.2282      7.2140      7.7345    122.8668   -999.2500   -999.2500  
  1426.0000    -46.2215      7.1931      7.6600    124.8200   -999.2500   -999.2500  
  1426.5000    -46.9921      7.1636      7.5955    125.3773   -999.2500   -999.2500  
  1427.0000    -47.6141      7.1292      7.6845    123.9705   -999.2500   -999.2500  
  1427.5000    -47.7115      7.2124      7.9499    121.2603   -999.2500   -999.2500  
  1428.0000    -47.3696      7.4360      8.3308    117.2487   -999.2500   -999.2500  
  1428.5000    -47.4597      7.7451      8.7117    112.3575   -999.2500   -999.2500  
  1429.0000    -48.3583      8.0684      9.0909    107.6493   -999.2500   -999.2500  
  1429.5000    -48.8387      8.3348      9.4106    103.3827   -999.2500   -999.2500  
  1430.0000    -48.6203      8.6275      9.8780     98.5065   -999.2500   -999.2500  
  1430.5000    -48.2692      9.0413     10.3804     93.7744   -999.2500   -999.2500  
  1431.0000    -48.0344      9.3705     10.8822     89.8032   -999.2500   -999.2500  
  1431.5000    -48.1079      9.6346     11.2052     86.6325   -999.2500   -999.2500  
  1432.0000    -48.1673      9.7965     11.4810     83.6290   -999.2500   -999.2500  
  1432.5000    -48.2376      9.9585     11.7093     82.8270   -999.2500   -999.2500  
  1433.0000    -48.2880      9.8925     11.8001     81.9545   -999.2500   -999.2500  
  1433.5000    -48.0237     10.0390     11.9310     81.2471   -999.2500   -999.2500  
  1434.0000    -47.6401     10.1917     12.0826     80.2766   -999.2500   -999.2500  
  1434.5000    -47.0371     10.3537     12.2134     79.4348   -999.2500   -999.2500  
  1435.0000    -45.6486     10.5320     12.2884     78.6567   -999.2500   -999.2500  
  1435.5000    -44.1583     10.7861     12.4083     77.9920   -999.2500   -999.2500  
  1436.0000    -43.5707     11.0230     12.5497     77.3783   -999.2500   -999.2500  
  1436.5000    -42.1353     11.2776     12.7818     76.2347   -999.2500   -999.2500  
  1437.0000    -41.4735     11.4550     13.1118     74.6618   -999.2500   -999.2500  
  1437.5000    -41.2338     11.6325     13.4295     72.5146   -999.2500   -999.2500  
  1438.0000    -41.4095     11.8908     13.7832     70.6364   -999.2500   -999.2500  
  1438.5000    -41.7428     12.3054     14.1467     68.6732   -999.2500   -999.2500  
  1439.0000    -41.5897     12.7281     14.5244     66.9690   -999.2500   -999.2500  
  1439.5000    -41.5611     13.0964     14.8373     65.5293   -999.2500   -999.2500  
  1440.0000    -41.0242     13.3181     15.1502     64.0122   -999.2500   -999.2500  
  1440.5000    -40.5469     13.4738     15.4631     62.6274   -999.2500   -999.2500  
  1441.0000    -40.4178     13.5799     15.6884     61.7636   -999.2500   -999.2500  
  1441.5000    -40.4886     13.6620     15.7885     61.3503   -999.2500   -999.2500  
  1442.0000    -41.1866     13.7108     15.7740     61.3171   -999.2500   -999.2500  
  1442.5000    -41.3951     13.6975     15.7091     61.4760   -999.2500   -999.2500  
  1443.0000    -41.4284     13.7628     15.7164     61.4160   -999.2500   -999.2500  
  1443.5000    -41.4859     13.8441     15.7588     61.2561   -999.2500   -999.2500  
  1444.0000    -41.5829     13.9585     15.8409     61.0351   -999.2500   -999.2500  
  1444.5000    -41.8150     14.0307     15.9360     60.6322   -999.2500   -999.2500  
  1445.0000    -40.5807     14.0716     16.1126     60.0288   -999.2500   -999.2500  
  1445.5000    -40.0771     14.1035     16.2809     59.5687   -999.2500   -999.2500  
  1446.0000    -39.1164     14.1884     16.3307     59.0322   -999.2500   -999.2500  
  1446.5000    -38.7943     14.2243     16.3724     58.6971   -999.2500   -999.2500  
  1447.0000    -38.8348     14.2548     16.4078     58.9741   -999.2500   -999.2500  
  1447.5000    -39.1738     14.1862     16.2721     59.4009   -999.2500   -999.2500  
  1448.0000    -39.5111     14.0680     16.0315     60.1284   -999.2500   -999.2500  
  1448.5000    -39.5682     13.8995     15.7978     61.0784   -999.2500   -999.2500  
  1449.0000    -39.0351     13.6929     15.5602     62.0261   -999.2500   -999.2500  
  1449.5000    -39.2786     13.4454     15.2665     62.5956   -999.2500   -999.2500  
  1450.0000    -40.3348     13.3173     15.1159     63.7827   -999.2500   -999.2500  
  1450.5000    -41.3828     13.1305     14.7956     65.0078   -999.2500   -999.2500  
  1451.0000    -41.8116     13.1348     14.6863     65.4865   -999.2500   -999.2500  
  1451.5000    -41.5249     13.1392     14.6502     65.9258   -999.2500   -999.2500  
  1452.0000    -41.8745     13.1007     14.6903     65.6552   -999.2500   -999.2500  
  1452.5000    -42.3533     13.0717     14.7580     65.3369   -999.2500   -999.2500  
  1453.0000    -42.7834     13.1485     14.7785     65.1625   -999.2500   -999.2500  
  1453.5000    -43.5218     13.2706     14.7838     65.2443   -999.2500   -999.2500  
  1454.0000    -43.6186     13.3463     14.7540     65.0804   -999.2500   -999.2500  
  1454.5000    -43.2663     13.3836     14.7248     65.2861   -999.2500   -999.2500  
  1455.0000    -43.1589     13.3826     14.7723     65.0683   -999.2500   -999.2500  
  1455.5000    -43.3589     13.3203     14.8974     64.6992   -999.2500   -999.2500  
  1456.0000    -43.3040     13.2278     15.0294     64.4510   -999.2500   -999.2500  
  1456.5000    -43.2025     13.2707     15.0899     64.1618   -999.2500   -999.2500  
  1457.0000    -43.2663     13.4172     15.1110     63.8095   -999.2500   -999.2500  
  1457.5000    -42.8320     13.5638     15.1846     63.4571   -999.2500   -999.2500  
  1458.0000    -42.3116     13.7578     15.2758     63.0285   -999.2500   -999.2500  
  1458.5000    -41.7884     13.9550     15.4400     62.3852   -999.2500   -999.2500  
  1459.0000    -41.5821     14.1103     15.6291     61.3553   -999.2500   -999.2500  
  1459.5000    -41.2904     14.1349     15.8396     60.3713   -999.2500   -999.2500  
