~VERSION INFORMATION
 VERS.                           2.00:        CWLS LOG ASCII STANDARD - VERSION 2.00
 WRAP.                             NO:        ONE LINE PER DEPTH STEP
~WELL INFORMATION
#MNEM.UNIT                   DATA             INFORMATION
#----------             --------------        ------------------------------
 STRT.F                      990.0000:        START DEPTH
 STOP.F                     2362.0000:        STOP DEPTH
 STEP.F                        0.5000:        STEP VALUE
 NULL.                      -999.2500:        NULL VALUE
 COMP.                 U.S. AIR FORCE:        COMPANY  
 LOC .                   14  22N  18W:        LOCATION   
 DATE.                        4/21/69:        LOG DATE 
 WELL.       SOUTH BARROW GAS WELL #8:        WELL     
 UWI .                   500232000200:        UNIQUE WELL ID 
 API .                   500232000200:        UNIQUE WELL IDENTIFIER 
 FLD .                S. B. GAS FIELD:        FIELD    
 CNTY.                   POINT BARROW:        COUNTY  
 STAT.                         ALASKA:        STATE   
 CTRY.                            USA:        COUNTRY 
 OPER.                 U.S. AIR FORCE:        OPERATOR  
 SRVC.                   SCHLUMBERGER:        SERVICE COMPANY 
 LAT .                         0.0000:        LATITUDE
 LON .                         0.0000:        LONGITUDE
 DIGS.               CENTER LINE DATA:        DIGITIZING COMPANY 
~CURVE INFORMATION      
#MNEM        .UNIT         API CODE           CURVE DESCRIPTION
#-----------------      --------------        ------------------------------
 DEPT        .F                      :        1  DEPTH
 SP          .MV                     :        2  
 ASN         .OHMM                   :        3  
 ILD         .OHMM                   :        4  
 CILD        .MMHO                   :        5  
 CALI        .IN                     :        6  
 DT          .US/F                   :        7  
~PARAMETER INFORMATION       
#MNEM.UNIT                  VALUE             DESCRIPTION OF MNEMONIC
#---------             ---------------        ------------------------------
 EKB .F                       31.0000:        KELLY BUSHING
 TD  .F                     2363.0000:        TOTAL DEPTH
 BHT .F                       74.0000:        BOTTOM HOLE TEMPERATURE
 BS  .                         8.6250:        BIT SIZE
 FD  .                        10.6000:        FLUID DENSITY
 CSIZ.                         9.6250:        CASING SIZE
 CBD .F                      992.0000:        CASING DRILLER 1
 CBL .F                      990.0000:        CASING LOGGER 1
 DFT .                            Gel:        TYPE FLUID IN HOLE
 DFV .                        54.0000:        VISCOSITY
 DFPH.                        10.0000:        PH
 DFL .                         4.8000:        FLUID LOSS
 RMS .                         2.0000:        RM
 MST .F                       82.0000:        RM MEAS. TEMP.
 RMF .                         2.1800:        RMF
 MFST.F                       61.0000:        RMF MEAS. TEMP.
 RMC .                         4.1900:        RMC
 MCST.F                       53.0000:        RMC MEAS. TEMP.
~OTHER INFORMATION
~A    DEPTH          SP         ASN         ILD        CILD        CALI          DT  
# ...
  1883.0000    -29.3067      8.1011      6.9709    142.4073   -999.2500   -999.2500  
  1883.5000    -28.8871      8.1033      6.9348    142.4034   -999.2500   -999.2500  
  1884.0000    -28.6021      8.0299      7.1134    139.6587   -999.2500   -999.2500  
  1884.5000    -28.1991      7.9500      7.4439    134.5301   -999.2500   -999.2500  
  1885.0000    -27.8414      8.4618      7.7745    129.6837   -999.2500   -999.2500  
  1885.5000    -27.7680      9.1150      8.1051    124.7578   -999.2500   -999.2500  
  1886.0000    -27.9989      9.6196      8.4357    119.9522   -999.2500   -999.2500  
  1886.5000    -28.6177      9.8929      8.5483    117.0572   -999.2500   -999.2500  
  1887.0000    -28.9280      9.9508      8.6530    115.3483   -999.2500   -999.2500  
  1887.5000    -28.8298      9.9085      8.5824    115.9764   -999.2500   -999.2500  
  1888.0000    -29.0275      9.7566      8.4379    118.7006   -999.2500   -999.2500  
  1888.5000    -29.1428      9.4103      8.2533    120.9385   -999.2500   -999.2500  
  1889.0000    -29.1599      9.0070      8.3131    120.0244   -999.2500   -999.2500  
  1889.5000    -29.6394      8.7322      8.3728    118.6912   -999.2500   -999.2500  
  1890.0000    -28.8757      8.6559      8.4325    118.6356   -999.2500   -999.2500  
  1890.5000    -28.3666      8.7318      8.5205    118.3653   -999.2500   -999.2500  
  1891.0000    -29.3023      9.2850      8.8054    117.7973   -999.2500   -999.2500  
  1891.5000    -30.1484      9.8967      9.2821    115.2866   -999.2500   -999.2500  
  1892.0000    -31.3370      9.9841      9.7551    108.6401   -999.2500   -999.2500  
  1892.5000    -32.3033     10.0714     10.2720    100.4993   -999.2500   -999.2500  
  1893.0000    -33.1828     10.6877     10.7889     94.1795   -999.2500   -999.2500  
  1893.5000    -33.3215     10.8874     11.3058     88.5807   -999.2500   -999.2500  
  1894.0000    -33.4696     11.0871     11.6679     85.9576   -999.2500   -999.2500  
  1894.5000    -34.2171     11.3996     11.6006     85.4556   -999.2500   -999.2500  
  1895.0000    -34.7363     11.6051     11.5333     86.2070   -999.2500   -999.2500  
  1895.5000    -35.4105     11.6274     11.3586     86.9584   -999.2500   -999.2500  
  1896.0000    -35.9895     11.3397     11.1834     87.5604   -999.2500   -999.2500  
  1896.5000    -34.9204     11.1243     11.0082     87.8243   -999.2500   -999.2500  
  1897.0000    -33.6388     11.0091     10.8800     88.2481   -999.2500   -999.2500  
  1897.5000    -32.7428     10.9077     10.7873     89.0205   -999.2500   -999.2500  
  1898.0000    -31.6500     10.8337     10.6946     90.1341   -999.2500   -999.2500  
  1898.5000    -31.6477     10.9026     10.9076     90.6370   -999.2500   -999.2500  
  1899.0000    -31.4646     11.1882     11.1422     89.9132   -999.2500   -999.2500  
  1899.5000    -32.0161     11.5521     11.3767     88.5264   -999.2500   -999.2500  
  1900.0000    -33.1272     11.6735     11.6113     86.1642   -999.2500   -999.2500  
  1900.5000    -33.0408     11.7649     11.6933     83.7988   -999.2500   -999.2500  
  1901.0000    -33.3067     11.7777     11.6878     83.5875   -999.2500   -999.2500  
  1901.5000    -33.2350     11.7800     11.6823     83.5269   -999.2500   -999.2500  
  1902.0000    -33.4011     11.7808     11.6769     83.5065   -999.2500   -999.2500  
  1902.5000    -33.5408     11.6960     11.6714     83.8248   -999.2500   -999.2500  
  1903.0000    -33.2721     11.6578     11.6758     83.8086   -999.2500   -999.2500  
  1903.5000    -33.0481     11.6924     11.8585     83.7925   -999.2500   -999.2500  
  1904.0000    -32.6668     11.8402     12.0412     83.3368   -999.2500   -999.2500  
  1904.5000    -32.4000     12.1368     12.2239     82.6345   -999.2500   -999.2500  
  1905.0000    -32.4411     12.3307     12.4066     81.8844   -999.2500   -999.2500  
  1905.5000    -32.2104     12.3969     12.5239     81.1381   -999.2500   -999.2500  
  1906.0000    -32.1701     12.3635     12.3837     82.0327   -999.2500   -999.2500  
  1906.5000    -32.0202     12.2205     12.2436     82.8887   -999.2500   -999.2500  
  1907.0000    -31.6574     12.0802     12.1035     83.4637   -999.2500   -999.2500  
  1907.5000    -31.3912     11.9209     11.9634     83.6815   -999.2500   -999.2500  
  1908.0000    -31.3782     11.8445     11.8233     83.5321   -999.2500   -999.2500  
  1908.5000    -31.3575     11.8672     11.8949     83.4484   -999.2500   -999.2500  
  1909.0000    -31.2851     12.0003     12.1036     83.0567   -999.2500   -999.2500  
  1909.5000    -31.3367     12.2576     12.3123     82.2279   -999.2500   -999.2500  
  1910.0000    -31.7062     12.4740     12.5210     81.4287   -999.2500   -999.2500  
  1910.5000    -30.8407     12.6403     12.7296     80.4261   -999.2500   -999.2500  
  1911.0000    -30.3160     12.7939     12.9383     78.3616   -999.2500   -999.2500  
  1911.5000    -31.1257     13.0303     13.1470     76.6733   -999.2500   -999.2500  
  1912.0000    -32.0124     13.2134     13.2649     75.4657   -999.2500   -999.2500  
  1912.5000    -32.7814     13.2000     13.2639     74.4459   -999.2500   -999.2500  
  1913.0000    -33.0536     13.1399     13.2191     74.3391   -999.2500   -999.2500  
  1913.5000    -32.9630     13.0688     13.0516     75.0724   -999.2500   -999.2500  
  1914.0000    -33.3930     12.9466     12.8840     76.5538   -999.2500   -999.2500  
  1914.5000    -33.8225     12.7516     12.7165     78.0487   -999.2500   -999.2500  
  1915.0000    -33.9835     12.5200     12.5490     79.2745   -999.2500   -999.2500  
  1915.5000    -33.9418     12.2625     12.3619     80.6750   -999.2500   -999.2500  
  1916.0000    -33.6372     11.9249     12.1108     81.9897   -999.2500   -999.2500  
  1916.5000    -32.5087     11.6512     11.8597     83.8230   -999.2500   -999.2500  
  1917.0000    -31.9505     11.4264     11.6085     86.1986   -999.2500   -999.2500  
  1917.5000    -31.5353     11.2414     11.3574     88.3364   -999.2500   -999.2500  
  1918.0000    -31.1162     11.0459     11.1063     90.4484   -999.2500   -999.2500  
  1918.5000    -30.6135     10.8853     10.8552     92.1720   -999.2500   -999.2500  
  1919.0000    -30.5467     10.7413     10.6040     93.6516   -999.2500   -999.2500  
  1919.5000    -30.6421     10.6009     10.4160     94.7594   -999.2500   -999.2500  
  1920.0000    -30.7504     10.4419     10.3232     95.4500   -999.2500   -999.2500  
  1920.5000    -30.5342     10.2925     10.2304     96.0947   -999.2500   -999.2500  
  1921.0000    -30.7997     10.2802     10.1377     96.6671   -999.2500   -999.2500  
  1921.5000    -31.2828     10.2955     10.1058     96.9813   -999.2500   -999.2500  
  1922.0000    -31.6301     10.3346     10.1807     97.1730   -999.2500   -999.2500  
  1922.5000    -31.9194     10.4074     10.2556     97.4513   -999.2500   -999.2500  
  1923.0000    -31.9818     10.3797     10.3304     97.0194   -999.2500   -999.2500  
  1923.5000    -31.7922     10.3345     10.4053     96.3659   -999.2500   -999.2500  
  1924.0000    -31.8567     10.4553     10.4802     95.1648   -999.2500   -999.2500  
  1924.5000    -31.7446     10.5527     10.5551     93.9216   -999.2500   -999.2500  
  1925.0000    -31.8572     10.5744     10.6201     94.1609   -999.2500   -999.2500  
  1925.5000    -31.6191     10.5861     10.5985     94.4404   -999.2500   -999.2500  
  1926.0000    -31.2641     10.5848     10.5769     94.8793   -999.2500   -999.2500  
  1926.5000    -31.6109     10.6366     10.5553     96.4903   -999.2500   -999.2500  
  1927.0000    -31.4615     10.7722     10.5337     97.4202   -999.2500   -999.2500  
  1927.5000    -31.1184     10.6324     10.4195     97.7907   -999.2500   -999.2500  
  1928.0000    -30.2622     10.4328     10.2890     97.9322   -999.2500   -999.2500  
  1928.5000    -29.7133     10.1749     10.1585     98.6517   -999.2500   -999.2500  
  1929.0000    -29.5904     10.0765     10.0280     99.5409   -999.2500   -999.2500  
  1929.5000    -29.2515      9.9587      9.8975    100.4215   -999.2500   -999.2500  
