~VERSION INFORMATION
 VERS.                           2.00:        CWLS LOG ASCII STANDARD - VERSION 2.00
 WRAP.                             NO:        ONE LINE PER DEPTH STEP
~WELL INFORMATION
#MNEM.UNIT                   DATA             INFORMATION
#----------             --------------        ------------------------------
 STRT.F                      151.0000:        START DEPTH
 STOP.F                     2726.0000:        STOP DEPTH
 STEP.F                        0.5000:        STEP VALUE
 NULL.                      -999.2500:        NULL VALUE
 COMP.                      U.S. NAVY:        COMPANY  
 WELL.                     IKO BAY #1:        WELL     
 FLD .                        WILDCAT:        FIELD    
 LOC .                   16  21N  16W:        LOCATION   
 CNTY.                    NORTH SLOPE:        COUNTY  
 STAT.                         ALASKA:        STATE   
 CTRY.                            USA:        COUNTRY 
 DATE.                         2/8/75:        LOG DATE 
 API .                   502790000000:        UNIQUE WELL IDENTIFIER 
 OPER.                      U.S. NAVY:        OPERATOR  
 SRVC.                            440:        SERVICE COMPANY 
 UWI .                   502790000000:        UNIQUE WELL ID 
 LAT .                         0.0000:        LATITUDE
 LON .                         0.0000:        LONGITUDE
 DIGS.                             65:        DIGITIZING COMPANY 
~CURVE INFORMATION      
#MNEM.UNIT                 API CODE           CURVE DESCRIPTION
#---------              --------------        ------------------------------
 DEPT.F                              :        1  DEPTH
 SP  .MV                             :        2
 ILD .OHMM                           :        3
 LL8 .OHMM                           :        4
 ILM .OHMM                           :        5
 RHOB.G/C3                           :        6
 DRHO.G/C3                           :        7
 CALI.IN                             :        8
 GR  .GAPI                           :        9
 NPHI.%                              :       10
 DT  .US/F                           :       11
~PARAMETER INFORMATION       
#MNEM.UNIT                  VALUE             DESCRIPTION OF MNEMONIC
#---------             ---------------        ------------------------------
 EKB .F                        0.0000:        KELLY BUSHING
 TD  .F                     2731.0000:        TOTAL DEPTH
 BHT .F                             0.0000:        BOTTOM HOLE TEMPERATURE
 BS  .                             14.7500:        BIT SIZE
 FD  .                              0.0000:        FLUID DENSITY
 CSIZ.                             16.0000:        CASING SIZE
 CBD .F                           149.0000:        CASING DRILLER 1
 CBL .F                           152.0000:        CASING LOGGER 1
 DFT .                            Gel:        TYPE FLUID IN HOLE
 DFV .                              0.0000:        VISCOSITY
 DFPH.                              0.0000:        PH
 DFL .                              0.0000:        FLUID LOSS
 RMS .                              0.3000:        RM
 MST .F                       49.0000:        RM MEAS. TEMP.
 RMF .                              0.2300:        RMF
 MFST.F                       49.0000:        RMF MEAS. TEMP.
 RMC .                              0.4600:        RMC
 MCST.F                       49.0000:        RMC MEAS. TEMP.
 UWI .                   502790000000:        UNIQUE WELL ID
~OTHER INFORMATION
~A    DEPTH          SP         ILD         LL8         ILM        RHOB        DRHO        CALI          GR        NPHI          DT  
# ...
  1351.0000    -60.7097      9.9372     10.2759     10.6640      2.4013      0.0232     13.4007     92.6888     29.0416    109.2234  
  1351.5000    -61.3183      9.9083     10.1940     10.5654      2.4019      0.0343     13.1673     92.9903     29.0980    109.9383  
  1352.0000    -61.6975      9.8795     10.2149     10.4677      2.4053      0.0449     12.5208     93.1564     28.8848    110.7113  
  1352.5000    -62.0044      9.8508     10.2565     10.3988      2.3972      0.0339     12.4446     93.8591     29.3057    108.5541  
  1353.0000    -62.1453      9.8221     10.3084     10.3985      2.3969      0.0404     12.4747     94.8842     29.9123    108.3261  
  1353.5000    -62.2323      9.7935     10.1909     10.3025      2.4129      0.0518     12.1569     95.9092     30.1926    107.9727  
  1354.0000    -62.0591      9.7651     10.0031     10.2073      2.4288      0.0579     12.0185     96.8567     30.5658    106.8131  
  1354.5000    -61.8260      9.7366      9.9134     10.1130      2.4395      0.0508     11.9327     97.2708     30.4540    106.1044  
  1355.0000    -61.7448      9.7083     10.1927     10.0790      2.4464      0.0481     12.1115     97.1393     30.1515    106.0420  
  1355.5000    -61.6443      9.6726     10.4936     10.0427      2.4569      0.0416     12.5229     97.4320     29.8874    106.0963  
  1356.0000    -61.5925      9.6254     10.4288      9.9936      2.4513      0.0363     12.2271     97.4089     29.3429    105.6584  
  1356.5000    -61.5319      9.5783      9.9900      9.9447      2.4244      0.0354     11.9857     96.9736     28.4726    105.6011  
  1357.0000    -61.5172      9.5315      9.8177      9.8961      2.4104      0.0326     12.0641     95.9616     28.8750    105.7712  
  1357.5000    -61.5380      9.4849      9.8561      9.8477      2.3759      0.0166     12.2331     95.5861     29.9251    107.1375  
  1358.0000    -61.6088      9.4385     10.0653      9.7996      2.3730      0.0113     12.4467     95.8365     30.3978    110.0704  
  1358.5000    -61.6704      9.4040     10.1617      9.7617      2.3878      0.0153     11.7326     95.7906     30.7886    112.6217  
  1359.0000    -61.6092      9.3919      9.9531      9.7493      2.4057      0.0227     11.7212     96.8332     30.8820    112.2764  
  1359.5000    -61.4339      9.3799     10.1690      9.7368      2.4283      0.0317     11.8417     97.4497     30.5778    111.3003  
  1360.0000    -61.4042      9.3679     10.2061      9.7243      2.4283      0.0294     12.1057     96.9305     30.3543    108.2457  
  1360.5000    -61.6101      9.3559      9.9276      9.7119      2.4191      0.0327     11.9148     95.7579     31.3937    106.0869  
  1361.0000    -61.7640      9.3439      9.8736      9.6994      2.4394      0.0422     11.7239     94.5695     31.8545    104.9120  
  1361.5000    -61.8857      9.3319     10.3201      9.6870      2.4359      0.0348     11.8637     95.1465     31.6908    105.1863  
  1362.0000    -62.2254      9.3200     10.4600      9.6746      2.4075      0.0191     12.2348     96.0702     31.1963    107.6112  
  1362.5000    -62.5688      9.3080     10.0588      9.6622      2.3975      0.0297     12.7689     96.9047     31.6912    109.8688  
  1363.0000    -62.7345      9.2961      9.9247      9.6499      2.3970      0.0383     12.9711     98.1287     32.3716    111.2254  
  1363.5000    -62.7790      9.2842      9.8369      9.6375      2.3848      0.0376     12.5932     99.3121     32.2994    109.8419  
  1364.0000    -62.7377      9.2723      9.9727      9.6252      2.3995      0.0491     12.1881     99.0414     31.7360    108.8747  
  1364.5000    -62.6585      9.3484     10.3047      9.7118      2.4158      0.0565     11.9909     99.0855     29.9985    108.2655  
  1365.0000    -62.5560      9.4407     10.5523      9.8078      2.4253      0.0539     11.8200     98.5801     28.3317    109.6054  
  1365.5000    -62.4535      9.5340     10.2533      9.9048      2.4328      0.0508     11.9407     97.8900     27.7183    111.2240  
  1366.0000    -62.3094      9.6282      9.9748     10.0027      2.4460      0.0601     12.1626     96.9234     28.2103    110.5924  
  1366.5000    -62.0322      9.7233     10.0672     10.1015      2.4306      0.0502     12.4273     95.4721     28.9193    109.2028  
  1367.0000    -61.5357      9.7959     10.7983     10.1703      2.4379      0.0424     12.6921     93.0417     28.4680    108.4236  
  1367.5000    -60.6316      9.8375     12.1842     10.2134      2.4486      0.0578     12.9399     92.6637     27.6424    108.3308  
  1368.0000    -59.2046      9.8793     12.3501     10.2568      2.4489      0.0592     13.2719     92.3674     26.8368    109.3092  
  1368.5000    -58.6500      9.8895     11.2185     10.2668      2.4245      0.0380     12.9416     92.0105     26.5430    110.1172  
  1369.0000    -60.7394      9.8589     10.2170     10.2351      2.4172      0.0486     12.6879     92.0127     27.8730    109.6448  
  1369.5000    -62.8618      9.8282      9.3050     10.2035      2.4161      0.0516     13.0427     94.2615     29.8909    108.8555  
  1370.0000    -63.2620      9.7931      9.3591     10.1670      2.4067      0.0340     13.2770     97.4749     32.3239    108.4971  
  1370.5000    -63.4620      9.7580      9.8605     10.1306      2.3961      0.0230     12.7308     99.3751     33.6106    108.8456  
  1371.0000    -63.5631      9.7231     10.3888     10.0943      2.4103      0.0228     12.5023     98.0181     33.8605    110.0366  
  1371.5000    -63.4123      9.6883     10.9454     10.0582      2.4192      0.0321     12.1173     96.6611     32.7733    110.6029  
  1372.0000    -62.7235      9.6536     10.9328     10.0222      2.4309      0.0366     12.7296     95.3291     31.4861    108.5341  
  1372.5000    -62.1761      9.6416     10.2939     10.0086      2.4158      0.0272     12.5697     94.5114     30.7667    104.9843  
  1373.0000    -62.8619      9.6324      9.9166      9.9989      2.3897      0.0248     12.0635     94.7655     30.8602    102.2005  
  1373.5000    -64.2264      9.6232     10.1091      9.9893      2.3830      0.0363     11.6451     94.8271     31.3514    103.8904  
  1374.0000    -64.4930      9.6140     10.1322      9.9796      2.3903      0.0505     11.6977     93.7930     31.5281    109.0157  
  1374.5000    -64.6542      9.6396     10.0178     10.0299      2.4092      0.0504     12.2145     93.2224     31.3946    114.9664  
  1375.0000    -64.5957      9.8022     10.1453     10.1990      2.4271      0.0390     12.9615     93.2224     30.7598    117.4296  
  1375.5000    -63.4399      9.9799     10.3857     10.4197      2.4161      0.0330     12.4161     93.2224     30.9235    116.2807  
  1376.0000    -57.5212     10.2504     10.6107     10.7022      2.4190      0.0445     12.5547     92.9913     31.1015    115.1447  
  1376.5000    -44.3606     10.5283     10.9164     10.9923      2.4075      0.0397     12.2147     93.1946     31.1009    109.7882  
  1377.0000    -33.6883     10.8137     10.9898     11.2904      2.4023      0.0339     11.8710     94.3442     30.9833    107.4421  
  1377.5000    -35.3180     11.1069     11.1932     11.5964      2.4132      0.0411     11.6836     96.1565     31.3240    107.7406  
  1378.0000    -43.6767     11.4080     11.5162     11.9108      2.4414      0.0576     11.5029     96.8601     30.7967    109.6062  
  1378.5000    -54.6431     11.6067     11.9591     12.0484      2.4613      0.0691     11.3670     96.0467     30.1510    110.5502  
  1379.0000    -60.8058     11.6250     12.4482     12.0675      2.5016      0.0747     11.4252     94.1368     28.2029    111.4786  
  1379.5000    -58.5370     11.6435     12.9574     12.0866      2.4978      0.0617     11.3331     91.9125     25.2011    111.8343  
  1380.0000    -53.5749     11.5936     13.2514     12.0419      2.4852      0.0604     11.2776     90.1379     23.4449    111.0777  
  1380.5000    -40.4829     11.4995     12.7883     11.9442      2.4865      0.0584     11.5846     88.3632     23.2863    110.2554  
