~VERSION INFORMATION
 VERS.                           2.00:        CWLS LOG ASCII STANDARD - VERSION 2.00
 WRAP.                             NO:        ONE LINE PER DEPTH STEP
~WELL INFORMATION
#MNEM.UNIT                   DATA             INFORMATION
#----------             --------------        ------------------------------
 STRT.F                       75.0000:        START DEPTH
 STOP.F                     2534.0000:        STOP DEPTH
 STEP.F                        0.5000:        STEP VALUE
 NULL.                      -999.2500:        NULL VALUE
 COMP.                      HUSKY OIL:        COMPANY  
 LOC .                   14  22N  18W:        LOCATION   
 DATE.                       12/20/76:        LOG DATE 
 WELL.               SOUTH BARROW #13:        WELL     
 UWI .                   500232000800:        UNIQUE WELL ID 
 API .                   500232000800:        UNIQUE WELL IDENTIFIER 
 FLD .                   SOUTH BARROW:        FIELD    
 CNTY.                    NORTH SLOPE:        COUNTY  
 STAT.                         ALASKA:        STATE   
 CTRY.                            USA:        COUNTRY 
 OPER.                      HUSKY OIL:        OPERATOR  
 SRVC.                   SCHLUMBERGER:        SERVICE COMPANY 
 LAT .                         0.0000:        LATITUDE
 LON .                         0.0000:        LONGITUDE
 DIGS.               CENTER LINE DATA:        DIGITIZING COMPANY 
~CURVE INFORMATION      
#MNEM        .UNIT         API CODE           CURVE DESCRIPTION
#-----------------      --------------        ------------------------------
 DEPT        .F                      :        1  DEPTH
 SP          .MV                     :        2  
 ILD         .OHMM                   :        3  
 LL8         .OHMM                   :        4  
 CILD        .MMHO                   :        5  
 ILM         .OHMM                   :        6  
 GR          .GAPI                   :        7  
 CALI        .IN                     :        8  
 DRHO        .G/C3                   :        9  
 RHOB        .G/C3                   :        10 
 NPHI        .%                      :        11 
 DPHI        .%                      :        12 
 DT          .US/F                   :        13 
~PARAMETER INFORMATION       
#MNEM.UNIT                  VALUE             DESCRIPTION OF MNEMONIC
#---------             ---------------        ------------------------------
 EKB .F                       40.0000:        KELLY BUSHING
 TD  .F                     1139.0000:        TOTAL DEPTH
 BHT .F                        0.0000:        BOTTOM HOLE TEMPERATURE
 BS  .                        14.7500:        BIT SIZE
 FD  .                        10.3000:        FLUID DENSITY
 CSIZ.                        20.0000:        CASING SIZE
 CBD .F                       65.0000:        CASING DRILLER 1
 CBL .F                       75.0000:        CASING LOGGER 1
 DFT .                  Miscellaneous:        TYPE FLUID IN HOLE
 DFV .                        34.0000:        VISCOSITY
 DFPH.                         8.5000:        PH
 DFL .                        10.2000:        FLUID LOSS
 RMS .                         5.3200:        RM
 MST .F                       55.0000:        RM MEAS. TEMP.
 RMF .                         3.8000:        RMF
 MFST.F                       55.0000:        RMF MEAS. TEMP.
 RMC .                         6.0000:        RMC
 MCST.F                       55.0000:        RMC MEAS. TEMP.
~OTHER INFORMATION
~A    DEPTH          SP         ILD         LL8        CILD         ILM          GR        CALI        DRHO        RHOB        NPHI        DPHI          DT  
# ...
  1503.0000    -20.7896      8.2941     11.0565   -999.2500      8.7197     49.4426     10.5098      0.0359      2.4525     39.4340     13.0084    115.7685  
  1503.5000    -24.1324      8.2948     10.9336   -999.2500      8.7062     49.3462     10.4833      0.0214      2.4458     38.7828     12.9655    115.7309  
  1504.0000    -28.7629      8.2955     10.6717   -999.2500      8.6927     49.5408     10.4800      0.0358      2.4465     38.3192     12.9826    116.1555  
  1504.5000    -30.9795      8.2962     10.6250   -999.2500      8.6792     49.9809     10.4725      0.0418      2.4477     39.7415     12.4123    116.7859  
  1505.0000    -30.7972      8.2969     10.9690   -999.2500      8.6658     50.3419     10.4409      0.0463      2.4519     40.8446     12.4065    117.5020  
  1505.5000    -24.4766      8.2976     11.3491   -999.2500      8.6667     50.0622     10.4407      0.0498      2.4542     41.2194     12.6898    117.0291  
  1506.0000    -22.4423      8.2982     11.3513   -999.2500      8.6720     49.6832     10.4363      0.0423      2.4564     40.4642     13.4728    115.6541  
  1506.5000    -20.1778      8.2989     11.2178   -999.2500      8.6774     49.3043     10.4314      0.0315      2.4440     39.7754     10.6744    114.7489  
  1507.0000    -20.4093      8.2996     11.0678   -999.2500      8.6827     48.9988     10.4429      0.0509      2.4508     40.1948      8.2227    113.6787  
  1507.5000    -24.7985      8.3003     10.8054   -999.2500      8.6881     48.8096     10.4693      0.0789      2.4963     40.3405      9.7391    113.5031  
  1508.0000    -21.0870      8.3010     10.9197   -999.2500      8.6934     48.6653     10.3929      0.1065      2.5149     40.0779     11.6854    114.8680  
  1508.5000    -19.5388      8.3017     11.1822   -999.2500      8.6988     48.5030     10.2280      0.0890      2.4853     39.3856     13.3550    116.1897  
  1509.0000    -21.4469      8.3024     11.1126   -999.2500      8.7041     48.5677     10.3535      0.0576      2.4603     38.3430     13.8882    117.0780  
  1509.5000    -26.8162      8.3031     10.8611   -999.2500      8.7095     49.0287     10.5361      0.0554      2.4412     38.3917     12.8165    116.8655  
  1510.0000    -28.6682      8.3038     10.6342   -999.2500      8.7149     49.2230     10.4501      0.0570      2.4371     39.3721     12.7650    116.4220  
  1510.5000    -24.6186      8.3045     10.5488   -999.2500      8.7203     48.8342     10.3620      0.0613      2.4498     40.7427     13.0131    116.1382  
  1511.0000    -24.2500      8.3052     10.5839   -999.2500      8.7256     48.6881     10.4436      0.0588      2.4478     41.7044     13.9611    116.4827  
  1511.5000    -28.1648      8.3382     10.6211   -999.2500      8.7310     49.3062     10.3879      0.0560      2.4430     42.2219     13.8214    117.3616  
  1512.0000    -27.7131      8.3868     10.7807   -999.2500      8.7364     49.9244     10.2847      0.0465      2.4389     41.6995     13.1059    117.8348  
  1512.5000    -20.4940      8.4357     11.2472   -999.2500      8.7418     50.2918     10.2188      0.0549      2.4384     41.2144     13.3339    117.4369  
  1513.0000    -18.7870      8.4849     11.2859   -999.2500      8.7472     49.9459     10.1541      0.0552      2.4406     40.7735     13.4313    116.9735  
  1513.5000    -23.2492      8.5344     10.5383   -999.2500      8.7982     49.2401     10.1399      0.0466      2.4375     40.4400     12.5718    116.6940  
  1514.0000    -24.9208      8.8019     13.1783   -999.2500      8.8615     48.4666     10.1201      0.0456      2.4435     40.3225     11.7304    116.7168  
  1514.5000    -25.3388      9.0932     15.4167   -999.2500      9.2168     47.8436     10.1093      0.0449      2.4558     39.5422     10.7273    116.6573  
  1515.0000    -23.5519      9.5010     15.0249   -999.2500      9.6539     47.4592     10.1000      0.0536      2.4714     38.1658     11.0492    115.4573  
  1515.5000    -23.5808      9.8700     13.2603   -999.2500     10.1119     47.0750     10.0656      0.0760      2.4820     36.3893     11.3740    113.9329  
  1516.0000    -26.4928     10.2534     13.5333   -999.2500     10.5929     46.3501     10.0645      0.0984      2.4785     35.8058     10.2471    112.0110  
  1516.5000    -30.7495     10.6517     14.5026   -999.2500     11.0971     45.2919     10.0557      0.1018      2.4825     35.4910      9.6801    108.8554  
  1517.0000    -34.7824     11.0654     14.9485   -999.2500     11.6253     44.3367     10.0629      0.0843      2.4975     35.9706      9.8208    107.3815  
  1517.5000    -33.1441     11.4952     14.8912   -999.2500     12.1786     43.2759     10.2556      0.0502      2.4986     35.7941     10.5799    105.8241  
  1518.0000    -30.0181     11.9416     14.6993   -999.2500     12.7583     42.7695     10.8864      0.0321      2.4911     34.6064      9.3461    103.8844  
  1518.5000    -30.6533     12.3071     14.4728   -999.2500     13.0010     43.6480     10.8941      0.0503      2.4984     34.4241      8.7219    102.7640  
  1519.0000    -30.6041     12.3668     14.4165   -999.2500     13.0284     44.4381     10.7772      0.0655      2.5097     34.6280      9.0770    102.4227  
  1519.5000    -28.9092     12.4268     14.3835   -999.2500     13.0559     44.6180     10.8863      0.0848      2.5169     34.0413     11.0429    102.4696  
  1520.0000    -22.7320     12.4871     14.4580   -999.2500     13.0834     45.0435     10.8635      0.0545      2.4945     33.8012     10.4648    102.5570  
  1520.5000    -21.4251     12.5477     14.7232   -999.2500     13.1110     44.7521     10.5063      0.0400      2.4828     33.7294     11.6043    103.0456  
  1521.0000    -24.1161     12.6085     14.8773   -999.2500     13.1386     43.5812     10.6013      0.0265      2.4830     34.5023     12.2271    102.7608  
  1521.5000    -20.5825     12.6697     14.7583   -999.2500     13.1663     43.1484     11.0175      0.0137      2.4643     35.7156      9.4178    101.7519  
  1522.0000    -17.7046     12.7312     14.5317   -999.2500     13.1941     42.9465     11.5548      0.0425      2.4683     33.8696      8.3961    101.2304  
  1522.5000    -18.5162     12.7929     14.5587   -999.2500     13.2219     42.6553     11.3970      0.0664      2.5074     32.5096      9.5220    100.9671  
  1523.0000    -20.3368     12.8550     14.7543   -999.2500     13.2498     41.8660     11.4117      0.0608      2.5097     32.5236     12.0660    101.4284  
  1523.5000    -22.9827     12.9174     14.9239   -999.2500     13.2777     41.2039     11.4447      0.0433      2.4946     32.5022     11.9748    102.1276  
  1524.0000    -26.3232     12.9444     14.9088   -999.2500     13.3057     41.4143     11.4154      0.0284      2.4573     32.3662     12.5580    102.1652  
  1524.5000    -33.0487     12.9433     14.6345   -999.2500     13.2470     42.1535     11.3718      0.0367      2.4667     31.7359     13.4261    101.7066  
  1525.0000    -33.1144     12.6870     14.7200   -999.2500     13.0756     43.4998     11.3208      0.0284      2.4505     31.6653     12.5756    101.1452  
  1525.5000    -29.4230     12.2438     15.0285   -999.2500     12.6419     44.3995     11.5451      0.0285      2.4460     31.9511     11.9759    100.3996  
  1526.0000    -25.5696     11.7868     14.8411   -999.2500     12.2225     45.2026     11.8201      0.0392      2.4592     32.5417     12.7937     99.9144  
  1526.5000    -29.0414     11.3470     13.2805   -999.2500     11.8171     45.9868     11.6264      0.0227      2.4538     33.3356     12.3757    100.0308  
  1527.0000    -28.4588     10.9235     10.7538   -999.2500     11.4251     46.6185     11.1688      0.0234      2.4545     34.8607     12.1380    100.8386  
  1527.5000    -24.2790     10.5159     10.9379   -999.2500     11.0692     47.1860     11.3252      0.0244      2.4554     36.3592     11.2606    104.1032  
  1528.0000    -19.2168     10.4425     12.6017   -999.2500     10.7791     47.7698     11.1371      0.0377      2.4571     37.4685     11.9668    108.1326  
