~VERSION INFORMATION
 VERS.                           2.00:        CWLS LOG ASCII STANDARD - VERSION 2.00
 WRAP.                             NO:        ONE LINE PER DEPTH STEP
~WELL INFORMATION
#MNEM.UNIT                   DATA             INFORMATION
#----------             --------------        ------------------------------
 STRT.F                      152.0000:        START DEPTH
 STOP.F                     2285.0000:        STOP DEPTH
 STEP.F                        0.5000:        STEP VALUE
 NULL.                      -999.2500:        NULL VALUE
 COMP.                      U.S. NAVY:        COMPANY  
 LOC .                   26  22N  17W:        LOCATION   
 DATE.                         4/1/74:        LOG DATE 
 WELL.            SOUTH BARROW NO. 12:        WELL     
 UWI .                   500232000600:        UNIQUE WELL ID 
 API .                   500232000600:        UNIQUE WELL IDENTIFIER 
 FLD .                   SOUTH BARROW:        FIELD    
 CNTY.                         NPPR-4:        COUNTY  
 STAT.                         ALASKA:        STATE   
 CTRY.                            USA:        COUNTRY 
 OPER.                      U.S. NAVY:        OPERATOR  
 SRVC.                   SCHLUMBERGER:        SERVICE COMPANY 
 LAT .                         0.0000:        LATITUDE
 LON .                         0.0000:        LONGITUDE
 DIGS.               CENTER LINE DATA:        DIGITIZING COMPANY 
~CURVE INFORMATION      
#MNEM        .UNIT         API CODE           CURVE DESCRIPTION
#-----------------      --------------        ------------------------------
 DEPT        .F                      :        1  DEPTH
 RHOB        .G/C3                   :        2  
 DRHO        .G/C3                   :        3  
 GR          .GAPI                   :        4  
 CALI        .IN                     :        5  
 DPHI        .%                      :        6  
 NPHI        .%                      :        7  
 SP          .MV                     :        8  
 ALL8        .OHMM                   :        9  
 ILD         .OHMM                   :        10 
 CILD        .MMHO                   :        11 
 DT          .US/F                   :        12 
~PARAMETER INFORMATION       
#MNEM.UNIT                  VALUE             DESCRIPTION OF MNEMONIC
#---------             ---------------        ------------------------------
 EKB .F                       26.0000:        KELLY BUSHING
 TD  .F                     2285.0000:        TOTAL DEPTH
~OTHER INFORMATION
~A    DEPTH        RHOB        DRHO          GR        CALI        DPHI        NPHI          SP        ALL8         ILD        CILD          DT  
# ...
  2104.5000      2.5001      0.0591     68.8172     10.7297      7.6208     25.7032    -39.1092     13.8747     13.8672     68.2358     86.8350  
  2105.0000      2.4918      0.0475     68.7994     10.9181      9.2310     25.8506    -38.4787     13.9339     13.7745     67.6458     86.8716  
  2105.5000      2.5033      0.0303     69.3865     10.9397      9.4941     25.6211    -37.4210     13.7944     13.6818     67.8804     87.5818  
  2106.0000      2.4890      0.0124     69.8898     10.9593      8.6362     25.1786    -36.6288     13.6310     13.5891     68.4406     88.2578  
  2106.5000      2.4778      0.0060     70.1577     10.9516     10.1844     24.6441    -35.9544     13.5774     13.4963     68.8067     88.0013  
  2107.0000      2.4894      0.0128     70.9069     10.9439     10.5786     24.4058    -35.7375     13.5732     13.4036     69.2342     87.6819  
  2107.5000      2.5059      0.0215     71.7955     10.9439      9.9799     24.4507    -35.5703     13.4891     13.3109     70.5018     87.2985  
  2108.0000      2.5146      0.0239     71.9095     10.9485      9.0417     24.7035    -35.5511     13.4241     13.2927     70.1895     86.8788  
  2108.5000      2.5082      0.0114     72.1864     10.9739      8.6974     25.9747    -35.5368     13.3878     13.3143     69.8772     86.8254  
  2109.0000      2.5133      0.0105     72.1689     11.0193      9.2830     26.2773    -35.3763     13.3861     13.3358     69.5649     87.1340  
  2109.5000      2.5205      0.0167     71.6997     11.0729      8.6216     26.3714    -35.1824     13.3473     13.3573     69.2526     87.6652  
  2110.0000      2.5265      0.0244     70.7372     11.1265      8.1852     26.2857    -35.2655     13.3729     13.3789     68.9403     88.1640  
  2110.5000      2.5354      0.0322     70.1739     11.1143      7.7656     26.4887    -35.6968     13.3597     13.4004     68.6280     88.0388  
  2111.0000      2.5392      0.0408     70.9852     11.0476      7.2829     26.3097    -36.3394     13.2479     13.4220     68.3158     87.9404  
  2111.5000      2.5325      0.0285     73.7776     11.0218      7.0661     26.3690    -36.6488     13.2956     13.4435     68.0035     87.7333  
  2112.0000      2.5249      0.0212     75.5333     11.0630      7.5048     26.5138    -36.8652     13.3406     13.4650     67.6937     86.6572  
  2112.5000      2.5298      0.0309     77.2608     11.1624      7.6000     26.6280    -37.0817     13.4112     13.4890     67.6383     85.5228  
  2113.0000      2.5379      0.0330     78.4991     11.2759      7.5312     26.1742    -37.2981     13.4558     13.5395     67.4116     84.7199  
  2113.5000      2.5395      0.0220     79.0236     11.1769      7.1305     25.6394    -37.3493     13.6104     13.5899     67.5526     85.0624  
  2114.0000      2.5584      0.0266     77.2295     10.6462      6.5889     25.2750    -37.3443     13.6680     13.6404     66.6055     86.9002  
  2114.5000      2.5782      0.0467     75.4353     10.9258      5.7046     25.2013    -37.4032     13.6365     13.6908     68.2068     88.3625  
  2115.0000      2.5349      0.0315     75.6927     11.2055      4.6834     25.0747    -37.8227     13.6267     13.7417     67.2387     88.4925  
  2115.5000      2.5116      0.0231     77.6545     11.4519      6.4208     24.7320    -37.7005     13.6837     13.7961     66.4810     88.3538  
  2116.0000      2.5080      0.0148     79.2850     11.2570      8.3436     24.4616    -36.9526     13.6757     13.8504     66.0357     89.0364  
  2116.5000      2.5167      0.0202     80.8026     10.6995      9.0974     24.4237    -36.2046     13.6261     13.8967     65.9605     89.4470  
  2117.0000      2.5381      0.0366     81.9314     10.8628      8.3170     24.6956    -35.7245     13.5197     13.7355     66.7521     89.3835  
  2117.5000      2.5540      0.0558     81.4258     11.0772      7.2985     25.6043    -36.0245     13.4773     13.5864     67.7518     89.0364  
  2118.0000      2.5377      0.0565     80.4980     11.4172      6.1077     26.1973    -36.1289     13.3902     13.5478     68.3961     87.8275  
  2118.5000      2.5173      0.0482     79.5702     11.3316      7.2198     26.4318    -35.7114     13.3429     13.5093     68.5626     87.3015  
  2119.0000      2.5104      0.0315     79.2037     11.2157      8.3070     25.8452    -35.1700     13.2838     13.4707     69.0638     87.1948  
  2119.5000      2.5318      0.0316     80.4231     11.0997      8.5934     24.8140    -34.9653     13.2241     13.4321     69.3193     87.3840  
  2120.0000      2.5520      0.0394     81.7716     11.0394      7.4113     24.6299    -35.0988     13.2891     13.3936     69.1191     88.4383  
  2120.5000      2.5856      0.0599     81.6809     11.1130      5.8932     24.6362    -35.1929     13.4383     13.4014     69.2205     88.9488  
  2121.0000      2.6004      0.0811     80.7616     11.3115      4.3159     24.6084    -35.3122     13.5030     13.5183     69.5216     89.0811  
  2121.5000      2.5613      0.0398     78.8124     11.2009      3.4420     24.5103    -35.4504     13.5202     13.5887     69.8228     89.1588  
  2122.0000      2.5101      0.0310     77.1209     11.0864      5.7108     23.9679    -35.5886     13.4856     13.4924     70.1239     89.6965  
  2122.5000      2.5256      0.0590     75.4293     10.9719      8.2208     23.4940    -35.9687     13.4005     13.3116     70.4250     90.0940  
  2123.0000      2.5355      0.0822     75.2697     11.2220      7.7949     24.0037    -36.9169     13.2402     13.0774     70.5226     90.2998  
  2123.5000      2.5210      0.0678     75.1707     11.4981      7.1512     24.5824    -37.7246     13.0555     12.8431     70.2740     90.4956  
  2124.0000      2.5131      0.0535     75.3078     11.4521      8.0017     24.7787    -37.9143     12.9619     12.6089     70.1883     90.4527  
  2124.5000      2.5032      0.0398     75.6326     11.5360      8.6407     25.0796    -38.0696     12.8854     12.6857     70.8559     89.7497  
  2125.0000      2.4921      0.0363     75.9574     11.4067      9.0446     25.3962    -38.5142     12.9835     12.7879     71.3869     89.6613  
  2125.5000      2.4777      0.0310     76.2823     11.0968      9.6077     26.2129    -39.0643     13.0817     12.8900     71.1946     89.6364  
  2126.0000      2.4687      0.0246     75.9273     10.8786     10.5117     26.2573    -39.1178     13.1798     12.9922     70.7054     89.1891  
  2126.5000      2.4745      0.0288     75.4713     10.9654     11.1932     26.1123    -39.0862     13.2779     13.1179     70.8406     89.6365  
  2127.0000      2.5141      0.0455     75.0274     10.8166     10.7902     25.9819    -38.7410     13.3799     13.2450     70.5990     90.1980  
  2127.5000      2.5232      0.0613     74.6883     10.7550      8.8104     26.3680    -38.4700     13.3949     13.3721     69.5672     89.8055  
  2128.0000      2.4977      0.0619     75.1421     11.4047      7.7618     26.8935    -38.3128     13.4413     13.4993     68.4715     88.7479  
  2128.5000      2.4928      0.0496     76.4696     11.5824      9.4930     27.0164    -37.7053     13.6051     13.6264     67.3007     88.1318  
  2129.0000      2.5067      0.0562     78.3892     11.1397      9.4433     26.1932    -37.1380     13.6779     13.7214     66.6691     88.3266  
  2129.5000      2.5340      0.0630     80.9121     11.2028      8.8791     25.8403    -36.1802     13.5545     13.6978     67.1994     89.0068  
  2130.0000      2.5238      0.0253     83.3744     11.4723      7.0947     25.9288    -35.4691     13.5917     13.6741     68.1826     90.4566  
  2130.5000      2.5191      0.0286     82.1904     11.3795      7.5750     26.5458    -34.9066     13.6523     13.5952     68.4853     90.5975  
  2131.0000      2.5479      0.0557     81.5154     11.2521      7.6381     26.6600    -34.7491     13.5176     13.2592     68.8184     90.8430  
  2131.5000      2.5207      0.0717     82.5749     11.1248      6.7099     26.7203    -34.7852     13.2488     12.9232     69.7629     91.6591  
