~VERSION INFORMATION
 VERS.                           2.00:        CWLS LOG ASCII STANDARD - VERSION 2.00
 WRAP.                             NO:        ONE LINE PER DEPTH STEP
~WELL INFORMATION
#MNEM.UNIT                   DATA             INFORMATION
#----------             --------------        ------------------------------
 STRT.F                      990.0000:        START DEPTH
 STOP.F                     2362.0000:        STOP DEPTH
 STEP.F                        0.5000:        STEP VALUE
 NULL.                      -999.2500:        NULL VALUE
 COMP.                 U.S. AIR FORCE:        COMPANY  
 LOC .                   14  22N  18W:        LOCATION   
 DATE.                        4/21/69:        LOG DATE 
 WELL.       SOUTH BARROW GAS WELL #8:        WELL     
 UWI .                   500232000200:        UNIQUE WELL ID 
 API .                   500232000200:        UNIQUE WELL IDENTIFIER 
 FLD .                S. B. GAS FIELD:        FIELD    
 CNTY.                   POINT BARROW:        COUNTY  
 STAT.                         ALASKA:        STATE   
 CTRY.                            USA:        COUNTRY 
 OPER.                 U.S. AIR FORCE:        OPERATOR  
 SRVC.                   SCHLUMBERGER:        SERVICE COMPANY 
 LAT .                         0.0000:        LATITUDE
 LON .                         0.0000:        LONGITUDE
 DIGS.               CENTER LINE DATA:        DIGITIZING COMPANY 
~CURVE INFORMATION      
#MNEM        .UNIT         API CODE           CURVE DESCRIPTION
#-----------------      --------------        ------------------------------
 DEPT        .F                      :        1  DEPTH
 SP          .MV                     :        2  
 ASN         .OHMM                   :        3  
 ILD         .OHMM                   :        4  
 CILD        .MMHO                   :        5  
 CALI        .IN                     :        6  
 DT          .US/F                   :        7  
~PARAMETER INFORMATION       
#MNEM.UNIT                  VALUE             DESCRIPTION OF MNEMONIC
#---------             ---------------        ------------------------------
 EKB .F                       31.0000:        KELLY BUSHING
 TD  .F                     2363.0000:        TOTAL DEPTH
 BHT .F                       74.0000:        BOTTOM HOLE TEMPERATURE
 BS  .                         8.6250:        BIT SIZE
 FD  .                        10.6000:        FLUID DENSITY
 CSIZ.                         9.6250:        CASING SIZE
 CBD .F                      992.0000:        CASING DRILLER 1
 CBL .F                      990.0000:        CASING LOGGER 1
 DFT .                            Gel:        TYPE FLUID IN HOLE
 DFV .                        54.0000:        VISCOSITY
 DFPH.                        10.0000:        PH
 DFL .                         4.8000:        FLUID LOSS
 RMS .                         2.0000:        RM
 MST .F                       82.0000:        RM MEAS. TEMP.
 RMF .                         2.1800:        RMF
 MFST.F                       61.0000:        RMF MEAS. TEMP.
 RMC .                         4.1900:        RMC
 MCST.F                       53.0000:        RMC MEAS. TEMP.
~OTHER INFORMATION
~A    DEPTH          SP         ASN         ILD        CILD        CALI          DT  
# ...
  1178.0000    -61.4048      6.2247      6.4967    145.0298   -999.2500   -999.2500  
  1178.5000    -62.0549      6.2282      6.4759    147.0634   -999.2500   -999.2500  
  1179.0000    -62.3889      6.2347      6.4636    148.8088   -999.2500   -999.2500  
  1179.5000    -62.7920      6.2243      6.3935    150.2835   -999.2500   -999.2500  
  1180.0000    -63.1846      6.2213      6.3943    152.1230   -999.2500   -999.2500  
  1180.5000    -63.6504      6.2450      6.3980    153.5475   -999.2500   -999.2500  
  1181.0000    -64.1735      6.3231      6.4142    154.5577   -999.2500   -999.2500  
  1181.5000    -64.6628      6.4571      6.4094    155.9256   -999.2500   -999.2500  
  1182.0000    -65.2607      6.5352      6.4374    157.8087   -999.2500   -999.2500  
  1182.5000    -65.5770      6.5564      6.3961    159.7455   -999.2500   -999.2500  
  1183.0000    -65.7834      6.5151      6.3531    162.2057   -999.2500   -999.2500  
  1183.5000    -66.1396      6.4357      6.2048    164.9721   -999.2500   -999.2500  
  1184.0000    -66.1713      6.3630      6.2223    167.1453   -999.2500   -999.2500  
  1184.5000    -66.1292      6.3203      6.1111    168.8027   -999.2500   -999.2500  
  1185.0000    -66.3292      6.2705      6.0922    168.7666   -999.2500   -999.2500  
  1185.5000    -66.9269      6.2472      6.0862    167.9985   -999.2500   -999.2500  
  1186.0000    -67.4410      6.2266      6.1104    166.6192   -999.2500   -999.2500  
  1186.5000    -67.6127      6.1964      6.1352    164.8807   -999.2500   -999.2500  
  1187.0000    -67.1579      6.2506      6.1935    163.7184   -999.2500   -999.2500  
  1187.5000    -66.0949      6.3879      6.2297    162.9261   -999.2500   -999.2500  
  1188.0000    -64.6842      6.4943      6.2814    161.9642   -999.2500   -999.2500  
  1188.5000    -64.4445      6.5356      6.3567    160.8031   -999.2500   -999.2500  
  1189.0000    -64.4882      6.5279      6.3805    160.1855   -999.2500   -999.2500  
  1189.5000    -64.6236      6.4808      6.3245    160.6120   -999.2500   -999.2500  
  1190.0000    -64.8252      6.4127      6.2558    162.8161   -999.2500   -999.2500  
  1190.5000    -65.1488      6.3365      6.1693    165.2147   -999.2500   -999.2500  
  1191.0000    -65.6218      6.2513      6.0926    167.6857   -999.2500   -999.2500  
  1191.5000    -65.9921      6.2109      6.0385    170.0192   -999.2500   -999.2500  
  1192.0000    -66.3243      6.1835      5.9365    171.1741   -999.2500   -999.2500  
  1192.5000    -66.6301      6.1780      5.8346    173.0715   -999.2500   -999.2500  
  1193.0000    -66.8018      6.2150      5.7327    174.3295   -999.2500   -999.2500  
  1193.5000    -66.4901      6.2487      5.6308    175.5996   -999.2500   -999.2500  
  1194.0000    -65.9417      6.2064      5.5288    177.0400   -999.2500   -999.2500  
  1194.5000    -65.8583      6.1169      5.4273    178.8024   -999.2500   -999.2500  
  1195.0000    -65.1144      6.0548      5.4172    180.1606   -999.2500   -999.2500  
  1195.5000    -64.2491      6.0249      5.4070    180.9669   -999.2500   -999.2500  
  1196.0000    -63.4448      6.0484      5.3969    181.3519   -999.2500   -999.2500  
  1196.5000    -62.6397      6.0935      5.3867    181.8410   -999.2500   -999.2500  
  1197.0000    -62.6821      6.1665      5.3765    182.8074   -999.2500   -999.2500  
  1197.5000    -62.9920      6.2300      5.3664    182.0207   -999.2500   -999.2500  
  1198.0000    -63.0667      6.2350      5.3562    181.3172   -999.2500   -999.2500  
  1198.5000    -63.4685      6.2112      5.3914    180.4758   -999.2500   -999.2500  
  1199.0000    -63.8378      6.2116      5.5291    179.3806   -999.2500   -999.2500  
  1199.5000    -64.2570      6.2489      5.6185    177.9932   -999.2500   -999.2500  
  1200.0000    -64.3026      6.3395      5.5954    176.7508   -999.2500   -999.2500  
  1200.5000    -64.2746      6.4028      5.5925    175.7373   -999.2500   -999.2500  
  1201.0000    -64.5999      6.3825      5.6482    174.7817   -999.2500   -999.2500  
  1201.5000    -65.2901      6.3684      5.6853    174.0933   -999.2500   -999.2500  
  1202.0000    -65.5639      6.3799      5.7223    173.2688   -999.2500   -999.2500  
  1202.5000    -65.7564      6.3762      5.7593    172.1933   -999.2500   -999.2500  
  1203.0000    -65.9367      6.3962      5.7964    171.1164   -999.2500   -999.2500  
  1203.5000    -66.0620      6.4429      5.8334    169.9680   -999.2500   -999.2500  
  1204.0000    -65.9620      6.4991      5.8704    169.1983   -999.2500   -999.2500  
  1204.5000    -65.9849      6.5194      5.9075    168.2270   -999.2500   -999.2500  
  1205.0000    -65.9751      6.5191      5.7848    169.1568   -999.2500   -999.2500  
  1205.5000    -65.3859      6.4906      5.6342    171.0043   -999.2500   -999.2500  
  1206.0000    -64.8115      6.4090      5.4837    174.9501   -999.2500   -999.2500  
  1206.5000    -64.1417      6.1319      5.3331    180.1301   -999.2500   -999.2500  
  1207.0000    -62.7228      5.7293      5.2765    183.7183   -999.2500   -999.2500  
  1207.5000    -60.4175      5.1365      5.2715    185.8403   -999.2500   -999.2500  
  1208.0000    -55.7806      4.6411      5.2665    185.7783   -999.2500   -999.2500  
  1208.5000    -51.5686      4.4269      5.2615    185.2288   -999.2500   -999.2500  
  1209.0000    -49.2972      4.4791      5.2565    184.3158   -999.2500   -999.2500  
  1209.5000    -49.0021      4.7048      5.2516    182.5556   -999.2500   -999.2500  
  1210.0000    -49.3167      5.0626      5.3307    180.0626   -999.2500   -999.2500  
  1210.5000    -50.1656      5.3818      5.4900    172.9766   -999.2500   -999.2500  
  1211.0000    -50.9460      5.5683      5.6492    167.2604   -999.2500   -999.2500  
  1211.5000    -52.3746      5.6521      5.8084    162.5406   -999.2500   -999.2500  
  1212.0000    -52.4930      5.5691      5.9677    159.6777   -999.2500   -999.2500  
  1212.5000    -52.5714      5.3847      6.0375    158.2911   -999.2500   -999.2500  
  1213.0000    -51.8539      5.2547      5.9318    159.8012   -999.2500   -999.2500  
  1213.5000    -51.3792      5.1962      5.8262    161.6111   -999.2500   -999.2500  
  1214.0000    -51.7341      5.1805      5.7205    163.0193   -999.2500   -999.2500  
  1214.5000    -52.5246      5.1519      5.6663    165.0994   -999.2500   -999.2500  
  1215.0000    -53.1168      5.1252      5.6462    166.1337   -999.2500   -999.2500  
  1215.5000    -53.0287      5.2132      5.6262    168.0328   -999.2500   -999.2500  
  1216.0000    -53.6600      5.3884      5.6062    170.3821   -999.2500   -999.2500  
  1216.5000    -55.4115      5.6460      5.5861    173.3875   -999.2500   -999.2500  
  1217.0000    -57.2289      5.8947      5.5661    176.7624   -999.2500   -999.2500  
  1217.5000    -58.7033      6.0183      5.5348    179.1774   -999.2500   -999.2500  
  1218.0000    -61.0949      6.1303      5.4804    181.2289   -999.2500   -999.2500  
  1218.5000    -62.7406      6.0716      5.4260    182.3284   -999.2500   -999.2500  
  1219.0000    -62.8039      5.9181      5.3716    182.1335   -999.2500   -999.2500  
  1219.5000    -61.1298      5.7078      5.3423    181.2051   -999.2500   -999.2500  
  1220.0000    -57.6784      5.3502      5.3522    179.0217   -999.2500   -999.2500  
  1220.5000    -55.0245      5.1276      5.3622    176.1879   -999.2500   -999.2500  
  1221.0000    -53.3408      5.0851      5.3721    173.6019   -999.2500   -999.2500  
  1221.5000    -51.9341      5.0925      5.3820    171.4962   -999.2500   -999.2500  
  1222.0000    -50.8162      5.1181      5.3987    170.0679   -999.2500   -999.2500  
  1222.5000    -50.5413      5.1618      5.3998    169.5457   -999.2500   -999.2500  
  1223.0000    -50.7280      5.2117      5.3536    170.2775   -999.2500   -999.2500  
  1223.5000    -51.1028      5.2484      5.3639    170.9358   -999.2500   -999.2500  
  1224.0000    -52.3301      5.2459      5.3386    171.6567   -999.2500   -999.2500  
  1224.5000    -53.0657      5.1978      5.3026    172.7025   -999.2500   -999.2500  
