~VERSION INFORMATION
 VERS.                           2.00:        CWLS LOG ASCII STANDARD - VERSION 2.00
 WRAP.                             NO:        ONE LINE PER DEPTH STEP
~WELL INFORMATION
#MNEM.UNIT                   DATA             INFORMATION
#----------             --------------        ------------------------------
 STRT.F                       25.0000:        START DEPTH
 STOP.F                     2347.0000:        STOP DEPTH
 STEP.F                        0.5000:        STEP VALUE
 NULL.                      -999.2500:        NULL VALUE
 COMP.        HUSKY OIL COMPANY/NPR-A:        COMPANY
 LOC .                     26 22N 17W:        LOCATION
 DATE.                        4/14/80:        LOG DATE
 WELL.                     BARROW #20:        WELL
 UWI .                   500232001500:        UNIQUE WELL ID
 API .                   500232001500:        UNIQUE WELL IDENTIFIER
 FLD .                   SOUTH BARROW:        FIELD
 CNTY.                    NORTH SLOPE:        COUNTY
 STAT.                        ALAASKA:        STATE
 CTRY.                            USA:        COUNTRY
 OPER.        HUSKY OIL COMPANY/NPR-A:        OPERATOR
 SRVC.                   SCHLUMBERGER:        SERVICE COMPANY
 LAT .                         0.0000:        LATITUDE
 LON .                         0.0000:        LONGITUDE
 DIGS.               CENTER LINE DATA:        DIGITIZING COMPANY
~CURVE INFORMATION      
#MNEM        .UNIT         API CODE           CURVE DESCRIPTION
#-----------------      --------------        ------------------------------
 DEPT        .F                      :        1  DEPTH
 CALI        .IN                     :        2  
 GR          .GAPI                   :        3  
 DRHO        .G/C3                   :        4  
 RHOB        .G/C3                   :        5  
 NPHI        .%                      :        6  
 SP          .MV                     :        7  
 ILD         .OHMM                   :        8  
 ILM         .OHMM                   :        9  
 SFL         .OHMM                   :        10 
 LLD         .OHMM                   :        11 
 LLS         .OHMM                   :        12 
 MSFL        .OHMM                   :        13 
 DT          .US/F                   :        14 
~PARAMETER INFORMATION
#MNEM.UNIT                  VALUE             DESCRIPTION OF MNEMONIC
#---------             ---------------        ------------------------------
 EKB .F                       30.0000:        KELLY BUSHING
 TD  .F                     2356.0000:        TOTAL DEPTH
 BHT .F                        0.0000:        BOTTOM HOLE TEMPERATURE
 BS  .                         8.5000:        BIT SIZE
 FD  .                        10.8000:        FLUID DENSITY
 CSIZ.                         9.6250:        CASING SIZE
 CBD .F                     1500.0000:        CASING DRILLER 1
 CBL .F                     1485.0000:        CASING LOGGER 1
 DFT .                            GEL:        TYPE FLUID IN HOLE
 DFV .                        10.0000:        VISCOSITY
 DFPH.                         9.0000:        PH
 DFL .                        10.0000:        FLUID LOSS
 RMS .                         0.1840:        RM
 MST .F                       61.0000:        RM MEAS. TEMP.
 RMF .                         0.1270:        RMF
 MFST.F                       61.0000:        RMF MEAS. TEMP.
 RMC .                         0.2660:        RMC
 MCST.F                       61.0000:        RMC MEAS. TEMP.
~OTHER INFORMATION
~A    DEPTH        CALI          GR        DRHO        RHOB        NPHI          SP         ILD         ILM         SFL         LLD         LLS        MSFL          DT 
# ...
  1585.0000      8.8111     60.8103      0.0156      2.4640     39.8321    -54.5893   -999.2500   -999.2500   -999.2500     17.9545     14.6211      8.1990    110.6340 
  1585.5000      8.7528     61.8483      0.0279      2.4548     39.2207    -54.7259   -999.2500   -999.2500   -999.2500     15.1751     13.1075      6.4183    115.0441 
  1586.0000      8.8382     66.0365      0.0176      2.4525     38.6708    -54.9568   -999.2500   -999.2500   -999.2500     12.8480     10.5632      4.3193    118.6028 
  1586.5000      8.9401     68.3035      0.0002      2.4629     37.6704    -54.9678   -999.2500   -999.2500   -999.2500     11.2915      8.5128      3.4169    118.4085 
  1587.0000      8.8464     69.8778      0.0124      2.4876     38.7831    -55.1724   -999.2500   -999.2500   -999.2500     10.2124      7.2869      2.5640    114.9709 
  1587.5000      8.7920     72.8958      0.0384      2.5100     40.6729    -55.2325   -999.2500   -999.2500   -999.2500     10.3086      7.2359      2.4809    110.8114 
  1588.0000      8.8152     74.5969      0.0699      2.5293     41.5681    -55.2654   -999.2500   -999.2500   -999.2500     11.4499      9.2102      4.9773    109.1179 
  1588.5000      8.8290     72.6784      0.0778      2.5187     42.0602    -55.4852   -999.2500   -999.2500   -999.2500     16.7144     12.3431     17.3473    107.3037 
  1589.0000      8.8521     69.3067      0.0461      2.5010     45.2489    -55.6994   -999.2500   -999.2500   -999.2500     18.9711     16.5417     10.6218    105.5404 
  1589.5000      8.8499     64.1038      0.0114      2.5037     47.4300    -55.9028   -999.2500   -999.2500   -999.2500     17.4815     16.0235      5.0663    107.4343 
  1590.0000      8.8322     60.8065     -0.0163      2.5552     48.5739    -56.1029   -999.2500   -999.2500   -999.2500     14.6217     11.4141      2.3102    110.8412 
  1590.5000      8.8000     63.3049     -0.0356      2.6346     46.6285    -56.3029   -999.2500   -999.2500   -999.2500     12.2297      9.3022      1.9226    113.2861 
  1591.0000      8.7706     69.8992     -0.0232      2.6658     43.6038    -56.5029   -999.2500   -999.2500   -999.2500     10.7588      8.2470      2.8267    113.9975 
  1591.5000      8.7543     75.4108     -0.0060      2.6256     39.5359    -56.6133   -999.2500   -999.2500   -999.2500     10.7108      8.2065      3.6752    113.6537 
  1592.0000      8.7566     76.9036      0.0085      2.5623     37.9363    -56.7557   -999.2500   -999.2500   -999.2500     11.0827      8.5292      4.9594    112.4871 
  1592.5000      8.7744     75.9014      0.0079      2.4949     38.0560    -56.6679   -999.2500   -999.2500   -999.2500     11.4675      9.0206      7.3378    111.1013 
  1593.0000      8.8071     75.6034      0.0158      2.4910     39.6575    -56.6603   -999.2500   -999.2500   -999.2500     11.9113      9.6480      8.6082    110.6713 
  1593.5000      8.8410     75.8316      0.0224      2.5005     40.5014    -56.5575   -999.2500   -999.2500   -999.2500     12.4170      9.8895      8.6036    111.1730 
  1594.0000      8.8854     75.2401      0.0087      2.4864     41.2277    -56.3067   -999.2500   -999.2500   -999.2500     12.2686      9.6197      7.8444    112.7322 
  1594.5000      8.8728     73.3992      0.0052      2.5021     41.1419    -55.9708   -999.2500   -999.2500   -999.2500     11.8514      9.2387      6.9123    114.1913 
  1595.0000      8.8241     72.3333      0.0052      2.5132     40.8363    -55.3271   -999.2500   -999.2500   -999.2500     10.6663      8.3526      4.9651    115.1413 
  1595.5000      8.7856     73.1436      0.0045      2.5312     40.8057    -55.2098   -999.2500   -999.2500   -999.2500     10.0514      7.8535      3.7350    114.4763 
  1596.0000      8.8061     74.5520      0.0118      2.5432     41.5417    -55.4966   -999.2500   -999.2500   -999.2500     10.1247      7.5352      3.4049    112.3549 
  1596.5000      8.8382     75.3363      0.0125      2.5216     42.8439    -55.9540   -999.2500   -999.2500   -999.2500     10.6066      8.1354      5.0880    109.9248 
  1597.0000      8.8463     75.5377      0.0254      2.5052     43.7093    -56.1297   -999.2500   -999.2500   -999.2500     11.1116      8.9984      6.6469    109.8690 
  1597.5000      8.8464     75.7223      0.0383      2.5045     43.7772    -56.4272   -999.2500   -999.2500   -999.2500     11.6012      9.5048      7.0381    110.5836 
  1598.0000      8.8514     75.0493      0.0241      2.5025     44.4733    -56.9943   -999.2500   -999.2500   -999.2500     11.7555      9.5642      5.3146    111.5655 
  1598.5000      8.8670     73.5664      0.0130      2.5028     45.6547    -57.4372   -999.2500   -999.2500   -999.2500     11.4120      9.0178      4.3557    112.7748 
  1599.0000      8.8711     72.7352      0.0064      2.5311     44.6915    -57.4355   -999.2500   -999.2500   -999.2500     11.0626      8.5229      4.8808    113.2719 
  1599.5000      8.8533     72.9178      0.0028      2.5635     43.2551    -57.3893   -999.2500   -999.2500   -999.2500     10.7027      8.2288      4.7972    113.4585 
  1600.0000      8.8356     73.6153      0.0027      2.5311     41.9516    -57.3741   -999.2500   -999.2500   -999.2500     10.9919      8.1829      4.3548    111.7043 
  1600.5000      8.8178     74.4097      0.0043      2.4889     40.7125    -57.3636   -999.2500   -999.2500   -999.2500     11.8761      8.6842      4.4783    109.7419 
  1601.0000      8.8096     74.5621      0.0058      2.4839     40.2899    -57.2438   -999.2500   -999.2500   -999.2500     12.5993      9.3528      5.3357    109.4843 
  1601.5000      8.8096     74.6659      0.0093      2.4878     39.8490    -57.2757   -999.2500   -999.2500   -999.2500     12.4653      9.5753      6.9037    110.6169 
  1602.0000      8.8096     74.9664      0.0186      2.4983     39.7907    -57.2093   -999.2500   -999.2500   -999.2500     12.0048      9.3109      6.5216    111.6486 
  1602.5000      8.7962     75.1376      0.0194      2.5136     39.8629    -57.0138   -999.2500   -999.2500   -999.2500     11.5536      8.8340      4.5256    109.7352 
  1603.0000      8.7817     74.9425      0.0102      2.5277     39.9954    -56.9839   -999.2500   -999.2500   -999.2500     11.0862      8.6614      4.1161    109.3892 
  1603.5000      8.7673     75.1997      0.0023      2.5340     39.8878    -57.0560   -999.2500   -999.2500   -999.2500     11.3798      8.8775      4.4357    109.3362 
  1604.0000      8.7626     76.7537      0.0186      2.5488     38.7560    -57.1448   -999.2500   -999.2500   -999.2500     11.7996      9.2432      4.8347    109.5066 
  1604.5000      8.7666     76.9008      0.0288      2.5248     38.1539    -57.1078   -999.2500   -999.2500   -999.2500     11.9918      9.4672      3.8959    109.8519 
  1605.0000      8.7741     76.0376      0.0213      2.4908     38.1964    -57.2606   -999.2500   -999.2500   -999.2500     12.2558      9.4067      4.0328    109.9634 
  1605.5000      8.7816     76.0832      0.0137      2.4991     38.6488    -57.2808   -999.2500   -999.2500   -999.2500     12.2570      9.3423      6.0176    110.2313 
  1606.0000      8.7891     75.5217      0.0062      2.5112     39.2176    -57.3057   -999.2500   -999.2500   -999.2500     11.8280      9.3220      6.5957    111.3327 
  1606.5000      8.7966     74.8124      0.0117      2.5272     39.6466    -57.2553   -999.2500   -999.2500   -999.2500     11.3248      9.0682      5.3326    110.8059 
  1607.0000      8.8041     74.8126      0.0128      2.5232     40.2016    -57.2509   -999.2500   -999.2500   -999.2500     10.7849      8.7101      5.1489    110.3244 
  1607.5000      8.8116     74.7650      0.0039      2.5074     40.9177    -57.2774   -999.2500   -999.2500   -999.2500     11.1149      8.7591      5.6618    110.2599 
  1608.0000      8.8206     74.2843      0.0051      2.5041     42.3183    -57.3038   -999.2500   -999.2500   -999.2500     11.4551      9.1437      7.3519    110.6823 
  1608.5000      8.8315     73.6159      0.0127      2.5133     42.9790    -57.1775   -999.2500   -999.2500   -999.2500     11.9218      9.4945      7.3506    112.0684 
