~VERSION INFORMATION
 VERS.                           2.00:        CWLS LOG ASCII STANDARD - VERSION 2.00
 WRAP.                             NO:        ONE LINE PER DEPTH STEP
~WELL INFORMATION
#MNEM.UNIT                   DATA             INFORMATION
#----------             --------------        ------------------------------
 STRT.F                       50.0000:        START DEPTH
 STOP.F                     2158.0000:        STOP DEPTH
 STEP.F                        0.5000:        STEP VALUE
 NULL.                      -999.2500:        NULL VALUE
 COMP.              HUSKY OIL COMPANY:        COMPANY  
 LOC .                   25  22N  17W:        LOCATION   
 DATE.                        2-19-77:        LOG DATE 
 WELL.               SOUTH BARROW #14:        WELL     
 UWI .                   500232000900:        UNIQUE WELL ID 
 API .                   500232000900:        UNIQUE WELL IDENTIFIER 
 FLD .               SOUTH BARROW GAS:        FIELD    
 CNTY.                    NORTH SLOPE:        COUNTY  
 STAT.                         ALASKA:        STATE   
 CTRY.                            USA:        COUNTRY 
 OPER.              HUSKY OIL COMPANY:        OPERATOR  
 SRVC.                   SCHLUMBERGER:        SERVICE COMPANY 
 LAT .                         0.0000:        LATITUDE
 LON .                         0.0000:        LONGITUDE
 DIGS.               CENTER LINE DATA:        DIGITIZING COMPANY 
~CURVE INFORMATION      
#MNEM        .UNIT         API CODE           CURVE DESCRIPTION
#-----------------      --------------        ------------------------------
 DEPT        .F                      :        1  DEPTH
 LLS         .OHMM                   :        2  
 LLD         .OHMM                   :        3  
 SP          .MV                     :        4  
 ILD         .OHMM                   :        5  
 ILM         .OHMM                   :        6  
 LL8         .OHMM                   :        7  
 CALI        .IN                     :        8  
 GR          .GAPI                   :        9  
 NPHI        .%                      :        10 
 DPHI        .%                      :        11 
 RHOB        .G/C3                   :        12 
 DRHO        .G/C3                   :        13 
 DT          .US/F                   :        14 
~PARAMETER INFORMATION       
#MNEM.UNIT                  VALUE             DESCRIPTION OF MNEMONIC
#---------             ---------------        ------------------------------
 EKB .F                       31.0000:        KELLY BUSHING
 TD  .F                     1042.0000:        TOTAL DEPTH
 BHT .F                       62.0000:        BOTTOM HOLE TEMPERATURE
 BS  .                         6.0000:        BIT SIZE
 FD  .                        10.7000:        FLUID DENSITY
 CSIZ.                         7.0000:        CASING SIZE
 CBD .F                     1947.0000:        CASING DRILLER 1
 CBL .F                     1946.0000:        CASING LOGGER 1
 DFT .                  Miscellaneous:        TYPE FLUID IN HOLE
 DFV .                        50.0000:        VISCOSITY
 DFPH.                        10.0000:        PH
 DFL .                         0.0000:        FLUID LOSS
 RMS .                         0.1500:        RM
 MST .F                       50.0000:        RM MEAS. TEMP.
 RMF .                         0.1600:        RMF
 MFST.F                       61.0000:        RMF MEAS. TEMP.
 RMC .                         0.0000:        RMC
 MCST.F                        0.0000:        RMC MEAS. TEMP.
~OTHER INFORMATION
~A    DEPTH         LLS         LLD          SP         ILD         ILM         LL8        CALI          GR        NPHI        DPHI        RHOB        DRHO          DT  
# ...
  1466.0000   -999.2500   -999.2500    -55.8371      8.2647      8.4502      8.8781      8.3928     91.6945     44.3283     17.4836      2.4262      0.1060    120.2989  
  1466.5000   -999.2500   -999.2500    -55.7998      8.4827      8.6730      9.0001      8.5277     89.2725     45.8998     14.7994      2.4207      0.0865    122.1313  
  1467.0000   -999.2500   -999.2500    -55.7743      8.7063      8.9017      9.5298      8.5278     89.2332     46.2280     14.5588      2.4178      0.0975    123.6026  
  1467.5000   -999.2500   -999.2500    -55.7420      8.9359      9.1364     10.2195      8.5624     89.5218     45.9411     14.5755      2.3937      0.1022    123.6658  
  1468.0000   -999.2500   -999.2500    -55.9702      9.1715      9.3773     10.6332      8.5842     87.8612     45.4111     15.1699      2.3783      0.0772    123.0941  
  1468.5000   -999.2500   -999.2500    -56.4053      9.4134      9.6245     10.2793      8.5034     85.1574     42.8835     16.5376      2.4145      0.0814    122.2713  
  1469.0000   -999.2500   -999.2500    -56.8125      9.6616      9.8783      9.9372      8.3617     84.3710     40.3768     16.5642      2.4669      0.1293    120.0242  
  1469.5000   -999.2500   -999.2500    -56.9878      9.7040      9.8931      9.6065      8.3447     85.5111     40.0550     14.4338      2.4434      0.1336    118.2429  
  1470.0000   -999.2500   -999.2500    -57.0154      9.7013      9.8904      9.8563      8.3341     84.8882     40.8534     11.4253      2.4274      0.1379    117.2382  
  1470.5000   -999.2500   -999.2500    -57.0011      9.6986      9.8876     10.1301      8.3372     83.1143     42.4999     13.3581      2.3751      0.1390    115.6814  
  1471.0000   -999.2500   -999.2500    -56.8157      9.6764      9.8679     10.3797      8.5468     82.5821     43.3587     14.4603      2.3533      0.1196    116.6115  
  1471.5000   -999.2500   -999.2500    -56.4447      9.5783      9.7700     10.1164      8.2691     82.5775     44.0186     17.2718      2.3428      0.1059    116.7582  
  1472.0000   -999.2500   -999.2500    -56.0722      9.3528      9.5728      9.8598      8.1119     83.2622     44.9291     18.6897      2.3882      0.1216    116.3772  
  1472.5000   -999.2500   -999.2500    -55.7068      9.3250      9.5068      9.6306      8.0747     84.6838     45.7879     18.6794      2.3988      0.1599    115.9821  
  1473.0000   -999.2500   -999.2500    -55.5967      9.3733      9.5583      9.5693      7.9662     87.2488     45.2065     16.0396      2.3767      0.1492    114.9933  
  1473.5000   -999.2500   -999.2500    -55.7656      9.4569      9.6474      9.7895      8.0268     89.0276     44.3406     16.1600      2.3431      0.1047    115.6115  
  1474.0000   -999.2500   -999.2500    -56.0960      9.4899      9.6925     10.0752      8.0874     89.8608     43.6523     17.6745      2.3427      0.0660    116.0651  
  1474.5000   -999.2500   -999.2500    -56.3219      9.2969      9.4954     10.3692      8.0060     89.4334     42.3706     19.6780      2.3648      0.0558    116.7470  
  1475.0000   -999.2500   -999.2500    -56.1251      9.1079      9.3022     10.4304      7.9024     88.9314     40.5532     20.1295      2.3757      0.0706    117.5737  
  1475.5000   -999.2500   -999.2500    -55.6443      8.9227      9.1130     10.2984      7.8769     89.5565     39.7934     18.8250      2.4116      0.0999    116.9295  
  1476.0000   -999.2500   -999.2500    -55.2742      8.7412      8.9277      9.9747      8.0560     88.8897     40.9902     16.6813      2.3890      0.0984    101.9902  
  1476.5000   -999.2500   -999.2500    -55.1434      8.9100      9.1380      9.7492      8.2221     88.2648     42.4071     14.8978      2.3707      0.0925    113.9153  
  1477.0000   -999.2500   -999.2500    -55.5198      9.2661      9.5033     10.5050      8.1992     88.5690     42.8517     16.8156      2.3757      0.0874    104.5402  
  1477.5000   -999.2500   -999.2500    -55.8974      9.6364      9.8831     11.1984      8.1205     88.5762     43.4715     17.2408      2.3794      0.0971     67.4243  
  1478.0000   -999.2500   -999.2500    -56.1687      9.9166     10.1218     11.3656      8.0642     87.0792     42.8407     16.5443      2.3540      0.0659     71.8200  
  1478.5000   -999.2500   -999.2500    -56.5344      9.9896     10.1842     11.2213      8.0212     85.8459     41.1388     17.0253      2.3710      0.0551     60.1181  
  1479.0000   -999.2500   -999.2500    -56.5741      9.9065     10.1158     11.2390      7.9887     86.0598     39.7932     18.1918      2.3884      0.0761    112.7075  
  1479.5000   -999.2500   -999.2500    -56.3947      9.7168      9.9221     11.2678      7.9757     87.5871     39.1736     17.3995      2.4186      0.1117    113.6409  
  1480.0000   -999.2500   -999.2500    -56.2136      9.5307      9.7321     11.0272      7.9974     88.8754     38.4437     16.3378      2.4364      0.1562    112.2376  
  1480.5000   -999.2500   -999.2500    -56.0601      9.6313      9.8373     10.7916      8.0196     88.6632     38.4447     14.0358      2.4117      0.1525    111.3905  
  1481.0000   -999.2500   -999.2500    -55.9060      9.8328     10.1063     10.5611      8.1494     86.6976     39.1427     13.7643      2.3919      0.1265    111.9361  
  1481.5000   -999.2500   -999.2500    -55.6661     10.5840     11.0321     10.7370      8.3832     85.6461     39.8576     15.0228      2.3550      0.0927    113.8598  
  1482.0000   -999.2500   -999.2500    -55.6905     11.5537     12.0428     12.1514      8.4857     85.5450     40.5134     16.5640      2.3537      0.0889    114.7148  
  1482.5000   -999.2500   -999.2500    -56.0279     12.5890     13.0947     14.7103      8.3976     81.9343     40.4228     18.0899      2.3371      0.0600    114.6531  
  1483.0000   -999.2500   -999.2500    -56.6393     13.6647     14.2136     20.8209      8.3024     78.4025     39.2119     18.1382      2.3473      0.0588    112.4877  
  1483.5000   -999.2500   -999.2500    -57.1702     13.8841     14.1607     29.0198      8.1998     75.1357     37.5957     20.1456      2.3400      0.0573    111.3834  
  1484.0000   -999.2500   -999.2500    -56.8488     13.3686     13.8590     24.7820      8.1797     70.6844     37.0677     19.0100      2.3256      0.0792    108.5695  
  1484.5000   -999.2500   -999.2500    -56.0722     12.4313     12.8867     16.2364      8.2768     66.5007     37.3280     19.5166      2.3091      0.0911    107.2431  
  1485.0000   -999.2500   -999.2500    -55.2479     11.5280     11.9827     12.7297      8.4685     68.5919     36.1035     20.2197      2.3482      0.0938    114.9510  
  1485.5000   -999.2500   -999.2500    -54.7642     10.5262     10.9250     10.6025      8.2170     73.3558     36.6681     21.2338      2.3946      0.0835    123.7659  
  1486.0000   -999.2500   -999.2500    -54.3682      9.7535     10.1230     10.0298      8.3566     80.1106     38.7017     18.8657      2.3992      0.0878    124.4463  
  1486.5000   -999.2500   -999.2500    -54.0036      9.0375      9.3799      9.9155      8.4748     84.4492     42.2520     16.0037      2.3932      0.1002    125.3991  
  1487.0000   -999.2500   -999.2500    -53.8936      8.4161      8.6914     10.2787      8.6089     87.0452     43.5184     15.4396      2.3699      0.0719    116.4464  
  1487.5000   -999.2500   -999.2500    -54.1883      8.5183      8.6898     10.5777      8.4490     88.8598     42.5747     16.1337      2.3859      0.0455    109.4440  
  1488.0000   -999.2500   -999.2500    -54.4058      8.6217      8.7953     10.8081      8.1935     85.7281     42.1753     17.3697      2.4450      0.0964    112.3669  
  1488.5000   -999.2500   -999.2500    -54.4923      8.7263      8.9032     10.4680      8.3892     85.0442     42.5478     16.1851      2.3939      0.0919    114.9429  
  1489.0000   -999.2500   -999.2500    -54.6014      8.8834      9.0700     10.1385      8.5124     86.8719     43.0351     13.1016      2.3625      0.0851    115.1925  
  1489.5000   -999.2500   -999.2500    -54.7078      9.0498      9.2400      9.7313      8.6198     88.9084     43.8602     15.6649      2.3741      0.0893    116.1411  
