~VERSION INFORMATION
 VERS.                           2.00:        CWLS LOG ASCII STANDARD - VERSION 2.00
 WRAP.                             NO:        ONE LINE PER DEPTH STEP
~WELL INFORMATION
#MNEM.UNIT                   DATA             INFORMATION
#----------             --------------        ------------------------------
 STRT.F                       25.0000:        START DEPTH
 STOP.F                     2347.0000:        STOP DEPTH
 STEP.F                        0.5000:        STEP VALUE
 NULL.                      -999.2500:        NULL VALUE
 COMP.        HUSKY OIL COMPANY/NPR-A:        COMPANY
 LOC .                     26 22N 17W:        LOCATION
 DATE.                        4/14/80:        LOG DATE
 WELL.                     BARROW #20:        WELL
 UWI .                   500232001500:        UNIQUE WELL ID
 API .                   500232001500:        UNIQUE WELL IDENTIFIER
 FLD .                   SOUTH BARROW:        FIELD
 CNTY.                    NORTH SLOPE:        COUNTY
 STAT.                        ALAASKA:        STATE
 CTRY.                            USA:        COUNTRY
 OPER.        HUSKY OIL COMPANY/NPR-A:        OPERATOR
 SRVC.                   SCHLUMBERGER:        SERVICE COMPANY
 LAT .                         0.0000:        LATITUDE
 LON .                         0.0000:        LONGITUDE
 DIGS.               CENTER LINE DATA:        DIGITIZING COMPANY
~CURVE INFORMATION      
#MNEM        .UNIT         API CODE           CURVE DESCRIPTION
#-----------------      --------------        ------------------------------
 DEPT        .F                      :        1  DEPTH
 CALI        .IN                     :        2  
 GR          .GAPI                   :        3  
 DRHO        .G/C3                   :        4  
 RHOB        .G/C3                   :        5  
 NPHI        .%                      :        6  
 SP          .MV                     :        7  
 ILD         .OHMM                   :        8  
 ILM         .OHMM                   :        9  
 SFL         .OHMM                   :        10 
 LLD         .OHMM                   :        11 
 LLS         .OHMM                   :        12 
 MSFL        .OHMM                   :        13 
 DT          .US/F                   :        14 
~PARAMETER INFORMATION
#MNEM.UNIT                  VALUE             DESCRIPTION OF MNEMONIC
#---------             ---------------        ------------------------------
 EKB .F                       30.0000:        KELLY BUSHING
 TD  .F                     2356.0000:        TOTAL DEPTH
 BHT .F                        0.0000:        BOTTOM HOLE TEMPERATURE
 BS  .                         8.5000:        BIT SIZE
 FD  .                        10.8000:        FLUID DENSITY
 CSIZ.                         9.6250:        CASING SIZE
 CBD .F                     1500.0000:        CASING DRILLER 1
 CBL .F                     1485.0000:        CASING LOGGER 1
 DFT .                            GEL:        TYPE FLUID IN HOLE
 DFV .                        10.0000:        VISCOSITY
 DFPH.                         9.0000:        PH
 DFL .                        10.0000:        FLUID LOSS
 RMS .                         0.1840:        RM
 MST .F                       61.0000:        RM MEAS. TEMP.
 RMF .                         0.1270:        RMF
 MFST.F                       61.0000:        RMF MEAS. TEMP.
 RMC .                         0.2660:        RMC
 MCST.F                       61.0000:        RMC MEAS. TEMP.
~OTHER INFORMATION
~A    DEPTH        CALI          GR        DRHO        RHOB        NPHI          SP         ILD         ILM         SFL         LLD         LLS        MSFL          DT 
# ...
  1801.0000      8.7343     65.0971      0.0089      2.4980     29.3882    -54.7913   -999.2500   -999.2500   -999.2500     12.7572     11.7375     10.0785     97.4561 
  1801.5000      8.7290     66.4063      0.0074      2.5077     29.7185    -54.8631   -999.2500   -999.2500   -999.2500     13.2041     11.9184     10.9403     97.3046 
  1802.0000      8.7226     66.7014      0.0077      2.5182     30.4834    -54.9159   -999.2500   -999.2500   -999.2500     13.3842     11.8263     11.2539     96.7678 
  1802.5000      8.7360     66.7522      0.0127      2.5130     31.2654    -54.8754   -999.2500   -999.2500   -999.2500     13.5356     11.6554     11.0517     95.8731 
  1803.0000      8.7021     66.7766      0.0244      2.5260     31.6600    -55.0384   -999.2500   -999.2500   -999.2500     12.8981     11.3954     10.2317     95.7120 
  1803.5000      8.7129     66.7533      0.0214      2.5276     31.7055    -55.1618   -999.2500   -999.2500   -999.2500     12.0648     11.0871      9.1389     95.9338 
  1804.0000      8.8796     66.7749      0.0075      2.5191     31.3325    -55.2460   -999.2500   -999.2500   -999.2500     11.7530     10.8404      9.0665     97.0392 
  1804.5000      8.7208     66.8092      0.0066      2.5231     30.4870    -55.2974   -999.2500   -999.2500   -999.2500     11.6305     10.6548      9.2327     98.8301 
  1805.0000      8.6369     66.8783      0.0056      2.5323     29.5963    -55.3490   -999.2500   -999.2500   -999.2500     11.6355     10.4723      9.2966     99.4751 
  1805.5000      8.7898     67.5930      0.0059      2.5165     29.0640    -55.4420   -999.2500   -999.2500   -999.2500     11.6878     10.4005      9.2910     99.4529 
  1806.0000      8.7431     68.7739      0.0090      2.5036     30.4867    -55.3524   -999.2500   -999.2500   -999.2500     11.7591     10.4734      9.2855     99.3555 
  1806.5000      8.6787     69.2579      0.0158      2.5031     31.4389    -55.2832   -999.2500   -999.2500   -999.2500     11.8342     10.5467      9.4046     99.5379 
  1807.0000      8.8763     69.7179      0.0184      2.5129     31.5735    -55.3942   -999.2500   -999.2500   -999.2500     11.9135     10.6206      9.5014     99.6106 
  1807.5000      8.5612     69.8391      0.0166      2.5167     31.5076    -55.3962   -999.2500   -999.2500   -999.2500     11.9934     10.6512      9.5614     99.5189 
  1808.0000      8.7969     69.8939      0.0148      2.5147     31.3538    -55.2957   -999.2500   -999.2500   -999.2500     12.0920     10.7016      9.6205     99.3997 
  1808.5000      8.8238     69.9486      0.0136      2.5091     31.5555    -55.1621   -999.2500   -999.2500   -999.2500     12.1984     10.7650      9.7441     99.3731 
  1809.0000      8.7894     70.0034      0.0143      2.5048     31.9954    -55.1217   -999.2500   -999.2500   -999.2500     12.3058     10.8288      9.8731     99.5165 
  1809.5000      8.7725     70.0582      0.0231      2.5095     32.3647    -55.0652   -999.2500   -999.2500   -999.2500     12.3127     10.8930      9.9765     99.7298 
  1810.0000      8.7675     70.1129      0.0222      2.5131     32.3403    -55.0935   -999.2500   -999.2500   -999.2500     12.4059     10.9472     10.0698     99.8659 
  1810.5000      8.7304     70.1677      0.0047      2.4973     31.5579    -55.0933   -999.2500   -999.2500   -999.2500     12.4419     10.9900     10.0939    100.1745 
  1811.0000      8.7225     70.0600      0.0040      2.4934     31.1875    -55.0747   -999.2500   -999.2500   -999.2500     12.2646     11.0329      9.9594    100.4180 
  1811.5000      8.7604     69.7476      0.0056      2.4936     30.3223    -55.1032   -999.2500   -999.2500   -999.2500     12.0913     11.0248      9.6600    100.7107 
  1812.0000      8.7757     69.1251      0.0072      2.4902     30.5335    -55.2714   -999.2500   -999.2500   -999.2500     12.0051     11.0163      9.3672    101.1829 
  1812.5000      8.7279     68.6260      0.0051      2.4926     30.9297    -55.3929   -999.2500   -999.2500   -999.2500     12.0031     11.0078      9.3241    101.2834 
  1813.0000      8.6676     68.6110      0.0021      2.4918     31.0798    -55.4814   -999.2500   -999.2500   -999.2500     12.0767     10.9992      9.3744    101.1323 
  1813.5000      8.6436     68.8852     -0.0005      2.4853     31.2381    -55.4823   -999.2500   -999.2500   -999.2500     12.1506     10.9685      9.4250    100.9926 
  1814.0000      8.6222     69.6075     -0.0004      2.4835     31.3405    -55.5011   -999.2500   -999.2500   -999.2500     12.2250     10.9007      9.4759    100.7841 
  1814.5000      8.7205     70.2503      0.0028      2.4887     31.3134    -55.5140   -999.2500   -999.2500   -999.2500     12.0361     10.7193      9.5271    100.8109 
  1815.0000      8.6756     70.5966      0.0092      2.4947     31.2303    -55.5185   -999.2500   -999.2500   -999.2500     11.6000     10.5408      9.3756    101.4030 
  1815.5000      8.7615     70.7233      0.0156      2.5004     31.0761    -55.6113   -999.2500   -999.2500   -999.2500     11.2710     10.3964      8.9803    101.7834 
  1816.0000      8.7399     70.6683      0.0144      2.4997     30.6813    -55.6034   -999.2500   -999.2500   -999.2500     10.9692     10.2771      8.6002    102.2591 
  1816.5000      8.7077     70.5393      0.0015      2.4975     30.2157    -55.5021   -999.2500   -999.2500   -999.2500     10.6755     10.1592      8.5570    103.0542 
  1817.0000      8.7289     70.4102      0.0021      2.4937     30.2525    -55.5505   -999.2500   -999.2500   -999.2500     10.4335      9.8715      8.5140    103.7115 
  1817.5000      8.7452     71.0440      0.0080      2.4799     30.5934    -55.6128   -999.2500   -999.2500   -999.2500     10.2005      9.6291      8.3921    104.0573 
  1818.0000      8.7060     71.8185      0.0153      2.4902     31.3015    -55.5768   -999.2500   -999.2500   -999.2500      9.9728      9.4141      7.3071    104.4881 
  1818.5000      8.6533     72.3843      0.0209      2.5006     31.9978    -55.5676   -999.2500   -999.2500   -999.2500     10.0199      9.5040      6.5019    104.3451 
  1819.0000      8.7144     72.9724      0.0211      2.5010     32.7776    -55.5529   -999.2500   -999.2500   -999.2500     10.1178      9.5969      5.0923    103.8117 
  1819.5000      8.7033     72.9046      0.0195      2.4989     33.0080    -55.6383   -999.2500   -999.2500   -999.2500     10.5065      9.7392      5.8838    103.0504 
  1820.0000      8.7276     72.3689      0.0245      2.5004     33.3195    -55.9981   -999.2500   -999.2500   -999.2500     11.0411     10.2343      8.7032    101.5415 
  1820.5000      8.7768     71.8437      0.0287      2.5024     33.8091    -56.1549   -999.2500   -999.2500   -999.2500     11.5424     10.6708      9.9925     99.0959 
  1821.0000      8.8296     71.6346      0.0307      2.5104     34.0718    -56.4479   -999.2500   -999.2500   -999.2500     12.0052     10.8337     10.1740     97.6706 
  1821.5000      8.7946     71.7741      0.0261      2.5161     34.3541    -56.5237   -999.2500   -999.2500   -999.2500     12.2191     10.9990     10.2714     97.2736 
  1822.0000      8.7238     71.8481      0.0068      2.5096     34.6364    -56.6131   -999.2500   -999.2500   -999.2500     12.1344     10.9669     10.1297     98.1653 
  1822.5000      8.6820     71.1638     -0.0020      2.5005     34.9161    -56.6763   -999.2500   -999.2500   -999.2500     12.0504     10.8947      9.9906     99.3875 
  1823.0000      8.6345     70.3002     -0.0045      2.5021     34.3373    -56.7587   -999.2500   -999.2500   -999.2500     11.9669     10.8110      9.8744    100.3559 
  1823.5000      8.6337     69.6450      0.0200      2.5171     32.6481    -56.7363   -999.2500   -999.2500   -999.2500     11.8657     10.7118      9.7596    100.5516 
  1824.0000      8.6445     69.4076      0.0456      2.5623     31.7526    -56.7706   -999.2500   -999.2500   -999.2500     11.7207     10.6145      9.5334    100.7389 
  1824.5000      8.6485     69.9375      0.0333      2.5327     31.2848    -56.7883   -999.2500   -999.2500   -999.2500     11.5782     10.5286      9.3060    101.0019 
