~VERSION INFORMATION
 VERS.                           2.00:        CWLS LOG ASCII STANDARD - VERSION 2.00
 WRAP.                             NO:        ONE LINE PER DEPTH STEP
~WELL INFORMATION
#MNEM.UNIT                   DATA             INFORMATION
#----------             --------------        ------------------------------
 STRT.F                       78.0000:        START DEPTH
 STOP.F                     2392.0000:        STOP DEPTH
 STEP.F                        0.5000:        STEP VALUE
 NULL.                      -999.2500:        NULL VALUE
 COMP.              U.S.G.S./NPR -  A:        COMPANY  
 LOC .                    1  22N  18W:        LOCATION   
 DATE.                        2/14/78:        LOG DATE 
 WELL.               SOUTH BARROW #16:        WELL     
 UWI .                   500232001000:        UNIQUE WELL ID 
 API .                   500232001000:        UNIQUE WELL IDENTIFIER 
 FLD .                   SOUTH BARROW:        FIELD    
 CNTY.                    NORTH SLOPE:        COUNTY  
 STAT.                         ALASKA:        STATE   
 CTRY.                            USA:        COUNTRY 
 OPER.              U.S.G.S./NPR -  A:        OPERATOR  
 SRVC.                   SCHLUMBERGER:        SERVICE COMPANY 
 LAT .                         0.0000:        LATITUDE
 LON .                         0.0000:        LONGITUDE
 DIGS.               CENTER LINE DATA:        DIGITIZING COMPANY 
~CURVE INFORMATION      
#MNEM        .UNIT         API CODE           CURVE DESCRIPTION
#-----------------      --------------        ------------------------------
 DEPT        .F                      :        1  DEPTH
 CALI        .IN                     :        2  
 GR          .GAPI                   :        3  
 RHOB        .G/C3                   :        4  
 DRHO        .G/C3                   :        5  
 NPHI        .%                      :        6  
 DT          .US/F                   :        7  
 SP          .MV                     :        8  
 ILD         .OHMM                   :        9  
 ILM         .OHMM                   :        10 
 LL8         .OHMM                   :        11 
 LLD         .OHMM                   :        12 
 LLS         .OHMM                   :        13 
~PARAMETER INFORMATION       
#MNEM.UNIT                  VALUE             DESCRIPTION OF MNEMONIC
#---------             ---------------        ------------------------------
 EKB .F                       30.0000:        KELLY BUSHING
 TD  .F                     2399.0000:        TOTAL DEPTH
 BHT .F                       73.0000:        BOTTOM HOLE TEMPERATURE
 BS  .                         8.5000:        BIT SIZE
 FD  .                        11.0000:        FLUID DENSITY
 CSIZ.                         8.5000:        CASING SIZE
 CBD .F                     1489.0000:        CASING DRILLER 1
 CBL .F                     1487.0000:        CASING LOGGER 1
 DFT .                  Miscellaneous:        TYPE FLUID IN HOLE
 DFV .                        52.0000:        VISCOSITY
 DFPH.                         8.5000:        PH
 DFL .                         8.0000:        FLUID LOSS
 RMS .                         0.0210:        RM
 MST .F                       58.0000:        RM MEAS. TEMP.
 RMF .                         0.0130:        RMF
 MFST.F                       52.0000:        RMF MEAS. TEMP.
 RMC .                         0.0170:        RMC
 MCST.F                       56.0000:        RMC MEAS. TEMP.
~OTHER INFORMATION
~A    DEPTH        CALI          GR        RHOB        DRHO        NPHI          DT          SP         ILD         ILM         LL8         LLD         LLS  
# ...
   562.5000     12.1583     81.4796   -999.2500   -999.2500   -999.2500    143.3592    -50.7128      2.6410      2.4139      3.9056   -999.2500   -999.2500  
   563.0000     12.1825     80.3527   -999.2500   -999.2500   -999.2500    145.2788    -50.0243      2.5782      2.4144      4.0240   -999.2500   -999.2500  
   563.5000     12.0857     78.2516   -999.2500   -999.2500   -999.2500    145.1754    -48.4872      2.5169      2.3631      3.4127   -999.2500   -999.2500  
   564.0000     12.0312     75.1385   -999.2500   -999.2500   -999.2500    144.3510    -48.7181      2.4571      2.2904      2.8707   -999.2500   -999.2500  
   564.5000     12.0422     70.7350   -999.2500   -999.2500   -999.2500    141.1856    -49.7799      2.3987      2.2199      2.6552   -999.2500   -999.2500  
   565.0000     12.1667     67.7729   -999.2500   -999.2500   -999.2500    138.6965    -47.4461      2.4133      2.1742      3.1220   -999.2500   -999.2500  
   565.5000     12.3392     68.7638   -999.2500   -999.2500   -999.2500    137.8563    -44.1566      2.4461      2.1531      5.3507   -999.2500   -999.2500  
   566.0000     12.3479     71.6348   -999.2500   -999.2500   -999.2500    139.0467    -46.8717      2.4242      2.1323      7.5156   -999.2500   -999.2500  
   566.5000     12.2512     74.0502   -999.2500   -999.2500   -999.2500    141.3590    -52.3754      2.3382      2.1116      6.7127   -999.2500   -999.2500  
   567.0000     12.1913     76.8851   -999.2500   -999.2500   -999.2500    142.2092    -50.7504      2.3133      2.1812      4.2048   -999.2500   -999.2500  
   567.5000     12.1023     79.8666   -999.2500   -999.2500   -999.2500    138.7675    -46.9712      2.3616      2.2724      3.1253   -999.2500   -999.2500  
   568.0000     12.0401     80.2608   -999.2500   -999.2500   -999.2500    135.0145    -44.0819      2.4109      2.3675      2.8214   -999.2500   -999.2500  
   568.5000     11.9994     77.9822   -999.2500   -999.2500   -999.2500    133.2912    -45.2495      2.4934      2.4665      2.8352   -999.2500   -999.2500  
   569.0000     11.9627     74.0673   -999.2500   -999.2500   -999.2500    132.9652    -45.4211      2.6343      2.5677      2.9052   -999.2500   -999.2500  
   569.5000     11.9639     70.2721   -999.2500   -999.2500   -999.2500    133.4118    -45.8067      2.7833      2.6701      3.2529   -999.2500   -999.2500  
   570.0000     12.0516     67.6172   -999.2500   -999.2500   -999.2500    134.5819    -46.7054      2.9407      2.7766      3.8702   -999.2500   -999.2500  
   570.5000     12.2937     65.8476   -999.2500   -999.2500   -999.2500    133.5328    -48.0434      3.1069      2.8874      4.4560   -999.2500   -999.2500  
   571.0000     12.6460     64.2352   -999.2500   -999.2500   -999.2500    131.8788    -51.9217      3.2826      3.0025      4.8021   -999.2500   -999.2500  
   571.5000     12.7191     63.3758   -999.2500   -999.2500   -999.2500    130.3911    -54.6101      3.4313      3.0545      4.6396   -999.2500   -999.2500  
   572.0000     12.7732     64.2484   -999.2500   -999.2500   -999.2500    129.1153    -55.3239      3.5670      3.0879      4.3921   -999.2500   -999.2500  
   572.5000     12.6978     66.9854   -999.2500   -999.2500   -999.2500    128.3729    -52.3782      3.7080      3.1217      4.2785   -999.2500   -999.2500  
   573.0000     12.4884     68.3507   -999.2500   -999.2500   -999.2500    129.2883    -48.8799      3.8547      3.1558      5.4409   -999.2500   -999.2500  
   573.5000     12.1952     68.2502   -999.2500   -999.2500   -999.2500    130.7499    -45.4876      3.8546      3.1903      5.4063   -999.2500   -999.2500  
   574.0000     12.1506     68.9788   -999.2500   -999.2500   -999.2500    132.0950    -44.1674      3.7936      3.1860      4.6249   -999.2500   -999.2500  
   574.5000     12.3457     69.6823   -999.2500   -999.2500   -999.2500    132.5259    -46.9320      3.7335      3.1737      3.6426   -999.2500   -999.2500  
   575.0000     12.6146     69.9134   -999.2500   -999.2500   -999.2500    131.1209    -47.3957      3.7216      3.1614      3.4581   -999.2500   -999.2500  
   575.5000     12.9166     69.8590   -999.2500   -999.2500   -999.2500    130.0880    -47.1866      3.7127      3.1492      3.5660   -999.2500   -999.2500  
   576.0000     13.2400     70.0780   -999.2500   -999.2500   -999.2500    130.0447    -49.4335      3.7039      3.1370      4.3994   -999.2500   -999.2500  
   576.5000     13.8484     70.4033   -999.2500   -999.2500   -999.2500    130.9461    -52.3335      3.6866      3.1140      4.9639   -999.2500   -999.2500  
   577.0000     14.4616     70.6883   -999.2500   -999.2500   -999.2500    133.5894    -53.0075      3.6642      3.0812      5.2461   -999.2500   -999.2500  
   577.5000     14.5453     69.4811   -999.2500   -999.2500   -999.2500    138.2717    -54.7271      3.6420      3.0488      5.0637   -999.2500   -999.2500  
   578.0000     14.8399     69.3421   -999.2500   -999.2500   -999.2500    143.5652    -55.3474      3.5773      3.0166      4.8129   -999.2500   -999.2500  
   578.5000     15.2362     72.3230   -999.2500   -999.2500   -999.2500    146.7158    -56.2309      3.4693      2.9848      4.7543   -999.2500   -999.2500  
   579.0000     15.0540     75.2725   -999.2500   -999.2500   -999.2500    147.0736    -54.7853      3.3645      2.9028      4.7503   -999.2500   -999.2500  
   579.5000     13.9457     78.4568   -999.2500   -999.2500   -999.2500    144.2496    -52.8318      3.2628      2.8131      4.5320   -999.2500   -999.2500  
   580.0000     13.0840     81.4120   -999.2500   -999.2500   -999.2500    140.4661    -50.9098      3.1817      2.7262      3.9523   -999.2500   -999.2500  
   580.5000     12.3189     82.5002   -999.2500   -999.2500   -999.2500    136.4902    -49.7385      3.1178      2.6420      3.0283   -999.2500   -999.2500  
   581.0000     12.0099     82.1377   -999.2500   -999.2500   -999.2500    134.4431    -49.2946      3.0551      2.5998      2.8744   -999.2500   -999.2500  
   581.5000     12.0205     80.8693   -999.2500   -999.2500   -999.2500    134.0168    -48.8866      2.9937      2.6105      2.8222   -999.2500   -999.2500  
   582.0000     12.2969     78.0932   -999.2500   -999.2500   -999.2500    133.8713    -45.8261      2.9336      2.6213      3.7720   -999.2500   -999.2500  
   582.5000     12.6916     74.6972   -999.2500   -999.2500   -999.2500    132.4373    -47.6567      2.8994      2.6626      5.3550   -999.2500   -999.2500  
   583.0000     12.6737     73.2937   -999.2500   -999.2500   -999.2500    131.1615    -48.8018      2.8819      2.7058      4.4281   -999.2500   -999.2500  
   583.5000     12.5925     73.2062   -999.2500   -999.2500   -999.2500    129.9476    -49.8184      2.8646      2.7498      3.6851   -999.2500   -999.2500  
   584.0000     12.8158     73.4407   -999.2500   -999.2500   -999.2500    129.0006    -51.1502      2.8473      2.7571      4.4050   -999.2500   -999.2500  
   584.5000     12.9991     72.5089   -999.2500   -999.2500   -999.2500    130.5901    -50.5382      2.8302      2.7969      5.3227   -999.2500   -999.2500  
   585.0000     13.0783     72.1986   -999.2500   -999.2500   -999.2500    133.2483    -49.9555      2.8143      2.7755      5.9320   -999.2500   -999.2500  
   585.5000     13.3432     73.3012   -999.2500   -999.2500   -999.2500    135.9731    -48.2855      2.8239      2.7160      5.5184   -999.2500   -999.2500  
   586.0000     13.9285     74.8654   -999.2500   -999.2500   -999.2500    138.0535    -47.4981      2.8335      2.6552      5.1133   -999.2500   -999.2500  
   586.5000     14.1484     77.0356   -999.2500   -999.2500   -999.2500    139.6823    -50.0411      2.8411      2.6269      4.7855   -999.2500   -999.2500  
   587.0000     13.1771     80.2089   -999.2500   -999.2500   -999.2500    139.4946    -50.3222      2.8337      2.6133      5.0192   -999.2500   -999.2500  
   587.5000     12.5236     82.9095   -999.2500   -999.2500   -999.2500    138.1828    -50.4041      2.8264      2.5997      5.5694   -999.2500   -999.2500  
