~VERSION INFORMATION
 VERS.                           2.00:        CWLS LOG ASCII STANDARD - VERSION 2.00
 WRAP.                             NO:        ONE LINE PER DEPTH STEP
~WELL INFORMATION
#MNEM.UNIT                   DATA             INFORMATION
#----------             --------------        ------------------------------
 STRT.F                       98.0000:        START DEPTH
 STOP.F                     2124.0000:        STOP DEPTH
 STEP.F                        0.5000:        STEP VALUE
 NULL.                      -999.2500:        NULL VALUE
 COMP.          USGS/NPR-A OPERATIONS:        COMPANY  
 LOC .                   24  22N  17W:        LOCATION   
 DATE.                        10/5/80:        LOG DATE 
 WELL.               SOUTH BARROW #18:        WELL     
 UWI .                   500232001700:        UNIQUE WELL ID 
 API .                   500232001700:        UNIQUE WELL IDENTIFIER 
 FLD .                   SOUTH BARROW:        FIELD    
 CNTY.                    NORTH SLOPE:        COUNTY  
 STAT.                         ALASKA:        STATE   
 CTRY.                            USA:        COUNTRY 
 OPER.          USGS/NPR-A OPERATIONS:        OPERATOR  
 SRVC.                   SCHLUMBERGER:        SERVICE COMPANY 
 LAT .                         0.0000:        LATITUDE
 LON .                         0.0000:        LONGITUDE
 DIGS.               CENTER LINE DATA:        DIGITIZING COMPANY 
~CURVE INFORMATION      
#MNEM        .UNIT         API CODE           CURVE DESCRIPTION
#-----------------      --------------        ------------------------------
 DEPT        .F                      :        1  DEPTH
 CALI        .IN                     :        2  
 GR          .GAPI                   :        3  
 NPHI        .%                      :        4  
 RHOB        .G/C3                   :        5  
 DRHO        .G/C3                   :        6  
 DT          .US/F                   :        7  
 SP          .MV                     :        8  
 ILD         .OHMM                   :        9  
 ILM         .OHMM                   :        10 
 SFL         .OHMM                   :        11 
 LLD         .OHMM                   :        12 
 LLS         .OHMM                   :        13 
 MSFL        .OHMM                   :        14 
~PARAMETER INFORMATION       
#MNEM.UNIT                  VALUE             DESCRIPTION OF MNEMONIC
#---------             ---------------        ------------------------------
 EKB .F                       30.0000:        KELLY BUSHING
 TD  .F                     2125.0000:        TOTAL DEPTH
 BHT .F                        0.0000:        BOTTOM HOLE TEMPERATURE
 BS  .                         8.5000:        BIT SIZE
 FD  .                        10.3000:        FLUID DENSITY
 CSIZ.                         9.6250:        CASING SIZE
 CBD .F                     1519.0000:        CASING DRILLER 1
 CBL .F                     1520.0000:        CASING LOGGER 1
 DFT .                  Miscellaneous:        TYPE FLUID IN HOLE
 DFV .                        47.0000:        VISCOSITY
 DFPH.                         8.5000:        PH
 DFL .                        14.0000:        FLUID LOSS
 RMS .                         0.1600:        RM
 MST .F                       43.0000:        RM MEAS. TEMP.
 RMF .                         0.1100:        RMF
 MFST.F                       43.0000:        RMF MEAS. TEMP.
 RMC .                         0.1200:        RMC
 MCST.F                       43.0000:        RMC MEAS. TEMP.
~OTHER INFORMATION
~A    DEPTH        CALI          GR        NPHI        RHOB        DRHO          DT          SP         ILD         ILM         SFL         LLD         LLS        MSFL  
# ...
  1754.0000      9.4085     89.1945     39.7220      2.4253      0.0516    100.0974   -999.2500   -999.2500   -999.2500   -999.2500     14.0074     11.7440      1.8144  
  1754.5000      9.4377     88.0267     37.1132      2.4463      0.0724     97.7650   -999.2500   -999.2500   -999.2500   -999.2500     12.7947     10.3730      1.6533  
  1755.0000      9.2669     88.1069     34.9921      2.4518      0.0936     99.3013   -999.2500   -999.2500   -999.2500   -999.2500     12.4152      9.9878      1.5605  
  1755.5000      9.4797     87.9736     34.8006      2.4437      0.0950    101.5009   -999.2500   -999.2500   -999.2500   -999.2500     12.2749     10.1462      1.5097  
  1756.0000      9.7284     86.1648     35.8329      2.4395      0.1233    106.2698   -999.2500   -999.2500   -999.2500   -999.2500     12.7391     10.5019      1.4669  
  1756.5000      9.5030     82.0257     36.1713      2.4663      0.1486    106.1901   -999.2500   -999.2500   -999.2500   -999.2500     13.2209     10.5008      1.5083  
  1757.0000      9.7118     77.9706     35.9360      2.4454      0.1262    102.2891   -999.2500   -999.2500   -999.2500   -999.2500     12.5510     10.2362      1.5440  
  1757.5000     10.2745     75.9335     35.1629      2.4206      0.0941    104.9098   -999.2500   -999.2500   -999.2500   -999.2500     12.9028     10.4245      1.5641  
  1758.0000     10.4987     74.7646     34.8063      2.4172      0.0875    101.1792   -999.2500   -999.2500   -999.2500   -999.2500     13.3613     10.7922      1.7886  
  1758.5000     10.9655     74.8454     33.7798      2.4223      0.0953    104.0675   -999.2500   -999.2500   -999.2500   -999.2500     13.2245     10.8578      2.0520  
  1759.0000     10.8272     74.4450     32.6109      2.4336      0.1218     66.2601   -999.2500   -999.2500   -999.2500   -999.2500     13.3221     11.2148      2.1040  
  1759.5000     10.0259     74.7806     32.7873      2.4375      0.1220     97.0065   -999.2500   -999.2500   -999.2500   -999.2500     14.7897     12.1242      2.7354  
  1760.0000     10.1847     75.1731     33.8306      2.4125      0.1048     97.9678   -999.2500   -999.2500   -999.2500   -999.2500     17.4521     13.2403      3.6242  
  1760.5000      9.9085     75.5655     35.4862      2.3955      0.0659    102.1718   -999.2500   -999.2500   -999.2500   -999.2500     19.2152     14.7011      2.9584  
  1761.0000      9.6157     75.9580     35.2038      2.4283      0.0475    102.6127   -999.2500   -999.2500   -999.2500   -999.2500     19.3517     15.6666      1.6336  
  1761.5000      9.5691     76.4443     33.1192      2.4637      0.0703     89.2492   -999.2500   -999.2500   -999.2500   -999.2500     17.7303     14.2989      1.2085  
  1762.0000      9.5022     77.6971     30.4081      2.4499      0.0920     93.5750   -999.2500   -999.2500   -999.2500   -999.2500     14.7743     12.6918      1.8236  
  1762.5000      9.2816     79.7223     29.4912      2.4741      0.1115    101.0574   -999.2500   -999.2500   -999.2500   -999.2500     14.2937     11.6326      3.5756  
  1763.0000      9.3343     82.2275     29.7398      2.4903      0.1129    100.9003   -999.2500   -999.2500   -999.2500   -999.2500     13.8442     11.1987      5.1895  
  1763.5000      9.4859     84.7451     30.8354      2.4784      0.0648    104.5247   -999.2500   -999.2500   -999.2500   -999.2500     12.3656     10.2920      4.9954  
  1764.0000      9.6851     86.0281     31.8370      2.4974      0.0040    103.1892   -999.2500   -999.2500   -999.2500   -999.2500     11.7718      9.9303      4.0951  
  1764.5000      9.8112     87.1435     33.0887      2.5442      0.0214     70.4482   -999.2500   -999.2500   -999.2500   -999.2500     11.3192      9.6013      4.5935  
  1765.0000      9.5603     88.5242     33.7164      2.5699      0.0517    102.0375   -999.2500   -999.2500   -999.2500   -999.2500     10.3584      9.4741      5.0737  
  1765.5000      9.5350     90.7760     33.9478      2.5827      0.0764    101.7568   -999.2500   -999.2500   -999.2500   -999.2500     10.7199      9.3540      4.9177  
  1766.0000      9.5601     92.8342     34.8258      2.5587      0.0763    100.0515   -999.2500   -999.2500   -999.2500   -999.2500     11.0940      9.5541      4.8691  
  1766.5000      9.6218     93.8834     35.4979      2.5383      0.0661    101.8427   -999.2500   -999.2500   -999.2500   -999.2500     11.3958      9.7713      4.6589  
  1767.0000      9.6628     94.8984     35.3822      2.5352      0.0434    102.4985   -999.2500   -999.2500   -999.2500   -999.2500     11.5962      9.9584      4.4746  
  1767.5000      9.6582     95.2167     34.9619      2.5269      0.0299    103.5667   -999.2500   -999.2500   -999.2500   -999.2500     11.6639     10.0766      4.5464  
  1768.0000      9.5780     94.6092     34.6223      2.5378      0.0443    105.4145   -999.2500   -999.2500   -999.2500   -999.2500     11.0103      9.9462      4.3228  
  1768.5000      9.5068     94.0813     34.2541      2.5501      0.0567    106.3780   -999.2500   -999.2500   -999.2500   -999.2500     10.4830      9.3031      3.9574  
  1769.0000      9.5043     94.0228     33.6887      2.5535      0.0586    106.5924   -999.2500   -999.2500   -999.2500   -999.2500     10.0484      8.6079      3.7034  
  1769.5000      9.5019     95.6292     33.8015      2.5538      0.0678    106.6615   -999.2500   -999.2500   -999.2500   -999.2500      9.6318      8.4505      3.6619  
  1770.0000      9.6140     98.1924     34.5664      2.5183      0.0539    106.5495   -999.2500   -999.2500   -999.2500   -999.2500      9.3912      8.4526      3.7372  
  1770.5000      9.7369     99.7790     36.0718      2.4948      0.0533    106.2920   -999.2500   -999.2500   -999.2500   -999.2500      9.4822      8.4548      3.6885  
  1771.0000      9.7470    101.4624     37.8184      2.4974      0.0563    106.1373   -999.2500   -999.2500   -999.2500   -999.2500      9.5740      8.4572      3.5664  
  1771.5000      9.7412    100.8504     37.7713      2.5001      0.0511    106.0083   -999.2500   -999.2500   -999.2500   -999.2500      9.6668      8.4596      3.6730  
  1772.0000      9.7311     98.7282     36.8019      2.4975      0.0480    106.0805   -999.2500   -999.2500   -999.2500   -999.2500      9.7605      8.4621      3.9115  
  1772.5000      9.7496     98.7702     35.9301      2.4864      0.0446    106.3825   -999.2500   -999.2500   -999.2500   -999.2500      9.7406      8.4646      3.9612  
  1773.0000      9.8306    100.4446     34.2482      2.4775      0.0404    106.5891   -999.2500   -999.2500   -999.2500   -999.2500      9.6981      8.4671      3.7669  
  1773.5000      9.7649    100.5028     33.1948      2.4779      0.0421    106.2704   -999.2500   -999.2500   -999.2500   -999.2500      9.6558      8.4696      3.8918  
  1774.0000      9.7233    101.3511     33.6667      2.4925      0.0480    105.9517   -999.2500   -999.2500   -999.2500   -999.2500      9.6137      8.4721      4.3534  
  1774.5000      9.7389    101.6815     34.7405      2.5078      0.0407    105.6330   -999.2500   -999.2500   -999.2500   -999.2500      9.5717      8.4746      4.2078  
  1775.0000      9.7269    102.0120     35.2979      2.4885      0.0338    105.4774   -999.2500   -999.2500   -999.2500   -999.2500      9.5299      8.4771      3.9388  
  1775.5000      9.7326    102.4825     35.4747      2.4807      0.0297    105.8887   -999.2500   -999.2500   -999.2500   -999.2500      9.4884      8.4554      3.5973  
  1776.0000      9.7274    104.0109     35.5117      2.4760      0.0255    106.1647   -999.2500   -999.2500   -999.2500   -999.2500      9.4934      8.4246      3.4554  
  1776.5000      9.7259    105.9776     35.6494      2.4808      0.0268    106.3359   -999.2500   -999.2500   -999.2500   -999.2500      9.5599      8.3939      3.6440  
  1777.0000      9.7522    104.3778     35.8746      2.4992      0.0354    106.9835   -999.2500   -999.2500   -999.2500   -999.2500      9.6480      8.4009      3.5631  
  1777.5000      9.7690    102.0071     36.4092      2.5049      0.0391    105.7068   -999.2500   -999.2500   -999.2500   -999.2500      9.7369      8.4091      2.9155  
