~VERSION INFORMATION
 VERS.                           2.00:        CWLS LOG ASCII STANDARD - VERSION 2.00
 WRAP.                             NO:        ONE LINE PER DEPTH STEP
~WELL INFORMATION
#MNEM.UNIT                   DATA             INFORMATION
#----------             --------------        ------------------------------
 STRT.F                       78.0000:        START DEPTH
 STOP.F                     2392.0000:        STOP DEPTH
 STEP.F                        0.5000:        STEP VALUE
 NULL.                      -999.2500:        NULL VALUE
 COMP.              U.S.G.S./NPR -  A:        COMPANY  
 LOC .                    1  22N  18W:        LOCATION   
 DATE.                        2/14/78:        LOG DATE 
 WELL.               SOUTH BARROW #16:        WELL     
 UWI .                   500232001000:        UNIQUE WELL ID 
 API .                   500232001000:        UNIQUE WELL IDENTIFIER 
 FLD .                   SOUTH BARROW:        FIELD    
 CNTY.                    NORTH SLOPE:        COUNTY  
 STAT.                         ALASKA:        STATE   
 CTRY.                            USA:        COUNTRY 
 OPER.              U.S.G.S./NPR -  A:        OPERATOR  
 SRVC.                   SCHLUMBERGER:        SERVICE COMPANY 
 LAT .                         0.0000:        LATITUDE
 LON .                         0.0000:        LONGITUDE
 DIGS.               CENTER LINE DATA:        DIGITIZING COMPANY 
~CURVE INFORMATION      
#MNEM        .UNIT         API CODE           CURVE DESCRIPTION
#-----------------      --------------        ------------------------------
 DEPT        .F                      :        1  DEPTH
 CALI        .IN                     :        2  
 GR          .GAPI                   :        3  
 RHOB        .G/C3                   :        4  
 DRHO        .G/C3                   :        5  
 NPHI        .%                      :        6  
 DT          .US/F                   :        7  
 SP          .MV                     :        8  
 ILD         .OHMM                   :        9  
 ILM         .OHMM                   :        10 
 LL8         .OHMM                   :        11 
 LLD         .OHMM                   :        12 
 LLS         .OHMM                   :        13 
~PARAMETER INFORMATION       
#MNEM.UNIT                  VALUE             DESCRIPTION OF MNEMONIC
#---------             ---------------        ------------------------------
 EKB .F                       30.0000:        KELLY BUSHING
 TD  .F                     2399.0000:        TOTAL DEPTH
 BHT .F                       73.0000:        BOTTOM HOLE TEMPERATURE
 BS  .                         8.5000:        BIT SIZE
 FD  .                        11.0000:        FLUID DENSITY
 CSIZ.                         8.5000:        CASING SIZE
 CBD .F                     1489.0000:        CASING DRILLER 1
 CBL .F                     1487.0000:        CASING LOGGER 1
 DFT .                  Miscellaneous:        TYPE FLUID IN HOLE
 DFV .                        52.0000:        VISCOSITY
 DFPH.                         8.5000:        PH
 DFL .                         8.0000:        FLUID LOSS
 RMS .                         0.0210:        RM
 MST .F                       58.0000:        RM MEAS. TEMP.
 RMF .                         0.0130:        RMF
 MFST.F                       52.0000:        RMF MEAS. TEMP.
 RMC .                         0.0170:        RMC
 MCST.F                       56.0000:        RMC MEAS. TEMP.
~OTHER INFORMATION
~A    DEPTH        CALI          GR        RHOB        DRHO        NPHI          DT          SP         ILD         ILM         LL8         LLD         LLS  
# ...
  1455.0000     12.4434     81.9150   -999.2500   -999.2500   -999.2500    101.3701     27.2999     10.3807      9.8104     11.7515   -999.2500   -999.2500  
  1455.5000     12.4743     79.9268   -999.2500   -999.2500   -999.2500    100.3894     25.1223     10.8225     10.2990     12.1862   -999.2500   -999.2500  
  1456.0000     12.5121     78.1072   -999.2500   -999.2500   -999.2500     99.8078     27.4083     11.2831     10.8119     12.6369   -999.2500   -999.2500  
  1456.5000     12.5073     79.7570   -999.2500   -999.2500   -999.2500     99.6336     29.1385     11.7633     10.9509     13.1043   -999.2500   -999.2500  
  1457.0000     12.4879     80.7237   -999.2500   -999.2500   -999.2500    100.8108     29.5443     12.2639     10.8776     13.5890   -999.2500   -999.2500  
  1457.5000     12.5123     81.2081   -999.2500   -999.2500   -999.2500    102.8985     31.3823     12.1844     10.8048     14.0916   -999.2500   -999.2500  
  1458.0000     12.5185     81.4281   -999.2500   -999.2500   -999.2500    104.5627     34.9692     11.8635     10.7325     13.2434   -999.2500   -999.2500  
  1458.5000     12.4749     81.7163   -999.2500   -999.2500   -999.2500    106.1090     34.7672     11.5511     10.5294     12.3526   -999.2500   -999.2500  
  1459.0000     12.4384     82.6393   -999.2500   -999.2500   -999.2500    107.6654     31.6996     11.2469     10.1735     11.5218   -999.2500   -999.2500  
  1459.5000     12.3640     84.7510   -999.2500   -999.2500   -999.2500    108.4178     27.7789     10.9507      9.8297     10.7468   -999.2500   -999.2500  
  1460.0000     12.4118     86.7521   -999.2500   -999.2500   -999.2500    109.8558     25.5384     10.6623      9.4975     10.1965   -999.2500   -999.2500  
  1460.5000     12.5196     86.2661   -999.2500   -999.2500   -999.2500    110.8772     25.0130     10.4913      9.1765     10.0794   -999.2500   -999.2500  
  1461.0000     12.5725     84.5603   -999.2500   -999.2500   -999.2500    109.6004     26.4924     10.3307      8.8664      9.9636   -999.2500   -999.2500  
  1461.5000     12.5630     83.5084   -999.2500   -999.2500   -999.2500    106.8747     25.9108     10.1726      8.8480      9.8491   -999.2500   -999.2500  
  1462.0000     12.5823     83.8779   -999.2500   -999.2500   -999.2500    103.2152     27.5021     10.0850      9.2978      9.7360   -999.2500   -999.2500  
  1462.5000     12.5602     84.9901   -999.2500   -999.2500   -999.2500    100.6242     31.3288     10.4687      9.7704     10.9462   -999.2500   -999.2500  
  1463.0000     12.5144     85.7850   -999.2500   -999.2500   -999.2500     99.1737     33.1072     10.8670     10.2670     12.5894   -999.2500   -999.2500  
  1463.5000     12.5120     84.8913   -999.2500   -999.2500   -999.2500     98.3038     34.0390     11.2805     10.7889     14.2007   -999.2500   -999.2500  
  1464.0000     12.5109     81.9077   -999.2500   -999.2500   -999.2500     97.8386     33.7823     11.7097     11.3373     13.9477   -999.2500   -999.2500  
  1464.5000     12.4949     78.2003   -999.2500   -999.2500   -999.2500     96.9709     33.3778     12.1552     11.7495     13.6991   -999.2500   -999.2500  
  1465.0000     12.5001     75.8308   -999.2500   -999.2500   -999.2500     97.7426     32.4055     12.4199     12.1369     13.5199   -999.2500   -999.2500  
  1465.5000     12.4987     74.4386   -999.2500   -999.2500   -999.2500     99.9385     31.2427     12.0561     11.8582     13.5199   -999.2500   -999.2500  
  1466.0000     12.4482     73.8531   -999.2500   -999.2500   -999.2500    102.4468     30.0798     11.7031     11.3396     13.2398   -999.2500   -999.2500  
  1466.5000     12.3821     73.6853   -999.2500   -999.2500   -999.2500    104.6969     28.9170     11.3603     10.8436     12.7101   -999.2500   -999.2500  
  1467.0000     12.3381     73.6546   -999.2500   -999.2500   -999.2500    105.8848     27.7542     11.0276     10.3693     12.2016   -999.2500   -999.2500  
  1467.5000     12.2684     73.8339   -999.2500   -999.2500   -999.2500    104.5176     25.9370     10.7819     10.1666     11.7134   -999.2500   -999.2500  
  1468.0000     12.2971     74.2132   -999.2500   -999.2500   -999.2500    102.9648     25.1009     10.7195     10.0833     11.2447   -999.2500   -999.2500  
  1468.5000     12.4157     74.3928   -999.2500   -999.2500   -999.2500    101.2435     26.5969     10.6575     10.0007     11.1061   -999.2500   -999.2500  
  1469.0000     12.5871     73.0529   -999.2500   -999.2500   -999.2500     99.6786     29.5325     10.5959      9.9188     11.5519   -999.2500   -999.2500  
  1469.5000     12.5652     69.9937   -999.2500   -999.2500   -999.2500     99.6485     30.8534     10.5346      9.8375     12.0155   -999.2500   -999.2500  
  1470.0000     12.4971     63.3081   -999.2500   -999.2500   -999.2500    100.8885     31.4042     10.4737      9.7569     12.4978   -999.2500   -999.2500  
  1470.5000     12.4428     47.8766   -999.2500   -999.2500   -999.2500    103.6833     32.1030     10.4131      9.6770     12.9995   -999.2500   -999.2500  
  1471.0000     12.3327     30.4727   -999.2500   -999.2500   -999.2500    107.3383     31.9623     10.3529      9.6588     12.0483   -999.2500   -999.2500  
  1471.5000     12.3213     22.0481   -999.2500   -999.2500   -999.2500    109.6338     29.4106     10.2930      9.6519     11.0053   -999.2500   -999.2500  
  1472.0000     12.2538     21.8864   -999.2500   -999.2500   -999.2500    109.0641     22.7195     10.2335      9.6450     11.2476   -999.2500   -999.2500  
  1472.5000     12.1833   -999.2500   -999.2500   -999.2500   -999.2500    107.0850     17.9796     10.1743      9.6382     12.6854   -999.2500   -999.2500  
  1473.0000     12.4030   -999.2500   -999.2500   -999.2500   -999.2500    104.7474     15.5532     10.1155      9.6313     13.3004   -999.2500   -999.2500  
  1473.5000     12.5214   -999.2500   -999.2500   -999.2500   -999.2500    102.7029     14.9483     10.1448      9.6266     12.8165   -999.2500   -999.2500  
  1474.0000     12.5093   -999.2500   -999.2500   -999.2500   -999.2500    101.9624     20.1673     10.2593      9.7822     12.3503   -999.2500   -999.2500  
  1474.5000     12.5648   -999.2500   -999.2500   -999.2500   -999.2500    102.3384     25.5008     10.3751      9.9403     11.9010   -999.2500   -999.2500  
  1475.0000     12.5635   -999.2500   -999.2500   -999.2500   -999.2500    103.7762     28.1986     10.4922     10.1010     12.0123   -999.2500   -999.2500  
  1475.5000     12.6310   -999.2500   -999.2500   -999.2500   -999.2500    105.9515     29.2051     10.6106     10.2642     12.3890   -999.2500   -999.2500  
  1476.0000     12.6271   -999.2500   -999.2500   -999.2500   -999.2500    106.8695     30.3463     10.7303     10.4301     12.7776   -999.2500   -999.2500  
  1476.5000     12.6612   -999.2500   -999.2500   -999.2500   -999.2500    105.3374     31.5489     10.8514     10.5856     12.9355   -999.2500   -999.2500  
  1477.0000     12.6072   -999.2500   -999.2500   -999.2500     53.9454    103.0578     31.4296     10.9739     10.5175     12.6678   -999.2500   -999.2500  
  1477.5000     12.5986   -999.2500   -999.2500   -999.2500     53.9535    100.3638     29.0048     11.0978     10.4499     12.4055   -999.2500   -999.2500  
  1478.0000     12.5923   -999.2500   -999.2500   -999.2500     53.9616     99.1503     26.9936     11.2230     10.3827     12.3261   -999.2500   -999.2500  
  1478.5000     12.5726   -999.2500   -999.2500   -999.2500     53.9612    100.7944     25.3032     11.3497     10.3159     12.9559   -999.2500   -999.2500  
  1479.0000     12.5281   -999.2500   -999.2500   -999.2500     53.9314    102.6494     25.3131     11.3802     10.2495     13.4772   -999.2500   -999.2500  
  1479.5000     12.3970   -999.2500   -999.2500   -999.2500     52.6994    104.5297     25.2615     11.2911     10.1836     13.1887   -999.2500   -999.2500  
  1480.0000     12.2959   -999.2500   -999.2500   -999.2500     52.7090    105.5125     27.3179     11.2028     10.1181     12.9064   -999.2500   -999.2500  
