~VERSION INFORMATION
 VERS.                           2.00:        CWLS LOG ASCII STANDARD - VERSION 2.00
 WRAP.                             NO:        ONE LINE PER DEPTH STEP
~WELL INFORMATION
#MNEM.UNIT                   DATA             INFORMATION
#----------             --------------        ------------------------------
 STRT.F                       50.0000:        START DEPTH
 STOP.F                     2158.0000:        STOP DEPTH
 STEP.F                        0.5000:        STEP VALUE
 NULL.                      -999.2500:        NULL VALUE
 COMP.              HUSKY OIL COMPANY:        COMPANY  
 LOC .                   25  22N  17W:        LOCATION   
 DATE.                        2-19-77:        LOG DATE 
 WELL.               SOUTH BARROW #14:        WELL     
 UWI .                   500232000900:        UNIQUE WELL ID 
 API .                   500232000900:        UNIQUE WELL IDENTIFIER 
 FLD .               SOUTH BARROW GAS:        FIELD    
 CNTY.                    NORTH SLOPE:        COUNTY  
 STAT.                         ALASKA:        STATE   
 CTRY.                            USA:        COUNTRY 
 OPER.              HUSKY OIL COMPANY:        OPERATOR  
 SRVC.                   SCHLUMBERGER:        SERVICE COMPANY 
 LAT .                         0.0000:        LATITUDE
 LON .                         0.0000:        LONGITUDE
 DIGS.               CENTER LINE DATA:        DIGITIZING COMPANY 
~CURVE INFORMATION      
#MNEM        .UNIT         API CODE           CURVE DESCRIPTION
#-----------------      --------------        ------------------------------
 DEPT        .F                      :        1  DEPTH
 LLS         .OHMM                   :        2  
 LLD         .OHMM                   :        3  
 SP          .MV                     :        4  
 ILD         .OHMM                   :        5  
 ILM         .OHMM                   :        6  
 LL8         .OHMM                   :        7  
 CALI        .IN                     :        8  
 GR          .GAPI                   :        9  
 NPHI        .%                      :        10 
 DPHI        .%                      :        11 
 RHOB        .G/C3                   :        12 
 DRHO        .G/C3                   :        13 
 DT          .US/F                   :        14 
~PARAMETER INFORMATION       
#MNEM.UNIT                  VALUE             DESCRIPTION OF MNEMONIC
#---------             ---------------        ------------------------------
 EKB .F                       31.0000:        KELLY BUSHING
 TD  .F                     1042.0000:        TOTAL DEPTH
 BHT .F                       62.0000:        BOTTOM HOLE TEMPERATURE
 BS  .                         6.0000:        BIT SIZE
 FD  .                        10.7000:        FLUID DENSITY
 CSIZ.                         7.0000:        CASING SIZE
 CBD .F                     1947.0000:        CASING DRILLER 1
 CBL .F                     1946.0000:        CASING LOGGER 1
 DFT .                  Miscellaneous:        TYPE FLUID IN HOLE
 DFV .                        50.0000:        VISCOSITY
 DFPH.                        10.0000:        PH
 DFL .                         0.0000:        FLUID LOSS
 RMS .                         0.1500:        RM
 MST .F                       50.0000:        RM MEAS. TEMP.
 RMF .                         0.1600:        RMF
 MFST.F                       61.0000:        RMF MEAS. TEMP.
 RMC .                         0.0000:        RMC
 MCST.F                        0.0000:        RMC MEAS. TEMP.
~OTHER INFORMATION
~A    DEPTH         LLS         LLD          SP         ILD         ILM         LL8        CALI          GR        NPHI        DPHI        RHOB        DRHO          DT  
# ...
  1322.0000   -999.2500   -999.2500    -61.9991     10.4215     10.6304     10.7263      8.8365     87.9125     40.1736     13.8697      2.4076      0.0520    113.8568  
  1322.5000   -999.2500   -999.2500    -62.2171     10.5380     10.7493     10.9786      8.8390     87.3252     40.7935     14.9006      2.3948      0.0554    112.7349  
  1323.0000   -999.2500   -999.2500    -62.4020     10.6559     10.8694     11.2368      8.7168     86.4665     41.6340     15.3016      2.3744      0.0462    111.8530  
  1323.5000   -999.2500   -999.2500    -62.5485     10.7750     10.9910     11.5011      8.6538     87.6499     42.6534     16.5161      2.3730      0.0404    111.6677  
  1324.0000   -999.2500   -999.2500    -62.4898     10.8955     11.1139     11.6781      8.6462     90.1941     43.8704     17.7234      2.3881      0.0516    111.8683  
  1324.5000   -999.2500   -999.2500    -62.3663     10.8907     11.1324     11.3432      8.6603     88.9939     45.1171     17.5235      2.3901      0.0608    111.9071  
  1325.0000   -999.2500   -999.2500    -62.1621     10.6179     10.8535     11.0179      8.5558     87.8443     45.4680     15.9374      2.3960      0.0746    111.7580  
  1325.5000   -999.2500   -999.2500    -61.9349     10.3518     10.5815     10.7020      8.4284     87.0360     44.0458     16.3360      2.3886      0.0736    111.9684  
  1326.0000   -999.2500   -999.2500    -61.7976     10.0925     10.3164     10.3951      8.3565     86.6323     42.6754     15.6110      2.3725      0.0514    112.4101  
  1326.5000   -999.2500   -999.2500    -61.5451      9.8740     10.0807     10.3860      8.4560     88.7354     41.8208     16.9667      2.3788      0.0617    113.6602  
  1327.0000   -999.2500   -999.2500    -61.4959      9.6940      9.8969     10.4878      8.5661     89.8288     42.9063     17.2865      2.3676      0.0422    115.2075  
  1327.5000   -999.2500   -999.2500    -61.6397      9.5173      9.7165     10.4831      8.6512     89.0272     44.4269     17.1490      2.3627      0.0227    116.2484  
  1328.0000   -999.2500   -999.2500    -61.9202      9.3438      9.5394     10.2830      8.5918     88.7980     45.8285     17.7630      2.3977      0.0414    116.9498  
  1328.5000   -999.2500   -999.2500    -61.8152      9.1734      9.3655     10.3531      8.4718     89.9285     45.9966     17.6918      2.4107      0.0555    117.4587  
  1329.0000   -999.2500   -999.2500    -61.5863      9.0062      9.1948     10.5079      8.3935     92.1521     46.4349     15.6548      2.3941      0.0408    117.6137  
  1329.5000   -999.2500   -999.2500    -61.5223      8.8420      9.0272     10.6046      8.3320     93.5634     45.2698     15.0766      2.4202      0.0739    117.7801  
  1330.0000   -999.2500   -999.2500    -61.5670      8.7086      8.8822     10.5834      8.3063     92.1105     42.6339     16.3552      2.4413      0.0919    118.2270  
  1330.5000   -999.2500   -999.2500    -61.4441      8.6194      8.7913     10.4303      8.2814     91.3580     40.7397     14.1128      2.4382      0.0810    118.3741  
  1331.0000   -999.2500   -999.2500    -61.5474      8.5310      8.7013     10.2795      8.3069     91.8670     41.5089     13.2219      2.4482      0.0948    118.2265  
  1331.5000   -999.2500   -999.2500    -61.6508      8.4436      8.6122     10.1213      8.3581     91.2349     43.3994     14.1001      2.4520      0.0945    118.1287  
  1332.0000   -999.2500   -999.2500    -61.7949      8.4086      8.5725     10.0612      8.4168     91.5928     45.1836     12.7977      2.4225      0.0593    118.0645  
  1332.5000   -999.2500   -999.2500    -61.6546      8.3948      8.5585     10.2090      8.4190     92.8010     46.7671     12.1837      2.4100      0.0596    118.1561  
  1333.0000   -999.2500   -999.2500    -61.8363      8.3828      8.5588     10.0596      8.4212     93.5881     47.9283     14.5331      2.4295      0.0651    118.3103  
  1333.5000   -999.2500   -999.2500    -61.9901      8.5376      8.7169      9.8467      8.4202     94.4673     48.1118     14.9962      2.4505      0.0699    118.6659  
  1334.0000   -999.2500   -999.2500    -62.1305      8.6952      8.8779      9.8257      8.4180     96.0008     46.1270     13.8301      2.4238      0.0608    118.7591  
  1334.5000   -999.2500   -999.2500    -62.2795      8.8557      9.0418     10.0495      8.3976     97.6526     44.0487     12.3945      2.4053      0.0470    118.8175  
  1335.0000   -999.2500   -999.2500    -62.3491      9.0192      9.2088     10.5592      8.3933     97.9736     43.5631     14.3617      2.4401      0.0787    119.2298  
  1335.5000   -999.2500   -999.2500    -62.2843      9.1858      9.3788     11.0947      8.3795     96.8468     44.0073     15.1165      2.4369      0.0756    119.5619  
  1336.0000   -999.2500   -999.2500    -62.2385      9.3554      9.5520     11.0586      8.4276     96.3046     43.5904     13.4940      2.4157      0.0548    119.7138  
  1336.5000   -999.2500   -999.2500    -62.2643      9.5281      9.7284     10.9843      8.4477     96.0667     43.0648     13.7428      2.4324      0.0665    118.4465  
  1337.0000   -999.2500   -999.2500    -62.2901      9.7040      9.9080     11.0935      8.4503     95.2226     43.9270     14.6629      2.4352      0.0661    117.0183  
  1337.5000   -999.2500   -999.2500    -62.3158      9.8230     10.0188     11.1541      8.4493     94.5792     45.2665     13.6985      2.4254      0.0621    115.1050  
  1338.0000   -999.2500   -999.2500    -62.1399      9.7250      9.9189     11.1774      8.4881     92.6970     44.6345     14.0429      2.4364      0.0825    114.8519  
  1338.5000   -999.2500   -999.2500    -61.6389      9.6281      9.8201     11.2273      8.5232     91.1833     43.5534     13.9475      2.4242      0.0670    114.7211  
  1339.0000   -999.2500   -999.2500    -61.1380      9.5321      9.7222     11.5990      8.5179     89.6806     43.5417     13.5961      2.3952      0.0437    114.4700  
  1339.5000   -999.2500   -999.2500    -60.8362      9.4371      9.6253     11.5190      8.5059     89.3729     43.2454     14.4443      2.4106      0.0590    114.4392  
  1340.0000   -999.2500   -999.2500    -60.9296      9.3430      9.5294     10.6267      8.4779     90.6657     42.1528     16.0817      2.4218      0.0516    114.3922  
  1340.5000   -999.2500   -999.2500    -60.8902      9.2065      9.4035     10.0533      8.4215     92.6102     42.6624     14.8075      2.4381      0.0681    114.1850  
  1341.0000   -999.2500   -999.2500    -61.1147      9.0167      9.2097      9.5108      8.4152     94.8989     43.9360     14.4601      2.4289      0.0504    114.0655  
  1341.5000   -999.2500   -999.2500    -61.4617      8.8308      9.0198      9.6573      8.3994     97.2647     44.6232     13.3953      2.4219      0.0579    114.4567  
  1342.0000   -999.2500   -999.2500    -61.7866      8.6487      8.8339      9.8787      8.4002     99.4316     45.0854     14.3528      2.4265      0.0487    115.5764  
  1342.5000   -999.2500   -999.2500    -61.8959      8.4964      8.6639     10.1052      8.4176     97.4636     44.5768     14.5346      2.4154      0.0441    117.6456  
  1343.0000   -999.2500   -999.2500    -62.1783      8.4371      8.6034     10.2229      8.4625     97.5609     43.9433     14.2717      2.4026      0.0461    118.7905  
  1343.5000   -999.2500   -999.2500    -62.6164      8.3782      8.5434     10.0958      8.5564     97.8857     43.3400     14.7301      2.4163      0.0796    119.2799  
  1344.0000   -999.2500   -999.2500    -62.8574      8.4939      8.7322      9.7974      8.5799     96.7368     42.7581     15.6927      2.4356      0.1219    118.8824  
  1344.5000   -999.2500   -999.2500    -63.0773      8.8155      9.0282      9.7544      8.4971     95.9747     42.5654     14.4966      2.4139      0.0958    118.6333  
  1345.0000   -999.2500   -999.2500    -63.2766      9.1144      9.3343     10.4249      8.3759     96.1610     41.9645     13.7922      2.4316      0.0893    118.4328  
  1345.5000   -999.2500   -999.2500    -63.4728      9.4234      9.6507     11.2734      8.4146     97.4813     42.8240     15.1290      2.4462      0.0991    118.8881  
