~VERSION INFORMATION
 VERS.                           2.00:        CWLS LOG ASCII STANDARD - VERSION 2.00
 WRAP.                             NO:        ONE LINE PER DEPTH STEP
~WELL INFORMATION
#MNEM.UNIT                   DATA             INFORMATION
#----------             --------------        ------------------------------
 STRT.F                       98.0000:        START DEPTH
 STOP.F                     2124.0000:        STOP DEPTH
 STEP.F                        0.5000:        STEP VALUE
 NULL.                      -999.2500:        NULL VALUE
 COMP.          USGS/NPR-A OPERATIONS:        COMPANY  
 LOC .                   24  22N  17W:        LOCATION   
 DATE.                        10/5/80:        LOG DATE 
 WELL.               SOUTH BARROW #18:        WELL     
 UWI .                   500232001700:        UNIQUE WELL ID 
 API .                   500232001700:        UNIQUE WELL IDENTIFIER 
 FLD .                   SOUTH BARROW:        FIELD    
 CNTY.                    NORTH SLOPE:        COUNTY  
 STAT.                         ALASKA:        STATE   
 CTRY.                            USA:        COUNTRY 
 OPER.          USGS/NPR-A OPERATIONS:        OPERATOR  
 SRVC.                   SCHLUMBERGER:        SERVICE COMPANY 
 LAT .                         0.0000:        LATITUDE
 LON .                         0.0000:        LONGITUDE
 DIGS.               CENTER LINE DATA:        DIGITIZING COMPANY 
~CURVE INFORMATION      
#MNEM        .UNIT         API CODE           CURVE DESCRIPTION
#-----------------      --------------        ------------------------------
 DEPT        .F                      :        1  DEPTH
 CALI        .IN                     :        2  
 GR          .GAPI                   :        3  
 NPHI        .%                      :        4  
 RHOB        .G/C3                   :        5  
 DRHO        .G/C3                   :        6  
 DT          .US/F                   :        7  
 SP          .MV                     :        8  
 ILD         .OHMM                   :        9  
 ILM         .OHMM                   :        10 
 SFL         .OHMM                   :        11 
 LLD         .OHMM                   :        12 
 LLS         .OHMM                   :        13 
 MSFL        .OHMM                   :        14 
~PARAMETER INFORMATION       
#MNEM.UNIT                  VALUE             DESCRIPTION OF MNEMONIC
#---------             ---------------        ------------------------------
 EKB .F                       30.0000:        KELLY BUSHING
 TD  .F                     2125.0000:        TOTAL DEPTH
 BHT .F                        0.0000:        BOTTOM HOLE TEMPERATURE
 BS  .                         8.5000:        BIT SIZE
 FD  .                        10.3000:        FLUID DENSITY
 CSIZ.                         9.6250:        CASING SIZE
 CBD .F                     1519.0000:        CASING DRILLER 1
 CBL .F                     1520.0000:        CASING LOGGER 1
 DFT .                  Miscellaneous:        TYPE FLUID IN HOLE
 DFV .                        47.0000:        VISCOSITY
 DFPH.                         8.5000:        PH
 DFL .                        14.0000:        FLUID LOSS
 RMS .                         0.1600:        RM
 MST .F                       43.0000:        RM MEAS. TEMP.
 RMF .                         0.1100:        RMF
 MFST.F                       43.0000:        RMF MEAS. TEMP.
 RMC .                         0.1200:        RMC
 MCST.F                       43.0000:        RMC MEAS. TEMP.
~OTHER INFORMATION
~A    DEPTH        CALI          GR        NPHI        RHOB        DRHO          DT          SP         ILD         ILM         SFL         LLD         LLS        MSFL  
# ...
  1850.0000     10.2071     92.6103     33.5411      2.4975      0.0380    103.2686   -999.2500   -999.2500   -999.2500   -999.2500     10.0236      8.5446      4.7992  
  1850.5000     10.1913     94.1374     33.0195      2.4994      0.0392    103.1966   -999.2500   -999.2500   -999.2500   -999.2500     10.0899      8.6551      4.5693  
  1851.0000     10.1880     94.2332     33.8354      2.5034      0.0386    105.1637   -999.2500   -999.2500   -999.2500   -999.2500     10.3654      8.8998      4.3684  
  1851.5000     10.1643     94.2593     34.4142      2.4946      0.0373    107.0851   -999.2500   -999.2500   -999.2500   -999.2500     10.7831      9.2836      4.4071  
  1852.0000     10.1248     94.1730     33.7864      2.5051      0.0352    109.0301   -999.2500   -999.2500   -999.2500   -999.2500     10.6281      9.2759      5.1951  
  1852.5000     10.1341     94.2697     33.2590      2.5077      0.0328    110.5484   -999.2500   -999.2500   -999.2500   -999.2500     10.2362      9.0849      5.7011  
  1853.0000     10.1353     95.5846     33.6227      2.5027      0.0298    110.5409   -999.2500   -999.2500   -999.2500   -999.2500      9.8664      8.9054      5.6822  
  1853.5000     10.1072     99.1288     33.5959      2.4939      0.0228    109.7978   -999.2500   -999.2500   -999.2500   -999.2500      9.5456      8.6104      5.3246  
  1854.0000     10.0677    103.5630     33.3730      2.4965      0.0163    109.8530   -999.2500   -999.2500   -999.2500   -999.2500      9.7076      8.6484      4.8338  
  1854.5000     10.0504    101.6210     35.2042      2.4794      0.0094    109.7857   -999.2500   -999.2500   -999.2500   -999.2500      9.7760      8.7864      4.3202  
  1855.0000     10.0381    100.1252     37.0336      2.4755      0.0057    108.9977   -999.2500   -999.2500   -999.2500   -999.2500      9.8448      8.9278      3.7302  
  1855.5000     10.0213     99.2478     38.3930      2.4628      0.0095    107.9889   -999.2500   -999.2500   -999.2500   -999.2500      9.9142      9.0622      3.8160  
  1856.0000     10.0404     99.6663     37.8133      2.4790      0.0185    106.4324   -999.2500   -999.2500   -999.2500   -999.2500      9.9840      9.1389      4.8292  
  1856.5000     10.0480    100.2880     37.5265      2.4980      0.0260    104.9093   -999.2500   -999.2500   -999.2500   -999.2500     10.0543      9.3602      4.8402  
  1857.0000     10.0204    100.9844     37.9906      2.4994      0.0253    104.5436   -999.2500   -999.2500   -999.2500   -999.2500     10.2293      9.7371      4.6670  
  1857.5000     10.0208    101.1552     38.1099      2.5052      0.0298    105.7324   -999.2500   -999.2500   -999.2500   -999.2500     10.5701     10.1292      5.0548  
  1858.0000     10.0081    100.9699     38.1535      2.5077      0.0357    107.5885   -999.2500   -999.2500   -999.2500   -999.2500     11.6565     10.5370      7.4058  
  1858.5000      9.9930    100.9273     37.9557      2.5039      0.0331    108.5138   -999.2500   -999.2500   -999.2500   -999.2500     11.8378     10.7478      6.6772  
  1859.0000     10.0083    100.8847     36.3380      2.4814      0.0131    108.5195   -999.2500   -999.2500   -999.2500   -999.2500     11.3353     10.5131      5.3681  
  1859.5000     10.0172    100.3431     35.5349      2.4743      0.0114    108.5080   -999.2500   -999.2500   -999.2500   -999.2500     10.6908     10.1301      4.8920  
  1860.0000      9.9262     98.7848     35.9811      2.4700      0.0060    106.8059   -999.2500   -999.2500   -999.2500   -999.2500     10.6215      9.7690      5.2373  
  1860.5000      9.9623     98.2961     37.0471      2.4668      0.0154    104.5643   -999.2500   -999.2500   -999.2500   -999.2500     10.7324      9.8244      5.5252  
  1861.0000      9.9891     98.4232     37.8610      2.4693      0.0258    104.2821   -999.2500   -999.2500   -999.2500   -999.2500     10.8667     10.1504      5.6103  
  1861.5000      9.9814     98.1995     37.9782      2.4739      0.0294    104.2786   -999.2500   -999.2500   -999.2500   -999.2500     11.3180     10.4943      5.4071  
  1862.0000      9.9483     96.8736     37.0099      2.4814      0.0377    104.7611   -999.2500   -999.2500   -999.2500   -999.2500     12.1376     10.7759      5.2111  
  1862.5000      9.9709     95.4808     36.0974      2.4879      0.0457    105.8356   -999.2500   -999.2500   -999.2500   -999.2500     12.3123     10.6475      5.4655  
  1863.0000      9.9562     93.5398     35.0469      2.4891      0.0404    105.9201   -999.2500   -999.2500   -999.2500   -999.2500     12.0038     10.5207      5.8756  
  1863.5000      9.9748     92.3138     34.4334      2.4824      0.0334    104.8142   -999.2500   -999.2500   -999.2500   -999.2500     11.7030     10.2320      5.7857  
  1864.0000      9.9870     93.6629     33.3738      2.4791      0.0249    104.0630   -999.2500   -999.2500   -999.2500   -999.2500     11.4097     10.2453      4.9504  
  1864.5000      9.9872     96.0398     33.0128      2.4870      0.0269    103.3319   -999.2500   -999.2500   -999.2500   -999.2500     11.2034     10.2901      3.5618  
  1865.0000      9.9730     96.5655     34.2642      2.4873      0.0251    102.4443   -999.2500   -999.2500   -999.2500   -999.2500     11.6497     10.7872      2.5001  
  1865.5000      9.9766     95.0808     35.0664      2.4811      0.0150     57.5783   -999.2500   -999.2500   -999.2500   -999.2500     12.1139     10.8052      1.8882  
  1866.0000     10.0293     96.6469     35.0836      2.4751      0.0093    104.4228   -999.2500   -999.2500   -999.2500   -999.2500     11.9348     10.7419      1.3853  
  1866.5000     10.0949     96.0279     35.0602      2.4864      0.0133    107.0635   -999.2500   -999.2500   -999.2500   -999.2500     11.5776     10.5654      1.2221  
  1867.0000     10.1284     93.8889     35.0968      2.4868      0.0077    107.9095   -999.2500   -999.2500   -999.2500   -999.2500     11.2311     10.0629      1.7508  
  1867.5000     10.1316     92.1765     35.4556      2.4841      0.0013    106.3880   -999.2500   -999.2500   -999.2500   -999.2500     10.8949      9.4729      3.2577  
  1868.0000     10.1349     91.3728     35.6649      2.4904      0.0198    104.0178   -999.2500   -999.2500   -999.2500   -999.2500     10.5688      9.6684      3.5352  
  1868.5000     10.1703     92.5058     35.4487      2.4749      0.0217    104.4994   -999.2500   -999.2500   -999.2500   -999.2500     10.6171     10.1741      2.8074  
  1869.0000     10.2129     91.6198     35.6160      2.4622      0.0058    105.0928   -999.2500   -999.2500   -999.2500   -999.2500     10.8349     10.2313      2.3397  
  1869.5000     10.2383     90.7764     36.4785      2.4607      0.0007    106.0978   -999.2500   -999.2500   -999.2500   -999.2500     11.0572     10.1831      2.4069  
  1870.0000     10.2519     91.0274     36.4727      2.4649      0.0135     84.6574   -999.2500   -999.2500   -999.2500   -999.2500     11.2841     10.1352      2.4748  
  1870.5000     10.2776     91.3931     35.7792      2.4739      0.0241     95.2632   -999.2500   -999.2500   -999.2500   -999.2500     11.1863      9.9447      2.7754  
  1871.0000     10.4118     91.7097     34.9259      2.4813      0.0323    105.7940   -999.2500   -999.2500   -999.2500   -999.2500     11.0666      9.7872      4.0498  
  1871.5000     10.3974     91.8559     35.3445      2.4841      0.0408    104.2579   -999.2500   -999.2500   -999.2500   -999.2500     11.4055     10.1236      5.6345  
  1872.0000     10.4072     91.9462     37.9603      2.4826      0.0279    102.8509   -999.2500   -999.2500   -999.2500   -999.2500     11.7547     10.3512      5.3535  
  1872.5000     10.4169     91.2146     38.2143      2.4803      0.0217    101.7463   -999.2500   -999.2500   -999.2500   -999.2500     12.1147     10.6543      4.3087  
  1873.0000     10.3178     90.1213     38.0009      2.4782      0.0207    100.8435   -999.2500   -999.2500   -999.2500   -999.2500     12.4598     10.8314      3.1500  
  1873.5000     10.2438     88.3084     36.8352      2.4800      0.0198    100.0484   -999.2500   -999.2500   -999.2500   -999.2500     12.5883     10.9268      2.0146  
