~VERSION INFORMATION
 VERS.                           2.00:        CWLS LOG ASCII STANDARD - VERSION 2.00
 WRAP.                             NO:        ONE LINE PER DEPTH STEP
~WELL INFORMATION
#MNEM.UNIT                   DATA             INFORMATION
#----------             --------------        ------------------------------
 STRT.F                       96.0000:        START DEPTH
 STOP.F                     2280.0000:        STOP DEPTH
 STEP.F                        0.5000:        STEP VALUE
 NULL.                      -999.2500:        NULL VALUE
 COMP.    USGS/NPR HUSKY OIL OPERATOR:        COMPANY  
 LOC .                   23  22N  17W:        LOCATION   
 DATE.                        9/11/80:        LOG DATE 
 WELL.               SOUTH BARROW #15:        WELL     
 UWI .                   500232001600:        UNIQUE WELL ID 
 API .                   500232001600:        UNIQUE WELL IDENTIFIER 
 FLD .                   SOUTH BARROW:        FIELD    
 CNTY.                    NORTH SLOPE:        COUNTY  
 STAT.                         ALASKA:        STATE   
 CTRY.                            USA:        COUNTRY 
 OPER.    USGS/NPR HUSKY OIL OPERATOR:        OPERATOR  
 SRVC.                   SCHLUMBERGER:        SERVICE COMPANY 
 LAT .                         0.0000:        LATITUDE
 LON .                         0.0000:        LONGITUDE
 DIGS.               CENTER LINE DATA:        DIGITIZING COMPANY 
~CURVE INFORMATION      
#MNEM        .UNIT         API CODE           CURVE DESCRIPTION
#-----------------      --------------        ------------------------------
 DEPT        .F                      :        1  DEPTH
 CALI        .IN                     :        2  
 GR          .GAPI                   :        3  
 RHOB        .G/C3                   :        4  
 DRHO        .G/C3                   :        5  
 NPHI        .%                      :        6  
 DT          .US/F                   :        7  
 SP          .MV                     :        8  
 ILD         .OHMM                   :        9  
 ILM         .OHMM                   :        10 
 SFL         .OHMM                   :        11 
 LLD         .OHMM                   :        12 
 LLS         .OHMM                   :        13 
 MSFL        .OHMM                   :        14 
~PARAMETER INFORMATION       
#MNEM.UNIT                  VALUE             DESCRIPTION OF MNEMONIC
#---------             ---------------        ------------------------------
 EKB .F                       30.0000:        KELLY BUSHING
 TD  .F                     2279.0000:        TOTAL DEPTH
 BHT .F                        0.0000:        BOTTOM HOLE TEMPERATURE
 BS  .                         8.5000:        BIT SIZE
 FD  .                        10.3000:        FLUID DENSITY
 CSIZ.                         9.6250:        CASING SIZE
 CBD .F                     1514.0000:        CASING DRILLER 1
 CBL .F                     1520.0000:        CASING LOGGER 1
 DFT .                  Miscellaneous:        TYPE FLUID IN HOLE
 DFV .                        43.0000:        VISCOSITY
 DFPH.                         0.0000:        PH
 DFL .                         0.0000:        FLUID LOSS
 RMS .                         0.1800:        RM
 MST .F                       48.0000:        RM MEAS. TEMP.
 RMF .                         0.1400:        RMF
 MFST.F                       48.0000:        RMF MEAS. TEMP.
 RMC .                         0.0000:        RMC
 MCST.F                        0.0000:        RMC MEAS. TEMP.
~OTHER INFORMATION
~A    DEPTH        CALI          GR        RHOB        DRHO        NPHI          DT          SP         ILD         ILM         SFL         LLD         LLS        MSFL  
# ...
  1920.0000      9.4031     78.9579      2.4650      0.0913     27.1943    106.9261   -999.2500   -999.2500   -999.2500   -999.2500     11.9720     11.3706     10.4387  
  1920.5000      9.2456     77.3921      2.4597      0.1063     26.5475    107.0036   -999.2500   -999.2500   -999.2500   -999.2500     11.2466     10.7099     10.4646  
  1921.0000      9.6392     76.5060      2.4510      0.1195     26.6105    105.5797   -999.2500   -999.2500   -999.2500   -999.2500     11.0188     10.0877     10.3130  
  1921.5000      9.8505     76.5537      2.4362      0.1381     27.1383     99.9131   -999.2500   -999.2500   -999.2500   -999.2500     11.2867      9.8285      9.0228  
  1922.0000     10.0389     76.7850      2.4147      0.1240     29.4066     96.3379   -999.2500   -999.2500   -999.2500   -999.2500     12.1967     10.3562      6.9287  
  1922.5000     10.1375     75.8284      2.3968      0.0968     32.6113     92.8269   -999.2500   -999.2500   -999.2500   -999.2500     13.1904     11.2622      6.7961  
  1923.0000     10.4031     73.8705      2.3852      0.0669     33.6975     90.5913   -999.2500   -999.2500   -999.2500   -999.2500     14.2114     12.6550      9.0475  
  1923.5000     10.3203     70.9896      2.3995      0.0681     32.6637     92.8360   -999.2500   -999.2500   -999.2500   -999.2500     15.3007     12.6329     11.9121  
  1924.0000      9.7931     72.3159      2.4169      0.1245     30.7819     94.2477   -999.2500   -999.2500   -999.2500   -999.2500     15.7942     12.5398     12.2738  
  1924.5000      9.5097     75.4329      2.4155      0.1545     29.6028     93.5627   -999.2500   -999.2500   -999.2500   -999.2500     14.6871     12.5701     12.3353  
  1925.0000      9.3455     76.9866      2.3972      0.1199     29.7081     93.4048   -999.2500   -999.2500   -999.2500   -999.2500     14.5329     12.7654     11.9827  
  1925.5000      9.5770     78.1048      2.4067      0.0871     30.0968     93.4247   -999.2500   -999.2500   -999.2500   -999.2500     14.5329     12.6257     11.4384  
  1926.0000      9.5520     78.2019      2.4226      0.0550     30.8296     94.2138   -999.2500   -999.2500   -999.2500   -999.2500     14.1621     12.2929     10.9298  
  1926.5000      9.5060     78.3493      2.4146      0.0797     32.0611     94.9774   -999.2500   -999.2500   -999.2500   -999.2500     13.7561     12.1510     10.6739  
  1927.0000      8.9145     78.8780      2.3900      0.0858     32.5401     95.8699   -999.2500   -999.2500   -999.2500   -999.2500     13.6373     12.1553     10.6377  
  1927.5000      9.3580     79.4678      2.3809      0.1551     32.2774     96.3635   -999.2500   -999.2500   -999.2500   -999.2500     13.9366     12.1125     10.7684  
  1928.0000      9.8573     79.3828      2.3232      0.1659     30.6002     98.6290   -999.2500   -999.2500   -999.2500   -999.2500     14.4364     11.9470     10.8913  
  1928.5000      9.9969     79.4286      2.3598      0.1511     28.9204    100.6594   -999.2500   -999.2500   -999.2500   -999.2500     14.7122     11.5174     10.8759  
  1929.0000     10.0753     81.5573      2.4061      0.1399     27.5571    100.6196   -999.2500   -999.2500   -999.2500   -999.2500     13.3936     10.8127     10.1788  
  1929.5000      9.0848     83.0357      2.4329      0.1298     28.4402     99.7679   -999.2500   -999.2500   -999.2500   -999.2500     11.7179     10.1278      9.1809  
  1930.0000      9.4122     82.2584      2.4105      0.0880     29.3432     96.9868   -999.2500   -999.2500   -999.2500   -999.2500     10.9492      9.9904      9.2217  
  1930.5000      9.6456     82.1939      2.4256      0.1361     30.4573     91.9015   -999.2500   -999.2500   -999.2500   -999.2500     12.1708     10.1023      9.4248  
  1931.0000     10.0373     82.4425      2.3618      0.1615     30.5840     91.5995   -999.2500   -999.2500   -999.2500   -999.2500     12.3405     10.2163      9.6826  
  1931.5000     10.1908     82.1903      2.2563      0.1715     30.1172     91.5226   -999.2500   -999.2500   -999.2500   -999.2500     11.4976     10.1883      9.6075  
  1932.0000      9.9916     81.8958      2.2144      0.1555     29.6661     92.7831   -999.2500   -999.2500   -999.2500   -999.2500     10.9872     10.1553      9.5085  
  1932.5000     10.0926     81.6358      2.2503      0.1502     29.8347     94.0066   -999.2500   -999.2500   -999.2500   -999.2500     10.9710     10.2305      9.6086  
  1933.0000     10.5193     81.3559      2.2568      0.1312     30.0757     94.3556   -999.2500   -999.2500   -999.2500   -999.2500     11.0361     10.3928      9.7919  
  1933.5000     10.9718     80.5823      2.2633      0.1359     29.7928     94.8320   -999.2500   -999.2500   -999.2500   -999.2500     11.5957     10.6685     10.0447  
  1934.0000      9.9065     80.5624      2.2847      0.1514     28.4151     94.4302   -999.2500   -999.2500   -999.2500   -999.2500     12.3521     10.9491     10.4313  
  1934.5000      9.1076     81.4445      2.3219      0.1550     28.3530     93.5327   -999.2500   -999.2500   -999.2500   -999.2500     12.5930     11.3944     10.8417  
  1935.0000     10.1254     82.3062      2.3501      0.1530     28.6558     93.0719   -999.2500   -999.2500   -999.2500   -999.2500     12.7023     11.3575     10.7423  
  1935.5000     10.0374     83.1895      2.3859      0.1357     29.0419     93.7867   -999.2500   -999.2500   -999.2500   -999.2500     13.4268     11.2070     10.6036  
  1936.0000     10.2743     83.1404      2.4173      0.1070     29.2361     94.8930   -999.2500   -999.2500   -999.2500   -999.2500     13.6465     11.0125     10.4912  
  1936.5000      9.6932     81.8611      2.4203      0.0804     29.4151     96.1511   -999.2500   -999.2500   -999.2500   -999.2500     13.4490     11.0125     10.4106  
  1937.0000      9.0655     81.5275      2.4190      0.0544     30.0510     97.0721   -999.2500   -999.2500   -999.2500   -999.2500     13.1758     11.0897     10.3189  
  1937.5000      9.1244     81.8009      2.4272      0.0906     30.5165     96.9449   -999.2500   -999.2500   -999.2500   -999.2500     12.6825     11.0668     10.1867  
  1938.0000      9.3797     81.9386      2.4085      0.1283     30.4019     96.4623   -999.2500   -999.2500   -999.2500   -999.2500     12.7476     11.0071     10.1836  
  1938.5000      9.6995     81.8865      2.3771      0.1393     30.2394     96.0540   -999.2500   -999.2500   -999.2500   -999.2500     13.1485     10.9589     10.2406  
  1939.0000     10.3063     83.5340      2.3654      0.1398     30.0736     95.9943   -999.2500   -999.2500   -999.2500   -999.2500     13.4580     10.9096     10.0091  
  1939.5000      9.8599     84.2350      2.3751      0.1421     29.1663     95.9812   -999.2500   -999.2500   -999.2500   -999.2500     13.5238     10.7553      9.6971  
  1940.0000      9.3361     84.1068      2.4022      0.1453     29.1976     95.6378   -999.2500   -999.2500   -999.2500   -999.2500     12.6460     10.5291      9.5300  
  1940.5000      9.5339     83.8484      2.4338      0.1619     29.6365     95.3485   -999.2500   -999.2500   -999.2500   -999.2500     12.0567     10.3153      9.2901  
  1941.0000      9.8151     83.6420      2.4226      0.1578     30.4461     95.0507   -999.2500   -999.2500   -999.2500   -999.2500     11.9666     10.1059      8.6624  
  1941.5000     10.0048     83.4473      2.3738      0.1128     31.3300     94.7928   -999.2500   -999.2500   -999.2500   -999.2500     11.9489      9.4741      7.6630  
  1942.0000      9.5761     83.9066      2.3203      0.1227     32.2888     94.7110   -999.2500   -999.2500   -999.2500   -999.2500     10.4218      8.7981      7.1133  
  1942.5000      9.9106     84.2717      2.2306      0.1174     33.0669     94.7868   -999.2500   -999.2500   -999.2500   -999.2500      9.7367      8.1703      6.3780  
  1943.0000     10.3565     83.9276      2.1544      0.1258     33.5339     95.1217   -999.2500   -999.2500   -999.2500   -999.2500      9.6329      8.0431      5.6847  
  1943.5000     11.2537     84.3969      2.1313      0.1302     33.9683     95.5332   -999.2500   -999.2500   -999.2500   -999.2500      9.6994      8.1409      5.9684  
