~VERSION INFORMATION
 VERS.                           2.00:        CWLS LOG ASCII STANDARD - VERSION 2.00
 WRAP.                             NO:        ONE LINE PER DEPTH STEP
~WELL INFORMATION
#MNEM.UNIT                   DATA             INFORMATION
#----------             --------------        ------------------------------
 STRT.F                     1244.0000:        START DEPTH
 STOP.F                     2340.0000:        STOP DEPTH
 STEP.F                        0.5000:        STEP VALUE
 NULL.                      -999.2500:        NULL VALUE
 COMP.        U.S. NAVY DEPT NP & OSR:        COMPANY  
 LOC .                   14  22N  18W:        LOCATION   
 DATE.                        3/16/73:        LOG DATE 
 WELL.               SOUTH BARROW #10:        WELL     
 UWI .                   500232000400:        UNIQUE WELL ID 
 API .                   500232000400:        UNIQUE WELL IDENTIFIER 
 FLD .                   SOUTH BARROW:        FIELD    
 CNTY.                         NPR #4:        COUNTY  
 STAT.                         ALASKA:        STATE   
 CTRY.                            USA:        COUNTRY 
 OPER.        U.S. NAVY DEPT NP & OSR:        OPERATOR  
 SRVC.                   SCHLUMBERGER:        SERVICE COMPANY 
 LAT .                         0.0000:        LATITUDE
 LON .                         0.0000:        LONGITUDE
 DIGS.               CENTER LINE DATA:        DIGITIZING COMPANY 
~CURVE INFORMATION      
#MNEM        .UNIT         API CODE           CURVE DESCRIPTION
#-----------------      --------------        ------------------------------
 DEPT        .F                      :        1  DEPTH
 SP          .MV                     :        2  
 LL8         .OHMM                   :        3  
 ILD         .OHMM                   :        4  
 CILD        .MMHO                   :        5  
 DT          .US/F                   :        6  
~PARAMETER INFORMATION       
#MNEM.UNIT                  VALUE             DESCRIPTION OF MNEMONIC
#---------             ---------------        ------------------------------
 EKB .F                       38.0000:        KELLY BUSHING
 TD  .F                     2349.0000:        TOTAL DEPTH
 BHT .F                       60.0000:        BOTTOM HOLE TEMPERATURE
 BS  .                         9.6250:        BIT SIZE
 FD  .                        10.6000:        FLUID DENSITY
 CSIZ.                        10.7500:        CASING SIZE
 CBD .F                     1240.0000:        CASING DRILLER 1
 CBL .F                     1244.0000:        CASING LOGGER 1
 DFT .                  Miscellaneous:        TYPE FLUID IN HOLE
 DFV .                        15.0000:        VISCOSITY
 DFPH.                        11.0000:        PH
 DFL .                         1.8000:        FLUID LOSS
 RMS .                         1.1900:        RM
 MST .F                       55.0000:        RM MEAS. TEMP.
 RMF .                         0.8500:        RMF
 MFST.F                       55.0000:        RMF MEAS. TEMP.
 RMC .                         1.2000:        RMC
 MCST.F                       55.0000:        RMC MEAS. TEMP.
~OTHER INFORMATION
~A    DEPTH          SP         LL8         ILD        CILD          DT  
# ...
  1407.5000    -30.5502     12.3159     10.7948     92.5709    114.5795  
  1408.0000    -30.5693     12.2828     10.7811     92.5154    114.1796  
  1408.5000    -30.6140     12.2983     10.7744     92.4599    113.5170  
  1409.0000    -30.6758     12.3076     10.7755     92.4045    112.7688  
  1409.5000    -30.6934     12.2476     10.7262     92.4500    113.2246  
  1410.0000    -30.6704     12.2592     10.6975     92.5527    112.9360  
  1410.5000    -30.6394     12.3380     10.6964     92.7699    111.7334  
  1411.0000    -30.6369     12.4046     10.6958     92.6809    111.2676  
  1411.5000    -30.5115     12.4538     10.7457     92.4909    111.4093  
  1412.0000    -30.4857     12.5031     10.8075     91.9654    112.0194  
  1412.5000    -30.5431     12.5523     10.8375     91.3925    112.5389  
  1413.0000    -30.6768     12.6015     10.8855     91.4287    112.4793  
  1413.5000    -31.1363     12.6467     10.9211     90.9880    110.7191  
  1414.0000    -31.2378     12.6177     10.8550     91.9804    110.7026  
  1414.5000    -31.2961     12.5297     10.8328     91.8778    111.0887  
  1415.0000    -31.3406     12.5001     10.7481     92.6343    111.0912  
  1415.5000    -31.4485     12.5142     10.7072     93.0011    111.0083  
  1416.0000    -31.5045     12.4918     10.7038     93.1538    111.7661  
  1416.5000    -31.5334     12.4222     10.5995     93.6564    112.9326  
  1417.0000    -31.4139     12.3341     10.5928     93.9879    112.8884  
  1417.5000    -31.2203     12.2470     10.4643     94.8015    112.6068  
  1418.0000    -30.7041     12.1950     10.5290     95.6798    113.0417  
  1418.5000    -30.2552     12.1535     10.4202     96.6517    112.3750  
  1419.0000    -29.9225     12.1048     10.3410     96.5656    112.2997  
  1419.5000    -29.7751     12.0772     10.3733     96.7458    112.9298  
  1420.0000    -29.7968     12.0758     10.4015     96.7414    113.0676  
  1420.5000    -29.8805     12.0843     10.2579     96.7363    113.0997  
  1421.0000    -29.9641     12.0608     10.3184     96.7288    113.3762  
  1421.5000    -29.8552     12.0284     10.2369     97.3323    113.9956  
  1422.0000    -29.5363     12.0175     10.2411     97.2434    114.3731  
  1422.5000    -29.1068     11.9928     10.2339     97.2418    113.6166  
  1423.0000    -28.9209     11.9286     10.2002     97.5438    113.4987  
  1423.5000    -28.8905     11.8388     10.1288     98.2413    113.0474  
  1424.0000    -28.8881     11.7528     10.0375     98.9389    113.0751  
  1424.5000    -28.8141     11.6485      9.9382     99.6364    113.6261  
  1425.0000    -28.7181     11.5911      9.8947    100.2698    114.3243  
  1425.5000    -28.8666     11.6133      9.8713    100.8372    114.5292  
  1426.0000    -29.1017     11.6822      9.8480    100.7553    114.7820  
  1426.5000    -29.3674     11.7251      9.8246    101.1389    115.1255  
  1427.0000    -29.5770     11.6567      9.8012    101.3882    116.0696  
  1427.5000    -29.6895     11.6200      9.7779    101.9311    116.5518  
  1428.0000    -29.7896     11.6042      9.7545    102.8814    116.4680  
  1428.5000    -29.7342     11.6433      9.7311    103.5874    116.1869  
  1429.0000    -29.5310     11.6528      9.7078    103.1400    115.3667  
  1429.5000    -29.3483     11.6543      9.6844    101.8042    115.3060  
  1430.0000    -29.1655     11.6094      9.6484    101.9079    115.8257  
  1430.5000    -29.0939     11.5192      9.6803    102.3486    116.0286  
  1431.0000    -29.1303     11.5486      9.4912    102.8732    116.1188  
  1431.5000    -29.1603     11.6053      9.4818    103.0579    115.5303  
  1432.0000    -29.1046     11.6619      9.4061    103.2436    114.7522  
  1432.5000    -28.6474     11.7186      9.4654    103.0775    114.1749  
  1433.0000    -28.2503     11.7898      9.5338    102.6052    113.9853  
  1433.5000    -28.1266     11.8984      9.6337    102.1995    113.9188  
  1434.0000    -28.2323     11.9948      9.6690    101.8332    114.5107  
  1434.5000    -28.2578     12.0743      9.7957    101.1535    115.4057  
  1435.0000    -28.2087     12.1328      9.7800    100.6478    115.5564  
  1435.5000    -28.3507     12.1828      9.8368    100.1160    114.0091  
  1436.0000    -28.3923     12.2008      9.8144     99.5564    112.8125  
  1436.5000    -28.3152     12.2188      9.9713     98.9967    112.1220  
  1437.0000    -28.3588     12.2368     10.0073     98.4371    111.9240  
  1437.5000    -28.4344     12.2547     10.0530     97.8775    111.9941  
  1438.0000    -28.4157     12.3163     10.0249     97.4737    112.5508  
  1438.5000    -28.3782     12.4406     10.0430     97.4987    113.1481  
  1439.0000    -28.6740     12.5877     10.0520     98.3753    113.4182  
  1439.5000    -28.9206     12.8118     10.0989     97.5916    113.3836  
  1440.0000    -28.8965     13.0312     10.3828     96.0624    112.7660  
  1440.5000    -28.7060     13.2936     10.6174     93.8026    112.1054  
  1441.0000    -28.4599     13.4773     10.8487     91.6932    111.9833  
  1441.5000    -28.2536     13.5291     11.0607     89.7194    111.9835  
  1442.0000    -28.0737     13.4877     11.2502     88.6857    111.9668  
  1442.5000    -28.0414     13.3501     11.3441     88.3750    112.1270  
  1443.0000    -28.0725     13.2135     11.2679     88.7681    111.9497  
  1443.5000    -28.1185     12.9992     11.1368     89.4893    111.0315  
  1444.0000    -28.1929     12.7192     10.9870     90.9237    109.1918  
  1444.5000    -28.1928     12.3956     10.7319     92.5553    107.5332  
  1445.0000    -28.3364     12.0825     10.5662     94.6104    108.3729  
  1445.5000    -28.3179     11.8443     10.3542     96.5209    109.5134  
  1446.0000    -28.2188     11.6990     10.1738     98.4136    111.8457  
  1446.5000    -28.1502     11.6500      9.8158    100.3063    114.8516  
  1447.0000    -28.2407     11.6340      9.6211    102.1990    115.3061  
  1447.5000    -28.3170     11.6423      9.5343    102.8249    115.7383  
  1448.0000    -28.3953     11.6648      9.4309    103.1963    116.0485  
  1448.5000    -28.3190     11.7333      9.4624    102.8545    115.9601  
  1449.0000    -28.2246     11.8430      9.5423    102.0334    116.0879  
  1449.5000    -28.0931     11.9510      9.4951    101.2123    116.3864  
  1450.0000    -28.1935     12.1265      9.6205    100.3912    117.1277  
  1450.5000    -28.3377     12.3379      9.8067     99.5701    117.0999  
  1451.0000    -28.4546     12.4191      9.8582     98.7490    116.3534  
  1451.5000    -28.7303     12.4295      9.9302     98.0190    115.6516  
  1452.0000    -29.1178     12.4084      9.9749     97.6708    115.1611  
  1452.5000    -29.6368     12.3829      9.9768     97.4158    115.0433  
  1453.0000    -29.5409     12.4147     10.0025     97.8575    114.5316  
  1453.5000    -29.3137     12.4304     10.0227     98.2718    113.2520  
  1454.0000    -29.0560     12.3228     10.0114     98.3998    112.9049  
  1454.5000    -28.8876     12.1177      9.9869     98.8476    113.0519  
  1455.0000    -28.5085     11.9645      9.8722     99.5591    113.4783  
  1455.5000    -27.9137     11.9558      9.7861    100.6647    113.5745  
  1456.0000    -27.7490     12.1815      9.7356    101.4604    113.3827  
  1456.5000    -27.6453     11.9897      9.6851    101.5482    113.1328  
  1457.0000    -27.4617     11.8864      9.6345    101.7452    113.1063  
  1457.5000    -27.2116     11.7870      9.5840    102.0017    113.9874  
  1458.0000    -26.5277     11.7483      9.5334    102.3179    115.0689  
  1458.5000    -26.1421     11.7539      9.4829    102.6896    115.9363  
  1459.0000    -26.4945     11.7824      9.4323    102.9623    115.6540  
  1459.5000    -26.5594     11.8292      9.4745    103.0531    115.2564  
  1460.0000    -26.5754     11.9369      9.6073    102.4679    114.9435  
  1460.5000    -26.7571     12.1320      9.7741    101.5524    115.2237  
  1461.0000    -26.9323     12.5502      9.9526     99.5594    115.5517  
  1461.5000    -26.9520     12.9664     10.1481     96.9204    115.4857  
