~VERSION INFORMATION
 VERS.                           2.00:        CWLS LOG ASCII STANDARD - VERSION 2.00
 WRAP.                             NO:        ONE LINE PER DEPTH STEP
~WELL INFORMATION
#MNEM.UNIT                   DATA             INFORMATION
#----------             --------------        ------------------------------
 STRT.F                       25.0000:        START DEPTH
 STOP.F                     2347.0000:        STOP DEPTH
 STEP.F                        0.5000:        STEP VALUE
 NULL.                      -999.2500:        NULL VALUE
 COMP.        HUSKY OIL COMPANY/NPR-A:        COMPANY
 LOC .                     26 22N 17W:        LOCATION
 DATE.                        4/14/80:        LOG DATE
 WELL.                     BARROW #20:        WELL
 UWI .                   500232001500:        UNIQUE WELL ID
 API .                   500232001500:        UNIQUE WELL IDENTIFIER
 FLD .                   SOUTH BARROW:        FIELD
 CNTY.                    NORTH SLOPE:        COUNTY
 STAT.                        ALAASKA:        STATE
 CTRY.                            USA:        COUNTRY
 OPER.        HUSKY OIL COMPANY/NPR-A:        OPERATOR
 SRVC.                   SCHLUMBERGER:        SERVICE COMPANY
 LAT .                         0.0000:        LATITUDE
 LON .                         0.0000:        LONGITUDE
 DIGS.               CENTER LINE DATA:        DIGITIZING COMPANY
~CURVE INFORMATION      
#MNEM        .UNIT         API CODE           CURVE DESCRIPTION
#-----------------      --------------        ------------------------------
 DEPT        .F                      :        1  DEPTH
 CALI        .IN                     :        2  
 GR          .GAPI                   :        3  
 DRHO        .G/C3                   :        4  
 RHOB        .G/C3                   :        5  
 NPHI        .%                      :        6  
 SP          .MV                     :        7  
 ILD         .OHMM                   :        8  
 ILM         .OHMM                   :        9  
 SFL         .OHMM                   :        10 
 LLD         .OHMM                   :        11 
 LLS         .OHMM                   :        12 
 MSFL        .OHMM                   :        13 
 DT          .US/F                   :        14 
~PARAMETER INFORMATION
#MNEM.UNIT                  VALUE             DESCRIPTION OF MNEMONIC
#---------             ---------------        ------------------------------
 EKB .F                       30.0000:        KELLY BUSHING
 TD  .F                     2356.0000:        TOTAL DEPTH
 BHT .F                        0.0000:        BOTTOM HOLE TEMPERATURE
 BS  .                         8.5000:        BIT SIZE
 FD  .                        10.8000:        FLUID DENSITY
 CSIZ.                         9.6250:        CASING SIZE
 CBD .F                     1500.0000:        CASING DRILLER 1
 CBL .F                     1485.0000:        CASING LOGGER 1
 DFT .                            GEL:        TYPE FLUID IN HOLE
 DFV .                        10.0000:        VISCOSITY
 DFPH.                         9.0000:        PH
 DFL .                        10.0000:        FLUID LOSS
 RMS .                         0.1840:        RM
 MST .F                       61.0000:        RM MEAS. TEMP.
 RMF .                         0.1270:        RMF
 MFST.F                       61.0000:        RMF MEAS. TEMP.
 RMC .                         0.2660:        RMC
 MCST.F                       61.0000:        RMC MEAS. TEMP.
~OTHER INFORMATION
~A    DEPTH        CALI          GR        DRHO        RHOB        NPHI          SP         ILD         ILM         SFL         LLD         LLS        MSFL          DT 
# ...
  2257.0000      5.8181     43.5372      0.0478      2.5294     30.8468    -39.9361   -999.2500   -999.2500   -999.2500     22.7306     17.1673   -999.2500    111.6139 
  2257.5000      5.7706     42.2301      0.0616      2.5385     31.7771    -40.0658   -999.2500   -999.2500   -999.2500     21.0229     15.2292   -999.2500    101.3973 
  2258.0000      5.7680     38.3557      0.0542      2.4937     32.2123    -40.2145   -999.2500   -999.2500   -999.2500     18.4454     13.8434   -999.2500     99.8113 
  2258.5000      5.7657     33.6210      0.0407      2.4464     31.9349    -40.3632   -999.2500   -999.2500   -999.2500     17.0730     13.1390   -999.2500    105.6607 
  2259.0000      5.7728     31.5112      0.0296      2.4150     30.3429    -40.3054   -999.2500   -999.2500   -999.2500     21.8663     14.6357   -999.2500    106.8323 
  2259.5000      5.7860     30.5941      0.0287      2.3987     28.3430    -40.4388   -999.2500   -999.2500   -999.2500     30.1333     20.2845   -999.2500    105.7674 
  2260.0000      5.8298     30.2323      0.0378      2.4151     26.6932    -40.4854   -999.2500   -999.2500   -999.2500     55.0540     34.2986   -999.2500     95.8378 
  2260.5000      5.8794     29.6938      0.0177      2.4761     25.9756    -40.4995   -999.2500   -999.2500   -999.2500     78.0837     55.9562   -999.2500     85.9082 
  2261.0000      5.9729     28.9436      0.0113      2.5313     26.9465    -40.5136   -999.2500   -999.2500   -999.2500     58.4818     50.4639   -999.2500     84.3084 
  2261.5000      5.9972     28.8867      0.0314      2.5820     28.7692    -40.5276   -999.2500   -999.2500   -999.2500     45.3108     33.8511   -999.2500     83.7227 
  2262.0000      6.0026     30.3152      0.0421      2.5646     30.6403    -40.5028   -999.2500   -999.2500   -999.2500     37.3877     27.6721   -999.2500     88.4201 
  2262.5000      6.0173     31.9514      0.0379      2.5458     30.7586    -40.3704   -999.2500   -999.2500   -999.2500     35.9308     25.6444   -999.2500     89.4803 
  2263.0000      5.9808     33.1516      0.0659      2.5564     30.2268    -40.2380   -999.2500   -999.2500   -999.2500     40.2044     27.9116   -999.2500     86.8360 
  2263.5000      5.9400     33.9172      0.0923      2.5693     29.6088    -40.1056   -999.2500   -999.2500   -999.2500     49.5673     34.5264   -999.2500     84.7060 
  2264.0000      5.8948     35.0060      0.0804      2.5752     28.7712    -39.9357   -999.2500   -999.2500   -999.2500     57.1817     40.4018   -999.2500     83.7462 
  2264.5000      5.8532     36.5848      0.0525      2.5734     29.0786    -39.7662   -999.2500   -999.2500   -999.2500     56.5187     38.8073   -999.2500     81.3518 
  2265.0000      5.8350     35.3164      0.0018      2.5667     29.6570    -39.5852   -999.2500   -999.2500   -999.2500     41.7900     28.6678   -999.2500     82.8199 
  2265.5000      5.8688     33.9362      0.0401      2.5825     30.2354    -39.7201   -999.2500   -999.2500   -999.2500     31.4534     22.0401   -999.2500     85.6190 
  2266.0000      5.8166     33.2359      0.0640      2.5413     30.0666    -39.4972   -999.2500   -999.2500   -999.2500     26.4111     17.9987   -999.2500     87.9438 
  2266.5000      5.7838     34.6107      0.0676      2.4721     29.9348    -39.5440   -999.2500   -999.2500   -999.2500     23.5546     16.9832   -999.2500     88.3265 
  2267.0000      5.8134     36.8153      0.0261      2.4048     28.8150    -39.3763   -999.2500   -999.2500   -999.2500     26.0979     18.2956   -999.2500     88.5450 
  2267.5000      5.8518     39.6183      0.0250      2.3853     28.0934    -38.8160   -999.2500   -999.2500   -999.2500     27.2749     19.5533   -999.2500     88.7702 
  2268.0000      5.8622     42.6217      0.0436      2.4236     27.6843    -38.6995   -999.2500   -999.2500   -999.2500     28.9070     19.5664   -999.2500     87.9444 
  2268.5000      5.8725     45.3613      0.0508      2.4609     27.4969    -38.6489   -999.2500   -999.2500   -999.2500     26.0294     18.8743   -999.2500     86.4975 
  2269.0000      5.8828     48.0589      0.0463      2.4675     27.9414    -38.6009   -999.2500   -999.2500   -999.2500     25.1450     18.2105   -999.2500     86.3187 
  2269.5000      5.8658     52.2551      0.0637      2.4763     28.7338    -38.4501   -999.2500   -999.2500   -999.2500     24.9563     17.5757   -999.2500     86.6272 
  2270.0000      5.7780     60.9103      0.0933      2.4900     29.3995    -38.2993   -999.2500   -999.2500   -999.2500     24.8129     16.7647   -999.2500     87.4284 
  2270.5000      5.7222     66.5695      0.0915      2.4966     29.4024    -38.1503   -999.2500   -999.2500   -999.2500     24.7304     17.4062   -999.2500     88.3303 
  2271.0000      5.7517     68.2154      0.0630      2.4891     29.4859    -38.0256   -999.2500   -999.2500   -999.2500     24.7552     17.4054   -999.2500     88.1732 
  2271.5000      5.8086     61.1001      0.0568      2.4778     29.3790    -37.9008   -999.2500   -999.2500   -999.2500     24.6545     17.0004   -999.2500     88.5907 
  2272.0000      5.8719     51.4184      0.0416      2.4640     29.1282    -37.5617   -999.2500   -999.2500   -999.2500     24.2333     16.8473   -999.2500     88.7150 
  2272.5000      5.9906     46.5104      0.0477      2.4595     29.0064    -37.2253   -999.2500   -999.2500   -999.2500     23.5262     15.8254   -999.2500     88.4915 
  2273.0000      6.0011     43.6952      0.0673      2.4738     28.8846    -36.9480   -999.2500   -999.2500   -999.2500     23.2642     15.7196   -999.2500     88.8742 
  2273.5000      5.8752     41.4967      0.0709      2.4637     28.7628    -36.6402   -999.2500   -999.2500   -999.2500     23.3264     15.8961   -999.2500     89.3004 
  2274.0000      5.8265     39.7483      0.0821      2.4562     28.6839    -36.3312   -999.2500   -999.2500   -999.2500     23.6683     16.3471   -999.2500     90.1628 
  2274.5000      5.7933     38.5246      0.0553      2.4190     28.6377    -36.0344   -999.2500   -999.2500   -999.2500     23.9952     16.8369   -999.2500     91.3218 
  2275.0000      5.7677     37.8944      0.0312      2.3981     28.5953    -35.4000   -999.2500   -999.2500   -999.2500     24.1025     16.6679   -999.2500     95.1480 
  2275.5000      5.7581     37.5533      0.0481      2.4123     28.9360    -34.5581   -999.2500   -999.2500   -999.2500     23.7435     16.2343   -999.2500    106.7954 
  2276.0000      5.7677     37.4674      0.0275      2.4095     29.7657    -33.7251   -999.2500   -999.2500   -999.2500     23.3898     15.8641   -999.2500    107.1200 
  2276.5000      5.7678     39.0592      0.0265      2.3928     29.7992    -32.7804   -999.2500   -999.2500   -999.2500     23.2357     16.1093   -999.2500     98.0399 
  2277.0000      5.7651     39.9966      0.0495      2.4061     29.6562    -31.5877   -999.2500   -999.2500   -999.2500     24.4430     16.2242   -999.2500     98.6258 
  2277.5000      5.7620     41.1850      0.0659      2.4247     29.3256    -30.9496   -999.2500   -999.2500   -999.2500     25.5582     17.2986   -999.2500     91.2767 
  2278.0000      5.7589     42.3734      0.0452      2.4000     28.8851    -30.2604   -999.2500   -999.2500   -999.2500     26.4506     18.3913   -999.2500     94.4195 
  2278.5000      5.7682     44.3300      0.0343      2.4010     28.5495    -29.7697   -999.2500   -999.2500   -999.2500     27.3741     19.1733   -999.2500     98.9945 
  2279.0000      5.7856     46.4782      0.0344      2.4174     28.3821    -29.5946   -999.2500   -999.2500   -999.2500     28.3299     19.6180   -999.2500    104.8533 
  2279.5000      5.8030     47.8889      0.0385      2.4321     28.3637    -29.4195   -999.2500   -999.2500   -999.2500     29.3190     20.0730   -999.2500     94.0415 
  2280.0000      5.8204     49.2188      0.0489      2.4543     27.0957    -29.0403   -999.2500   -999.2500   -999.2500     30.3426     20.6999   -999.2500     83.7885 
  2280.5000      5.7932     56.7704      0.0616      2.4678     26.9737    -28.6523   -999.2500   -999.2500   -999.2500     31.4020     21.5657   -999.2500     83.6404 
