~VERSION INFORMATION
 VERS.                           2.00:        CWLS LOG ASCII STANDARD - VERSION 2.00
 WRAP.                             NO:        ONE LINE PER DEPTH STEP
~WELL INFORMATION
#MNEM.UNIT                   DATA             INFORMATION
#----------             --------------        ------------------------------
 STRT.F                       78.0000:        START DEPTH
 STOP.F                     2392.0000:        STOP DEPTH
 STEP.F                        0.5000:        STEP VALUE
 NULL.                      -999.2500:        NULL VALUE
 COMP.              U.S.G.S./NPR -  A:        COMPANY  
 LOC .                    1  22N  18W:        LOCATION   
 DATE.                        2/14/78:        LOG DATE 
 WELL.               SOUTH BARROW #16:        WELL     
 UWI .                   500232001000:        UNIQUE WELL ID 
 API .                   500232001000:        UNIQUE WELL IDENTIFIER 
 FLD .                   SOUTH BARROW:        FIELD    
 CNTY.                    NORTH SLOPE:        COUNTY  
 STAT.                         ALASKA:        STATE   
 CTRY.                            USA:        COUNTRY 
 OPER.              U.S.G.S./NPR -  A:        OPERATOR  
 SRVC.                   SCHLUMBERGER:        SERVICE COMPANY 
 LAT .                         0.0000:        LATITUDE
 LON .                         0.0000:        LONGITUDE
 DIGS.               CENTER LINE DATA:        DIGITIZING COMPANY 
~CURVE INFORMATION      
#MNEM        .UNIT         API CODE           CURVE DESCRIPTION
#-----------------      --------------        ------------------------------
 DEPT        .F                      :        1  DEPTH
 CALI        .IN                     :        2  
 GR          .GAPI                   :        3  
 RHOB        .G/C3                   :        4  
 DRHO        .G/C3                   :        5  
 NPHI        .%                      :        6  
 DT          .US/F                   :        7  
 SP          .MV                     :        8  
 ILD         .OHMM                   :        9  
 ILM         .OHMM                   :        10 
 LL8         .OHMM                   :        11 
 LLD         .OHMM                   :        12 
 LLS         .OHMM                   :        13 
~PARAMETER INFORMATION       
#MNEM.UNIT                  VALUE             DESCRIPTION OF MNEMONIC
#---------             ---------------        ------------------------------
 EKB .F                       30.0000:        KELLY BUSHING
 TD  .F                     2399.0000:        TOTAL DEPTH
 BHT .F                       73.0000:        BOTTOM HOLE TEMPERATURE
 BS  .                         8.5000:        BIT SIZE
 FD  .                        11.0000:        FLUID DENSITY
 CSIZ.                         8.5000:        CASING SIZE
 CBD .F                     1489.0000:        CASING DRILLER 1
 CBL .F                     1487.0000:        CASING LOGGER 1
 DFT .                  Miscellaneous:        TYPE FLUID IN HOLE
 DFV .                        52.0000:        VISCOSITY
 DFPH.                         8.5000:        PH
 DFL .                         8.0000:        FLUID LOSS
 RMS .                         0.0210:        RM
 MST .F                       58.0000:        RM MEAS. TEMP.
 RMF .                         0.0130:        RMF
 MFST.F                       52.0000:        RMF MEAS. TEMP.
 RMC .                         0.0170:        RMC
 MCST.F                       56.0000:        RMC MEAS. TEMP.
~OTHER INFORMATION
~A    DEPTH        CALI          GR        RHOB        DRHO        NPHI          DT          SP         ILD         ILM         LL8         LLD         LLS  
# ...
   715.5000     12.6884     88.6719   -999.2500   -999.2500   -999.2500    129.7724    -19.7805      6.7724      6.3277      8.0415   -999.2500   -999.2500  
   716.0000     12.7294     89.7694   -999.2500   -999.2500   -999.2500    128.5333    -17.0919      6.7919      6.3328      8.0800   -999.2500   -999.2500  
   716.5000     12.7631     91.0386   -999.2500   -999.2500   -999.2500    128.1633    -16.1578      6.8114      6.3378      8.1186   -999.2500   -999.2500  
   717.0000     12.8280     94.0130   -999.2500   -999.2500   -999.2500    128.0354    -16.1040      6.8310      6.3429      8.1887   -999.2500   -999.2500  
   717.5000     12.9195     95.5187   -999.2500   -999.2500   -999.2500    128.4125    -15.9116      6.8507      6.3479      8.2616   -999.2500   -999.2500  
   718.0000     12.9658     94.8771   -999.2500   -999.2500   -999.2500    129.2318    -16.3134      6.8704      6.3530      8.3351   -999.2500   -999.2500  
   718.5000     13.0027     92.4180   -999.2500   -999.2500   -999.2500    130.0901    -16.8933      6.8901      6.3581      8.4091   -999.2500   -999.2500  
   719.0000     13.0710     90.6424   -999.2500   -999.2500   -999.2500    130.6982    -17.0697      6.9100      6.3482      8.3852   -999.2500   -999.2500  
   719.5000     13.1051     89.2512   -999.2500   -999.2500   -999.2500    131.0175    -16.6226      6.9298      6.3272      8.3614   -999.2500   -999.2500  
   720.0000     13.0955     91.1065   -999.2500   -999.2500   -999.2500    130.9977    -16.6018      6.9498      6.3063      8.2992   -999.2500   -999.2500  
   720.5000     13.0683     94.3363   -999.2500   -999.2500   -999.2500    130.9848    -15.6695      6.9697      6.2855      8.2159   -999.2500   -999.2500  
   721.0000     12.9830     97.2885   -999.2500   -999.2500   -999.2500    130.9532    -15.2709      6.9898      6.2647      8.1334   -999.2500   -999.2500  
   721.5000     12.8711     97.1722   -999.2500   -999.2500   -999.2500    131.0294    -14.4908      7.0099      6.2439      8.0517   -999.2500   -999.2500  
   722.0000     12.7478     96.7354   -999.2500   -999.2500   -999.2500    131.3751    -12.1165      7.0301      6.2233      7.9708   -999.2500   -999.2500  
   722.5000     12.6567     97.5119   -999.2500   -999.2500   -999.2500    131.3819    -12.4494      7.0026      6.2027      7.8943   -999.2500   -999.2500  
   723.0000     12.6481     98.2194   -999.2500   -999.2500   -999.2500    131.2676    -15.8427      6.9628      6.1822      7.8623   -999.2500   -999.2500  
   723.5000     12.6460     98.8428   -999.2500   -999.2500   -999.2500    131.6517    -18.0162      6.9233      6.1737      7.8305   -999.2500   -999.2500  
   724.0000     12.6526     98.1281   -999.2500   -999.2500   -999.2500    132.4913    -16.0066      6.8840      6.1728      7.8035   -999.2500   -999.2500  
   724.5000     12.6729     96.0192   -999.2500   -999.2500   -999.2500    133.3623    -16.5947      6.8449      6.1720      7.7785   -999.2500   -999.2500  
   725.0000     12.6766     95.1731   -999.2500   -999.2500   -999.2500    134.0671    -18.2633      6.8060      6.1711      7.7536   -999.2500   -999.2500  
   725.5000     12.6190     95.6226   -999.2500   -999.2500   -999.2500    134.4968    -19.2647      6.7674      6.1702      7.7287   -999.2500   -999.2500  
   726.0000     12.6166     96.2680   -999.2500   -999.2500   -999.2500    134.2950    -16.4930      6.7290      6.1693      7.7040   -999.2500   -999.2500  
   726.5000     12.6291     97.6915   -999.2500   -999.2500   -999.2500    133.7534    -15.0460      6.6908      6.1684      7.6793   -999.2500   -999.2500  
   727.0000     12.6241     99.3182   -999.2500   -999.2500   -999.2500    133.2109    -14.8517      6.6528      6.1675      7.6546   -999.2500   -999.2500  
   727.5000     12.6266     99.4209   -999.2500   -999.2500   -999.2500    132.8049    -15.7612      6.6150      6.1666      7.6301   -999.2500   -999.2500  
   728.0000     12.6253     99.0272   -999.2500   -999.2500   -999.2500    132.7850    -16.2149      6.5774      6.1478      7.6057   -999.2500   -999.2500  
   728.5000     12.6212     95.1766   -999.2500   -999.2500   -999.2500    132.8746    -16.4821      6.5401      6.1210      7.6793   -999.2500   -999.2500  
   729.0000     12.6382     92.3347   -999.2500   -999.2500   -999.2500    132.8591    -17.6395      6.5030      6.0944      7.8088   -999.2500   -999.2500  
   729.5000     12.6655     92.0175   -999.2500   -999.2500   -999.2500    132.4724    -19.9515      6.4660      6.0678      7.9404   -999.2500   -999.2500  
   730.0000     12.6642     92.2317   -999.2500   -999.2500   -999.2500    131.8854    -21.5258      6.4293      6.0430      8.0743   -999.2500   -999.2500  
   730.5000     12.6629     92.7971   -999.2500   -999.2500   -999.2500    132.9467    -19.8143      6.3928      6.0211      8.2080   -999.2500   -999.2500  
   731.0000     12.6654     94.3332   -999.2500   -999.2500   -999.2500    134.1557    -18.2313      6.3565      5.9992      8.2938   -999.2500   -999.2500  
   731.5000     12.6690     94.5114   -999.2500   -999.2500   -999.2500    135.5828    -18.2079      6.3204      5.9775      8.3804   -999.2500   -999.2500  
   732.0000     12.7049     93.4393   -999.2500   -999.2500   -999.2500    136.2950    -19.8868      6.2845      6.0002      8.3479   -999.2500   -999.2500  
   732.5000     12.7192     93.4247   -999.2500   -999.2500   -999.2500    136.0933    -21.1627      6.2489      6.0343      8.2665   -999.2500   -999.2500  
   733.0000     12.6980     94.6698   -999.2500   -999.2500   -999.2500    135.1175    -22.0083      6.2950      6.0685      8.1860   -999.2500   -999.2500  
   733.5000     12.7131     95.5310   -999.2500   -999.2500   -999.2500    133.8083    -21.7371      6.3658      6.1030      8.1062   -999.2500   -999.2500  
   734.0000     12.7306     95.3507   -999.2500   -999.2500   -999.2500    132.9245    -20.6042      6.4374      6.1376      8.0272   -999.2500   -999.2500  
   734.5000     12.7470     97.1728   -999.2500   -999.2500   -999.2500    132.8769    -17.1818      6.5098      6.1725      7.9948   -999.2500   -999.2500  
   735.0000     12.7574     98.6500   -999.2500   -999.2500   -999.2500    132.8312    -17.7054      6.5830      6.1891      7.9973   -999.2500   -999.2500  
   735.5000     12.7679     99.2399   -999.2500   -999.2500   -999.2500    132.7334    -19.3452      6.6570      6.2019      7.9997   -999.2500   -999.2500  
   736.0000     12.7906     98.8021   -999.2500   -999.2500   -999.2500    132.8249    -19.5693      6.7319      6.2147      8.0022   -999.2500   -999.2500  
   736.5000     12.8073     96.8672   -999.2500   -999.2500   -999.2500    132.8982    -19.3186      6.8076      6.2275      8.1083   -999.2500   -999.2500  
   737.0000     12.8397     95.6722   -999.2500   -999.2500   -999.2500    132.7440    -18.3666      6.8841      6.2403      8.1783   -999.2500   -999.2500  
   737.5000     12.8831     95.0498   -999.2500   -999.2500   -999.2500    132.4663    -16.5906      6.9615      6.2532      8.1752   -999.2500   -999.2500  
   738.0000     12.8546     93.7474   -999.2500   -999.2500   -999.2500    132.2026    -18.0308      7.0398      6.2661      8.1721   -999.2500   -999.2500  
   738.5000     12.8323     91.4265   -999.2500   -999.2500   -999.2500    131.9993    -19.5616      7.1189      6.2791      8.1691   -999.2500   -999.2500  
   739.0000     12.8117     88.6441   -999.2500   -999.2500   -999.2500    131.7799    -20.0028      7.1987      6.2920      8.1660   -999.2500   -999.2500  
   739.5000     12.7977     87.2738   -999.2500   -999.2500   -999.2500    131.4629    -19.3157      7.2063      6.3050      8.1629   -999.2500   -999.2500  
   740.0000     12.7616     86.6448   -999.2500   -999.2500   -999.2500    131.1673    -19.4377      7.2139      6.3050      8.1660   -999.2500   -999.2500  
   740.5000     12.7415     87.0785   -999.2500   -999.2500   -999.2500    131.0516    -19.5763      7.2214      6.3009      8.2609   -999.2500   -999.2500  
