~VERSION INFORMATION
 VERS.                           2.00:        CWLS LOG ASCII STANDARD - VERSION 2.00
 WRAP.                             NO:        ONE LINE PER DEPTH STEP
~WELL INFORMATION
#MNEM.UNIT                   DATA             INFORMATION
#----------             --------------        ------------------------------
 STRT.F                     1260.0000:        START DEPTH
 STOP.F                     2340.0000:        STOP DEPTH
 STEP.F                        0.5000:        STEP VALUE
 NULL.                      -999.2500:        NULL VALUE
 COMP.        U.S.NAVY DEEPT NP & OSR:        COMPANY  
 LOC .                  144  22N 18W UPM:        LOCATION   
 DATE.                        2/24/74:        LOG DATE 
 WELL.               SOUTH BARROW #11:        WELL     
 UWI .                    50023200500:        UNIQUE WELL ID 
 API .                    50023200500:        UNIQUE WELL IDENTIFIER 
 FLD .                   SOUTH BARROW:        FIELD    
 CNTY.                          NPR-4:        COUNTY  
 STAT.                         ALASKA:        STATE   
 CTRY.                            USA:        COUNTRY 
 OPER.        U.S.NAVY DEEPT NP & OSR:        OPERATOR  
 SRVC.                   SCHLUMBERGER:        SERVICE COMPANY 
 LAT .                         0.0000:        LATITUDE
 LON .                         0.0000:        LONGITUDE
 DIGS.               CENTER LINE DATA:        DIGITIZING COMPANY 
~CURVE INFORMATION      
#MNEM        .UNIT         API CODE           CURVE DESCRIPTION
#-----------------      --------------        ------------------------------
 DEPT        .F                      :        1  DEPTH
 CALI        .IN                     :        2  
 GR          .GAPI                   :        3  
 RHOB        .G/C3                   :        4  
 NPHI        .%                      :        5  
 DPHI        .%                      :        6  
 SP          .MV                     :        7  
 LL8         .OHMM                   :        8  
 ILD         .OHMM                   :        9  
 CILD        .MMHO                   :        10 
 DT          .US/F                   :        11 
~PARAMETER INFORMATION       
#MNEM.UNIT                  VALUE             DESCRIPTION OF MNEMONIC
#---------             ---------------        ------------------------------
 EKB .F                       36.0000:        KELLY BUSHING
 TD  .F                     2350.0000:        TOTAL DEPTH
 BHT .F                       60.0000:        BOTTOM HOLE TEMPERATURE
 BS  .                         9.6250:        BIT SIZE
 FD  .                        10.8000:        FLUID DENSITY
 CSIZ.                        10.7500:        CASING SIZE
 CBD .F                     1267.0000:        CASING DRILLER 1
 CBL .F                     1267.0000:        CASING LOGGER 1
 DFT .      Salt Water-Lignosulfonate:        TYPE FLUID IN HOLE
 DFV .                        52.0000:        VISCOSITY
 DFPH.                         9.0000:        PH
 DFL .                         4.2000:        FLUID LOSS
 RMS .                         1.8800:        RM
 MST .F                       50.0000:        RM MEAS. TEMP.
 RMF .                         1.1500:        RMF
 MFST.F                       63.0000:        RMF MEAS. TEMP.
 RMC .                         1.5000:        RMC
 MCST.F                       50.0000:        RMC MEAS. TEMP.
~OTHER INFORMATION
~A    DEPTH        CALI          GR        RHOB        NPHI        DPHI          SP         LL8         ILD        CILD          DT  
# ...
  2220.0000     10.2461     83.4848      2.4744     28.9339     10.8026    -16.2080     11.9550     11.4665     89.2426     88.5245  
  2220.5000     10.1933     84.6429      2.4646     28.4051     10.9371    -16.0147     11.9379     11.3663     89.6650     88.7232  
  2221.0000     10.1873     85.0328      2.4650     27.1493     11.0718    -15.9385     11.9208     11.2581     90.0874     88.9876  
  2221.5000     10.2165     84.8441      2.4619     27.1061     11.1516    -15.8236     11.9038     11.1301     90.5099     89.1073  
  2222.0000     10.2225     84.8563      2.4585     27.6491     11.4015    -15.7355     11.8867     11.0021     91.5073     88.9801  
  2222.5000     10.2255     86.1086      2.4576     27.3472     11.5523    -15.6175     11.8696     10.8741     92.8261     89.7395  
  2223.0000     10.2175     87.2428      2.4564     26.5938     11.5913    -15.5133     11.7958     10.7461     94.5098     90.1473  
  2223.5000     10.2145     87.9477      2.4554     26.9235     11.7161    -15.5375     11.6492     10.5568     95.5946     90.3153  
  2224.0000     10.2600     88.2029      2.4506     27.4841     12.2052    -15.6260     11.5026     10.3589     97.5240     90.3190  
  2224.5000     10.2394     88.6378      2.4414     28.0239     12.1891    -15.7019     11.2996     10.1667     99.4815     90.2028  
  2225.0000     10.2357     88.7582      2.4492     28.2201     12.0054    -15.6308     10.9410     10.1016    100.6171     90.1805  
  2225.5000     10.1906     88.7334      2.4637     28.7793     11.6533    -15.3876     10.9908     10.0364    100.7526     90.5274  
  2226.0000     10.0916     88.8660      2.4778     29.5468     10.7055    -15.0970     11.0915     10.0903     99.5912     91.9084  
  2226.5000     10.0906     90.6863      2.4789     30.2526     10.3513    -15.0955     11.1922     10.2197     98.5893     93.4484  
  2227.0000     10.1196     92.5055      2.4775     30.8672     10.3920    -15.3992     11.4901     10.3230     97.5790     94.6868  
  2227.5000     10.1198     92.9064      2.4713     31.2594     10.5870    -15.6371     11.9098     10.4262     96.2291     93.3184  
  2228.0000     10.1069     92.1185      2.4793     31.5455     10.4113    -15.9966     12.2795     10.7318     93.7585     90.8212  
  2228.5000     10.0796     90.5976      2.4842     31.1799      9.9701    -16.3671     12.5836     11.1236     91.2323     88.7866  
  2229.0000     10.0448     88.6334      2.4620     29.8645      9.8143    -16.5743     12.9229     11.6838     87.9327     87.8666  
  2229.5000     10.0459     85.7275      2.4313     28.0099     11.4763    -16.7205     13.2254     12.1282     84.6521     87.8630  
  2230.0000     10.0469     81.5908      2.4026     27.4732     13.9202    -16.9184     13.3469     12.5727     83.0522     88.5681  
  2230.5000     10.0464     77.8279      2.4194     27.4101     14.2261    -16.9800     13.4683     12.7112     82.1628     89.6016  
  2231.0000     10.0452     78.2715      2.4315     27.1297     13.8473    -16.8795     13.5898     12.8325     81.5020     88.0714  
  2231.5000     10.0440     79.3417      2.4554     26.4760     12.9824    -16.7973     13.7112     12.9300     80.9088     86.6845  
  2232.0000     10.0459     80.7792      2.4833     25.4294     11.2404    -16.8513     13.8327     13.0276     79.9780     85.6580  
  2232.5000     10.0397     82.0794      2.4870     24.5035      9.9122    -16.9262     13.8683     13.1252     78.5717     85.6367  
  2233.0000     10.0291     82.6926      2.4721     25.3182      9.8809    -17.0643     13.8497     13.3755     77.3120     86.2431  
  2233.5000     10.0466     82.9157      2.4539     25.9241     11.1932    -17.2410     13.8311     13.6205     76.7234     86.7913  
  2234.0000     10.0413     82.5557      2.4442     25.9335     12.2722    -17.5260     13.8872     13.7180     76.2395     87.1347  
  2234.5000     10.0351     80.2989      2.4502     25.8705     12.1298    -17.7021     14.0401     13.7386     76.2053     87.3949  
  2235.0000     10.0519     77.5253      2.4538     25.5709     11.9096    -17.7676     14.0120     13.6990     76.3254     87.2361  
  2235.5000     10.0547     74.9809      2.4571     25.3359     11.7297    -17.9280     13.9096     13.6594     76.8666     86.9387  
  2236.0000     10.0593     73.5445      2.4603     25.4090     11.5073    -18.3824     13.8103     13.6198     77.4348     86.2496  
  2236.5000     10.0686     72.2635      2.4579     25.7935     11.5706    -19.0057     13.6073     13.5815     77.6000     85.8174  
  2237.0000     10.0681     70.0774      2.4582     26.1827     11.6888    -19.7875     13.4416     13.5462     77.7287     86.0043  
  2237.5000     10.0597     68.6039      2.4555     26.3840     11.5830    -20.4961     13.3309     13.5110     77.8346     87.0974  
  2238.0000     10.0574     68.1403      2.4333     26.0997     11.8423    -20.8750     13.3011     13.4758     77.8387     89.0185  
  2238.5000     10.0412     68.8643      2.4176     25.6141     13.5920    -20.4576     13.3026     13.4405     77.9627     91.0045  
  2239.0000     10.0193     70.2649      2.4074     25.0746     14.5174    -19.7977     13.3172     13.4095     78.2836     92.2801  
  2239.5000     10.0276     71.3486      2.4030     25.0632     14.7272    -19.3609     13.4218     13.3785     78.4655     91.1170  
  2240.0000     10.0410     71.9075      2.4212     25.7373     14.1388    -19.3836     13.4772     13.3475     78.0498     89.4057  
  2240.5000     10.0544     72.3499      2.4443     25.4248     13.0277    -19.7840     13.4856     13.3165     77.5864     88.0328  
  2241.0000     10.0849     72.5014      2.4403     24.7567     12.3781    -20.1776     13.4348     13.2855     77.4064     87.9401  
  2241.5000     10.1117     71.9510      2.4274     24.4705     12.9327    -20.2093     13.3770     13.2667     77.3808     89.4767  
  2242.0000     10.0987     71.6323      2.4095     24.8054     13.9231    -20.2074     13.2908     13.2643     77.9264     91.1760  
  2242.5000     10.0897     71.4931      2.4142     25.4134     14.5139    -20.2855     13.2311     13.2618     78.4337     92.1725  
  2243.0000     10.0840     71.4677      2.4259     25.7000     13.6226    -20.5457     13.2402     13.2593     78.6629     92.0371  
  2243.5000     10.0771     71.5148      2.4285     25.4563     13.2078    -20.9373     13.3224     13.2568     78.3730     91.7934  
  2244.0000     10.0492     71.6330      2.4180     25.0764     13.7105    -21.3869     13.4655     13.3376     77.2902     92.1034  
  2244.5000     10.0682     70.7587      2.4056     23.7500     14.3974    -21.9311     13.5692     13.4388     76.3550     92.7459  
  2245.0000     10.0898     68.1422      2.3958     23.1787     15.0844    -22.3735     13.7333     13.5400     75.7855     93.3322  
  2245.5000     10.0875     66.8718      2.3875     23.3129     15.6466    -22.6860     13.9627     13.6412     75.2160     93.7279  
  2246.0000     10.0582     66.8089      2.3936     23.8258     15.6559    -23.0872     14.0437     13.7423     74.7358     92.8942  
  2246.5000     10.0288     67.0581      2.4094     23.9800     15.2308    -23.4315     14.0832     13.8435     74.0934     92.5318  
  2247.0000     10.0251     67.6579      2.4320     23.7497     13.6099    -23.2933     14.1795     13.9447     73.2852     92.9335  
  2247.5000     10.0161     68.5581      2.4251     23.5215     12.6933    -23.0133     14.2648     14.0646     72.6611     93.4933  
  2248.0000     10.0205     68.5539      2.4017     23.4153     14.5581    -23.0563     14.2278     14.1859     72.3840     94.5061  
  2248.5000     10.0248     68.3619      2.4004     23.4579     15.2011    -23.4566     14.2672     14.2813     72.3141     93.8328  
  2249.0000     10.0253     68.2380      2.4043     24.1508     15.0712    -24.2475     14.3423     14.3339     72.0135     93.3893  
  2249.5000     10.0208     67.5385      2.4038     24.3809     15.1760    -24.9368     14.4269     14.3865     71.7468     93.4271  
