~VERSION INFORMATION
 VERS.                           2.00:        CWLS LOG ASCII STANDARD - VERSION 2.00
 WRAP.                             NO:        ONE LINE PER DEPTH STEP
~WELL INFORMATION
#MNEM.UNIT                   DATA             INFORMATION
#----------             --------------        ------------------------------
 STRT.F                      151.0000:        START DEPTH
 STOP.F                     2726.0000:        STOP DEPTH
 STEP.F                        0.5000:        STEP VALUE
 NULL.                      -999.2500:        NULL VALUE
 COMP.                      U.S. NAVY:        COMPANY  
 WELL.                     IKO BAY #1:        WELL     
 FLD .                        WILDCAT:        FIELD    
 LOC .                   16  21N  16W:        LOCATION   
 CNTY.                    NORTH SLOPE:        COUNTY  
 STAT.                         ALASKA:        STATE   
 CTRY.                            USA:        COUNTRY 
 DATE.                         2/8/75:        LOG DATE 
 API .                   502790000000:        UNIQUE WELL IDENTIFIER 
 OPER.                      U.S. NAVY:        OPERATOR  
 SRVC.                            440:        SERVICE COMPANY 
 UWI .                   502790000000:        UNIQUE WELL ID 
 LAT .                         0.0000:        LATITUDE
 LON .                         0.0000:        LONGITUDE
 DIGS.                             65:        DIGITIZING COMPANY 
~CURVE INFORMATION      
#MNEM.UNIT                 API CODE           CURVE DESCRIPTION
#---------              --------------        ------------------------------
 DEPT.F                              :        1  DEPTH
 SP  .MV                             :        2
 ILD .OHMM                           :        3
 LL8 .OHMM                           :        4
 ILM .OHMM                           :        5
 RHOB.G/C3                           :        6
 DRHO.G/C3                           :        7
 CALI.IN                             :        8
 GR  .GAPI                           :        9
 NPHI.%                              :       10
 DT  .US/F                           :       11
~PARAMETER INFORMATION       
#MNEM.UNIT                  VALUE             DESCRIPTION OF MNEMONIC
#---------             ---------------        ------------------------------
 EKB .F                        0.0000:        KELLY BUSHING
 TD  .F                     2731.0000:        TOTAL DEPTH
 BHT .F                             0.0000:        BOTTOM HOLE TEMPERATURE
 BS  .                             14.7500:        BIT SIZE
 FD  .                              0.0000:        FLUID DENSITY
 CSIZ.                             16.0000:        CASING SIZE
 CBD .F                           149.0000:        CASING DRILLER 1
 CBL .F                           152.0000:        CASING LOGGER 1
 DFT .                            Gel:        TYPE FLUID IN HOLE
 DFV .                              0.0000:        VISCOSITY
 DFPH.                              0.0000:        PH
 DFL .                              0.0000:        FLUID LOSS
 RMS .                              0.3000:        RM
 MST .F                       49.0000:        RM MEAS. TEMP.
 RMF .                              0.2300:        RMF
 MFST.F                       49.0000:        RMF MEAS. TEMP.
 RMC .                              0.4600:        RMC
 MCST.F                       49.0000:        RMC MEAS. TEMP.
 UWI .                   502790000000:        UNIQUE WELL ID
~OTHER INFORMATION
~A    DEPTH          SP         ILD         LL8         ILM        RHOB        DRHO        CALI          GR        NPHI          DT  
# ...
   841.0000    -42.5304      6.4303      6.1710   -999.2500   -999.2500   -999.2500     14.0142   -999.2500   -999.2500    125.5148  
   841.5000    -41.4365      6.4553      6.1844   -999.2500   -999.2500   -999.2500     14.0119   -999.2500   -999.2500    125.0815  
   842.0000    -41.3073      6.5114      6.1977   -999.2500   -999.2500   -999.2500     14.0096   -999.2500   -999.2500    124.6382  
   842.5000    -41.3129      6.5675      6.2111   -999.2500   -999.2500   -999.2500     14.0074   -999.2500   -999.2500    123.5998  
   843.0000    -41.2730      6.6235      6.2244   -999.2500   -999.2500   -999.2500     14.0051   -999.2500   -999.2500    123.9715  
   843.5000    -41.0219      6.6796      6.2377   -999.2500   -999.2500   -999.2500     14.0028   -999.2500   -999.2500    125.7765  
   844.0000    -40.6681      6.7357      6.2511   -999.2500   -999.2500   -999.2500     14.0005   -999.2500   -999.2500    127.2525  
   844.5000    -40.5267      6.7917      6.2644   -999.2500   -999.2500   -999.2500     13.9983   -999.2500   -999.2500    127.5257  
   845.0000    -40.3853      6.7918      6.2778   -999.2500   -999.2500   -999.2500     13.9960   -999.2500   -999.2500    126.7860  
   845.5000    -40.4599      6.7792      6.2848   -999.2500   -999.2500   -999.2500     13.9937   -999.2500   -999.2500    123.7718  
   846.0000    -41.0655      6.7667      6.2906   -999.2500   -999.2500   -999.2500     13.9914   -999.2500   -999.2500    122.7649  
   846.5000    -41.9489      6.7541      6.2965   -999.2500   -999.2500   -999.2500     13.9892   -999.2500   -999.2500    123.0529  
   847.0000    -42.5120      6.7415      6.3023   -999.2500   -999.2500   -999.2500     13.9869   -999.2500   -999.2500    123.6404  
   847.5000    -42.3163      6.7290      6.3081   -999.2500   -999.2500   -999.2500     13.9846   -999.2500   -999.2500    123.8230  
   848.0000    -41.8901      6.7164      6.3140   -999.2500   -999.2500   -999.2500     13.9823   -999.2500   -999.2500    123.8970  
   848.5000    -42.2880      6.7038      6.3198   -999.2500   -999.2500   -999.2500     13.9801   -999.2500   -999.2500    123.5438  
   849.0000    -42.4739      6.6912      6.3257   -999.2500   -999.2500   -999.2500     13.9778   -999.2500   -999.2500    123.2847  
   849.5000    -42.6424      6.6787      6.3315   -999.2500   -999.2500   -999.2500     13.9755   -999.2500   -999.2500    124.0238  
   850.0000    -42.0816      6.6661      6.3070   -999.2500   -999.2500   -999.2500     13.9732   -999.2500   -999.2500    125.9971  
   850.5000    -41.6625      6.6535      6.2681   -999.2500   -999.2500   -999.2500     13.9710   -999.2500   -999.2500    126.2611  
   851.0000    -41.6203      6.6348      6.2293   -999.2500   -999.2500   -999.2500     13.9687   -999.2500   -999.2500    126.4611  
   851.5000    -41.5245      6.6039      6.1904   -999.2500   -999.2500   -999.2500     13.9664   -999.2500   -999.2500    125.8483  
   852.0000    -41.2825      6.5729      6.1516   -999.2500   -999.2500   -999.2500     13.9641   -999.2500   -999.2500    126.0099  
   852.5000    -41.1545      6.5420      6.1321   -999.2500   -999.2500   -999.2500     13.9619   -999.2500   -999.2500    126.7608  
   853.0000    -40.9244      6.5111      6.1128   -999.2500   -999.2500   -999.2500     13.9596   -999.2500   -999.2500    128.2165  
   853.5000    -40.5864      6.4801      6.0935   -999.2500   -999.2500   -999.2500     13.9573   -999.2500   -999.2500    128.1398  
   854.0000    -40.3931      6.4696      6.0742   -999.2500   -999.2500   -999.2500     13.9550   -999.2500   -999.2500    127.2650  
   854.5000    -40.1998      6.4906      6.0549   -999.2500   -999.2500   -999.2500     13.9528   -999.2500   -999.2500    126.9429  
   855.0000    -40.0534      6.5117      6.0788   -999.2500   -999.2500   -999.2500     13.9505   -999.2500   -999.2500    126.6558  
   855.5000    -40.3058      6.5638      6.1669   -999.2500   -999.2500   -999.2500     13.9482   -999.2500   -999.2500    127.2100  
   856.0000    -40.5582      6.6497      6.2550   -999.2500   -999.2500   -999.2500     13.9459   -999.2500   -999.2500    128.4989  
   856.5000    -40.6478      6.7356      6.3431   -999.2500   -999.2500   -999.2500     13.9437   -999.2500   -999.2500    129.1002  
   857.0000    -40.8268      6.8215      6.4312   -999.2500   -999.2500   -999.2500     13.9414   -999.2500   -999.2500    127.4821  
   857.5000    -41.0308      6.9075      6.5160   -999.2500   -999.2500   -999.2500     13.9391   -999.2500   -999.2500    125.9291  
   858.0000    -41.2993      6.9933      6.5455   -999.2500   -999.2500   -999.2500     13.9368   -999.2500   -999.2500    125.2330  
   858.5000    -41.8929      7.0789      6.5601   -999.2500   -999.2500   -999.2500     13.9346   -999.2500   -999.2500    125.2025  
   859.0000    -43.0204      7.1645      6.5746   -999.2500   -999.2500   -999.2500     13.9323   -999.2500   -999.2500    124.7394  
   859.5000    -44.3287      7.2501      6.5892   -999.2500   -999.2500   -999.2500     13.9300   -999.2500   -999.2500    123.3478  
   860.0000    -44.2355      7.2872      6.6038   -999.2500   -999.2500   -999.2500     13.9277   -999.2500   -999.2500    121.5058  
   860.5000    -43.2366      7.2569      6.6184   -999.2500   -999.2500   -999.2500     13.9254   -999.2500   -999.2500    121.4912  
   861.0000    -42.6124      7.2268      6.6204   -999.2500   -999.2500   -999.2500     13.9232   -999.2500   -999.2500    122.0252  
   861.5000    -42.2425      7.1967      6.6102   -999.2500   -999.2500   -999.2500     13.9209   -999.2500   -999.2500    122.2512  
   862.0000    -42.4750      7.1666      6.5999   -999.2500   -999.2500   -999.2500     13.9186   -999.2500   -999.2500    123.4577  
   862.5000    -42.9152      7.1365      6.5897   -999.2500   -999.2500   -999.2500     13.9163   -999.2500   -999.2500    124.0399  
   863.0000    -42.8225      7.1064      6.5795   -999.2500   -999.2500   -999.2500     13.9140   -999.2500   -999.2500    124.4218  
   863.5000    -41.5005      7.0763      6.5693   -999.2500   -999.2500   -999.2500     13.9118   -999.2500   -999.2500    124.2178  
   864.0000    -40.4112      7.0462      6.5590   -999.2500   -999.2500   -999.2500     13.9095   -999.2500   -999.2500    122.2100  
   864.5000    -40.0387      7.0161      6.5488   -999.2500   -999.2500   -999.2500     13.9072   -999.2500   -999.2500    121.0725  
   865.0000    -40.2003      6.9860      6.5386   -999.2500   -999.2500   -999.2500     13.9049   -999.2500   -999.2500    122.5224  
   865.5000    -40.8007      6.9559      6.5424   -999.2500   -999.2500   -999.2500     13.9026   -999.2500   -999.2500    125.9536  
   866.0000    -41.5741      6.9278      6.5694   -999.2500   -999.2500   -999.2500     13.9003   -999.2500   -999.2500    128.0684  
   866.5000    -42.1034      6.9558      6.5965   -999.2500   -999.2500   -999.2500     13.8981   -999.2500   -999.2500    128.4243  
   867.0000    -42.3645      6.9838      6.6235   -999.2500   -999.2500   -999.2500     13.8958   -999.2500   -999.2500    125.9640  
   867.5000    -43.2412      7.0118      6.6505   -999.2500   -999.2500   -999.2500     13.8935   -999.2500   -999.2500    124.2028  
   868.0000    -44.2022      7.0398      6.7278   -999.2500   -999.2500   -999.2500     13.8912   -999.2500   -999.2500    123.0053  
   868.5000    -44.9157      7.0678      6.7661   -999.2500   -999.2500   -999.2500     13.8889   -999.2500   -999.2500    122.8365  
   869.0000    -44.9075      7.0958      6.8611   -999.2500   -999.2500   -999.2500     13.8866   -999.2500   -999.2500    126.2347  
   869.5000    -45.4181      7.1238      6.9127   -999.2500   -999.2500   -999.2500     13.8844   -999.2500   -999.2500    130.6383  
   870.0000    -45.6327      7.1940      7.0223   -999.2500   -999.2500   -999.2500     13.8821   -999.2500   -999.2500    131.2736  
   870.5000    -44.1421      7.2726      7.0663   -999.2500   -999.2500   -999.2500     13.8798   -999.2500   -999.2500    128.1536  
