~VERSION INFORMATION
 VERS.                           2.00:        CWLS LOG ASCII STANDARD - VERSION 2.00
 WRAP.                             NO:        ONE LINE PER DEPTH STEP
~WELL INFORMATION
#MNEM.UNIT                   DATA             INFORMATION
#----------             --------------        ------------------------------
 STRT.F                      884.0000:        START DEPTH
 STOP.F                     2365.0000:        STOP DEPTH
 STEP.F                        0.5000:        STEP VALUE
 NULL.                      -999.2500:        NULL VALUE
 COMP.                      U.S. NAVY:        COMPANY  
 LOC .                   14  22N  18W:        LOCATION   
 DATE.                        3/19/64:        LOG DATE 
 WELL.                SOUTH BARROW #6:        WELL     
 UWI .                   500231001500:        UNIQUE WELL ID 
 API .                   500231001500:        UNIQUE WELL IDENTIFIER 
 FLD .                   SOUTH BARROW:        FIELD    
 CNTY.                         NPR #4:        COUNTY  
 STAT.                         ALASKA:        STATE   
 CTRY.                            USA:        COUNTRY 
 OPER.                      U.S. NAVY:        OPERATOR  
 SRVC.                   SCHLUMBERGER:        SERVICE COMPANY 
 LAT .                         0.0000:        LATITUDE
 LON .                         0.0000:        LONGITUDE
 DIGS.               CENTER LINE DATA:        DIGITIZING COMPANY 
~CURVE INFORMATION      
#MNEM        .UNIT         API CODE           CURVE DESCRIPTION
#-----------------      --------------        ------------------------------
 DEPT        .F                      :        1  DEPTH
 SP          .MV                     :        2  
 SN          .OHMM                   :        3  
 ILD         .OHMM                   :        4  
 CILD        .OHMM                   :        5  
 DT          .US/F                   :        6  
~PARAMETER INFORMATION       
#MNEM.UNIT                  VALUE             DESCRIPTION OF MNEMONIC
#---------             ---------------        ------------------------------
 EKB .F                       40.0000:        KELLY BUSHING
 TD  .F                     2366.0000:        TOTAL DEPTH
 BHT .F                        0.0000:        BOTTOM HOLE TEMPERATURE
 BS  .                         9.6250:        BIT SIZE
 FD  .                        85.0000:        FLUID DENSITY
 CSIZ.                        11.7500:        CASING SIZE
 CBD .F                      884.0000:        CASING DRILLER 1
 CBL .F                      884.0000:        CASING LOGGER 1
 DFT .                  Miscellaneous:        TYPE FLUID IN HOLE
 DFV .                        45.0000:        VISCOSITY
 DFPH.                         0.0000:        PH
 DFL .                         2.8000:        FLUID LOSS
 RMS .                         5.3700:        RM
 MST .F                       33.0000:        RM MEAS. TEMP.
 RMF .                         2.9500:        RMF
 MFST.F                       45.0000:        RMF MEAS. TEMP.
 RMC .                         2.4800:        RMC
 MCST.F                       35.0000:        RMC MEAS. TEMP.
~OTHER INFORMATION
~A    DEPTH          SP          SN         ILD        CILD          DT  
# ...
  1374.5000    -43.0404     11.4934     10.5164     92.8944   -999.2500  
  1375.0000    -43.0892     11.4177     10.3766     94.0817   -999.2500  
  1375.5000    -43.2362     11.4474     10.3992     94.5879   -999.2500  
  1376.0000    -43.5425     11.5493     10.5080     93.7876   -999.2500  
  1376.5000    -43.8176     11.6931     10.6573     92.7411   -999.2500  
  1377.0000    -43.8141     11.9286     10.7976     91.5407   -999.2500  
  1377.5000    -43.5210     12.1763     10.9017     90.4304   -999.2500  
  1378.0000    -42.9825     12.4238     11.0206     89.5057   -999.2500  
  1378.5000    -42.6143     12.5348     11.1024     88.8348   -999.2500  
  1379.0000    -42.6518     12.4705     11.1748     88.2065   -999.2500  
  1379.5000    -42.9106     12.3239     11.2012     87.8338   -999.2500  
  1380.0000    -43.1243     12.1660     11.1899     87.8857   -999.2500  
  1380.5000    -43.2303     12.1080     11.1065     88.2758   -999.2500  
  1381.0000    -43.2752     12.1161     11.0181     88.8471   -999.2500  
  1381.5000    -43.2917     12.1504     10.9195     89.4183   -999.2500  
  1382.0000    -43.3165     12.1985     10.8913     89.8534   -999.2500  
  1382.5000    -43.5041     12.1656     10.8685     90.0291   -999.2500  
  1383.0000    -43.6463     12.0396     10.7982     90.2950   -999.2500  
  1383.5000    -43.6355     11.8933     10.7327     90.6126   -999.2500  
  1384.0000    -43.4899     11.7252     10.6043     91.5389   -999.2500  
  1384.5000    -43.3547     11.5786     10.4197     93.0169   -999.2500  
  1385.0000    -43.1370     11.4689     10.2381     94.7729   -999.2500  
  1385.5000    -42.8492     11.3988      9.9783     96.2494   -999.2500  
  1386.0000    -42.7449     11.3063      9.7404     98.2100   -999.2500  
  1386.5000    -42.8021     11.1779      9.6083    100.3693   -999.2500  
  1387.0000    -42.7816     10.9781      9.2717    102.5051   -999.2500  
  1387.5000    -42.6667     10.7553      9.0570    105.1907   -999.2500  
  1388.0000    -42.5429     10.4431      8.9010    107.2893   -999.2500  
  1388.5000    -42.4186     10.1894      8.7833    108.5249   -999.2500  
  1389.0000    -42.2748     10.0400      8.7339    109.0315   -999.2500  
  1389.5000    -42.1310      9.9751      8.7379    109.1566   -999.2500  
  1390.0000    -42.0030     10.0683      8.7814    108.8717   -999.2500  
  1390.5000    -41.9926     10.2458      8.8914    108.0231   -999.2500  
  1391.0000    -42.0551     10.4177      9.0179    106.4818   -999.2500  
  1391.5000    -42.0033     10.5781      9.1916    104.3074   -999.2500  
  1392.0000    -42.0567     10.7372      9.4104    102.6663   -999.2500  
  1392.5000    -42.3273     10.8921      9.5020    101.0350   -999.2500  
  1393.0000    -42.5538     10.9613      9.6668     99.9641   -999.2500  
  1393.5000    -42.6628     10.9811      9.7263     99.0155   -999.2500  
  1394.0000    -42.6647     11.0000      9.8349     97.9811   -999.2500  
  1394.5000    -42.6757     11.0520      9.9492     97.0255   -999.2500  
  1395.0000    -42.7596     11.1444     10.0708     96.1522   -999.2500  
  1395.5000    -42.8434     11.2368     10.1294     95.0626   -999.2500  
  1396.0000    -42.9788     11.3784     10.3848     93.7622   -999.2500  
  1396.5000    -43.1844     11.5757     10.4927     92.8266   -999.2500  
  1397.0000    -43.4235     11.7611     10.5913     91.8324   -999.2500  
  1397.5000    -43.4580     11.8713     10.6494     91.2099   -999.2500  
  1398.0000    -43.3506     11.8445     10.6158     91.4378   -999.2500  
  1398.5000    -43.1933     11.7579     10.5165     91.6802   -999.2500  
  1399.0000    -42.8944     11.6918     10.4679     92.3054   -999.2500  
  1399.5000    -42.4273     11.6189     10.3049     92.9018   -999.2500  
  1400.0000    -42.0580     11.5588     10.3085     94.0355   -999.2500  
  1400.5000    -41.9656     11.5094     10.2023     95.1775   -999.2500  
  1401.0000    -42.1163     11.4599     10.1414     96.0849   -999.2500  
  1401.5000    -42.0964     11.4261     10.1065     96.8202   -999.2500  
  1402.0000    -41.8129     11.4329     10.1070     97.1382   -999.2500  
  1402.5000    -41.4768     11.4291     10.1073     97.4464   -999.2500  
  1403.0000    -41.1661     11.4124     10.1076     97.2433   -999.2500  
  1403.5000    -41.0013     11.3969     10.1100     96.9277   -999.2500  
  1404.0000    -40.9191     11.4122     10.1269     96.7327   -999.2500  
  1404.5000    -40.9110     11.4750     10.1308     96.8445   -999.2500  
  1405.0000    -40.8409     11.5560     10.1319     97.0766   -999.2500  
  1405.5000    -40.8496     11.6491     10.1331     97.2106   -999.2500  
  1406.0000    -40.9745     11.6226     10.1342     96.9874   -999.2500  
  1406.5000    -40.9272     11.5057     10.1353     96.7977   -999.2500  
  1407.0000    -40.7899     11.4110     10.1365     96.8654   -999.2500  
  1407.5000    -40.6527     11.4044     10.1432     97.0000   -999.2500  
  1408.0000    -40.6152     11.4474     10.1260     97.2016   -999.2500  
  1408.5000    -40.5838     11.4933     10.1074     97.2975   -999.2500  
  1409.0000    -40.5788     11.5372     10.1514     97.0563   -999.2500  
  1409.5000    -40.5739     11.5674     10.1920     96.7952   -999.2500  
  1410.0000    -40.7351     11.5886     10.2914     95.9795   -999.2500  
  1410.5000    -40.9365     11.6240     10.3998     95.0187   -999.2500  
  1411.0000    -41.0276     11.6818     10.4314     94.3635   -999.2500  
  1411.5000    -41.0529     11.7355     10.4866     94.1120   -999.2500  
  1412.0000    -41.0232     11.7452     10.4516     93.9894   -999.2500  
  1412.5000    -40.9434     11.7594     10.4104     94.4070   -999.2500  
  1413.0000    -40.7003     11.7531     10.3465     94.9642   -999.2500  
  1413.5000    -40.4782     11.6939     10.2897     95.2153   -999.2500  
  1414.0000    -40.3151     11.6079     10.3075     96.3689   -999.2500  
  1414.5000    -40.1913     11.5555     10.2223     96.8662   -999.2500  
  1415.0000    -40.0674     11.5196     10.2183     96.9624   -999.2500  
  1415.5000    -39.9436     11.4821     10.1486     96.9637   -999.2500  
  1416.0000    -39.9719     11.4438     10.1970     96.9619   -999.2500  
  1416.5000    -40.0814     11.4570     10.2007     97.0030   -999.2500  
  1417.0000    -40.1910     11.5062     10.1829     96.8302   -999.2500  
  1417.5000    -40.3005     11.5573     10.2272     96.6533   -999.2500  
  1418.0000    -40.3908     11.6032     10.2661     96.4765   -999.2500  
  1418.5000    -40.4754     11.6738     10.3493     96.2905   -999.2500  
  1419.0000    -40.5122     11.6960     10.4150     94.8175   -999.2500  
  1419.5000    -40.2163     11.7006     10.5125     93.7683   -999.2500  
  1420.0000    -40.3532     11.7292     10.5676     93.2822   -999.2500  
  1420.5000    -40.4901     11.7965     10.5602     93.0000   -999.2500  
  1421.0000    -40.6581     11.8950     10.5357     93.2335   -999.2500  
  1421.5000    -40.6957     11.9716     10.5260     93.4206   -999.2500  
  1422.0000    -40.6016     11.9505     10.5777     92.9885   -999.2500  
  1422.5000    -40.4634     11.8976     10.6327     92.6330   -999.2500  
  1423.0000    -40.4721     11.8577     10.6660     92.4269   -999.2500  
  1423.5000    -40.7372     11.8337     10.6567     92.2500   -999.2500  
  1424.0000    -40.8733     11.8317     10.5823     92.6498   -999.2500  
  1424.5000    -40.8087     11.8609     10.5234     93.2625   -999.2500  
  1425.0000    -40.6816     11.8784     10.5149     93.3311   -999.2500  
  1425.5000    -40.4793     11.8280     10.6149     92.9948   -999.2500  
  1426.0000    -40.4190     11.7716     10.5883     92.9531   -999.2500  
  1426.5000    -40.4211     11.7704     10.5548     93.2358   -999.2500  
  1427.0000    -40.4927     11.7500     10.4784     93.6524   -999.2500  
  1427.5000    -40.5717     11.7237     10.3722     94.6139   -999.2500  
  1428.0000    -40.6438     11.6453     10.2781     95.4831   -999.2500  
  1428.5000    -40.7327     11.5079     10.1749     96.6384   -999.2500  
