~VERSION INFORMATION
 VERS.                           2.00:        CWLS LOG ASCII STANDARD - VERSION 2.00
 WRAP.                             NO:        ONE LINE PER DEPTH STEP
~WELL INFORMATION
#MNEM.UNIT                   DATA             INFORMATION
#----------             --------------        ------------------------------
 STRT.F                      151.0000:        START DEPTH
 STOP.F                     2726.0000:        STOP DEPTH
 STEP.F                        0.5000:        STEP VALUE
 NULL.                      -999.2500:        NULL VALUE
 COMP.                      U.S. NAVY:        COMPANY  
 WELL.                     IKO BAY #1:        WELL     
 FLD .                        WILDCAT:        FIELD    
 LOC .                   16  21N  16W:        LOCATION   
 CNTY.                    NORTH SLOPE:        COUNTY  
 STAT.                         ALASKA:        STATE   
 CTRY.                            USA:        COUNTRY 
 DATE.                         2/8/75:        LOG DATE 
 API .                   502790000000:        UNIQUE WELL IDENTIFIER 
 OPER.                      U.S. NAVY:        OPERATOR  
 SRVC.                            440:        SERVICE COMPANY 
 UWI .                   502790000000:        UNIQUE WELL ID 
 LAT .                         0.0000:        LATITUDE
 LON .                         0.0000:        LONGITUDE
 DIGS.                             65:        DIGITIZING COMPANY 
~CURVE INFORMATION      
#MNEM.UNIT                 API CODE           CURVE DESCRIPTION
#---------              --------------        ------------------------------
 DEPT.F                              :        1  DEPTH
 SP  .MV                             :        2
 ILD .OHMM                           :        3
 LL8 .OHMM                           :        4
 ILM .OHMM                           :        5
 RHOB.G/C3                           :        6
 DRHO.G/C3                           :        7
 CALI.IN                             :        8
 GR  .GAPI                           :        9
 NPHI.%                              :       10
 DT  .US/F                           :       11
~PARAMETER INFORMATION       
#MNEM.UNIT                  VALUE             DESCRIPTION OF MNEMONIC
#---------             ---------------        ------------------------------
 EKB .F                        0.0000:        KELLY BUSHING
 TD  .F                     2731.0000:        TOTAL DEPTH
 BHT .F                             0.0000:        BOTTOM HOLE TEMPERATURE
 BS  .                             14.7500:        BIT SIZE
 FD  .                              0.0000:        FLUID DENSITY
 CSIZ.                             16.0000:        CASING SIZE
 CBD .F                           149.0000:        CASING DRILLER 1
 CBL .F                           152.0000:        CASING LOGGER 1
 DFT .                            Gel:        TYPE FLUID IN HOLE
 DFV .                              0.0000:        VISCOSITY
 DFPH.                              0.0000:        PH
 DFL .                              0.0000:        FLUID LOSS
 RMS .                              0.3000:        RM
 MST .F                       49.0000:        RM MEAS. TEMP.
 RMF .                              0.2300:        RMF
 MFST.F                       49.0000:        RMF MEAS. TEMP.
 RMC .                              0.4600:        RMC
 MCST.F                       49.0000:        RMC MEAS. TEMP.
 UWI .                   502790000000:        UNIQUE WELL ID
~OTHER INFORMATION
~A    DEPTH          SP         ILD         LL8         ILM        RHOB        DRHO        CALI          GR        NPHI          DT  
# ...
  2191.0000    -52.8659      6.2915      8.9401      6.6109      2.4874      0.0099     10.0597    104.5678     33.9255    100.6080  
  2191.5000    -53.0949      6.3501      9.2557      6.6777      2.4924      0.0068     10.0602    105.7006     35.1192    100.6000  
  2192.0000    -54.0303      6.3981      9.4754      6.7451      2.5037      0.0193     10.0604    106.9485     34.9351    101.0577  
  2192.5000    -54.5574      6.4430      9.6912      6.7906      2.5189      0.0280     10.0604    105.6582     34.1570    101.5541  
  2193.0000    -54.1613      6.4881      9.2383      6.7612      2.5189      0.0261     10.0604    102.9475     33.2814    101.9577  
  2193.5000    -52.6775      6.5336      8.8685      6.7717      2.5234      0.0167     10.0604    101.2605     31.3534    101.9039  
  2194.0000    -52.2015      6.5794      8.8407      6.8597      2.5222      0.0216     10.0604    102.1627     29.5052    101.7296  
  2194.5000    -53.8164      6.6255      9.0766      6.9116      2.5193      0.0280     10.0699    104.4927     29.5524    101.6820  
  2195.0000    -54.3011      6.6719      9.1899      6.9105      2.5172      0.0270     10.0882    105.7263     30.3343    101.4335  
  2195.5000    -54.3562      6.7187      9.2000      6.9564      2.5180      0.0228     10.0928    105.0802     29.8099    100.6427  
  2196.0000    -54.3783      6.7658      9.4949      7.0260      2.5257      0.0219     10.0973    103.3209     28.8416     99.4398  
  2196.5000    -54.1731      6.8132     10.0940      7.0672      2.5375      0.0388     10.0962    100.5970     29.3056     98.5617  
  2197.0000    -53.0918      6.8610      9.8385      7.0990      2.5412      0.0451     10.0908     98.2940     31.1924     97.9917  
  2197.5000    -52.1507      6.9041      9.2877      7.1309      2.5422      0.0302     10.0853     97.3144     32.7331     97.9549  
  2198.0000    -51.9021      6.9009      8.9912      7.1630      2.5484      0.0274     10.0954     96.4659     31.8021     98.3126  
  2198.5000    -51.4764      6.8977      9.2020      7.1952      2.5592      0.0372     10.0965     96.2250     30.2259     98.5392  
  2199.0000    -50.8219      6.8945      9.3907      7.2275      2.5148      0.0271     10.0846     96.5037     29.3248     98.4448  
  2199.5000    -50.5478      6.8914      9.3886      7.2226      2.4884      0.0200     10.1338     97.7834     30.1273     98.1425  
  2200.0000    -49.6944      6.8466      9.2806      7.1595      2.4823      0.0099     10.2213     99.7712     31.8119     98.2318  
  2200.5000    -49.7223      6.7724      9.2805      7.0526      2.4841      0.0116     10.2993     99.3622     32.9937     98.3161  
  2201.0000    -50.3215      6.6989      9.3648      6.9270      2.4915      0.0255     10.3292     98.0326     32.5272     98.0483  
  2201.5000    -50.5015      6.6263      9.2415      6.8037      2.4994      0.0390     10.3222     98.0415     32.0175     97.2252  
  2202.0000    -51.1600      6.5544      8.7512      6.6826      2.4926      0.0354     10.3510     99.6342     31.6195     97.0418  
  2202.5000    -51.3345      6.4836      7.9504      6.6025      2.4768      0.0218     10.3736    100.9187     31.3776     97.8642  
  2203.0000    -50.6174      6.4178      7.8090      6.5392      2.4805      0.0197     10.3968    101.6512     31.9194     99.3673  
  2203.5000    -50.3670      6.3527      8.0594      6.4764      2.4909      0.0225     10.3926    101.9018     31.7852    100.3247  
  2204.0000    -51.0979      6.2883      8.5828      6.4351      2.4878      0.0115     10.3762    101.7576     31.4902    100.7850  
  2204.5000    -51.7581      6.2245      8.7994      6.4194      2.4834      0.0038     10.3657    101.9211     31.5546    100.5714  
  2205.0000    -50.6628      6.2256      8.3333      6.4038      2.4826      0.0015     10.3516    102.9690     32.1716    100.6242  
  2205.5000    -49.2681      6.2353      8.2245      6.3963      2.4819     -0.0008     10.3499    102.7579     32.6034    101.1235  
  2206.0000    -48.2620      6.2704      8.3953      6.4181      2.4866      0.0056     10.3451    101.4450     32.1138    101.6192  
  2206.5000    -47.7766      6.3479      8.4753      6.4401      2.4908      0.0053     10.3403     99.9436     31.5591    102.0802  
  2207.0000    -47.4472      6.4264      8.5754      6.4998      2.4954     -0.0039     10.3370     97.4492     30.8655    102.3077  
  2207.5000    -48.0235      6.5058      8.8518      6.6041      2.5103      0.0009     10.3300     95.1054     29.3258    102.2552  
  2208.0000    -49.4810      6.5859      9.1371      6.7101      2.5218      0.0056     10.3190     94.5038     28.2136    102.0182  
  2208.5000    -50.9767      6.6589      9.1465      6.8177      2.5113      0.0102     10.3035     95.4823     27.7346    101.5425  
  2209.0000    -51.9310      6.7327      8.8819      6.9550      2.5136      0.0149     10.3077     96.5902     28.1170    100.9659  
  2209.5000    -52.1198      6.8073      9.0150      7.1156      2.5193      0.0201     10.3151     96.4513     28.1071    100.0363  
  2210.0000    -51.5164      6.8827      9.6202      7.2062      2.5161      0.0134     10.3402     96.2272     28.1636     99.1291  
  2210.5000    -51.1879      6.9590     10.0004      7.2781      2.5247      0.0075     10.3608     96.0073     28.5236     98.2881  
  2211.0000    -52.3207      7.0361      9.7522      7.3507      2.5307      0.0057     10.3645     96.0795     27.9830     97.3995  
  2211.5000    -53.6409      7.1141      9.4737      7.4241      2.5481      0.0321     10.3641     97.4810     26.9133     96.8534  
  2212.0000    -53.9757      7.1511      9.3974      7.4626      2.5728      0.0453     10.3547    101.1784     26.2358     96.5854  
  2212.5000    -53.9466      7.1040      9.4005      7.4387      2.5443      0.0290     10.3946    103.0059     25.8565     96.0555  
  2213.0000    -54.0089      7.0573      9.5122      7.4148      2.5182      0.0094     10.4378    101.6974     26.3043     95.0143  
  2213.5000    -54.2941      7.0108      9.8581      7.3910      2.5131      0.0025     10.4282     98.3011     26.7787     93.8939  
  2214.0000    -54.3315      6.9647     10.1707      7.3673      2.5260      0.0102     10.4346     96.4680     26.7462     93.0792  
  2214.5000    -54.0546      6.8744      9.5794      7.2521      2.5161      0.0211     10.4461     95.1502     26.7506     92.9006  
  2215.0000    -53.4826      6.7504      8.8944      7.1275      2.4957      0.0120     10.4625     95.5978     26.6881     93.5480  
  2215.5000    -53.1477      6.6286      8.4999      7.0049      2.4874      0.0100     10.4545     97.7941     27.3623     94.4380  
  2216.0000    -53.5773      6.5090      8.5732      6.8756      2.4798      0.0111     10.4872     99.2649     28.3038     94.7805  
  2216.5000    -53.8117      6.3916      8.6471      6.7469      2.4655      0.0240     10.5096    100.0227     30.0180     94.9736  
  2217.0000    -53.1572      6.2763      8.4914      6.6207      2.4813      0.0364     10.5377    100.5544     31.4632     95.0590  
  2217.5000    -52.6379      6.1631      8.2038      6.4963      2.4834      0.0229     10.5356    101.9306     31.5970     96.8967  
  2218.0000    -52.6901      6.0519      7.9116      6.3573      2.4878      0.0022     10.5432    102.8848     31.0247    115.1963  
  2218.5000    -52.8227      5.9438      7.5407      6.2214      2.5055      0.0079     10.5483    103.2456     30.3495    147.7206  
  2219.0000    -53.3103      5.9027      7.2419      6.0883      2.5033      0.0093     10.5355    101.1351     29.8322    140.8063  
  2219.5000    -53.4612      5.8619      7.0491      5.9581      2.5001      0.0156     10.5269     98.2444     29.4486    106.3520  
  2220.0000    -53.3744      5.8214      7.1322      5.9212      2.5039      0.0338     10.5340     97.4416     29.6092    101.0716  
  2220.5000    -53.2948      5.7812      7.3686      5.9324      2.5188      0.0490     10.5450     96.4813     30.6625    100.7121  
