~VERSION INFORMATION
 VERS.                           2.00:        CWLS LOG ASCII STANDARD - VERSION 2.00
 WRAP.                             NO:        ONE LINE PER DEPTH STEP
~WELL INFORMATION
#MNEM.UNIT                   DATA             INFORMATION
#----------             --------------        ------------------------------
 STRT.F                       50.0000:        START DEPTH
 STOP.F                     2158.0000:        STOP DEPTH
 STEP.F                        0.5000:        STEP VALUE
 NULL.                      -999.2500:        NULL VALUE
 COMP.              HUSKY OIL COMPANY:        COMPANY  
 LOC .                   25  22N  17W:        LOCATION   
 DATE.                        2-19-77:        LOG DATE 
 WELL.               SOUTH BARROW #14:        WELL     
 UWI .                   500232000900:        UNIQUE WELL ID 
 API .                   500232000900:        UNIQUE WELL IDENTIFIER 
 FLD .               SOUTH BARROW GAS:        FIELD    
 CNTY.                    NORTH SLOPE:        COUNTY  
 STAT.                         ALASKA:        STATE   
 CTRY.                            USA:        COUNTRY 
 OPER.              HUSKY OIL COMPANY:        OPERATOR  
 SRVC.                   SCHLUMBERGER:        SERVICE COMPANY 
 LAT .                         0.0000:        LATITUDE
 LON .                         0.0000:        LONGITUDE
 DIGS.               CENTER LINE DATA:        DIGITIZING COMPANY 
~CURVE INFORMATION      
#MNEM        .UNIT         API CODE           CURVE DESCRIPTION
#-----------------      --------------        ------------------------------
 DEPT        .F                      :        1  DEPTH
 LLS         .OHMM                   :        2  
 LLD         .OHMM                   :        3  
 SP          .MV                     :        4  
 ILD         .OHMM                   :        5  
 ILM         .OHMM                   :        6  
 LL8         .OHMM                   :        7  
 CALI        .IN                     :        8  
 GR          .GAPI                   :        9  
 NPHI        .%                      :        10 
 DPHI        .%                      :        11 
 RHOB        .G/C3                   :        12 
 DRHO        .G/C3                   :        13 
 DT          .US/F                   :        14 
~PARAMETER INFORMATION       
#MNEM.UNIT                  VALUE             DESCRIPTION OF MNEMONIC
#---------             ---------------        ------------------------------
 EKB .F                       31.0000:        KELLY BUSHING
 TD  .F                     1042.0000:        TOTAL DEPTH
 BHT .F                       62.0000:        BOTTOM HOLE TEMPERATURE
 BS  .                         6.0000:        BIT SIZE
 FD  .                        10.7000:        FLUID DENSITY
 CSIZ.                         7.0000:        CASING SIZE
 CBD .F                     1947.0000:        CASING DRILLER 1
 CBL .F                     1946.0000:        CASING LOGGER 1
 DFT .                  Miscellaneous:        TYPE FLUID IN HOLE
 DFV .                        50.0000:        VISCOSITY
 DFPH.                        10.0000:        PH
 DFL .                         0.0000:        FLUID LOSS
 RMS .                         0.1500:        RM
 MST .F                       50.0000:        RM MEAS. TEMP.
 RMF .                         0.1600:        RMF
 MFST.F                       61.0000:        RMF MEAS. TEMP.
 RMC .                         0.0000:        RMC
 MCST.F                        0.0000:        RMC MEAS. TEMP.
~OTHER INFORMATION
~A    DEPTH         LLS         LLD          SP         ILD         ILM         LL8        CALI          GR        NPHI        DPHI        RHOB        DRHO          DT  
# ...
  1034.0000   -999.2500   -999.2500    -84.6170      3.4151      3.5899      3.5779      6.9790     67.7707     51.8396      6.1066      2.2564      0.0541     54.9365  
  1034.5000   -999.2500   -999.2500    -89.5654      3.1814      3.2187      3.2498      5.9855     71.4267     52.2377      5.2991      2.1491      0.0475     54.8022  
  1035.0000   -999.2500   -999.2500    -93.2889      4.0690      4.0825      3.9138      5.8010     74.6168     53.6319     14.4334      2.0418      0.0104     60.0159  
  1035.5000   -999.2500   -999.2500    -94.0989      8.0625      6.3125      6.0089      5.7963     76.3660     52.3180     28.8430      2.0018      0.0152     82.8696  
  1036.0000   -999.2500   -999.2500    -90.9797      1.5341      8.8857      8.4075      5.7915     73.2106     52.3600     37.8868      2.0012      0.0276    101.6303  
  1036.5000   -999.2500   -999.2500    -83.9778      3.0101      8.1025     10.9074      5.7868     69.8936     56.2694     39.6670      2.0015      0.0252    113.8363  
  1037.0000   -999.2500   -999.2500    -76.9504     43.6238      6.9290     11.1774      5.7821     69.3335     60.0566     41.1858      2.0018      0.0084    111.7693  
  1037.5000   -999.2500   -999.2500    -73.4072     35.1826      8.1745     11.3203      5.7774     70.0434     60.0994     43.1492      2.0020      0.0031    114.8485  
  1038.0000   -999.2500   -999.2500    -71.8318     14.9667     10.7744     11.5002      5.7726     72.0630     60.0602     46.3663      2.0023      0.0246     83.0053  
  1038.5000   -999.2500   -999.2500    -70.9902     13.6293     14.6413     11.7120      5.7679     73.8212     60.0209     48.3275      2.0026      0.0715     96.5500  
  1039.0000   -999.2500   -999.2500    -70.8530     16.1137     16.8769     11.9201      5.8747     74.9968     59.9817     46.6788      2.0280      0.1170    123.7765  
  1039.5000   -999.2500   -999.2500    -71.0570      8.8902     12.2675     11.4952      6.1044     76.1060     58.4160     40.4866      2.0232      0.1234    144.1593  
  1040.0000   -999.2500   -999.2500    -71.5326      8.0735      7.0041     10.9275      6.3342     77.6544     56.4475     37.8706      2.0126      0.0921    104.9555  
  1040.5000   -999.2500   -999.2500    -71.7745      8.0288      5.5438     10.3879      6.6458     79.5322     51.8353     38.5693      2.0020      0.0540    104.8671  
  1041.0000   -999.2500   -999.2500    -71.5977      7.4652      6.6482     10.3476      6.6886     81.1396     50.8884     38.9445      2.0138      0.0203    129.2078  
  1041.5000   -999.2500   -999.2500    -71.3852      8.8795      8.7186     10.3952      6.7611     83.2062     53.2859     39.3945      2.0304      0.0144     78.2173  
  1042.0000   -999.2500   -999.2500    -71.0446     16.5325     11.4122     10.6407      6.8811     85.5535     54.3387     38.9431      2.0718      0.0404     81.9452  
  1042.5000   -999.2500   -999.2500    -70.4592     15.6217     10.8531     10.6369      6.8403     86.6887     52.6829     37.6638      2.1541      0.0724     81.6382  
  1043.0000   -999.2500   -999.2500    -70.5850     12.4782     10.3213     10.2450      6.9964     85.9083     48.3984     35.1698      2.2834      0.1035     94.8003  
  1043.5000   -999.2500   -999.2500    -70.8942      9.9672      9.6012      9.8675      7.1878     86.1049     45.4850     30.2028      2.3399      0.1417    100.6827  
  1044.0000   -999.2500   -999.2500    -71.0614      8.8553      8.9196      9.5040      7.7555     86.2795     43.4842     22.5604      2.3722      0.1700     57.0686  
  1044.5000   -999.2500   -999.2500    -70.6232      8.7813      9.1717      9.4933      8.4382     86.3105     43.7420     19.2144      2.3493      0.1782     78.2725  
  1045.0000   -999.2500   -999.2500    -70.3370      8.8885      9.4315     10.1874      8.6682     85.7407     44.6179     17.8582      2.3293      0.1525     99.4765  
  1045.5000   -999.2500   -999.2500    -69.9016      9.5441     10.4075     10.9322      8.6595     85.3035     44.8702     18.9533      2.2977      0.1059    109.4931  
  1046.0000   -999.2500   -999.2500    -69.0548     10.2480     11.6169     11.4797      8.4351     84.9067     43.8697     20.2939      2.3170      0.0817     78.7998  
  1046.5000   -999.2500   -999.2500    -68.3382     11.0038     11.3626     11.3809      8.0224     84.6823     42.1871     22.1303      2.3597      0.1000     83.1991  
  1047.0000   -999.2500   -999.2500    -68.0297     11.1986     11.1138     11.2829      7.9082     84.8934     40.1716     20.9617      2.3805      0.1097    100.2457  
  1047.5000   -999.2500   -999.2500    -67.9749     11.0127     10.8705     11.2432      7.9931     84.9279     39.1329     18.2913      2.3875      0.1181     98.9569  
  1048.0000   -999.2500   -999.2500    -67.9253     10.8298     10.6946     11.4847      8.0851     84.1700     39.9940     17.0507      2.3877      0.1395     68.8825  
  1048.5000   -999.2500   -999.2500    -67.8412     10.6500     10.6093     11.3538      8.1920     82.9760     40.7801     16.6151      2.3656      0.1483     50.2851  
  1049.0000   -999.2500   -999.2500    -67.7402     10.4732     10.5480     11.1399      8.3504     82.3353     41.8607     16.9574      2.3570      0.1329     59.7231  
  1049.5000   -999.2500   -999.2500    -67.4592     10.3327     10.4870     10.9300      8.3676     83.0868     41.9002     17.9872      2.3825      0.1415     80.1950  
  1050.0000   -999.2500   -999.2500    -66.9199     10.2098     10.4263     10.7766      8.3824     85.9848     41.6503     18.5222      2.4239      0.1627     95.3314  
  1050.5000   -999.2500   -999.2500    -66.3257     10.0883     10.3660     10.7307      8.6642     87.5012     43.0225     16.4770      2.4255      0.1501     99.9706  
  1051.0000   -999.2500   -999.2500    -65.9599      9.9683     10.3061     10.6849      8.9316     87.3513     44.5142     14.4436      2.4074      0.1283     95.1845  
  1051.5000   -999.2500   -999.2500    -65.7730     10.0534     10.2465     10.6393      9.0037     86.2792     46.1642     14.3630      2.4030      0.1211     70.7912  
  1052.0000   -999.2500   -999.2500    -65.8411     10.1670     10.3580     10.5940      9.2001     85.1737     46.7566     15.5683      2.3965      0.1117    118.1328  
  1052.5000   -999.2500   -999.2500    -65.9175     10.2819     10.4774     10.5983      9.1577     84.4759     46.6073     15.6928      2.3873      0.0945    112.0232  
  1053.0000   -999.2500   -999.2500    -66.0116     10.3981     10.5982     10.7015      9.0328     83.5417     45.8590     15.8781      2.3859      0.1038    117.6739  
  1053.5000   -999.2500   -999.2500    -66.1661     10.5156     10.7204     10.8698      9.0717     82.4000     45.3497     16.5341      2.3682      0.0962    117.9266  
  1054.0000   -999.2500   -999.2500    -66.1352     10.6344     10.8440     11.0407      9.0191     81.2936     44.9731     17.1087      2.3553      0.0954    107.4711  
  1054.5000   -999.2500   -999.2500    -65.8692     10.7546     10.9690     11.1883      8.9470     80.6961     45.5121     17.7450      2.3648      0.0818    125.1621  
  1055.0000   -999.2500   -999.2500    -65.3011     10.4735     10.8253     10.9505      8.7478     80.9989     45.9938     17.8918      2.3639      0.0643    116.4025  
  1055.5000   -999.2500   -999.2500    -64.8525     10.1688     10.5614     10.7179      8.6072     81.9730     45.7712     18.0445      2.3786      0.0766    115.8389  
  1056.0000   -999.2500   -999.2500    -64.4040      9.8730     10.3039     10.4902      8.6027     82.1193     44.3511     18.0293      2.3896      0.0904    115.6108  
  1056.5000   -999.2500   -999.2500    -63.9856      9.7554     10.0448     10.3595      8.5981     81.2999     43.1084     16.8974      2.3817      0.1075    115.9374  
  1057.0000   -999.2500   -999.2500    -64.2527      9.8596      9.9032     10.4042      8.6690     80.5334     43.4739     16.7792      2.3834      0.1247    116.4229  
  1057.5000   -999.2500   -999.2500    -64.5198      9.9648     10.0631     10.6851      8.7911     80.4182     44.5935     16.6846      2.3704      0.1200    106.3663  
