~VERSION INFORMATION
 VERS.                           2.00:        CWLS LOG ASCII STANDARD - VERSION 2.00
 WRAP.                             NO:        ONE LINE PER DEPTH STEP
~WELL INFORMATION
#MNEM.UNIT                   DATA             INFORMATION
#----------             --------------        ------------------------------
 STRT.F                       96.0000:        START DEPTH
 STOP.F                     2280.0000:        STOP DEPTH
 STEP.F                        0.5000:        STEP VALUE
 NULL.                      -999.2500:        NULL VALUE
 COMP.    USGS/NPR HUSKY OIL OPERATOR:        COMPANY  
 LOC .                   23  22N  17W:        LOCATION   
 DATE.                        9/11/80:        LOG DATE 
 WELL.               SOUTH BARROW #15:        WELL     
 UWI .                   500232001600:        UNIQUE WELL ID 
 API .                   500232001600:        UNIQUE WELL IDENTIFIER 
 FLD .                   SOUTH BARROW:        FIELD    
 CNTY.                    NORTH SLOPE:        COUNTY  
 STAT.                         ALASKA:        STATE   
 CTRY.                            USA:        COUNTRY 
 OPER.    USGS/NPR HUSKY OIL OPERATOR:        OPERATOR  
 SRVC.                   SCHLUMBERGER:        SERVICE COMPANY 
 LAT .                         0.0000:        LATITUDE
 LON .                         0.0000:        LONGITUDE
 DIGS.               CENTER LINE DATA:        DIGITIZING COMPANY 
~CURVE INFORMATION      
#MNEM        .UNIT         API CODE           CURVE DESCRIPTION
#-----------------      --------------        ------------------------------
 DEPT        .F                      :        1  DEPTH
 CALI        .IN                     :        2  
 GR          .GAPI                   :        3  
 RHOB        .G/C3                   :        4  
 DRHO        .G/C3                   :        5  
 NPHI        .%                      :        6  
 DT          .US/F                   :        7  
 SP          .MV                     :        8  
 ILD         .OHMM                   :        9  
 ILM         .OHMM                   :        10 
 SFL         .OHMM                   :        11 
 LLD         .OHMM                   :        12 
 LLS         .OHMM                   :        13 
 MSFL        .OHMM                   :        14 
~PARAMETER INFORMATION       
#MNEM.UNIT                  VALUE             DESCRIPTION OF MNEMONIC
#---------             ---------------        ------------------------------
 EKB .F                       30.0000:        KELLY BUSHING
 TD  .F                     2279.0000:        TOTAL DEPTH
 BHT .F                        0.0000:        BOTTOM HOLE TEMPERATURE
 BS  .                         8.5000:        BIT SIZE
 FD  .                        10.3000:        FLUID DENSITY
 CSIZ.                         9.6250:        CASING SIZE
 CBD .F                     1514.0000:        CASING DRILLER 1
 CBL .F                     1520.0000:        CASING LOGGER 1
 DFT .                  Miscellaneous:        TYPE FLUID IN HOLE
 DFV .                        43.0000:        VISCOSITY
 DFPH.                         0.0000:        PH
 DFL .                         0.0000:        FLUID LOSS
 RMS .                         0.1800:        RM
 MST .F                       48.0000:        RM MEAS. TEMP.
 RMF .                         0.1400:        RMF
 MFST.F                       48.0000:        RMF MEAS. TEMP.
 RMC .                         0.0000:        RMC
 MCST.F                        0.0000:        RMC MEAS. TEMP.
~OTHER INFORMATION
~A    DEPTH        CALI          GR        RHOB        DRHO        NPHI          DT          SP         ILD         ILM         SFL         LLD         LLS        MSFL  
# ...
  1968.0000     11.0519     90.3567      2.2959      0.1482     37.3173    104.1068   -999.2500   -999.2500   -999.2500   -999.2500      8.6903      7.5182      3.6249  
  1968.5000     10.7986     88.5569      2.3482      0.1629     36.9333    103.6809   -999.2500   -999.2500   -999.2500   -999.2500      8.8414      7.6280      3.4426  
  1969.0000     10.5527     86.3860      2.3638      0.1462     36.2846    103.1271   -999.2500   -999.2500   -999.2500   -999.2500      8.9877      7.5791      3.2537  
  1969.5000      9.5838     85.0483      2.3652      0.1193     35.2532    102.6454   -999.2500   -999.2500   -999.2500   -999.2500      9.0743      7.4917      3.0920  
  1970.0000     10.1716     85.2176      2.3241      0.0758     35.0481    102.5202   -999.2500   -999.2500   -999.2500   -999.2500      9.1379      7.4968      3.1815  
  1970.5000     10.8275     85.7690      2.2965      0.0239     34.6936    102.5639   -999.2500   -999.2500   -999.2500   -999.2500      9.0937      7.5297      3.3945  
  1971.0000     10.4182     86.5039      2.3032      0.0330     34.4429    102.2909   -999.2500   -999.2500   -999.2500   -999.2500      8.9944      7.5668      3.8688  
  1971.5000     10.1551     86.2504      2.3143      0.0715     34.1852    101.8169   -999.2500   -999.2500   -999.2500   -999.2500      8.9201      7.6204      4.4631  
  1972.0000     10.4724     85.4158      2.3254      0.0885     34.3783    101.8364   -999.2500   -999.2500   -999.2500   -999.2500      8.8343      7.5759      4.5209  
  1972.5000     11.2136     85.5623      2.3345      0.0520     34.7087    102.9983   -999.2500   -999.2500   -999.2500   -999.2500      8.7493      7.5277      3.7305  
  1973.0000     10.1182     86.5390      2.3324      0.0528     35.5316    103.8244   -999.2500   -999.2500   -999.2500   -999.2500      8.7129      7.5116      3.1053  
  1973.5000      9.5439     87.6264      2.3192      0.0878     36.0217    104.5543   -999.2500   -999.2500   -999.2500   -999.2500      8.6777      7.4956      3.1836  
  1974.0000      9.7872     88.0852      2.2476      0.0855     36.4021    104.6657   -999.2500   -999.2500   -999.2500   -999.2500      8.6493      7.5081      3.2999  
  1974.5000     11.7688     87.9185      2.2444      0.0888     36.0577    104.0177   -999.2500   -999.2500   -999.2500   -999.2500      8.6256      7.5268      2.7039  
  1975.0000     11.1196     87.0264      2.3123      0.1256     35.2420    103.3750   -999.2500   -999.2500   -999.2500   -999.2500      8.6350      7.5162      2.5078  
  1975.5000     11.5773     87.4909      2.3373      0.1457     35.2992    102.9406   -999.2500   -999.2500   -999.2500   -999.2500      8.6445      7.4816      2.5200  
  1976.0000     10.8837     87.8302      2.3264      0.1208     36.2937    102.6455   -999.2500   -999.2500   -999.2500   -999.2500      8.6831      7.4470      2.3560  
  1976.5000     10.0928     88.6907      2.3156      0.0793     37.4063    103.4328   -999.2500   -999.2500   -999.2500   -999.2500      8.7487      7.4110      2.2236  
  1977.0000     10.0881     88.8550      2.3048      0.0711     38.7763    103.9445   -999.2500   -999.2500   -999.2500   -999.2500      8.8148      7.3751      2.4026  
  1977.5000     10.6371     88.4333      2.2995      0.0743     40.3850    104.3080   -999.2500   -999.2500   -999.2500   -999.2500      8.8814      7.4255      2.6548  
  1978.0000     10.1868     87.3353      2.3054      0.1065     40.8427    104.6650   -999.2500   -999.2500   -999.2500   -999.2500      8.9417      7.5032      2.8803  
  1978.5000     10.7436     89.3553      2.2950      0.1510     41.1874    104.9390   -999.2500   -999.2500   -999.2500   -999.2500      8.9968      7.6475      3.8292  
  1979.0000     10.8412     89.4705      2.2643      0.1663     41.3099    104.9285   -999.2500   -999.2500   -999.2500   -999.2500      9.1777      7.8055      4.6540  
  1979.5000     11.2723     86.6948      2.2531      0.1512     41.3646    104.4072   -999.2500   -999.2500   -999.2500   -999.2500      9.5491      7.9667      4.5644  
  1980.0000     11.5675     87.4041      2.2642      0.1635     41.4525    103.9333   -999.2500   -999.2500   -999.2500   -999.2500      9.8303      8.1313      3.2011  
  1980.5000     10.4223     89.5690      2.2446      0.1299     41.0308    104.0015   -999.2500   -999.2500   -999.2500   -999.2500      9.8763      8.2993      2.2993  
  1981.0000      9.3985     90.1673      2.2152      0.1044     39.9713    104.4435   -999.2500   -999.2500   -999.2500   -999.2500      9.9004      8.5111      2.1530  
  1981.5000      9.3926     88.9175      2.1855      0.0871     38.5647    104.9490   -999.2500   -999.2500   -999.2500   -999.2500      9.9204      8.7223      2.6247  
  1982.0000     10.1814     86.9620      2.1658      0.0761     36.7899    105.0347   -999.2500   -999.2500   -999.2500   -999.2500      9.8800      8.7413      3.5122  
  1982.5000     10.1901     87.1150      2.1538      0.0708     35.3384    105.0336   -999.2500   -999.2500   -999.2500   -999.2500      9.7399      8.7603      4.2260  
  1983.0000     10.0938     87.8475      2.1397      0.0762     36.1247    105.3104   -999.2500   -999.2500   -999.2500   -999.2500      9.6070      8.7794      4.3673  
  1983.5000     10.6058     88.0897      2.1617      0.1023     36.7207    105.2993   -999.2500   -999.2500   -999.2500   -999.2500      9.4805      8.7725      4.2793  
  1984.0000     10.8934     88.0493      2.1706      0.1252     36.8026    105.4412   -999.2500   -999.2500   -999.2500   -999.2500      9.4671      8.6420      4.0099  
  1984.5000     10.2670     87.8612      2.1761      0.1211     36.9909    105.5734   -999.2500   -999.2500   -999.2500   -999.2500      9.4800      8.5059      3.8646  
  1985.0000     10.2062     86.9620      2.1902      0.1216     37.3393    106.3423   -999.2500   -999.2500   -999.2500   -999.2500      9.5034      8.3038      3.7369  
  1985.5000     10.2070     86.5687      2.2117      0.1330     38.2032    107.9893   -999.2500   -999.2500   -999.2500   -999.2500      9.4155      8.1642      3.2862  
  1986.0000     10.3459     87.3522      2.2312      0.1344     37.8635    108.2351   -999.2500   -999.2500   -999.2500   -999.2500      9.2902      8.0270      3.0355  
  1986.5000     10.9214     88.9745      2.2227      0.1253     37.4104    108.3801   -999.2500   -999.2500   -999.2500   -999.2500      9.1504      7.8926      3.1109  
  1987.0000     10.9345     90.0766      2.2508      0.0963     37.4784    107.8114   -999.2500   -999.2500   -999.2500   -999.2500      9.0323      7.9932      3.9796  
  1987.5000     10.4734     89.0775      2.2941      0.0661     37.5464    105.2333   -999.2500   -999.2500   -999.2500   -999.2500      8.9753      8.1792      4.8831  
  1988.0000     10.2993     86.7557      2.3372      0.0527     37.5320    102.8108   -999.2500   -999.2500   -999.2500   -999.2500      9.0099      8.2332      5.5273  
  1988.5000     10.5137     88.4649      2.3398      0.0267     37.6152    101.4968   -999.2500   -999.2500   -999.2500   -999.2500      9.4835      8.2004      6.1165  
  1989.0000     10.6508     88.9910      2.3453      0.0596     37.9927    100.4622   -999.2500   -999.2500   -999.2500   -999.2500      9.3641      8.1935      6.3409  
  1989.5000      9.7745     89.5772      2.3625      0.1060     38.3201    100.5375   -999.2500   -999.2500   -999.2500   -999.2500      9.1958      8.2512      6.3703  
  1990.0000     10.3120     90.5534      2.3840      0.1363     38.9582    101.7212   -999.2500   -999.2500   -999.2500   -999.2500      9.0472      8.3093      6.2107  
  1990.5000     10.0300     91.9319      2.3808      0.1431     39.4607    102.1234   -999.2500   -999.2500   -999.2500   -999.2500      9.0164      8.3264      6.0657  
  1991.0000      9.6640     91.0955      2.3727      0.1390     39.5635    102.2144   -999.2500   -999.2500   -999.2500   -999.2500      9.2396      8.3116      5.9450  
  1991.5000      9.6008     90.0936      2.3575      0.1410     39.1332    102.0809   -999.2500   -999.2500   -999.2500   -999.2500     10.0804      8.2968      5.8924  
