~VERSION INFORMATION
 VERS.                           2.00:        CWLS LOG ASCII STANDARD - VERSION 2.00
 WRAP.                             NO:        ONE LINE PER DEPTH STEP
~WELL INFORMATION
#MNEM.UNIT                   DATA             INFORMATION
#----------             --------------        ------------------------------
 STRT.F                       50.0000:        START DEPTH
 STOP.F                     2158.0000:        STOP DEPTH
 STEP.F                        0.5000:        STEP VALUE
 NULL.                      -999.2500:        NULL VALUE
 COMP.              HUSKY OIL COMPANY:        COMPANY  
 LOC .                   25  22N  17W:        LOCATION   
 DATE.                        2-19-77:        LOG DATE 
 WELL.               SOUTH BARROW #14:        WELL     
 UWI .                   500232000900:        UNIQUE WELL ID 
 API .                   500232000900:        UNIQUE WELL IDENTIFIER 
 FLD .               SOUTH BARROW GAS:        FIELD    
 CNTY.                    NORTH SLOPE:        COUNTY  
 STAT.                         ALASKA:        STATE   
 CTRY.                            USA:        COUNTRY 
 OPER.              HUSKY OIL COMPANY:        OPERATOR  
 SRVC.                   SCHLUMBERGER:        SERVICE COMPANY 
 LAT .                         0.0000:        LATITUDE
 LON .                         0.0000:        LONGITUDE
 DIGS.               CENTER LINE DATA:        DIGITIZING COMPANY 
~CURVE INFORMATION      
#MNEM        .UNIT         API CODE           CURVE DESCRIPTION
#-----------------      --------------        ------------------------------
 DEPT        .F                      :        1  DEPTH
 LLS         .OHMM                   :        2  
 LLD         .OHMM                   :        3  
 SP          .MV                     :        4  
 ILD         .OHMM                   :        5  
 ILM         .OHMM                   :        6  
 LL8         .OHMM                   :        7  
 CALI        .IN                     :        8  
 GR          .GAPI                   :        9  
 NPHI        .%                      :        10 
 DPHI        .%                      :        11 
 RHOB        .G/C3                   :        12 
 DRHO        .G/C3                   :        13 
 DT          .US/F                   :        14 
~PARAMETER INFORMATION       
#MNEM.UNIT                  VALUE             DESCRIPTION OF MNEMONIC
#---------             ---------------        ------------------------------
 EKB .F                       31.0000:        KELLY BUSHING
 TD  .F                     1042.0000:        TOTAL DEPTH
 BHT .F                       62.0000:        BOTTOM HOLE TEMPERATURE
 BS  .                         6.0000:        BIT SIZE
 FD  .                        10.7000:        FLUID DENSITY
 CSIZ.                         7.0000:        CASING SIZE
 CBD .F                     1947.0000:        CASING DRILLER 1
 CBL .F                     1946.0000:        CASING LOGGER 1
 DFT .                  Miscellaneous:        TYPE FLUID IN HOLE
 DFV .                        50.0000:        VISCOSITY
 DFPH.                        10.0000:        PH
 DFL .                         0.0000:        FLUID LOSS
 RMS .                         0.1500:        RM
 MST .F                       50.0000:        RM MEAS. TEMP.
 RMF .                         0.1600:        RMF
 MFST.F                       61.0000:        RMF MEAS. TEMP.
 RMC .                         0.0000:        RMC
 MCST.F                        0.0000:        RMC MEAS. TEMP.
~OTHER INFORMATION
~A    DEPTH         LLS         LLD          SP         ILD         ILM         LL8        CALI          GR        NPHI        DPHI        RHOB        DRHO          DT  
# ...
  1394.0000   -999.2500   -999.2500    -58.8441      8.6593      8.8578     10.6705      8.3298     98.5218     42.3860     16.4131      2.3951      0.0891    118.4381  
  1394.5000   -999.2500   -999.2500    -59.5290      8.8304      9.0068     10.5781      8.3046     98.8077     42.4455     16.2059      2.3964      0.0883    118.3473  
  1395.0000   -999.2500   -999.2500    -59.6633      8.9224      9.1006     10.3259      8.2459     96.1174     42.4346     15.7380      2.3896      0.0832    118.9934  
  1395.5000   -999.2500   -999.2500    -59.1791      9.0154      9.1955     10.0879      8.2268     95.1386     42.6737     15.5633      2.3571      0.0498    119.9239  
  1396.0000   -999.2500   -999.2500    -58.4786      9.1093      9.2913      9.8554      8.2236     94.9457     43.6654     16.6382      2.3694      0.0459    121.2620  
  1396.5000   -999.2500   -999.2500    -58.8597      9.0878      9.2696      9.6935      8.2178     94.4144     44.1955     18.1406      2.3586      0.0272    122.4792  
  1397.0000   -999.2500   -999.2500    -59.2407      8.9917      9.1715      9.7841      8.2279     94.0116     44.7838     17.9882      2.3990      0.0473    122.2500  
  1397.5000   -999.2500   -999.2500    -59.5541      8.8966      9.0745      9.8755      8.2740     93.7570     45.1741     18.1683      2.4163      0.0721    119.8421  
  1398.0000   -999.2500   -999.2500    -59.8298      8.8025      8.9785      9.9677      8.3201     91.9049     43.8955     16.4182      2.4148      0.0763    118.6129  
  1398.5000   -999.2500   -999.2500    -59.8934      8.7094      8.8836     10.0478      8.3662     89.8200     42.6614     14.9277      2.3918      0.0755    120.0976  
  1399.0000   -999.2500   -999.2500    -59.4126      8.6173      8.7896      9.8771      8.2710     89.0118     41.5013     15.0303      2.3676      0.0695    122.8171  
  1399.5000   -999.2500   -999.2500    -58.8315      8.5261      8.6966      9.7092      8.1697     88.8898     41.3186     15.9525      2.3673      0.0792    121.7942  
  1400.0000   -999.2500   -999.2500    -58.0631      8.5030      8.6687      9.5849      8.0727     88.4066     42.8638     18.5493      2.3980      0.1038    122.9617  
  1400.5000   -999.2500   -999.2500    -58.5741      8.5052      8.6710      9.6793      8.0160     87.9234     44.9387     17.0788      2.3910      0.1052    124.0028  
  1401.0000   -999.2500   -999.2500    -58.8508      8.5073      8.6732      9.8344      8.0371     87.7484     46.1541     15.8535      2.3627      0.0917    124.6880  
  1401.5000   -999.2500   -999.2500    -58.8709      8.5095      8.6754     10.0215      8.0749     87.5881     46.9395     15.9755      2.3902      0.1124    124.2211  
  1402.0000   -999.2500   -999.2500    -58.6585      8.5117      8.6776      9.9837      8.2693     86.9297     47.2540     18.2536      2.3734      0.1059    124.0059  
  1402.5000   -999.2500   -999.2500    -58.8791      8.5139      8.6798      9.8507      8.3638     87.7974     46.6060     16.0970      2.3439      0.0832    123.8372  
  1403.0000   -999.2500   -999.2500    -58.9650      8.5218      8.6882      9.7480      8.3631     90.0238     46.0980     17.7263      2.3063      0.0587    123.3971  
  1403.5000   -999.2500   -999.2500    -58.9124      8.5439      8.7107      9.7503      8.3611     91.3112     46.3939     19.3394      2.3034      0.0615    123.7536  
  1404.0000   -999.2500   -999.2500    -58.8508      8.5661      8.7333      9.7864      8.5582     92.8959     46.6368     21.4555      2.3122      0.0518    124.3294  
  1404.5000   -999.2500   -999.2500    -59.1862      8.5883      8.7559      9.8848      8.6193     93.1210     46.1094     20.8435      2.3223      0.0511    124.5345  
  1405.0000   -999.2500   -999.2500    -59.4930      8.5961      8.7635      9.9825      8.4633     94.5664     44.5975     21.0020      2.3311      0.0734    125.0916  
  1405.5000   -999.2500   -999.2500    -59.6560      8.5930      8.7604      9.7742      8.2995     95.7923     44.1599     20.9094      2.3513      0.0876    125.2919  
  1406.0000   -999.2500   -999.2500    -59.8997      8.5900      8.7573      9.5704      8.3307     94.3792     44.5638     19.7048      2.3675      0.1066    124.9521  
  1406.5000   -999.2500   -999.2500    -60.1190      8.5803      8.7500      9.4638      8.3161     91.7091     44.5766     18.3366      2.3558      0.1136    125.7619  
  1407.0000   -999.2500   -999.2500    -60.1828      8.5113      8.6797      9.4467      8.1969     89.1959     43.4581     18.3563      2.3486      0.1023    126.5759  
  1407.5000   -999.2500   -999.2500    -60.0191      8.4429      8.6099      9.4306      8.3185     88.5993     42.5868     18.4585      2.3205      0.1121    126.6432  
  1408.0000   -999.2500   -999.2500    -59.6422      8.3751      8.5407      9.4480      8.3169     87.6614     43.0287     18.9953      2.3330      0.1347    128.8794  
  1408.5000   -999.2500   -999.2500    -59.4330      8.3234      8.4874      9.4654      8.2872     86.7611     42.8262     21.4081      2.3321      0.1090    126.5595  
  1409.0000   -999.2500   -999.2500    -59.3201      8.3809      8.5460      9.4829      8.2071     87.0570     41.7253     19.2865      2.3305      0.0884    126.2547  
  1409.5000   -999.2500   -999.2500    -59.1154      8.4387      8.6049      9.5003      8.2242     87.2289     41.3406     20.7077      2.3464      0.0968    125.6840  
  1410.0000   -999.2500   -999.2500    -58.8153      8.4920      8.6573      9.6702      8.3062     87.8719     41.8592     19.2668      2.3298      0.0964    125.6106  
  1410.5000   -999.2500   -999.2500    -58.4130      8.4917      8.6570      9.8613      8.5442     88.9269     42.4742     19.5254      2.3069      0.1109    126.6561  
  1411.0000   -999.2500   -999.2500    -58.2013      8.4914      8.6567     10.0247      8.8589     90.0528     43.7841     19.9309      2.3142      0.1045    128.7810  
  1411.5000   -999.2500   -999.2500    -58.2760      8.4911      8.6564      9.8271      8.5581     90.7715     44.6835     20.2511      2.3502      0.1137    128.7277  
  1412.0000   -999.2500   -999.2500    -58.3233      8.4908      8.6561      9.6335      8.4665     88.6708     45.1508     20.6888      2.3658      0.1155    127.1357  
  1412.5000   -999.2500   -999.2500    -58.3886      8.4905      8.6558      9.4436      8.7168     85.7288     44.8300     18.6090      2.3394      0.0917    125.1116  
  1413.0000   -999.2500   -999.2500    -58.3790      8.4902      8.6555      9.5139      8.8563     84.9118     43.1217     18.5781      2.3502      0.0848    124.4142  
  1413.5000   -999.2500   -999.2500    -58.5442      8.4899      8.6552      9.7527      9.0469     84.6904     42.4905     19.5284      2.3635      0.0989    125.0000  
  1414.0000   -999.2500   -999.2500    -58.5742      8.4896      8.6549      9.9975      9.0811     85.1268     42.4971     18.3659      2.3470      0.0771    126.1299  
  1414.5000   -999.2500   -999.2500    -59.2123      8.4893      8.6546     10.2432      9.2037     85.8124     42.3529     18.1903      2.3573      0.0944    126.0137  
  1415.0000   -999.2500   -999.2500    -59.9447      8.5188      8.6853     10.3025      9.3888     86.7995     41.7457     18.3876      2.3375      0.0822    125.5038  
  1415.5000   -999.2500   -999.2500    -60.6771      8.5511      8.7182     10.1766      9.3187     87.1483     41.8549     18.2551      2.3070      0.0472    126.8861  
  1416.0000   -999.2500   -999.2500    -61.4094      8.5835      8.7512      9.9701      9.1339     87.2243     42.5085     19.6458      2.3537      0.0631    125.3290  
  1416.5000   -999.2500   -999.2500    -61.4267      8.6160      8.7844      9.8577      8.9940     87.3003     43.3642     20.6516      2.3707      0.0879    127.3622  
  1417.0000   -999.2500   -999.2500    -61.3055      8.8005      9.0059      9.8581      8.9996     87.7815     42.9113     17.7753      2.3930      0.0873    129.5089  
  1417.5000   -999.2500   -999.2500    -61.1844      9.0686      9.2802     10.0639      8.9541     88.6136     41.9242     16.9916      2.3872      0.0951    123.2892  
