~VERSION INFORMATION
 VERS.                           2.00:        CWLS LOG ASCII STANDARD - VERSION 2.00
 WRAP.                             NO:        ONE LINE PER DEPTH STEP
~WELL INFORMATION
#MNEM.UNIT                   DATA             INFORMATION
#----------             --------------        ------------------------------
 STRT.F                       75.0000:        START DEPTH
 STOP.F                     2534.0000:        STOP DEPTH
 STEP.F                        0.5000:        STEP VALUE
 NULL.                      -999.2500:        NULL VALUE
 COMP.                      HUSKY OIL:        COMPANY  
 LOC .                   14  22N  18W:        LOCATION   
 DATE.                       12/20/76:        LOG DATE 
 WELL.               SOUTH BARROW #13:        WELL     
 UWI .                   500232000800:        UNIQUE WELL ID 
 API .                   500232000800:        UNIQUE WELL IDENTIFIER 
 FLD .                   SOUTH BARROW:        FIELD    
 CNTY.                    NORTH SLOPE:        COUNTY  
 STAT.                         ALASKA:        STATE   
 CTRY.                            USA:        COUNTRY 
 OPER.                      HUSKY OIL:        OPERATOR  
 SRVC.                   SCHLUMBERGER:        SERVICE COMPANY 
 LAT .                         0.0000:        LATITUDE
 LON .                         0.0000:        LONGITUDE
 DIGS.               CENTER LINE DATA:        DIGITIZING COMPANY 
~CURVE INFORMATION      
#MNEM        .UNIT         API CODE           CURVE DESCRIPTION
#-----------------      --------------        ------------------------------
 DEPT        .F                      :        1  DEPTH
 SP          .MV                     :        2  
 ILD         .OHMM                   :        3  
 LL8         .OHMM                   :        4  
 CILD        .MMHO                   :        5  
 ILM         .OHMM                   :        6  
 GR          .GAPI                   :        7  
 CALI        .IN                     :        8  
 DRHO        .G/C3                   :        9  
 RHOB        .G/C3                   :        10 
 NPHI        .%                      :        11 
 DPHI        .%                      :        12 
 DT          .US/F                   :        13 
~PARAMETER INFORMATION       
#MNEM.UNIT                  VALUE             DESCRIPTION OF MNEMONIC
#---------             ---------------        ------------------------------
 EKB .F                       40.0000:        KELLY BUSHING
 TD  .F                     1139.0000:        TOTAL DEPTH
 BHT .F                        0.0000:        BOTTOM HOLE TEMPERATURE
 BS  .                        14.7500:        BIT SIZE
 FD  .                        10.3000:        FLUID DENSITY
 CSIZ.                        20.0000:        CASING SIZE
 CBD .F                       65.0000:        CASING DRILLER 1
 CBL .F                       75.0000:        CASING LOGGER 1
 DFT .                  Miscellaneous:        TYPE FLUID IN HOLE
 DFV .                        34.0000:        VISCOSITY
 DFPH.                         8.5000:        PH
 DFL .                        10.2000:        FLUID LOSS
 RMS .                         5.3200:        RM
 MST .F                       55.0000:        RM MEAS. TEMP.
 RMF .                         3.8000:        RMF
 MFST.F                       55.0000:        RMF MEAS. TEMP.
 RMC .                         6.0000:        RMC
 MCST.F                       55.0000:        RMC MEAS. TEMP.
~OTHER INFORMATION
~A    DEPTH          SP         ILD         LL8        CILD         ILM          GR        CALI        DRHO        RHOB        NPHI        DPHI          DT  
# ...
  1248.0000    -34.8084      9.2550     12.1275   -999.2500      9.3892     47.1544     11.5284      0.0348      2.4503     37.6627     10.7991    116.7403  
  1248.5000    -35.6220      9.4881     13.3053   -999.2500      9.7043     46.3797     11.5711      0.0408      2.4733     36.9731     10.9586    114.6510  
  1249.0000    -35.1316      9.7271     13.2416   -999.2500     10.0300     46.0851     11.6065      0.0315      2.4770     36.5547     11.8857    112.9890  
  1249.5000    -35.3723      9.9721     13.0440   -999.2500     10.3667     46.4617     11.6372      0.0284      2.4742     35.5158     12.6182    112.6304  
  1250.0000    -36.6558     10.2233     12.7386   -999.2500     10.6914     47.1512     11.7043      0.0229      2.4631     34.8781     12.8384    112.9746  
  1250.5000    -35.1279     10.4808     12.2260   -999.2500     10.7469     47.8342     11.7722      0.0218      2.4487     36.0331     10.8466    113.4739  
  1251.0000    -32.9845     10.4651     12.0472   -999.2500     10.8027     47.6878     11.8132      0.0418      2.4650     37.1351     11.1136    113.9414  
  1251.5000    -31.9843     10.4365     12.4035   -999.2500     10.8588     46.4344     11.8864      0.0528      2.4767     38.0420     11.3806    114.2822  
  1252.0000    -33.3487     10.4081     12.5793   -999.2500     10.9011     45.1211     11.7074      0.0504      2.4754     37.0974     10.5436    113.8039  
  1252.5000    -35.3031     10.3798     12.7621   -999.2500     10.8609     44.6628     11.6218      0.0487      2.4737     36.2073     11.0415    113.2012  
  1253.0000    -35.6502     10.3515     12.8110   -999.2500     10.8209     46.2059     11.5904      0.0546      2.4819     35.8687     11.4431    113.0532  
  1253.5000    -34.5186     10.3233     12.6783   -999.2500     10.7822     47.7490     11.5772      0.0581      2.4774     36.0016     11.2755    112.7732  
  1254.0000    -33.4154     10.2952     12.6719   -999.2500     10.7482     47.6767     11.5727      0.0591      2.4700     36.3776     10.3035    112.4559  
  1254.5000    -32.5069     10.2671     13.0465   -999.2500     10.7143     46.8491     11.5505      0.0662      2.4779     36.7536      9.5890    112.3409  
  1255.0000    -35.4455     10.2391     12.9161   -999.2500     10.6805     47.3832     11.4468      0.0753      2.4956     36.9303      9.9278    112.9166  
  1255.5000    -41.1411     10.2234     12.0790   -999.2500     10.6468     47.4201     11.3443      0.0803      2.5077     36.8254     12.0649    114.2285  
  1256.0000    -40.6673     10.2660     11.9567   -999.2500     10.6432     47.1763     11.3590      0.0792      2.4875     37.0738     13.6192    114.5799  
  1256.5000    -39.3702     10.3088     12.0354   -999.2500     10.8231     47.2051     11.3018      0.0404      2.4515     37.3951     12.9763    113.7719  
  1257.0000    -37.5176     10.3518     12.4077   -999.2500     10.9662     47.2488     11.3066      0.0351      2.4437     37.4222     12.9947    112.2982  
  1257.5000    -34.3543     10.3950     13.2103   -999.2500     11.1271     47.1586     11.2995      0.0416      2.4453     37.6544     12.5293    111.5502  
  1258.0000    -33.9924     10.4384     13.2835   -999.2500     11.4132     46.8215     11.2825      0.0363      2.4481     38.2404     12.1118    111.4553  
  1258.5000    -37.3524     10.4819     13.2408   -999.2500     11.2605     46.7225     11.4640      0.0310      2.4544     38.3235     11.9927    111.1392  
  1259.0000    -37.1944     10.5256     12.9359   -999.2500     10.9349     47.0948     11.4890      0.0257      2.4563     37.8053     12.7630    111.1278  
  1259.5000    -33.8876     10.5695     12.6541   -999.2500     11.0088     47.7174     11.3971      0.0239      2.4623     37.3641     12.9820    111.6977  
  1260.0000    -36.2099     10.6136     12.8372   -999.2500     11.3445     48.4168     11.3159      0.0203      2.4523     37.0749     12.5365    112.4544  
  1260.5000    -36.9447     10.6579     12.7829   -999.2500     11.4408     48.4280     11.2713      0.0361      2.4468     36.8312     12.9982    112.7064  
  1261.0000    -34.8981     10.6149     12.6410   -999.2500     11.3100     47.2939     11.2670      0.0414      2.4538     36.5858     14.1768    111.8568  
  1261.5000    -34.5182     10.5689     13.1107   -999.2500     11.2252     46.7775     11.2570      0.0299      2.4464     36.3396     12.0850    110.7250  
  1262.0000    -34.7245     10.5230     14.0123   -999.2500     11.2162     46.4288     11.2949      0.0302      2.4288     36.2765     10.3593    110.1193  
  1262.5000    -35.0463     10.4773     12.5493   -999.2500     11.2072     45.8992     11.3832      0.0633      2.4641     36.1244     11.6911    110.7827  
  1263.0000    -36.1114     10.4319     12.7247   -999.2500     11.0984     45.4488     11.3899      0.0502      2.4812     35.6860     12.8110    112.8467  
  1263.5000    -38.1370     10.3866     13.0763   -999.2500     10.9820     45.5248     11.3624      0.0301      2.4624     35.6117     12.5481    114.5782  
  1264.0000    -36.2589     10.3416     12.3160   -999.2500     10.8667     45.9926     11.3583      0.0161      2.4524     36.2958     11.6789    115.9791  
  1264.5000    -34.3735     10.2967     11.1045   -999.2500     10.7527     46.7165     11.3708      0.0291      2.4577     36.2511     12.3767    116.9540  
  1265.0000    -35.0918     10.2520     11.1010   -999.2500     10.6408     47.3856     11.3819      0.0341      2.4584     36.1550     12.3320    117.0001  
  1265.5000    -35.3685     10.2075     11.3837   -999.2500     10.5308     48.0548     11.3601      0.0280      2.4562     36.4725     12.5850    117.0022  
  1266.0000    -35.1774     10.1701     11.4902   -999.2500     10.4219     48.7239     11.3887      0.0230      2.4566     36.2959     13.3073    116.6423  
  1266.5000    -34.9522     10.2602     11.5135   -999.2500     10.4181     48.3108     11.4045      0.0187      2.4480     35.7201     12.7061    115.2476  
  1267.0000    -33.7525     10.2827     11.7331   -999.2500     10.5159     47.3728     11.4190      0.0310      2.4442     35.5907     13.5755    112.8582  
  1267.5000    -33.2031     10.3053     12.8244   -999.2500     10.6148     46.9126     11.4496      0.0433      2.4448     35.9164     13.6954    111.2579  
  1268.0000    -33.8696     10.3280     13.1793   -999.2500     10.7145     47.1222     11.4980      0.0344      2.4383     36.1609     12.5411    110.4337  
  1268.5000    -35.2123     10.3507     13.2355   -999.2500     10.8152     47.4085     11.5620      0.0293      2.4422     36.3085     12.9267    110.4065  
  1269.0000    -34.9820     10.3734     13.1150   -999.2500     10.8611     47.5768     11.6390      0.0390      2.4475     36.4023     12.0693    111.2595  
  1269.5000    -34.8744     10.3962     12.6390   -999.2500     10.9065     47.1170     11.6477      0.0496      2.4517     36.7464     12.9604    111.6320  
  1270.0000    -35.9618     10.4191     12.2232   -999.2500     10.9521     47.1743     11.6923      0.0524      2.4561     37.0593     13.2203    112.0853  
  1270.5000    -36.3676     10.4420     12.1674   -999.2500     10.9978     47.0153     11.7905      0.0363      2.4460     37.0015     13.1418    112.4367  
  1271.0000    -38.9309     10.4650     12.4097   -999.2500     11.0438     46.5421     11.9212      0.0385      2.4437     36.4301     13.2618    111.8152  
  1271.5000    -36.9288     10.5385     13.0168   -999.2500     11.0899     46.3599     11.8246      0.0422      2.4444     35.8211     14.3131    110.4705  
  1272.0000    -35.0352     10.7824     13.5444   -999.2500     11.2774     46.5103     11.6743      0.0393      2.4412     35.1500     13.7049    109.4877  
  1272.5000    -34.1419     10.9799     13.0039   -999.2500     11.5971     46.7387     11.7409      0.0339      2.4221     34.5970     13.1061    109.0572  
  1273.0000    -33.0513     11.1241     12.9290   -999.2500     11.9258     47.2939     11.9168      0.0444      2.4405     34.3007     13.2906    108.6305  
