~VERSION INFORMATION
 VERS.                           2.00:        CWLS LOG ASCII STANDARD - VERSION 2.00
 WRAP.                             NO:        ONE LINE PER DEPTH STEP
~WELL INFORMATION
#MNEM.UNIT                   DATA             INFORMATION
#----------             --------------        ------------------------------
 STRT.F                       98.0000:        START DEPTH
 STOP.F                     2124.0000:        STOP DEPTH
 STEP.F                        0.5000:        STEP VALUE
 NULL.                      -999.2500:        NULL VALUE
 COMP.          USGS/NPR-A OPERATIONS:        COMPANY  
 LOC .                   24  22N  17W:        LOCATION   
 DATE.                        10/5/80:        LOG DATE 
 WELL.               SOUTH BARROW #18:        WELL     
 UWI .                   500232001700:        UNIQUE WELL ID 
 API .                   500232001700:        UNIQUE WELL IDENTIFIER 
 FLD .                   SOUTH BARROW:        FIELD    
 CNTY.                    NORTH SLOPE:        COUNTY  
 STAT.                         ALASKA:        STATE   
 CTRY.                            USA:        COUNTRY 
 OPER.          USGS/NPR-A OPERATIONS:        OPERATOR  
 SRVC.                   SCHLUMBERGER:        SERVICE COMPANY 
 LAT .                         0.0000:        LATITUDE
 LON .                         0.0000:        LONGITUDE
 DIGS.               CENTER LINE DATA:        DIGITIZING COMPANY 
~CURVE INFORMATION      
#MNEM        .UNIT         API CODE           CURVE DESCRIPTION
#-----------------      --------------        ------------------------------
 DEPT        .F                      :        1  DEPTH
 CALI        .IN                     :        2  
 GR          .GAPI                   :        3  
 NPHI        .%                      :        4  
 RHOB        .G/C3                   :        5  
 DRHO        .G/C3                   :        6  
 DT          .US/F                   :        7  
 SP          .MV                     :        8  
 ILD         .OHMM                   :        9  
 ILM         .OHMM                   :        10 
 SFL         .OHMM                   :        11 
 LLD         .OHMM                   :        12 
 LLS         .OHMM                   :        13 
 MSFL        .OHMM                   :        14 
~PARAMETER INFORMATION       
#MNEM.UNIT                  VALUE             DESCRIPTION OF MNEMONIC
#---------             ---------------        ------------------------------
 EKB .F                       30.0000:        KELLY BUSHING
 TD  .F                     2125.0000:        TOTAL DEPTH
 BHT .F                        0.0000:        BOTTOM HOLE TEMPERATURE
 BS  .                         8.5000:        BIT SIZE
 FD  .                        10.3000:        FLUID DENSITY
 CSIZ.                         9.6250:        CASING SIZE
 CBD .F                     1519.0000:        CASING DRILLER 1
 CBL .F                     1520.0000:        CASING LOGGER 1
 DFT .                  Miscellaneous:        TYPE FLUID IN HOLE
 DFV .                        47.0000:        VISCOSITY
 DFPH.                         8.5000:        PH
 DFL .                        14.0000:        FLUID LOSS
 RMS .                         0.1600:        RM
 MST .F                       43.0000:        RM MEAS. TEMP.
 RMF .                         0.1100:        RMF
 MFST.F                       43.0000:        RMF MEAS. TEMP.
 RMC .                         0.1200:        RMC
 MCST.F                       43.0000:        RMC MEAS. TEMP.
~OTHER INFORMATION
~A    DEPTH        CALI          GR        NPHI        RHOB        DRHO          DT          SP         ILD         ILM         SFL         LLD         LLS        MSFL  
# ...
  1658.0000      9.3917     61.7312     26.6059      2.4396      0.0393    107.5612   -999.2500   -999.2500   -999.2500   -999.2500     19.0182     16.0765      4.1755  
  1658.5000      9.3537     69.4207     22.3638      2.4646      0.0495    105.2978   -999.2500   -999.2500   -999.2500   -999.2500     13.6724     12.5518      4.7998  
  1659.0000      9.4241     78.5648     23.0103      2.4999      0.0720    103.5571   -999.2500   -999.2500   -999.2500   -999.2500     13.1749     12.2195      6.6735  
  1659.5000      9.4834     87.5375     28.8545      2.5122      0.0725    105.1019   -999.2500   -999.2500   -999.2500   -999.2500     13.4816     12.1927      7.2587  
  1660.0000      9.6536     92.7871     33.8253      2.5213      0.0459    107.6863   -999.2500   -999.2500   -999.2500   -999.2500     13.6322     12.1482      4.9516  
  1660.5000      9.9611     93.9767     37.6179      2.5344      0.0333    110.2982   -999.2500   -999.2500   -999.2500   -999.2500     13.1073     11.7996      3.5707  
  1661.0000     10.1122     93.0379     38.7184      2.5548      0.0565    108.8937   -999.2500   -999.2500   -999.2500   -999.2500     11.3300     10.4893      3.4906  
  1661.5000      9.7233     93.2871     38.9304      2.5602      0.0918    107.3222   -999.2500   -999.2500   -999.2500   -999.2500     11.3149     10.0675      3.8817  
  1662.0000      9.7394     94.8097     39.9958      2.5089      0.0924    106.3902   -999.2500   -999.2500   -999.2500   -999.2500     11.9847     10.2147      4.5599  
  1662.5000      9.9934     95.4364     41.5675      2.4800      0.0702     88.3277   -999.2500   -999.2500   -999.2500   -999.2500     10.5985     10.2679      5.0519  
  1663.0000     10.0238     95.4072     41.5233      2.4575      0.0481    108.3544   -999.2500   -999.2500   -999.2500   -999.2500     11.2779     10.0501      4.9234  
  1663.5000      9.9887     95.5564     41.0126      2.4539      0.0222    107.7769   -999.2500   -999.2500   -999.2500   -999.2500     11.4588      9.9729      4.8017  
  1664.0000      9.9201     96.0764     40.5770      2.4613      0.0254    107.7356   -999.2500   -999.2500   -999.2500   -999.2500     11.6491      9.9416      4.9183  
  1664.5000      9.7631     97.8605     40.7936      2.4776      0.0431     96.4977   -999.2500   -999.2500   -999.2500   -999.2500     11.8047      9.9215      4.9392  
  1665.0000      9.8560     99.9940     42.0974      2.4857      0.0539    108.5834   -999.2500   -999.2500   -999.2500   -999.2500     12.0734      9.9146      4.2987  
  1665.5000      9.9382     99.2626     42.6863      2.4665      0.0322    106.6590   -999.2500   -999.2500   -999.2500   -999.2500     12.3932      9.9285      3.7248  
  1666.0000      9.9053     97.8129     40.9137      2.4727      0.0326    106.2472   -999.2500   -999.2500   -999.2500   -999.2500     12.2914     10.0224      3.3912  
  1666.5000      9.7612     96.9838     38.4361      2.4967      0.0463    131.1738   -999.2500   -999.2500   -999.2500   -999.2500     12.6086     10.3809      3.5853  
  1667.0000      9.7996     96.1986     38.5758      2.4983      0.0435    105.3945   -999.2500   -999.2500   -999.2500   -999.2500     13.0259     10.5671      3.2171  
  1667.5000      9.9530     94.5534     40.0978      2.4983      0.0335    106.0992   -999.2500   -999.2500   -999.2500   -999.2500     13.2060     10.5580      2.4233  
  1668.0000      9.9379     91.7813     40.0478      2.4982      0.0192    107.1265   -999.2500   -999.2500   -999.2500   -999.2500     12.5278     10.1665      2.7181  
  1668.5000      9.8085     93.2330     39.0704      2.4981      0.0162    106.2712   -999.2500   -999.2500   -999.2500   -999.2500     12.0596      9.8467      3.4178  
  1669.0000      9.7465     95.4495     38.3583      2.4960      0.0321     99.9702   -999.2500   -999.2500   -999.2500   -999.2500     12.1877      9.8467      3.4645  
  1669.5000      9.7928     95.7286     38.8209      2.4868      0.0441    107.9963   -999.2500   -999.2500   -999.2500   -999.2500     12.3172      9.8467      3.1078  
  1670.0000      9.9883     95.0121     39.3396      2.4776      0.0335    109.5050   -999.2500   -999.2500   -999.2500   -999.2500     12.2258      9.9218      3.1731  
  1670.5000     10.0220     96.7212     39.1991      2.4828      0.0368     78.8892   -999.2500   -999.2500   -999.2500   -999.2500     12.2237     10.1091      3.5884  
  1671.0000      9.9683     98.3698     39.0222      2.5093      0.0575     71.0148   -999.2500   -999.2500   -999.2500   -999.2500     12.6060     10.1399      3.7714  
  1671.5000      9.9145    100.4591     38.7212      2.5279      0.0800    107.3476   -999.2500   -999.2500   -999.2500   -999.2500     13.0152     10.7361      4.2512  
  1672.0000      9.9490    101.8236     39.4120      2.5153      0.0770     92.1505   -999.2500   -999.2500   -999.2500   -999.2500     13.2920     11.6689      5.9793  
  1672.5000      9.9375    100.0294     40.4148      2.5085      0.0734    106.8123   -999.2500   -999.2500   -999.2500   -999.2500     13.6042     11.9610      6.6910  
  1673.0000     10.0559     99.6010     41.4366      2.5031      0.0607    107.7438   -999.2500   -999.2500   -999.2500   -999.2500     13.8725     11.9165      5.2274  
  1673.5000     10.2057     99.9460     41.9427      2.5014      0.0442    106.0019   -999.2500   -999.2500   -999.2500   -999.2500     13.9515     11.7453      3.9248  
  1674.0000      9.6942    101.0247     40.7390      2.4951      0.0466     82.7942   -999.2500   -999.2500   -999.2500   -999.2500     13.2815     11.4461      2.5927  
  1674.5000      9.6490    102.0368     39.2475      2.4759      0.0307    122.5351   -999.2500   -999.2500   -999.2500   -999.2500     12.6982     11.1832      1.6676  
  1675.0000      9.7044    100.5034     39.0917      2.4686      0.0149    169.8876   -999.2500   -999.2500   -999.2500   -999.2500     12.6864     10.9069      1.6025  
  1675.5000      9.7908     97.4617     38.9952      2.4760      0.0410    101.0625   -999.2500   -999.2500   -999.2500   -999.2500     13.3297     10.8984      2.4655  
  1676.0000      9.6624     92.0008     38.9890      2.5157      0.0726     68.1384   -999.2500   -999.2500   -999.2500   -999.2500     15.3611     12.1608      7.0097  
  1676.5000      9.6719     86.4185     39.4939      2.4949      0.0543    113.4445   -999.2500   -999.2500   -999.2500   -999.2500     20.4721     16.3214     14.0797  
  1677.0000      9.7252     80.3218     40.8240      2.4805      0.0422     95.3445   -999.2500   -999.2500   -999.2500   -999.2500     27.3729     22.5818     13.6749  
  1677.5000      9.7427     72.4784     40.6545      2.4544      0.0159    105.3391   -999.2500   -999.2500   -999.2500   -999.2500     26.9036     22.3839      8.0073  
  1678.0000      9.6449     69.2723     37.4519      2.4304      0.0427    105.9034   -999.2500   -999.2500   -999.2500   -999.2500     20.3737     17.0484      5.7984  
  1678.5000      9.4834     76.3200     31.6563      2.4318      0.0430    106.6826   -999.2500   -999.2500   -999.2500   -999.2500     14.8523     13.7532      5.2719  
  1679.0000      9.4385     88.1747     27.2161      2.4473      0.0310    107.4677   -999.2500   -999.2500   -999.2500   -999.2500     14.1180     12.0302      5.6076  
  1679.5000      9.5252    100.3601     28.1823      2.4815      0.0234    108.5489   -999.2500   -999.2500   -999.2500   -999.2500     13.6098     11.5319      6.1932  
  1680.0000      9.6283    104.4149     32.9474      2.4960      0.0216    108.3343   -999.2500   -999.2500   -999.2500   -999.2500     13.1200     11.4522      5.9643  
  1680.5000      9.7086    105.4779     37.1596      2.4880      0.0226     79.5066   -999.2500   -999.2500   -999.2500   -999.2500     12.6818     11.3364      5.0827  
  1681.0000      9.6985    103.7992     39.0310      2.4903      0.0286     99.6956   -999.2500   -999.2500   -999.2500   -999.2500     12.2761     11.1015      4.7654  
  1681.5000      9.7035    101.2672     39.1178      2.4982      0.0391    109.8577   -999.2500   -999.2500   -999.2500   -999.2500     11.8833     10.7153      4.5311  
