~VERSION INFORMATION
 VERS.                           2.00:        CWLS LOG ASCII STANDARD - VERSION 2.00
 WRAP.                             NO:        ONE LINE PER DEPTH STEP
~WELL INFORMATION
#MNEM.UNIT                   DATA             INFORMATION
#----------             --------------        ------------------------------
 STRT.F                     1260.0000:        START DEPTH
 STOP.F                     2340.0000:        STOP DEPTH
 STEP.F                        0.5000:        STEP VALUE
 NULL.                      -999.2500:        NULL VALUE
 COMP.        U.S.NAVY DEEPT NP & OSR:        COMPANY  
 LOC .                  144  22N 18W UPM:        LOCATION   
 DATE.                        2/24/74:        LOG DATE 
 WELL.               SOUTH BARROW #11:        WELL     
 UWI .                    50023200500:        UNIQUE WELL ID 
 API .                    50023200500:        UNIQUE WELL IDENTIFIER 
 FLD .                   SOUTH BARROW:        FIELD    
 CNTY.                          NPR-4:        COUNTY  
 STAT.                         ALASKA:        STATE   
 CTRY.                            USA:        COUNTRY 
 OPER.        U.S.NAVY DEEPT NP & OSR:        OPERATOR  
 SRVC.                   SCHLUMBERGER:        SERVICE COMPANY 
 LAT .                         0.0000:        LATITUDE
 LON .                         0.0000:        LONGITUDE
 DIGS.               CENTER LINE DATA:        DIGITIZING COMPANY 
~CURVE INFORMATION      
#MNEM        .UNIT         API CODE           CURVE DESCRIPTION
#-----------------      --------------        ------------------------------
 DEPT        .F                      :        1  DEPTH
 CALI        .IN                     :        2  
 GR          .GAPI                   :        3  
 RHOB        .G/C3                   :        4  
 NPHI        .%                      :        5  
 DPHI        .%                      :        6  
 SP          .MV                     :        7  
 LL8         .OHMM                   :        8  
 ILD         .OHMM                   :        9  
 CILD        .MMHO                   :        10 
 DT          .US/F                   :        11 
~PARAMETER INFORMATION       
#MNEM.UNIT                  VALUE             DESCRIPTION OF MNEMONIC
#---------             ---------------        ------------------------------
 EKB .F                       36.0000:        KELLY BUSHING
 TD  .F                     2350.0000:        TOTAL DEPTH
 BHT .F                       60.0000:        BOTTOM HOLE TEMPERATURE
 BS  .                         9.6250:        BIT SIZE
 FD  .                        10.8000:        FLUID DENSITY
 CSIZ.                        10.7500:        CASING SIZE
 CBD .F                     1267.0000:        CASING DRILLER 1
 CBL .F                     1267.0000:        CASING LOGGER 1
 DFT .      Salt Water-Lignosulfonate:        TYPE FLUID IN HOLE
 DFV .                        52.0000:        VISCOSITY
 DFPH.                         9.0000:        PH
 DFL .                         4.2000:        FLUID LOSS
 RMS .                         1.8800:        RM
 MST .F                       50.0000:        RM MEAS. TEMP.
 RMF .                         1.1500:        RMF
 MFST.F                       63.0000:        RMF MEAS. TEMP.
 RMC .                         1.5000:        RMC
 MCST.F                       50.0000:        RMC MEAS. TEMP.
~OTHER INFORMATION
~A    DEPTH        CALI          GR        RHOB        NPHI        DPHI          SP         LL8         ILD        CILD          DT  
# ...
  1950.0000     10.2331    102.8946      2.4156     41.2028     14.3763    -20.9124      9.2184      8.2043    120.6398    107.5275  
  1950.5000     10.2190    102.9366      2.4202     44.1140     14.1175    -20.7372      9.1091      8.0805    124.2290    107.2144  
  1951.0000     10.2092    102.6929      2.4199     44.4653     13.9808    -20.6868      9.0039      7.9960    126.1519    107.3759  
  1951.5000     10.2023    102.0493      2.4113     43.7937     14.2415    -20.7183      8.9607      7.9115    126.9968    107.6278  
  1952.0000     10.2274    101.3235      2.4099     42.8559     14.3540    -20.6900      8.9174      7.8270    126.6152    107.6332  
  1952.5000     10.2176    101.7249      2.4077     41.6757     14.4543    -20.6137      8.8742      7.7302    126.5982    107.6419  
  1953.0000     10.1566    103.4675      2.4093     40.7854     14.4956    -20.4068      8.8309      7.7039    126.9305    107.8641  
  1953.5000     10.1673    104.1607      2.4239     41.6194     14.4568    -20.0017      8.8032      7.6554    127.3270    108.1993  
  1954.0000     10.1760    102.9169      2.4468     42.5015     13.6376    -19.5505      8.8129      7.6236    127.6524    108.4167  
  1954.5000     10.1334    101.8726      2.4626     42.1263     12.4013    -19.2313      8.8226      7.6583    127.3073    108.4421  
  1955.0000     10.1414    102.1232      2.4605     40.3687     11.7407    -18.9204      8.8323      7.7690    126.4523    107.9497  
  1955.5000     10.2163    102.7559      2.4392     40.1048     11.9470    -18.6758      8.8499      7.7596    125.5142    107.7288  
  1956.0000     10.2200    104.3511      2.4195     41.3819     12.7317    -18.5875      8.9162      7.8113    125.1264    108.2410  
  1956.5000     10.2078    105.9491      2.4269     45.6709     13.6089    -18.5413      8.9824      7.8631    124.7656    109.0033  
  1957.0000     10.2156    105.6330      2.4444     45.7516     12.9137    -18.6222      9.0486      7.9148    123.8307    109.5328  
  1957.5000     10.2204    103.6627      2.4447     44.6860     12.5223    -18.7624      9.1733      8.0610    122.0104    109.2342  
  1958.0000     10.2431    101.3410      2.4332     43.0192     12.8705    -18.8080      9.4384      8.2317    119.7579    108.3953  
  1958.5000     10.2648     98.9999      2.4228     42.8707     13.3491    -18.8482      9.7035      8.3477    118.3917    107.5235  
  1959.0000     10.2654     98.4111      2.4363     42.8372     13.1253    -18.9637      9.7608      8.3679    118.2046    106.9839  
  1959.5000     10.2241     96.9397      2.4537     42.6106     12.1314    -19.2041      9.8019      8.3282    118.2281    106.0849  
  1960.0000     10.1957     95.3655      2.4729     41.3072     10.3331    -19.4166      9.6172      8.2760    118.7548    104.7478  
  1960.5000     10.1916     96.8677      2.4518     40.3173     11.5504    -19.6902      9.4009      8.1970    119.7497    103.5260  
  1961.0000     10.2281     99.2859      2.4271     40.3537     13.4174    -19.7845      9.1215      8.0777    121.3508    103.0699  
  1961.5000     10.2451    100.7979      2.4105     41.1048     14.1753    -19.8523      8.8454      7.9583    123.4138    103.2835  
  1962.0000     10.2669     99.5732      2.4131     42.3395     14.2045    -19.8856      8.6014      7.8390    126.2859    104.4399  
  1962.5000     10.2766     97.2881      2.4154     42.8281     14.2251    -19.8814      8.5964      7.7197    128.7338    105.2542  
  1963.0000     10.2421     97.7817      2.4129     42.7705     14.2429    -19.9443      8.5915      7.4684    130.2014    105.6445  
  1963.5000     10.2993     98.1675      2.4164     42.5524     14.2422    -20.0619      8.5806      7.5028    130.7437    106.1451  
  1964.0000     10.2951     98.2187      2.4205     42.9162     13.9543    -20.1744      8.5682      7.4691    129.9674    106.5100  
  1964.5000     10.2534     98.6011      2.4180     43.3832     13.8172    -20.2152      8.6479      7.5231    128.8480    106.7232  
  1965.0000     10.2531    100.0021      2.4152     43.8849     14.0013    -20.2035      8.7848      7.6345    128.3329    106.7228  
  1965.5000     10.2574     99.6079      2.4069     45.0106     14.3993    -20.2090      8.9169      7.6664    127.5192    106.5224  
  1966.0000     10.2333     97.9974      2.4049     44.4929     14.6943    -20.2397      8.9346      7.6670    127.1534    106.0935  
  1966.5000     10.2215     97.6823      2.4015     44.7399     14.8077    -20.3019      8.8692      7.6640    127.2309    105.8475  
  1967.0000     10.2404     97.7849      2.4006     45.2683     14.8895    -20.3976      8.7672      7.6237    127.5906    105.8253  
  1967.5000     10.2945     97.0278      2.4087     45.4959     14.8414    -20.4489      8.6851      7.6415    127.4777    105.9191  
  1968.0000     10.2272     96.1696      2.4109     45.6038     14.5647    -20.6547      8.6232      7.6725    127.5432    106.4964  
  1968.5000     10.1989     95.2780      2.4050     45.6459     14.7519    -20.6540      8.6239      7.7034    127.0458    107.0783  
  1969.0000     10.2153     94.6453      2.4008     45.4131     14.9281    -20.5469      8.7531      7.7619    125.8537    107.4728  
  1969.5000     10.2546     94.6703      2.4064     44.3620     14.8360    -20.4414      9.0923      7.9280    124.0724    108.2446  
  1970.0000     10.2371     94.1936      2.4101     44.4466     14.4927    -20.4731      9.4372      8.1114    120.3455    108.9490  
  1970.5000     10.2017     93.4362      2.4198     45.0541     14.0416    -20.3183      9.8057      8.4302    117.1068    109.3679  
  1971.0000     10.2049     92.6768      2.4297     45.5156     13.5617    -20.1666     10.2114      8.5757    114.1840    108.8982  
  1971.5000     10.2149     90.8875      2.4540     45.4839     12.6079    -19.9610     10.5926      8.9715    110.5843    106.9525  
  1972.0000     10.1971     87.4099      2.5007     43.6804     10.2251    -19.8903     10.9636      9.2990    105.2627    103.3540  
  1972.5000     10.1813     84.2634      2.5240     39.6076      8.4129    -20.0038     11.3228      9.7968    100.5811    100.1560  
  1973.0000     10.1754     83.4516      2.5022     37.5165      8.2848    -20.2333     11.7255     10.2802     96.9888     99.5754  
  1973.5000     10.1709     83.6042      2.4459     36.1163     10.8619    -20.5301     12.2234     10.2836     96.7376     99.9362  
  1974.0000     10.1696     82.1660      2.4058     36.0189     14.1360    -20.9126     12.7248     10.0657     98.4165     99.9968  
  1974.5000     10.1592     79.7011      2.4109     35.9129     14.5191    -21.1735     12.4839      9.9106    100.7046     98.3345  
  1975.0000     10.1436     79.2726      2.4143     34.1954     14.3558    -21.0126     11.9169      9.8387    101.8237     96.1069  
  1975.5000     10.1337     82.5297      2.4304     32.8773     13.9130    -20.7040     11.3458      9.8249    102.5292     95.0705  
  1976.0000     10.1202     88.3920      2.4458     35.5649     12.1794    -20.7545     10.6845      9.5472    104.7716     95.8154  
  1976.5000     10.0930     91.5983      2.4545     38.4971     12.2096    -20.8516      9.9952      9.1107    107.8928     98.1450  
  1977.0000     10.0735     93.2101      2.4383     39.2661     13.2677    -21.2730      9.7251      8.7144    113.5091     99.9348  
  1977.5000     10.0346     94.3783      2.4134     39.2628     14.0825    -21.5783      9.5454      8.4549    116.8581    100.8715  
  1978.0000     10.0854     96.3427      2.4095     39.4300     14.6012    -21.6372      9.4523      8.1871    119.2893    102.1593  
  1978.5000     10.1299     99.0302      2.4003     39.7541     14.9991    -21.5291      9.3591      8.0615    121.1186    103.5250  
  1979.0000     10.1465    100.9115      2.3969     39.7801     15.4376    -21.1366      9.3084      8.0298    121.7927    104.3502  
  1979.5000     10.1885    101.2870      2.4021     39.6000     15.1574    -20.9460      9.2954      8.0007    122.0151    104.6567  
