~VERSION INFORMATION
 VERS.                           2.00:        CWLS LOG ASCII STANDARD - VERSION 2.00
 WRAP.                             NO:        ONE LINE PER DEPTH STEP
~WELL INFORMATION
#MNEM.UNIT                   DATA             INFORMATION
#----------             --------------        ------------------------------
 STRT.F                      884.0000:        START DEPTH
 STOP.F                     2365.0000:        STOP DEPTH
 STEP.F                        0.5000:        STEP VALUE
 NULL.                      -999.2500:        NULL VALUE
 COMP.                      U.S. NAVY:        COMPANY  
 LOC .                   14  22N  18W:        LOCATION   
 DATE.                        3/19/64:        LOG DATE 
 WELL.                SOUTH BARROW #6:        WELL     
 UWI .                   500231001500:        UNIQUE WELL ID 
 API .                   500231001500:        UNIQUE WELL IDENTIFIER 
 FLD .                   SOUTH BARROW:        FIELD    
 CNTY.                         NPR #4:        COUNTY  
 STAT.                         ALASKA:        STATE   
 CTRY.                            USA:        COUNTRY 
 OPER.                      U.S. NAVY:        OPERATOR  
 SRVC.                   SCHLUMBERGER:        SERVICE COMPANY 
 LAT .                         0.0000:        LATITUDE
 LON .                         0.0000:        LONGITUDE
 DIGS.               CENTER LINE DATA:        DIGITIZING COMPANY 
~CURVE INFORMATION      
#MNEM        .UNIT         API CODE           CURVE DESCRIPTION
#-----------------      --------------        ------------------------------
 DEPT        .F                      :        1  DEPTH
 SP          .MV                     :        2  
 SN          .OHMM                   :        3  
 ILD         .OHMM                   :        4  
 CILD        .OHMM                   :        5  
 DT          .US/F                   :        6  
~PARAMETER INFORMATION       
#MNEM.UNIT                  VALUE             DESCRIPTION OF MNEMONIC
#---------             ---------------        ------------------------------
 EKB .F                       40.0000:        KELLY BUSHING
 TD  .F                     2366.0000:        TOTAL DEPTH
 BHT .F                        0.0000:        BOTTOM HOLE TEMPERATURE
 BS  .                         9.6250:        BIT SIZE
 FD  .                        85.0000:        FLUID DENSITY
 CSIZ.                        11.7500:        CASING SIZE
 CBD .F                      884.0000:        CASING DRILLER 1
 CBL .F                      884.0000:        CASING LOGGER 1
 DFT .                  Miscellaneous:        TYPE FLUID IN HOLE
 DFV .                        45.0000:        VISCOSITY
 DFPH.                         0.0000:        PH
 DFL .                         2.8000:        FLUID LOSS
 RMS .                         5.3700:        RM
 MST .F                       33.0000:        RM MEAS. TEMP.
 RMF .                         2.9500:        RMF
 MFST.F                       45.0000:        RMF MEAS. TEMP.
 RMC .                         2.4800:        RMC
 MCST.F                       35.0000:        RMC MEAS. TEMP.
~OTHER INFORMATION
~A    DEPTH          SP          SN         ILD        CILD          DT  
# ...
   993.0000    -36.9916      9.7205      8.6016    109.9962   -999.2500  
   993.5000    -37.0524      9.7418      8.7168    109.4647   -999.2500  
   994.0000    -37.3033      9.7631      8.8136    107.9775   -999.2500  
   994.5000    -37.4737      9.7844      8.9073    106.6750   -999.2500  
   995.0000    -37.4699      9.8058      8.9897    105.9555   -999.2500  
   995.5000    -37.4115      9.8271      8.9680    105.5250   -999.2500  
   996.0000    -37.2408      9.9909      8.9873    105.4523   -999.2500  
   996.5000    -37.1034     10.1695      9.0071    105.3594   -999.2500  
   997.0000    -37.2124     10.3298      9.0017    105.3350   -999.2500  
   997.5000    -37.4252     10.3903      8.9964    105.3247   -999.2500  
   998.0000    -37.5453     10.1328      8.9775    105.3607   -999.2500  
   998.5000    -37.4466      9.7178      8.9253    105.9185   -999.2500  
   999.0000    -37.4432      9.5823      8.8258    106.9584   -999.2500  
   999.5000    -37.4701      9.5718      8.7455    108.1326   -999.2500  
  1000.0000    -37.4579      9.5726      8.6449    109.2458   -999.2500  
  1000.5000    -37.4663      9.5741      8.5770    110.0798   -999.2500  
  1001.0000    -37.5167      9.5715      8.5826    110.1412   -999.2500  
  1001.5000    -37.4555      9.5303      8.6146    109.7916   -999.2500  
  1002.0000    -37.4705      9.5343      8.6717    109.0988   -999.2500  
  1002.5000    -37.6688      9.5707      8.7483    108.4055   -999.2500  
  1003.0000    -38.0922      9.6500      8.7713    107.6917   -999.2500  
  1003.5000    -38.4840      9.7739      8.8435    107.2257   -999.2500  
  1004.0000    -38.7609      9.8977      8.9716    106.3388   -999.2500  
  1004.5000    -39.0064     10.0215      9.0760    104.7474   -999.2500  
  1005.0000    -39.1256     10.1238      9.2195    103.3565   -999.2500  
  1005.5000    -39.1291     10.1769      9.2990    102.5208   -999.2500  
  1006.0000    -39.1333     10.2299      9.3294    102.3859   -999.2500  
  1006.5000    -39.2732     10.2771      9.3264    102.5134   -999.2500  
  1007.0000    -39.3365     10.3020      9.3237    102.6409   -999.2500  
  1007.5000    -39.3553     10.3179      9.3205    102.7684   -999.2500  
  1008.0000    -39.4175     10.3097      9.3134    102.8959   -999.2500  
  1008.5000    -39.6030     10.2727      9.3030    103.0234   -999.2500  
  1009.0000    -39.8168     10.2357      9.2679    103.1509   -999.2500  
  1009.5000    -40.0378     10.1986      9.2156    103.2785   -999.2500  
  1010.0000    -39.9264     10.1616      9.1641    103.8571   -999.2500  
  1010.5000    -39.8531     10.1245      9.1314    104.0981   -999.2500  
  1011.0000    -39.7690     10.1248      9.1218    104.0318   -999.2500  
  1011.5000    -39.6129     10.1517      9.1339    103.8263   -999.2500  
  1012.0000    -39.4104     10.1786      9.1571    103.6024   -999.2500  
  1012.5000    -39.4133     10.2113      9.1833    103.3300   -999.2500  
  1013.0000    -39.5015     10.2419      9.1928    102.9254   -999.2500  
  1013.5000    -39.6851     10.2693      9.2240    102.6004   -999.2500  
  1014.0000    -40.0050     10.2968      9.2476    101.2042   -999.2500  
  1014.5000    -40.3148     10.3242      9.2895    100.7402   -999.2500  
  1015.0000    -40.2934     10.3517      9.3194    100.7946   -999.2500  
  1015.5000    -40.1331     10.3499      9.3129    100.7471   -999.2500  
  1016.0000    -40.1447     10.3369      9.2940    101.1614   -999.2500  
  1016.5000    -40.1250     10.3031      9.2415    101.5954   -999.2500  
  1017.0000    -39.9008     10.2927      9.1774    102.0331   -999.2500  
  1017.5000    -39.7663     10.2902      9.1134    102.4022   -999.2500  
  1018.0000    -39.7056     10.2595      9.0409    102.7936   -999.2500  
  1018.5000    -39.7784     10.1536      9.0083    102.9250   -999.2500  
  1019.0000    -39.9838     10.1241      9.0252    102.9500   -999.2500  
  1019.5000    -40.3802     10.1079      9.0308    102.9750   -999.2500  
  1020.0000    -40.7749     10.0917      9.0139    103.0884   -999.2500  
  1020.5000    -41.0800     10.0754      9.0033    103.0522   -999.2500  
  1021.0000    -41.1832     10.0592      8.9820    103.1503   -999.2500  
  1021.5000    -41.2600     10.0430      9.0146    103.2057   -999.2500  
  1022.0000    -41.3129     10.0369      9.0516    103.1000   -999.2500  
  1022.5000    -41.1948     10.0369      9.1122    102.7626   -999.2500  
  1023.0000    -41.0061     10.0369      9.1334    102.6590   -999.2500  
  1023.5000    -41.1608     10.0369      9.1000    102.8713   -999.2500  
  1024.0000    -41.2894     10.1098      8.9884    103.8867   -999.2500  
  1024.5000    -41.5787     10.2450      8.8079    105.2907   -999.2500  
  1025.0000    -41.7542     10.1932      8.8580    105.9999   -999.2500  
  1025.5000    -41.5080      9.9758      8.8558    105.8071   -999.2500  
  1026.0000    -41.3637      9.7284      8.8757    105.6949   -999.2500  
  1026.5000    -41.2798      9.6887      8.9307    105.4646   -999.2500  
  1027.0000    -41.2890      9.8078      8.9137    105.5545   -999.2500  
  1027.5000    -41.2446      9.9970      8.9410    105.4859   -999.2500  
  1028.0000    -41.1620     10.1862      8.9486    105.3517   -999.2500  
  1028.5000    -41.0792     10.1848      8.9167    105.5104   -999.2500  
  1029.0000    -40.8863     10.2065      8.9080    105.5095   -999.2500  
  1029.5000    -40.5373     10.2099      8.9013    105.5508   -999.2500  
  1030.0000    -40.3644     10.1745      8.9019    105.4544   -999.2500  
  1030.5000    -40.2598     10.1153      8.8844    105.3070   -999.2500  
  1031.0000    -40.1553     10.0561      8.8303    105.7343   -999.2500  
  1031.5000    -40.4959      9.9969      8.7609    106.9504   -999.2500  
  1032.0000    -41.0296      9.9378      8.6915    108.0450   -999.2500  
  1032.5000    -41.5571      9.8786      8.6221    108.9346   -999.2500  
  1033.0000    -41.8813      9.7913      8.5527    109.8492   -999.2500  
  1033.5000    -42.0419      9.6824      8.4833    110.0687   -999.2500  
  1034.0000    -42.1806      9.6692      8.4139    110.3298   -999.2500  
  1034.5000    -42.2834      9.7053      8.3526    111.3194   -999.2500  
  1035.0000    -42.3735      9.7141      8.3311    112.0468   -999.2500  
  1035.5000    -42.4635      9.6933      8.3036    111.7914   -999.2500  
  1036.0000    -42.5705      9.6903      8.3704    111.9729   -999.2500  
  1036.5000    -42.7618      9.6892      8.4236    111.4844   -999.2500  
  1037.0000    -42.8487      9.6471      8.4870    110.5661   -999.2500  
  1037.5000    -42.7126      9.6832      8.5859    109.3967   -999.2500  
  1038.0000    -42.5793      9.8077      8.7142    108.2360   -999.2500  
  1038.5000    -42.5009     10.0505      8.9162    106.6141   -999.2500  
  1039.0000    -42.5929     10.2525      9.0669    104.6414   -999.2500  
  1039.5000    -42.7068     10.3470      9.2506    103.2226   -999.2500  
  1040.0000    -42.5114     10.4463      9.2807    101.8490   -999.2500  
  1040.5000    -42.2622     10.4917      9.3026    101.5373   -999.2500  
  1041.0000    -41.9016     10.5530      9.2727    102.0371   -999.2500  
  1041.5000    -41.7249     10.5384      9.2077    102.2872   -999.2500  
  1042.0000    -41.9782     10.4869      9.1612    102.5782   -999.2500  
  1042.5000    -42.4829     10.3425      9.1063    102.8626   -999.2500  
  1043.0000    -42.9835     10.2529      8.9917    103.6655   -999.2500  
  1043.5000    -43.2508     10.1760      8.8841    106.2480   -999.2500  
  1044.0000    -43.3596     10.1253      8.8196    107.3698   -999.2500  
  1044.5000    -43.3633     10.0745      8.7813    108.0588   -999.2500  
  1045.0000    -43.2781     10.0237      8.7319    108.6538   -999.2500  
  1045.5000    -43.1308      9.9729      8.6626    109.3845   -999.2500  
  1046.0000    -42.8847      9.9816      8.5967    110.0507   -999.2500  
  1046.5000    -42.6174     10.0096      8.6768    110.3119   -999.2500  
  1047.0000    -42.3369     10.0376      8.7450    109.6566   -999.2500  
