~VERSION INFORMATION
 VERS.                           2.00:        CWLS LOG ASCII STANDARD - VERSION 2.00
 WRAP.                             NO:        ONE LINE PER DEPTH STEP
~WELL INFORMATION
#MNEM.UNIT                   DATA             INFORMATION
#----------             --------------        ------------------------------
 STRT.F                      884.0000:        START DEPTH
 STOP.F                     2365.0000:        STOP DEPTH
 STEP.F                        0.5000:        STEP VALUE
 NULL.                      -999.2500:        NULL VALUE
 COMP.                      U.S. NAVY:        COMPANY  
 LOC .                   14  22N  18W:        LOCATION   
 DATE.                        3/19/64:        LOG DATE 
 WELL.                SOUTH BARROW #6:        WELL     
 UWI .                   500231001500:        UNIQUE WELL ID 
 API .                   500231001500:        UNIQUE WELL IDENTIFIER 
 FLD .                   SOUTH BARROW:        FIELD    
 CNTY.                         NPR #4:        COUNTY  
 STAT.                         ALASKA:        STATE   
 CTRY.                            USA:        COUNTRY 
 OPER.                      U.S. NAVY:        OPERATOR  
 SRVC.                   SCHLUMBERGER:        SERVICE COMPANY 
 LAT .                         0.0000:        LATITUDE
 LON .                         0.0000:        LONGITUDE
 DIGS.               CENTER LINE DATA:        DIGITIZING COMPANY 
~CURVE INFORMATION      
#MNEM        .UNIT         API CODE           CURVE DESCRIPTION
#-----------------      --------------        ------------------------------
 DEPT        .F                      :        1  DEPTH
 SP          .MV                     :        2  
 SN          .OHMM                   :        3  
 ILD         .OHMM                   :        4  
 CILD        .OHMM                   :        5  
 DT          .US/F                   :        6  
~PARAMETER INFORMATION       
#MNEM.UNIT                  VALUE             DESCRIPTION OF MNEMONIC
#---------             ---------------        ------------------------------
 EKB .F                       40.0000:        KELLY BUSHING
 TD  .F                     2366.0000:        TOTAL DEPTH
 BHT .F                        0.0000:        BOTTOM HOLE TEMPERATURE
 BS  .                         9.6250:        BIT SIZE
 FD  .                        85.0000:        FLUID DENSITY
 CSIZ.                        11.7500:        CASING SIZE
 CBD .F                      884.0000:        CASING DRILLER 1
 CBL .F                      884.0000:        CASING LOGGER 1
 DFT .                  Miscellaneous:        TYPE FLUID IN HOLE
 DFV .                        45.0000:        VISCOSITY
 DFPH.                         0.0000:        PH
 DFL .                         2.8000:        FLUID LOSS
 RMS .                         5.3700:        RM
 MST .F                       33.0000:        RM MEAS. TEMP.
 RMF .                         2.9500:        RMF
 MFST.F                       45.0000:        RMF MEAS. TEMP.
 RMC .                         2.4800:        RMC
 MCST.F                       35.0000:        RMC MEAS. TEMP.
~OTHER INFORMATION
~A    DEPTH          SP          SN         ILD        CILD          DT  
# ...
  2301.0000    -32.9176     18.1069     15.2719     69.9153    100.5809  
  2301.5000    -32.4301     18.2042     15.2874     70.0778     97.5387  
  2302.0000    -32.1989     18.2611     15.3199     69.9784     94.6402  
  2302.5000    -32.0962     18.4068     15.4971     69.3621     91.9827  
  2303.0000    -32.0897     18.6431     15.5224     68.8507     90.0825  
  2303.5000    -31.7817     18.7304     15.5211     68.3887     90.8173  
  2304.0000    -31.2730     18.6787     15.5066     68.4752     88.9212  
  2304.5000    -30.9797     18.5860     15.4878     68.6547     90.3887  
  2305.0000    -30.3579     18.5765     15.3847     68.7740     91.6916  
  2305.5000    -29.4103     18.5838     15.3983     68.7500     87.2864  
  2306.0000    -28.5445     18.5345     15.4204     68.5921     85.9090  
  2306.5000    -28.3037     18.5304     15.4425     68.7088     86.6415  
  2307.0000    -28.8066     18.5498     15.4646     69.0061     87.9122  
  2307.5000    -29.2628     18.5045     15.4866     69.2193     89.1432  
  2308.0000    -29.4818     18.4406     15.5087     69.3775     89.8551  
  2308.5000    -29.6730     18.4530     15.5308     69.2166     91.3509  
  2309.0000    -29.8768     18.4866     15.5529     68.6774     91.6880  
  2309.5000    -30.2870     18.4981     15.6450     68.1382     91.8543  
  2310.0000    -30.8426     18.5819     15.7407     67.6668     92.1906  
  2310.5000    -31.5295     18.7320     15.8277     67.5290     92.6613  
  2311.0000    -32.0915     18.9641     15.9107     67.0789     93.2237  
  2311.5000    -32.6477     19.1287     16.0022     66.6288     94.2071  
  2312.0000    -33.3315     19.3140     16.2239     65.9765     95.6533  
  2312.5000    -33.8385     19.5703     16.4315     65.0636     95.5395  
  2313.0000    -34.1759     19.7124     16.6600     64.3967     94.6179  
  2313.5000    -33.8520     19.8252     16.7843     63.7835     93.5385  
  2314.0000    -33.5633     19.9829     16.9810     63.0523     92.5450  
  2314.5000    -33.8410     20.1691     17.1796     62.4152     92.0827  
  2315.0000    -34.7263     20.3319     17.3121     61.9324     91.2153  
  2315.5000    -35.6164     20.4699     17.5084     61.4495     90.8437  
  2316.0000    -36.5754     20.6646     17.9177     60.7189     91.0029  
  2316.5000    -38.3153     20.8712     18.0127     59.6631     92.2747  
  2317.0000    -41.3446     21.1150     18.4744     58.5208     94.0480  
  2317.5000    -43.9275     21.3133     18.8571     57.2935     95.2910  
  2318.0000    -46.1974     21.5981     19.2172     55.4303     97.1561  
  2318.5000    -48.1660     21.9953     19.6841     53.7598     99.1573  
  2319.0000    -49.7226     22.3891     19.8567     53.4375     99.4454  
  2319.5000    -50.8256     22.7768     19.9953     53.0425     98.1676  
  2320.0000    -51.3792     23.0528     20.3301     52.6256     97.3440  
  2320.5000    -51.4463     23.3567     20.3381     52.4620     97.0842  
  2321.0000    -51.5585     23.5061     20.4571     52.3324     97.3125  
  2321.5000    -51.4388     23.5291     20.4755     52.2434     96.9061  
  2322.0000    -50.3014     23.5113     20.4590     52.1939     98.4753  
  2322.5000    -49.2569     23.5656     20.3818     52.3905    106.6996  
  2323.0000    -49.5842     23.8103     20.2499     52.5474    100.9050  
  2323.5000    -50.6088     24.0748     20.1180     52.6923     97.1245  
  2324.0000    -51.2705     24.2668     19.9861     52.9118     98.3701  
  2324.5000    -49.7224     24.3242     19.9260     53.0570     99.0167  
  2325.0000    -46.3564     24.2430     19.9187     53.4795     98.5481  
  2325.5000    -40.2367     24.1554     20.1455     52.9106     98.6246  
  2326.0000    -35.9596     24.2474     20.5428     52.3127     97.4431  
  2326.5000    -34.5434     24.5289     20.8916     51.7766     95.7596  
  2327.0000    -35.8755     25.1337     21.7112     50.2925     93.8552  
  2327.5000    -38.9044     25.9294     22.2952     48.7859     92.7528  
  2328.0000    -44.2039     26.9884     22.7841     47.9117     94.3756  
  2328.5000    -48.5392     27.7793     23.1902     47.5268     94.6445  
  2329.0000    -49.9944     28.1621     23.5450     47.1093     91.5902  
  2329.5000    -50.0476     28.4085     24.0302     46.6919     89.2345  
  2330.0000    -50.5083     28.6773     24.1353     46.3847     89.0008  
  2330.5000    -50.9000     28.4438     23.6390     46.5903     88.7874  
  2331.0000    -51.0524     27.6194     22.5695     47.4092     88.1895  
  2331.5000    -50.0916     26.7879     21.8427     48.7740     89.1642  
  2332.0000    -47.2604     25.7835     21.0568     50.3151     92.7821  
  2332.5000    -44.0563     25.0827     20.7130     51.5832     93.2126  
  2333.0000    -40.5562     24.4674     20.4597     52.0682     93.0791  
  2333.5000    -39.7340     24.1418     20.2597     52.2996     93.2330  
  2334.0000    -42.3018     24.1023     20.2660     52.4292     93.9647  
  2334.5000    -47.0596     24.1171     20.2723     52.5756     94.9699  
  2335.0000    -50.1570     24.0970     20.5580     52.1831     95.7339  
  2335.5000    -51.3910     23.9393     20.6508     51.9820     97.1533  
  2336.0000    -50.5428     23.6171     19.6453     52.9462     97.6473  
  2336.5000    -48.3248     23.2373     19.4621     53.5644     97.5763  
  2337.0000    -43.9226     22.8520     19.2545     54.3363     97.5484  
  2337.5000    -41.7034     22.5590     19.0481     56.0892     97.9825  
  2338.0000    -41.6690     22.3704     18.9869     56.2232     97.1187  
  2338.5000    -42.4801     22.2842     19.0097     56.1001     93.5639  
  2339.0000    -42.9834     21.9973     19.0445     56.2124     91.0906  
  2339.5000    -43.4357     21.5828     19.0655     56.1150     91.0382  
  2340.0000    -42.8681     21.5222     19.0463     55.9809     89.7183  
  2340.5000    -40.5085     21.4251     19.0380     55.9582     86.8858  
  2341.0000    -39.2970     21.2794     19.0308     56.0687     87.3614  
  2341.5000    -39.2810     21.5239     19.0139     55.9134     92.4371  
  2342.0000    -39.6752     22.2327     19.0268     56.0699     95.2531  
  2342.5000    -40.1820     22.9422     19.0573     55.7901     96.0516  
  2343.0000    -42.6509     23.7085     19.0825     55.6298     97.2266  
  2343.5000    -46.2484     24.7843     19.0744     55.5032     97.2425  
  2344.0000    -42.7316     25.2534     18.4356     55.3226     96.2148  
  2344.5000    -43.3776     26.1023     18.5004     54.8466     93.9529  
  2345.0000    -44.3151     26.5357     18.4809     54.9269     90.4837  
  2345.5000    -45.9166     25.7412     18.8663     53.6702     86.4763  
  2346.0000    -47.2980     22.5843     18.9283     53.4656     84.7547  
  2346.5000    -47.2223     21.6157     19.0670     53.0726     83.8405  
  2347.0000    -46.3879     23.1466     19.2570     52.6064     83.4319  
  2347.5000    -45.1359     24.8989     18.8517     53.1165     84.2183  
  2348.0000    -44.6397     25.3375     18.8998     53.0868     88.0749  
  2348.5000    -44.2943     25.6387     19.0058     52.9416     89.9583  
  2349.0000    -42.9220     26.0716     18.8791     53.0272     91.4947  
  2349.5000    -41.1138     26.7592     18.8951     53.1864     92.0299  
  2350.0000    -41.3809     28.3344     19.2732     52.9520     91.5652  
  2350.5000    -42.5196     29.1322     19.5380     51.8554     91.0810  
  2351.0000    -42.6261     29.7183     19.9339     50.4787     91.9525  
  2351.5000    -42.4516     30.4122     20.5596     49.1548     93.1004  
  2352.0000    -43.2481     31.4523     21.3407     47.5575     93.7475  
  2352.5000    -45.1432     32.5621     21.9889     46.1292     92.7362  
  2353.0000    -46.5312     33.3537     22.5675     44.8721     92.8659  
  2353.5000    -47.5818     34.3014     23.2097     43.9650     93.0962  
  2354.0000    -47.8606     35.1415     23.7833     42.6788     92.8359  
  2354.5000    -47.7502     36.2392     24.3788     41.5354     91.9949  
  2355.0000    -47.6946     37.0689     25.1633     40.6140     91.6625  
