~VERSION INFORMATION
 VERS.                           2.00:        CWLS LOG ASCII STANDARD - VERSION 2.00
 WRAP.                             NO:        ONE LINE PER DEPTH STEP
~WELL INFORMATION
#MNEM.UNIT                   DATA             INFORMATION
#----------             --------------        ------------------------------
 STRT.F                       50.0000:        START DEPTH
 STOP.F                     2158.0000:        STOP DEPTH
 STEP.F                        0.5000:        STEP VALUE
 NULL.                      -999.2500:        NULL VALUE
 COMP.              HUSKY OIL COMPANY:        COMPANY  
 LOC .                   25  22N  17W:        LOCATION   
 DATE.                        2-19-77:        LOG DATE 
 WELL.               SOUTH BARROW #14:        WELL     
 UWI .                   500232000900:        UNIQUE WELL ID 
 API .                   500232000900:        UNIQUE WELL IDENTIFIER 
 FLD .               SOUTH BARROW GAS:        FIELD    
 CNTY.                    NORTH SLOPE:        COUNTY  
 STAT.                         ALASKA:        STATE   
 CTRY.                            USA:        COUNTRY 
 OPER.              HUSKY OIL COMPANY:        OPERATOR  
 SRVC.                   SCHLUMBERGER:        SERVICE COMPANY 
 LAT .                         0.0000:        LATITUDE
 LON .                         0.0000:        LONGITUDE
 DIGS.               CENTER LINE DATA:        DIGITIZING COMPANY 
~CURVE INFORMATION      
#MNEM        .UNIT         API CODE           CURVE DESCRIPTION
#-----------------      --------------        ------------------------------
 DEPT        .F                      :        1  DEPTH
 LLS         .OHMM                   :        2  
 LLD         .OHMM                   :        3  
 SP          .MV                     :        4  
 ILD         .OHMM                   :        5  
 ILM         .OHMM                   :        6  
 LL8         .OHMM                   :        7  
 CALI        .IN                     :        8  
 GR          .GAPI                   :        9  
 NPHI        .%                      :        10 
 DPHI        .%                      :        11 
 RHOB        .G/C3                   :        12 
 DRHO        .G/C3                   :        13 
 DT          .US/F                   :        14 
~PARAMETER INFORMATION       
#MNEM.UNIT                  VALUE             DESCRIPTION OF MNEMONIC
#---------             ---------------        ------------------------------
 EKB .F                       31.0000:        KELLY BUSHING
 TD  .F                     1042.0000:        TOTAL DEPTH
 BHT .F                       62.0000:        BOTTOM HOLE TEMPERATURE
 BS  .                         6.0000:        BIT SIZE
 FD  .                        10.7000:        FLUID DENSITY
 CSIZ.                         7.0000:        CASING SIZE
 CBD .F                     1947.0000:        CASING DRILLER 1
 CBL .F                     1946.0000:        CASING LOGGER 1
 DFT .                  Miscellaneous:        TYPE FLUID IN HOLE
 DFV .                        50.0000:        VISCOSITY
 DFPH.                        10.0000:        PH
 DFL .                         0.0000:        FLUID LOSS
 RMS .                         0.1500:        RM
 MST .F                       50.0000:        RM MEAS. TEMP.
 RMF .                         0.1600:        RMF
 MFST.F                       61.0000:        RMF MEAS. TEMP.
 RMC .                         0.0000:        RMC
 MCST.F                        0.0000:        RMC MEAS. TEMP.
~OTHER INFORMATION
~A    DEPTH         LLS         LLD          SP         ILD         ILM         LL8        CALI          GR        NPHI        DPHI        RHOB        DRHO          DT  
# ...
  1994.0000     14.3123     23.1656    -33.4539     13.0093     10.9341     13.3105      6.0202     66.1548     28.2853     12.5649      2.4362      0.0328     89.0944  
  1994.5000     14.3313     23.4365    -33.3967     13.1635     10.8995     13.3935      6.0282     66.8265     27.6515     11.8094      2.4470      0.0350     89.5434  
  1995.0000     14.4332     20.4525    -33.3428     13.3195     10.8608     13.3487      6.0156     68.3016     27.1964      9.5790      2.4561      0.0295     91.2746  
  1995.5000     14.4233     19.5599    -33.2210     13.4774     10.8373     13.2680      6.0246     68.3841     27.8116      7.5351      2.4787      0.0410     91.9857  
  1996.0000     14.5059     28.1311    -33.1717     13.5183     10.8621     13.1906      6.0379     66.7364     28.1633      8.4971      2.4737      0.0341     92.1998  
  1996.5000     14.6167     23.1053    -33.0902     13.4380     10.8907     13.1804      6.0178     66.2137     28.3187     13.2108      2.4503      0.0263     92.2451  
  1997.0000     14.5397     18.9939    -33.0359     13.3582     10.9344     13.2496      6.0273     65.9927     27.8488     16.1004      2.4346      0.0278     92.3810  
  1997.5000     14.3534     20.8842    -32.9760     13.2788     11.0434     13.3426      6.0388     65.4370     27.3484     15.8879      2.4252      0.0310     92.9335  
  1998.0000     14.4873     26.2653    -32.8343     13.1999     11.2416     13.3657      6.0381     65.7773     27.6273     15.1916      2.4051      0.0212     93.2945  
  1998.5000     14.6502     22.3678    -32.5659     13.1215     11.4757     13.3632      6.0223     66.2546     28.3418     14.1277      2.3999      0.0207     93.9658  
  1999.0000     14.6315     21.8553    -32.3033     13.3410     11.8378     13.2532      6.0064     65.7244     27.4371     13.7811      2.3970      0.0297     94.7932  
  1999.5000     14.7344     27.1617    -32.1275     13.8734     12.3580     12.8918      5.9906     63.7098     27.0866     13.9655      2.3822      0.0223     95.4117  
  2000.0000     14.2664     21.1257    -31.7013     14.4270     12.9011     12.4785      5.9748     60.3897     27.1060     14.7114      2.3680      0.0103     95.6751  
  2000.5000     13.7027     18.5134    -31.2780     15.0028     13.2497     12.0784      5.9589     59.9673     27.0765     15.1032      2.3585      0.0105     94.3475  
  2001.0000     13.2851     17.5454    -30.8393     15.6015     13.3785     12.6650      5.9503     60.4805     27.2476     15.2354      2.3651      0.0192     95.5620  
  2001.5000     13.6301     17.5746    -30.4479     16.0056     14.2762     13.7122      5.9476     60.7862     27.3466     14.6483      2.3447      0.0218     96.6233  
  2002.0000     14.4144     20.3057    -30.1788     15.9497     15.2405     14.8461      5.9494     59.9637     27.7720     15.6861      2.3087      0.0069     97.5905  
  2002.5000     15.2492     24.4513    -29.9618     15.8941     14.5187     15.6298      5.9585     58.8334     27.9972     16.3130      2.3164      0.0235     97.8044  
  2003.0000     15.9018     30.8486    -30.0550     15.8386     13.8311     13.8712      5.9586     58.0890     28.1332     16.4985      2.3322      0.0404     95.9802  
  2003.5000     15.5687     37.4642    -30.1964     15.7834     13.6108     13.3215      5.9547     57.8143     28.0146     18.1061      2.3325      0.0386     96.3203  
  2004.0000     15.0551     34.9065    -30.4525     15.7283     13.8708     13.3715      5.9480     56.5811     27.5816     19.5126      2.3424      0.0362     97.5168  
  2004.5000     14.6069     25.3283    -30.7688     15.6269     13.4610     13.2543      5.9420     54.7571     28.0153     19.7452      2.3580      0.0462     99.8129  
  2005.0000     14.6761     29.5375    -31.2617     15.4965     13.0315     12.9022      5.9423     53.8744     28.0009     20.4839      2.3168      0.0263     99.5808  
  2005.5000     14.6284     19.8660    -31.7913     15.3672     12.9231     13.4327      5.9425     52.6285     27.9253     21.1315      2.3116      0.0129     97.6242  
  2006.0000     14.5271     23.7137    -31.7800     15.7961     13.5859     14.2202      5.9428     51.4008     27.6778     20.5494      2.3498      0.0055     96.9537  
  2006.5000     15.8086     22.0892    -31.2780     16.5344     14.2826     15.0537      5.9430     51.4550     27.7824     20.5845      2.4060      0.0049     96.5510  
  2007.0000     16.4586     25.4558    -31.0312     15.9631     14.5723     14.7234      5.9433     51.9964     28.0758     20.4479      2.4341      0.0126     96.6401  
  2007.5000     17.3540     31.6991    -30.8737     15.4258     14.6039     14.3329      5.9436     52.7059     28.0854     21.5175      2.4086      0.0206     96.0514  
  2008.0000     16.7525     28.9638    -30.9991     15.5982     14.3195     13.9528      5.9438     53.8857     28.0681     22.7153      2.3549      0.0200     93.2102  
  2008.5000     16.1741     25.2038    -30.8554     15.9399     14.0534     13.5828      5.9441     56.7332     28.0564     19.8902      2.3246      0.0031     92.4073  
  2009.0000     15.4052     31.3374    -30.7445     16.2891     13.8576     13.7308      5.9443     63.1387     27.6546     15.6104      2.3500      0.0092     93.2781  
  2009.5000     15.0869     42.4674    -30.8861     16.5089     14.1682     14.0873      5.9446     70.2596     27.5067     12.5930      2.3551      0.0157     94.1052  
  2010.0000     15.1663     54.8262    -31.2361     16.4873     14.6773     14.8104      5.9449     74.1920     27.3892     12.2105      2.3365      0.0129     94.9193  
  2010.5000     15.2652     38.6083    -31.6116     16.4550     14.8600     15.5707      5.9451     67.9506     27.1884     15.5828      2.3484      0.0092     93.5566  
  2011.0000     15.9884     21.9140    -31.6302     16.4228     14.3675     16.3699      5.9454     60.9798     26.9955     17.1058      2.3619      0.0174     92.6617  
  2011.5000     16.7434     26.9602    -31.4077     16.6928     13.8914     17.1661      5.9458     54.9374     26.8283     18.2521      2.3859      0.0147     92.0761  
  2012.0000     17.5684     24.7059    -30.9757     16.8733     13.4758     16.4437      5.9522     53.1822     26.6906     18.1594      2.3978      0.0041     91.4315  
  2012.5000     17.6077     25.8684    -30.4808     17.0056     13.6837     15.7517      5.9586     52.2452     26.6584     18.5139      2.3928      0.0099     91.4865  
  2013.0000     17.3607     25.9649    -30.2214     17.2755     14.1924     15.0888      5.9651     53.0081     27.2839     19.1578      2.3781      0.0253     91.2643  
  2013.5000     16.8080     28.7289    -30.1222     17.4788     14.5802     14.7357      5.9715     53.6337     27.5093     18.2211      2.3636      0.0385     91.0727  
  2014.0000     16.4525     23.4523    -30.2725     17.4570     14.9786     15.0158      5.9779     54.6801     26.7512     16.8905      2.3362      0.0326     91.1532  
  2014.5000     16.3347     20.8820    -30.4591     17.2317     15.3878     15.3013      5.9843     56.6109     26.5780     14.5729      2.3343      0.0261     91.8212  
  2015.0000     16.6065     21.3943    -30.4473     17.0677     14.9141     15.3816      5.9907     59.4906     26.8674     12.6566      2.3489      0.0185     92.0861  
  2015.5000     17.0143     21.6085    -30.3248     16.9256     14.4442     15.4430      5.9972     61.1103     26.5499     13.0506      2.3665      0.0104     91.4008  
  2016.0000     16.7736     21.6897    -30.3435     16.7848     13.9891     15.9524      6.0036     57.2719     26.3309     14.9558      2.3857      0.0072     90.9575  
  2016.5000     16.6237     21.9798    -30.4827     16.7223     13.7906     16.5081      6.0100     53.1258     26.7300     17.3807      2.3899      0.0117     90.6761  
  2017.0000     16.6552     22.4033    -30.6956     16.7109     13.6905     16.3424      6.0164     52.9629     27.5478     17.8636      2.3732      0.0171     90.5868  
  2017.5000     16.3346     23.6098    -30.8975     16.6812     13.8674     16.1784      6.0224     54.0467     28.1163     18.5776      2.3815      0.0378     90.6510  
