~VERSION INFORMATION
 VERS.                           2.00:        CWLS LOG ASCII STANDARD - VERSION 2.00
 WRAP.                             NO:        ONE LINE PER DEPTH STEP
~WELL INFORMATION
#MNEM.UNIT                   DATA             INFORMATION
#----------             --------------        ------------------------------
 STRT.F                       75.0000:        START DEPTH
 STOP.F                     2534.0000:        STOP DEPTH
 STEP.F                        0.5000:        STEP VALUE
 NULL.                      -999.2500:        NULL VALUE
 COMP.                      HUSKY OIL:        COMPANY  
 LOC .                   14  22N  18W:        LOCATION   
 DATE.                       12/20/76:        LOG DATE 
 WELL.               SOUTH BARROW #13:        WELL     
 UWI .                   500232000800:        UNIQUE WELL ID 
 API .                   500232000800:        UNIQUE WELL IDENTIFIER 
 FLD .                   SOUTH BARROW:        FIELD    
 CNTY.                    NORTH SLOPE:        COUNTY  
 STAT.                         ALASKA:        STATE   
 CTRY.                            USA:        COUNTRY 
 OPER.                      HUSKY OIL:        OPERATOR  
 SRVC.                   SCHLUMBERGER:        SERVICE COMPANY 
 LAT .                         0.0000:        LATITUDE
 LON .                         0.0000:        LONGITUDE
 DIGS.               CENTER LINE DATA:        DIGITIZING COMPANY 
~CURVE INFORMATION      
#MNEM        .UNIT         API CODE           CURVE DESCRIPTION
#-----------------      --------------        ------------------------------
 DEPT        .F                      :        1  DEPTH
 SP          .MV                     :        2  
 ILD         .OHMM                   :        3  
 LL8         .OHMM                   :        4  
 CILD        .MMHO                   :        5  
 ILM         .OHMM                   :        6  
 GR          .GAPI                   :        7  
 CALI        .IN                     :        8  
 DRHO        .G/C3                   :        9  
 RHOB        .G/C3                   :        10 
 NPHI        .%                      :        11 
 DPHI        .%                      :        12 
 DT          .US/F                   :        13 
~PARAMETER INFORMATION       
#MNEM.UNIT                  VALUE             DESCRIPTION OF MNEMONIC
#---------             ---------------        ------------------------------
 EKB .F                       40.0000:        KELLY BUSHING
 TD  .F                     1139.0000:        TOTAL DEPTH
 BHT .F                        0.0000:        BOTTOM HOLE TEMPERATURE
 BS  .                        14.7500:        BIT SIZE
 FD  .                        10.3000:        FLUID DENSITY
 CSIZ.                        20.0000:        CASING SIZE
 CBD .F                       65.0000:        CASING DRILLER 1
 CBL .F                       75.0000:        CASING LOGGER 1
 DFT .                  Miscellaneous:        TYPE FLUID IN HOLE
 DFV .                        34.0000:        VISCOSITY
 DFPH.                         8.5000:        PH
 DFL .                        10.2000:        FLUID LOSS
 RMS .                         5.3200:        RM
 MST .F                       55.0000:        RM MEAS. TEMP.
 RMF .                         3.8000:        RMF
 MFST.F                       55.0000:        RMF MEAS. TEMP.
 RMC .                         6.0000:        RMC
 MCST.F                       55.0000:        RMC MEAS. TEMP.
~OTHER INFORMATION
~A    DEPTH          SP         ILD         LL8        CILD         ILM          GR        CALI        DRHO        RHOB        NPHI        DPHI          DT  
# ...
  2319.0000    -33.3039     17.5215     21.8892   -999.2500     17.9960     25.1506      9.0140      0.0351      2.4290     21.8997     13.2400    100.3954  
  2319.5000    -33.9650     17.6708     22.0791   -999.2500     18.3341     25.0592      9.0008      0.0354      2.4357     21.9951     14.9519    100.8366  
  2320.0000    -34.8802     17.8214     22.2046   -999.2500     18.6785     25.1692      8.9817      0.0539      2.4469     22.2072     16.9965    101.2243  
  2320.5000    -35.0841     17.9733     21.8491   -999.2500     19.0294     25.3447      8.9907      0.0214      2.4035     22.5037     16.2700    100.5575  
  2321.0000    -34.4205     18.1265     21.1786   -999.2500     19.1212     25.7129      8.9800      0.0165      2.3919     22.8001     15.9745     98.4193  
  2321.5000    -34.4861     18.2810     21.1203   -999.2500     19.0953     26.0075      8.9694      0.0186      2.3956     23.0966     16.1624     96.4816  
  2322.0000    -36.0067     18.4368     22.0700   -999.2500     19.0693     26.1789      8.9587      0.0354      2.4012     23.2037     15.2136     96.2105  
  2322.5000    -39.6511     18.5732     23.4191   -999.2500     19.0434     26.3070      8.9479      0.0561      2.4116     23.2679     16.4513     97.3098  
  2323.0000    -41.3755     18.5126     24.1389   -999.2500     19.0175     27.8781      8.9350      0.0580      2.4072     23.2768     16.9670     97.8241  
  2323.5000    -41.7113     18.4523     24.9524   -999.2500     18.9917     29.5916      8.9222      0.0517      2.3933     23.5039     15.5406     96.4673  
  2324.0000    -40.1065     18.3921     26.7198   -999.2500     18.9659     31.3051      8.9175      0.0247      2.3858     23.8536     12.1839     93.3558  
  2324.5000    -37.2241     18.3321     27.5949   -999.2500     18.9099     35.5550      8.9257      0.0168      2.4244     25.2580      8.7564     90.8309  
  2325.0000    -32.1852     18.2724     22.4109   -999.2500     18.7205     39.4862      8.9259      0.0172      2.4773     26.4090      6.8636     89.7515  
  2325.5000    -30.2195     18.2128     19.9913   -999.2500     18.5330     41.2386      8.9427      0.0245      2.5243     26.7518      8.6892     89.2612  
  2326.0000    -29.4047     18.1534     19.3196   -999.2500     18.3474     42.5655      8.9696      0.0567      2.5406     26.5182      9.8563     90.5110  
  2326.5000    -29.5494     18.0942     19.3107   -999.2500     18.1637     39.5477      9.0130      0.0480      2.5149     25.7737     10.5495     92.1636  
  2327.0000    -31.5087     18.0352     19.3927   -999.2500     17.9818     36.9944      9.0235      0.0488      2.4955     24.8672     11.8649     94.2989  
  2327.5000    -36.6863     18.0933     21.6902   -999.2500     18.4153     34.0433      9.0339      0.0540      2.4836     24.0434     12.4271     96.1001  
  2328.0000    -40.0528     18.3148     24.8733   -999.2500     18.9229     32.2081      8.9554      0.0675      2.4690     23.9059     10.9340     95.7186  
  2328.5000    -41.3689     18.5389     25.2877   -999.2500     19.6102     33.3782      8.8680      0.0500      2.4535     23.7617      7.9044     94.2399  
  2329.0000    -41.1969     18.7659     26.6205   -999.2500     20.3372     35.1887      8.8841      0.0252      2.4749     23.6072      5.2842     90.9297  
  2329.5000    -42.1671     18.9956     28.3630   -999.2500     20.9073     37.2396      8.9002      0.0101      2.5379     22.8664      7.1441     88.6734  
  2330.0000    -43.1186     19.2281     27.6308   -999.2500     20.5187     33.0081      8.9163     -0.0021      2.5744     21.9837     10.2533     89.5545  
  2330.5000    -43.7574     19.3804     27.1734   -999.2500     20.1372     28.2148      8.8975      0.0554      2.5271     22.1093     12.3852     92.8302  
  2331.0000    -42.7197     19.4425     26.5269   -999.2500     19.7629     27.4304      8.8315      0.0583      2.4806     22.2542     11.9631     95.0301  
  2331.5000    -40.9542     19.0248     25.0787   -999.2500     19.3955     27.1664      8.7655      0.0752      2.4612     22.3807     11.0824     95.8650  
  2332.0000    -36.7902     18.7831     23.6928   -999.2500     19.1353     27.0886      8.7209      0.0892      2.4701     22.4890     10.6912     94.8334  
  2332.5000    -32.1202     18.5557     22.4706   -999.2500     18.9480     27.2681      8.7099      0.0727      2.4812     22.6317     10.4077     93.1802  
  2333.0000    -30.2149     18.3311     21.2782   -999.2500     18.7625     27.3171      8.6989      0.0472      2.4871     23.0499      8.4660     91.5467  
  2333.5000    -29.7095     18.1732     19.8812   -999.2500     18.5788     27.3038      8.7293      0.0538      2.4998     23.0867      6.2766     91.1271  
  2334.0000    -29.5638     18.2183     18.9603   -999.2500     18.6316     27.3420      8.7688      0.0873      2.5478     22.6988     10.1517     92.2198  
  2334.5000    -32.5863     18.2634     20.4029   -999.2500     18.7405     27.7615      8.8082      0.0829      2.5386     22.3108     13.3391     94.9077  
  2335.0000    -38.1077     18.3087     22.3742   -999.2500     18.8501     27.9587      8.8481      0.0452      2.4753     21.8926     15.6255     98.3856  
  2335.5000    -42.1866     18.4292     24.4024   -999.2500     18.9699     26.6481      8.8890      0.0294      2.4308     21.9040     17.0003    102.5403  
  2336.0000    -44.3121     18.5541     24.5101   -999.2500     19.1016     25.3374      8.9299      0.0027      2.3924     21.7322     16.1391    104.8362  
  2336.5000    -44.0258     18.6797     23.9645   -999.2500     19.2342     24.0268      8.9709      0.0165      2.3913     21.4165     13.7035    102.6145  
  2337.0000    -41.7191     18.8063     24.4464   -999.2500     19.3678     24.4743      8.9937      0.0304      2.4135     21.7543     11.2521     98.0087  
  2337.5000    -38.3416     18.9336     25.4923   -999.2500     19.3961     26.1543      9.0113      0.0406      2.4514     22.2871      8.6755     93.6887  
  2338.0000    -36.4408     18.8073     23.8741   -999.2500     19.3552     27.8342      9.0289      0.0547      2.4944     23.0781      9.6745     90.9772  
  2338.5000    -35.1605     18.6630     20.8107   -999.2500     19.2278     29.5142      9.0309      0.0559      2.5076     23.9317     13.2386     94.1101  
  2339.0000    -38.0928     18.5198     20.3035   -999.2500     19.1013     30.6502      9.0215      0.0399      2.4671     24.1186     14.6394     97.1791  
  2339.5000    -41.0585     18.2963     22.4409   -999.2500     18.9756     30.4765      9.0121      0.0288      2.4393     23.2875     15.7800     98.5150  
  2340.0000    -44.9370     18.0751     23.0195   -999.2500     18.7422     30.3027      8.9774      0.0166      2.4125     22.3288     17.5559    100.0702  
  2340.5000    -46.6864     17.8565     22.9923   -999.2500     18.3896     29.9916      8.9001      0.0249      2.3867     22.4100     18.0184    102.0437  
  2341.0000    -47.5741     17.6406     23.2158   -999.2500     18.0437     29.2354      8.8227      0.0261      2.3674     22.4912     18.4402    104.0212  
  2341.5000    -49.6590     17.4274     24.3467   -999.2500     17.7044     28.4793      8.7592      0.0345      2.3628     22.5475     18.4373    105.0212  
  2342.0000    -48.5145     16.9823     24.4336   -999.2500     17.3714     27.7231      8.7160      0.0386      2.3640     22.7626     17.4053    105.0810  
  2342.5000    -44.8189     16.5532     21.4822   -999.2500     17.0446     27.3489      8.6728      0.0455      2.3656     22.9574     15.4145    104.7203  
  2343.0000    -40.4481     16.5126     19.0784   -999.2500     16.7240     27.8607      8.6660      0.0511      2.3817     23.0576     15.1663    104.2873  
  2343.5000    -38.0612     16.6987     17.8646   -999.2500     16.4596     28.3724      8.7231      0.0624      2.4066     22.8652     15.1254    105.4099  
  2344.0000    -37.8815     16.8986     18.3597   -999.2500     16.5677     28.8842      8.7734      0.0527      2.4145     22.5261     14.8015    105.0853  
