~VERSION INFORMATION
 VERS.                           2.00:        CWLS LOG ASCII STANDARD - VERSION 2.00
 WRAP.                             NO:        ONE LINE PER DEPTH STEP
~WELL INFORMATION
#MNEM.UNIT                   DATA             INFORMATION
#----------             --------------        ------------------------------
 STRT.F                     1244.0000:        START DEPTH
 STOP.F                     2340.0000:        STOP DEPTH
 STEP.F                        0.5000:        STEP VALUE
 NULL.                      -999.2500:        NULL VALUE
 COMP.        U.S. NAVY DEPT NP & OSR:        COMPANY  
 LOC .                   14  22N  18W:        LOCATION   
 DATE.                        3/16/73:        LOG DATE 
 WELL.               SOUTH BARROW #10:        WELL     
 UWI .                   500232000400:        UNIQUE WELL ID 
 API .                   500232000400:        UNIQUE WELL IDENTIFIER 
 FLD .                   SOUTH BARROW:        FIELD    
 CNTY.                         NPR #4:        COUNTY  
 STAT.                         ALASKA:        STATE   
 CTRY.                            USA:        COUNTRY 
 OPER.        U.S. NAVY DEPT NP & OSR:        OPERATOR  
 SRVC.                   SCHLUMBERGER:        SERVICE COMPANY 
 LAT .                         0.0000:        LATITUDE
 LON .                         0.0000:        LONGITUDE
 DIGS.               CENTER LINE DATA:        DIGITIZING COMPANY 
~CURVE INFORMATION      
#MNEM        .UNIT         API CODE           CURVE DESCRIPTION
#-----------------      --------------        ------------------------------
 DEPT        .F                      :        1  DEPTH
 SP          .MV                     :        2  
 LL8         .OHMM                   :        3  
 ILD         .OHMM                   :        4  
 CILD        .MMHO                   :        5  
 DT          .US/F                   :        6  
~PARAMETER INFORMATION       
#MNEM.UNIT                  VALUE             DESCRIPTION OF MNEMONIC
#---------             ---------------        ------------------------------
 EKB .F                       38.0000:        KELLY BUSHING
 TD  .F                     2349.0000:        TOTAL DEPTH
 BHT .F                       60.0000:        BOTTOM HOLE TEMPERATURE
 BS  .                         9.6250:        BIT SIZE
 FD  .                        10.6000:        FLUID DENSITY
 CSIZ.                        10.7500:        CASING SIZE
 CBD .F                     1240.0000:        CASING DRILLER 1
 CBL .F                     1244.0000:        CASING LOGGER 1
 DFT .                  Miscellaneous:        TYPE FLUID IN HOLE
 DFV .                        15.0000:        VISCOSITY
 DFPH.                        11.0000:        PH
 DFL .                         1.8000:        FLUID LOSS
 RMS .                         1.1900:        RM
 MST .F                       55.0000:        RM MEAS. TEMP.
 RMF .                         0.8500:        RMF
 MFST.F                       55.0000:        RMF MEAS. TEMP.
 RMC .                         1.2000:        RMC
 MCST.F                       55.0000:        RMC MEAS. TEMP.
~OTHER INFORMATION
~A    DEPTH          SP         LL8         ILD        CILD          DT  
# ...
  1680.0000    -32.8441     11.1056      8.6795    113.1860    108.0007  
  1680.5000    -35.3331     10.9981      8.4610    116.5994    107.4534  
  1681.0000    -37.1349     10.9080      8.0225    120.9041    107.5203  
  1681.5000    -39.2020     10.7524      7.7840    125.1907    107.9536  
  1682.0000    -40.2228     10.6916      7.5971    127.5377    106.8114  
  1682.5000    -40.0588     10.5800      7.5151    128.8980    106.6265  
  1683.0000    -37.4381     10.5390      7.5043    128.8911    106.8333  
  1683.5000    -34.5872     10.4599      7.4978    128.4673    107.2328  
  1684.0000    -33.5498     10.5204      7.5853    126.9868    107.0830  
  1684.5000    -33.5359     10.5901      7.7257    124.7715    106.7179  
  1685.0000    -34.0607     10.8029      7.8832    122.4676    105.9483  
  1685.5000    -36.0490     10.8754      7.9711    121.6045    105.6131  
  1686.0000    -39.1639     10.8783      8.0245    120.9133    106.4411  
  1686.5000    -40.2940     10.8294      8.0798    120.2221    105.8416  
  1687.0000    -39.7702     10.8895      8.1268    119.6269    105.2517  
  1687.5000    -37.1564     11.0730      8.1239    119.6254    104.3606  
  1688.0000    -34.0349     11.2331      8.0870    120.1686    103.0116  
  1688.5000    -34.6634     11.2999      8.0259    121.0596    103.9353  
  1689.0000    -36.2933     11.1546      7.9481    121.4572    104.1315  
  1689.5000    -37.3482     10.9007      7.9800    120.9591    104.3556  
  1690.0000    -36.8118     10.7016      8.0451    120.1479    104.5707  
  1690.5000    -34.4014     10.6216      8.1088    119.4586    103.7483  
  1691.0000    -30.3710     10.4690      8.1312    119.4867    101.8073  
  1691.5000    -27.5334     10.2404      8.1123    119.9276    100.0879  
  1692.0000    -25.8217     10.0729      8.0932    119.8525    102.5640  
  1692.5000    -25.1601      9.9731      8.1366    119.1911    106.0166  
  1693.0000    -25.1638     10.0409      8.2065    117.7306    110.2096  
  1693.5000    -25.5230     10.3360      8.3632    116.1553    114.1460  
  1694.0000    -26.3822     10.8389      8.4888    114.6401    115.9048  
  1694.5000    -28.1497     11.3057      8.6052    113.1360    115.0918  
  1695.0000    -30.5671     11.7725      8.7100    112.0514    114.7476  
  1695.5000    -31.6884     12.2392      8.8440    110.3605    112.9268  
  1696.0000    -31.7605     12.7060      9.0820    108.7213    109.8844  
  1696.5000    -30.7280     13.1274      9.3407    105.3515    106.6670  
  1697.0000    -29.5296     13.2822      9.7551    102.6077    104.8394  
  1697.5000    -28.1243     13.5265     10.1696     98.8013    104.0444  
  1698.0000    -27.2465     13.6483     10.5841     95.8053    103.7075  
  1698.5000    -26.6496     13.7167     10.9234     92.9317    103.8910  
  1699.0000    -26.3819     13.7862     11.0180     90.6287    103.7567  
  1699.5000    -26.0848     13.7775     11.1125     89.4096    103.6127  
  1700.0000    -25.4546     13.6190     11.2071     88.9336    103.0658  
  1700.5000    -24.8001     13.4516     11.1590     88.8313    102.6343  
  1701.0000    -24.3669     13.2966     11.0918     89.1657    102.3308  
  1701.5000    -24.3379     13.0575     11.0245     89.6586    102.4435  
  1702.0000    -24.4783     12.8306     10.9543     90.5579    103.3504  
  1702.5000    -24.5275     12.7177     10.8352     91.4878    104.3552  
  1703.0000    -24.1812     12.6813     10.7161     92.5250    106.4514  
  1703.5000    -23.7889     12.6585     10.6526     92.9244    108.8654  
  1704.0000    -23.4661     12.7214     10.7048     92.9500    109.7368  
  1704.5000    -23.2197     12.8395     10.7707     92.7947    109.4577  
  1705.0000    -23.4663     13.0117     10.8385     92.0777    108.5747  
  1705.5000    -23.7054     13.2668     10.9713     91.5430    107.2737  
  1706.0000    -23.3996     13.5356     11.1444     89.8923    107.3647  
  1706.5000    -23.0870     13.7519     11.3232     88.0081    107.4889  
  1707.0000    -23.0688     13.9189     11.5120     86.6002    106.5058  
  1707.5000    -23.2148     14.0873     11.7007     85.4544    105.5938  
  1708.0000    -23.4129     14.2529     11.8028     84.6608    104.6509  
  1708.5000    -23.5892     14.2705     11.8041     84.1550    103.6027  
  1709.0000    -23.6940     14.0844     11.7918     84.0708    102.7939  
  1709.5000    -23.6477     13.7509     11.8385     84.1509    101.9762  
  1710.0000    -23.6411     13.5134     11.7799     84.8751    101.9129  
  1710.5000    -23.6581     13.3410     11.5717     85.8721    102.9270  
  1711.0000    -23.5784     13.2201     11.5229     86.8812    103.7687  
  1711.5000    -23.5587     13.0504     11.3511     87.5816    104.6516  
  1712.0000    -23.6748     13.0858     11.2591     88.2667    106.4424  
  1712.5000    -23.9311     13.1332     11.1653     89.1240    109.1388  
  1713.0000    -24.0798     13.2575     11.2093     88.8396    109.6838  
  1713.5000    -24.0309     13.3792     11.2668     88.2643    108.8344  
  1714.0000    -23.7859     13.5008     11.3598     87.6280    107.2804  
  1714.5000    -23.5837     13.6095     11.4447     86.9366    105.3717  
  1715.0000    -23.6170     13.6374     11.5192     86.2913    104.1673  
  1715.5000    -23.7075     13.7424     11.6363     85.5523    103.6101  
  1716.0000    -23.6567     13.8694     11.8085     84.7603    104.0604  
  1716.5000    -23.3037     13.9464     11.9561     83.4962    103.3502  
  1717.0000    -22.8407     14.0070     12.0733     82.9255    104.2447  
  1717.5000    -22.4106     14.0486     12.1518     82.4575    104.1271  
  1718.0000    -22.2647     14.0807     12.1809     83.3673    104.1271  
  1718.5000    -22.1291     14.1579     12.1682     82.4850    103.4406  
  1719.0000    -21.7939     14.2811     12.1410     82.2108    102.8177  
  1719.5000    -21.5260     14.2568     12.1599     82.0183    102.4605  
  1720.0000    -21.4925     14.0219     12.1562     82.0203    102.3946  
  1720.5000    -21.6239     13.8016     12.0937     82.8614    103.1948  
  1721.0000    -21.7664     13.5545     11.9562     83.9695    103.3597  
  1721.5000    -21.7519     13.2422     11.7451     85.3165    103.8324  
  1722.0000    -21.7203     12.8000     11.4370     87.1410    103.9113  
  1722.5000    -21.6369     12.3166     10.9960     90.9436    104.6128  
  1723.0000    -21.7784     11.7388     10.6084     94.6198    106.1226  
  1723.5000    -22.0067     11.3549     10.2227     98.3807    106.8788  
  1724.0000    -22.1039     11.0946      9.8370    100.1370    107.7204  
  1724.5000    -22.0593     10.8502      9.4514    104.4760    109.1139  
  1725.0000    -21.9412     10.6203      9.0657    108.1338    111.2511  
  1725.5000    -21.9438     10.4994      8.8804    109.8912    113.8130  
  1726.0000    -22.1408     10.5813      8.7378    112.0291    116.1865  
  1726.5000    -22.2828     10.7395      8.6460    113.1433    115.5548  
  1727.0000    -22.1801     10.8978      8.6121    112.8728    114.8801  
  1727.5000    -22.2556     11.0569      8.7149    111.6424    114.0809  
  1728.0000    -22.2687     11.4596      8.8949    109.3168    113.5288  
  1728.5000    -22.2031     11.8622      9.1384    106.5378    113.2724  
  1729.0000    -22.0398     12.2559      9.4091    103.5975    113.1867  
  1729.5000    -22.0357     12.5505      9.6208    100.8017    113.3312  
  1730.0000    -22.2950     12.8855      9.8953     98.3334    113.9344  
  1730.5000    -22.5844     13.2296     10.1697     95.8749    111.3116  
  1731.0000    -22.7496     13.5697     10.4994     93.2711    108.7025  
  1731.5000    -22.5603     13.8436     10.8602     90.3287    107.4640  
  1732.0000    -22.1405     13.9500     11.2210     86.8529    106.6420  
  1732.5000    -21.9961     13.9077     11.5510     86.3763    107.3767  
  1733.0000    -22.5395     13.8145     11.5805     86.1831    107.7118  
  1733.5000    -22.6260     13.7828     11.5816     86.1977    107.4192  
  1734.0000    -22.4319     13.7270     11.5048     86.5711    106.7643  
