~VERSION INFORMATION
 VERS.                           2.00:        CWLS LOG ASCII STANDARD - VERSION 2.00
 WRAP.                             NO:        ONE LINE PER DEPTH STEP
~WELL INFORMATION
#MNEM.UNIT                   DATA             INFORMATION
#----------             --------------        ------------------------------
 STRT.F                       50.0000:        START DEPTH
 STOP.F                     2158.0000:        STOP DEPTH
 STEP.F                        0.5000:        STEP VALUE
 NULL.                      -999.2500:        NULL VALUE
 COMP.              HUSKY OIL COMPANY:        COMPANY  
 LOC .                   25  22N  17W:        LOCATION   
 DATE.                        2-19-77:        LOG DATE 
 WELL.               SOUTH BARROW #14:        WELL     
 UWI .                   500232000900:        UNIQUE WELL ID 
 API .                   500232000900:        UNIQUE WELL IDENTIFIER 
 FLD .               SOUTH BARROW GAS:        FIELD    
 CNTY.                    NORTH SLOPE:        COUNTY  
 STAT.                         ALASKA:        STATE   
 CTRY.                            USA:        COUNTRY 
 OPER.              HUSKY OIL COMPANY:        OPERATOR  
 SRVC.                   SCHLUMBERGER:        SERVICE COMPANY 
 LAT .                         0.0000:        LATITUDE
 LON .                         0.0000:        LONGITUDE
 DIGS.               CENTER LINE DATA:        DIGITIZING COMPANY 
~CURVE INFORMATION      
#MNEM        .UNIT         API CODE           CURVE DESCRIPTION
#-----------------      --------------        ------------------------------
 DEPT        .F                      :        1  DEPTH
 LLS         .OHMM                   :        2  
 LLD         .OHMM                   :        3  
 SP          .MV                     :        4  
 ILD         .OHMM                   :        5  
 ILM         .OHMM                   :        6  
 LL8         .OHMM                   :        7  
 CALI        .IN                     :        8  
 GR          .GAPI                   :        9  
 NPHI        .%                      :        10 
 DPHI        .%                      :        11 
 RHOB        .G/C3                   :        12 
 DRHO        .G/C3                   :        13 
 DT          .US/F                   :        14 
~PARAMETER INFORMATION       
#MNEM.UNIT                  VALUE             DESCRIPTION OF MNEMONIC
#---------             ---------------        ------------------------------
 EKB .F                       31.0000:        KELLY BUSHING
 TD  .F                     1042.0000:        TOTAL DEPTH
 BHT .F                       62.0000:        BOTTOM HOLE TEMPERATURE
 BS  .                         6.0000:        BIT SIZE
 FD  .                        10.7000:        FLUID DENSITY
 CSIZ.                         7.0000:        CASING SIZE
 CBD .F                     1947.0000:        CASING DRILLER 1
 CBL .F                     1946.0000:        CASING LOGGER 1
 DFT .                  Miscellaneous:        TYPE FLUID IN HOLE
 DFV .                        50.0000:        VISCOSITY
 DFPH.                        10.0000:        PH
 DFL .                         0.0000:        FLUID LOSS
 RMS .                         0.1500:        RM
 MST .F                       50.0000:        RM MEAS. TEMP.
 RMF .                         0.1600:        RMF
 MFST.F                       61.0000:        RMF MEAS. TEMP.
 RMC .                         0.0000:        RMC
 MCST.F                        0.0000:        RMC MEAS. TEMP.
~OTHER INFORMATION
~A    DEPTH         LLS         LLD          SP         ILD         ILM         LL8        CALI          GR        NPHI        DPHI        RHOB        DRHO          DT  
# ...
  1634.0000   -999.2500   -999.2500    -50.6689      9.6269      9.8181     11.4216      8.5666     91.4409     42.9035     13.8709      2.4710      0.0806    107.4631  
  1634.5000   -999.2500   -999.2500    -51.1673      9.7149      9.9077     11.2155      8.5790     90.1567     42.4445     11.7101      2.4707      0.0673    107.7734  
  1635.0000   -999.2500   -999.2500    -51.2058      9.8036      9.9982     11.0131      8.5567     90.3925     40.2915     11.2874      2.4695      0.0771    107.4637  
  1635.5000   -999.2500   -999.2500    -50.7427      9.9489     10.1596     10.8144      8.5400     90.6317     40.1279     11.1118      2.4702      0.0716    107.2525  
  1636.0000   -999.2500   -999.2500    -50.3233     10.1463     10.3612     10.7753      8.5861     90.3331     41.0567     11.1712      2.4586      0.0623    107.5843  
  1636.5000   -999.2500   -999.2500    -50.3025     10.3476     10.5659     11.6135      8.5443     90.2714     42.2365     11.6021      2.4725      0.0693    108.2872  
  1637.0000   -999.2500   -999.2500    -50.6253     10.3783     10.5806     16.2957      8.5435     88.2091     43.4163     11.6121      2.4972      0.0608    108.8857  
  1637.5000   -999.2500   -999.2500    -51.0622     10.3928     10.5953     23.7290      8.5443     84.2681     44.5339     11.2366      2.5433      0.0195    109.6722  
  1638.0000   -999.2500   -999.2500    -51.1835     10.3505     10.5570     20.4097      8.4443     81.1550     46.0935      9.6246      2.6209      0.0039    109.7037  
  1638.5000   -999.2500   -999.2500    -50.9151     10.2458     10.4501     11.4324      8.3300     78.0817     45.0174      6.3644      2.6705      0.0607    106.3771  
  1639.0000   -999.2500   -999.2500    -50.2997     10.1447     10.3444     11.1064      8.2880     80.1466     42.5174      1.9940      2.5797      0.1158    100.1740  
  1639.5000   -999.2500   -999.2500    -49.8279     10.1370     10.3344     11.4016      8.3427     89.7751     41.5853      0.0702      2.4601      0.0765     97.4032  
  1640.0000   -999.2500   -999.2500    -49.2409     10.1292     10.3266     11.8393      8.4275     95.5644     42.8833      5.3271      2.4633      0.0724     96.9889  
  1640.5000   -999.2500   -999.2500    -49.1956     10.1059     10.3171     12.3458      8.4967     95.4109     41.9303     12.3488      2.4823      0.0814    101.2124  
  1641.0000   -999.2500   -999.2500    -49.1024      9.9891     10.1837     12.4841      8.4812     93.9036     40.2900     11.5638      2.4686      0.0719    106.6347  
  1641.5000   -999.2500   -999.2500    -49.2045      9.9742     10.1690     12.5689      8.4455     91.8226     40.0025     10.7255      2.4567      0.0701    108.2837  
  1642.0000   -999.2500   -999.2500    -49.0946     10.0532     10.2537     12.7369      8.4140     90.9634     40.8972     11.4270      2.4721      0.0927    106.6842  
  1642.5000   -999.2500   -999.2500    -49.1806     10.2711     10.5496     12.8943      8.4684     91.7794     41.2087     12.0632      2.4914      0.0989    105.6833  
  1643.0000   -999.2500   -999.2500    -49.2343     10.8518     11.1760     13.1149      8.4829     92.9219     41.4331     11.3463      2.5047      0.1017    105.7898  
  1643.5000   -999.2500   -999.2500    -49.3526     11.4458     11.7878     14.3766      8.4589     91.2924     41.4281     10.3140      2.4650      0.0654    106.6792  
  1644.0000   -999.2500   -999.2500    -49.9041     12.8449     13.7172     16.4154      8.4302     89.4203     41.2384      9.5261      2.4273      0.0168    106.7502  
  1644.5000   -999.2500   -999.2500    -51.0980     14.7750     15.6585     20.3302      8.3832     82.7079     40.2657     11.9270      2.4357      0.0236    106.1259  
  1645.0000   -999.2500   -999.2500    -54.2834     16.8429     17.8499     26.7544      8.3250     76.8531     38.9710     13.5464      2.4373      0.0369    105.2823  
  1645.5000   -999.2500   -999.2500    -56.0378     19.2003     20.3480     29.5750      8.2952     70.3653     37.6573     13.5057      2.4018      0.0509    101.1432  
  1646.0000   -999.2500   -999.2500    -58.2187     22.5627     25.9774     31.0156      8.1729     64.1491     34.6933     14.0977      2.3604      0.0747    101.7127  
  1646.5000   -999.2500   -999.2500    -60.5519     31.4982     37.0326     33.6323      8.1362     60.7110     32.5863     15.5425      2.3464      0.0972    102.1225  
  1647.0000   -999.2500   -999.2500    -64.8563     40.2923     71.8242     64.4392      8.2968     59.0159     33.3699     17.7179      2.3047      0.0720    103.3781  
  1647.5000   -999.2500   -999.2500    -67.1632     50.7505    104.2358    118.3954      8.3337     54.5903     34.7440     18.8753      2.2470      0.0381    101.2776  
  1648.0000   -999.2500   -999.2500    -68.9368     63.9230     91.4829    142.7951      8.2696     44.7348     33.1049     21.6046      2.2113      0.0061     82.3094  
  1648.5000   -999.2500   -999.2500    -70.1343     80.5146     80.2902    136.3178      8.3173     36.4383     26.7551     24.3490      2.1783      0.0059    107.0207  
  1649.0000   -999.2500   -999.2500    -71.3603     85.4087     73.3153    133.5886      8.1507     34.2577     22.1806     27.0933      2.1784      0.0088    104.8763  
  1649.5000   -999.2500   -999.2500    -72.1232     88.1042     82.9237    127.8373      8.0790     35.0852     21.8405     28.9379      2.1797      0.0249    103.2628  
  1650.0000   -999.2500   -999.2500    -72.3732     93.5829    102.3601    128.7901      8.1791     36.5185     22.3588     29.2652      2.1639      0.0144    102.7863  
  1650.5000   -999.2500   -999.2500    -72.1008     98.3477    124.9237    139.7469      8.2793     35.9860     23.2997     29.1019      2.1460      0.0025    101.3786  
  1651.0000   -999.2500   -999.2500    -71.8283    100.1940    131.8497    155.6898      8.1764     34.1030     23.7697     29.8514      2.1511      0.0078    101.2881  
  1651.5000   -999.2500   -999.2500    -70.6430     88.3538    137.0800    166.6250      8.0644     36.1430     24.0677     30.5520      2.1583      0.0215    102.2263  
  1652.0000   -999.2500   -999.2500    -68.9743     58.3331     92.4831    164.5747      8.0799     38.7673     23.8031     30.7501      2.1882      0.0324    101.2112  
  1652.5000   -999.2500   -999.2500    -66.6278     38.5128     56.2968    126.9857      8.0973     40.6538     23.4667     30.1357      2.1893      0.0168    100.7204  
  1653.0000   -999.2500   -999.2500    -63.2653     26.6823     34.2693     40.9896      8.0496     43.9240     23.4445     28.6511      2.2112      0.0040    100.3094  
  1653.5000   -999.2500   -999.2500    -59.9027     21.8167     23.9463     27.0583      7.9835     49.1253     23.9007     28.3932      2.2740      0.0245     96.9390  
  1654.0000   -999.2500   -999.2500    -55.6896     17.8383     17.1839     19.5649      8.0971     60.7949     25.7216     25.8298      2.3537      0.0353     93.4398  
  1654.5000   -999.2500   -999.2500    -51.6456     14.5854     12.8833     14.7600      8.2106     75.1362     30.1908     22.5469      2.4354      0.0461     91.6647  
  1655.0000   -999.2500   -999.2500    -49.8810     12.4619     12.6032     13.2734      8.3685     85.6735     35.0193     17.4675      2.4657      0.0662     92.1170  
  1655.5000   -999.2500   -999.2500    -49.6290     12.0391     12.3292     15.0145      8.5064     90.5137     39.8008     13.5074      2.4739      0.0644     93.2957  
  1656.0000   -999.2500   -999.2500    -49.4796     11.6306     11.9154     18.4648      8.5853     88.7785     42.1733     11.2242      2.4545      0.0383     98.4269  
  1656.5000   -999.2500   -999.2500    -49.3148     11.2360     11.5111     21.0933      8.5680     84.9509     43.4330     11.5035      2.4801      0.0042    102.4923  
  1657.0000   -999.2500   -999.2500    -49.4723     10.9283     11.1466     20.8774      8.4099     84.1375     40.7858     12.3440      2.5198      0.0460    103.5779  
  1657.5000   -999.2500   -999.2500    -49.6209     10.8153     11.0313     16.2423      8.3593     85.9493     38.1817     10.7627      2.4872      0.0665    101.1787  
