~VERSION INFORMATION
 VERS.                           2.00:        CWLS LOG ASCII STANDARD - VERSION 2.00
 WRAP.                             NO:        ONE LINE PER DEPTH STEP
~WELL INFORMATION
#MNEM.UNIT                   DATA             INFORMATION
#----------             --------------        ------------------------------
 STRT.F                       25.0000:        START DEPTH
 STOP.F                     4165.0000:        STOP DEPTH
 STEP.F                        0.5000:        STEP VALUE
 NULL.                      -999.2500:        NULL VALUE
 COMP.    USGS/NPR HUSKY OIL OPERATOR:        COMPANY
 LOC .                     21 21N 14W:        LOCATION
 DATE.                         3/3/80:        LOG DATE
 WELL.                 WEST  DEASE #1:        WELL
 UWI .                   500232001400:        UNIQUE WELL ID
 API .                   500232001400:        UNIQUE WELL IDENTIFIER
 FLD .                        WILDCAT:        FIELD
 CNTY.                    NORTH SLOPE:        COUNTY
 STAT.                         ALASKA:        STATE
 CTRY.                            USA:        COUNTRY
 OPER.    USGS/NPR HUSKY OIL OPERATOR:        OPERATOR
 SRVC.                   SCHLUMBERGER:        SERVICE COMPANY
 LAT .                         0.0000:        LATITUDE
 LON .                         0.0000:        LONGITUDE
 DIGS.               CENTER LINE DATA:        DIGITIZING COMPANY
~CURVE INFORMATION      
#MNEM        .UNIT         API CODE           CURVE DESCRIPTION
#-----------------      --------------        ------------------------------
 DEPT        .F                      :        1  DEPTH
 SP          .MV                     :        2  
 LLD         .OHMM                   :        3  
 LLS         .OHMM                   :        4  
 MSFL        .OHMM                   :        5  
 CALI        .IN                     :        6  
 RHOB        .G/C3                   :        7  
 DRHO        .G/C3                   :        8  
 NPHI        .%                      :        9  
 GR          .GAPI                   :        10 
 DT          .US/F                   :        11 
~PARAMETER INFORMATION
#MNEM.UNIT                  VALUE             DESCRIPTION OF MNEMONIC
#---------             ---------------        ------------------------------
 EKB .F                       24.0000:        KELLY BUSHING
 TD  .F                     4173.0000:        TOTAL DEPTH
 BHT .F                       85.0000:        BOTTOM HOLE TEMPERATURE
 BS  .                        12.2500:        BIT SIZE
 FD  .                        10.4000:        FLUID DENSITY
 CSIZ.                        13.3750:        CASING SIZE
 CBD .F                      288.0000:        CASING DRILLER 1
 CBL .F                      292.0000:        CASING LOGGER 1
 DFT .                             99:        TYPE FLUID IN HOLE
 DFV .                        52.0000:        VISCOSITY
 DFPH.                         8.0000:        PH
 DFL .                         7.5000:        FLUID LOSS
 RMS .                         0.1250:        RM
 MST .F                       35.0000:        RM MEAS. TEMP.
 RMF .                         0.1440:        RMF
 MFST.F                       44.0000:        RMF MEAS. TEMP.
 RMC .                         0.2360:        RMC
 MCST.F                       36.0000:        RMC MEAS. TEMP.
~OTHER INFORMATION
~A    DEPTH          SP         LLD         LLS        MSFL        CALI        RHOB        DRHO        NPHI          GR          DT 
# ...
  3898.5000    -17.9978      5.8568      4.9322      5.3401     11.5418      2.4071      0.0037     32.9584     53.1735     91.0277 
  3899.0000    -18.2988      6.6645      6.0284      9.6379     11.5442      2.4270     -0.0053     33.9795     50.1342     87.0809 
  3899.5000    -18.3869      7.5836      7.7749     17.0417     11.5244      2.4366     -0.0065     34.1981     49.4305     84.1308 
  3900.0000    -18.4700     11.0038     11.3977     17.3025     11.5219      2.4578     -0.0000     34.0074     49.7492     81.4868 
  3900.5000    -18.6410     14.1418     10.8862     15.4073     11.5219      2.4680      0.0062     33.5694     50.1236     79.6811 
  3901.0000    -18.9004     12.4824      9.7136     16.8827     11.5370      2.4702      0.0137     33.1838     50.2873     80.6475 
  3901.5000    -18.9916     11.6036      9.1673     16.4831     11.5390      2.4682      0.0251     32.5272     51.8108     82.5390 
  3902.0000    -18.9367     10.9002      8.8908     14.8869     11.5347      2.4353      0.0163     32.1190     55.6952     81.0587 
  3902.5000    -18.7306     10.3895      8.6227     14.7213     11.5303      2.4066      0.0198     31.8871     63.6519     82.5456 
  3903.0000    -18.9734      9.7672      8.0041     11.3664     11.5290      2.3673      0.0337     32.3750     69.3092     83.4700 
  3903.5000    -19.5191      9.0659      7.3641      8.7148     11.5350      2.3406      0.1059     33.8228     67.2197     84.3775 
  3904.0000    -19.7019      8.1832      6.5881      8.2864     11.5530      2.2798      0.1138     35.1775     64.5485     85.9964 
  3904.5000    -19.2530      7.5991      6.3736      8.2415     11.5511      2.2258      0.0987     35.8154     64.1922     86.8332 
  3905.0000    -19.2926      7.4035      6.3819      8.5651     11.5612      2.2214      0.1158     36.9883     63.2848     86.8492 
  3905.5000    -20.0632      7.7749      6.5977      9.0840     11.5646      2.2066      0.0733     38.5186     61.2921     86.6223 
  3906.0000    -20.1230      8.2720      7.0858     10.0908     11.5680      2.3416      0.0422     37.8733     58.6187     85.4323 
  3906.5000    -20.2634      8.6474      7.4263     10.9378     11.5713      2.4138      0.0535     36.8090     56.2073     83.3891 
  3907.0000    -20.3460      8.9926      7.6286     11.4111     11.5728      2.4397     -0.0014     34.7491     57.9198     83.7014 
  3907.5000    -20.0902      9.5779      7.8344     11.9234     11.5655      2.4904     -0.0071     34.4598     61.2058     84.4574 
  3908.0000    -20.0724      9.8581      8.0458     12.4447     11.5583      2.5279      0.0172     36.7240     64.6650     85.4334 
  3908.5000    -20.2120     10.1464      8.4509     12.7656     11.5515      2.4902      0.0539     38.6860     66.8111     86.4093 
  3909.0000    -19.7583     10.4036      8.9089     13.0122     11.5612      2.4409      0.0900     40.5128     70.6860     85.3394 
  3909.5000    -19.4642     10.2114      8.8438     12.4395     11.7164      2.3811      0.1215     41.4471     74.8590     85.2113 
  3910.0000    -19.4011      9.4152      8.4316     12.1504     11.9914      2.3111      0.0979     41.8986     75.5253     85.7377 
  3910.5000    -19.3917      8.5065      7.7085      9.9489     11.2503      2.2983      0.0534     39.2489     71.0182     86.7640 
  3911.0000    -19.3214      7.8718      7.1012      5.6920     10.8748      2.3900      0.0060     36.7297     67.6416     89.6326 
  3911.5000    -19.5554      7.6849      6.7262      4.0937     10.8801      2.4790      0.0037     34.7184     66.2924     90.1947 
  3912.0000    -19.5089      7.8369      6.7328      4.1000     10.9201      2.5346      0.0128     33.2449     70.8065     91.0634 
  3912.5000    -19.3998      8.5695      7.9148      4.3076     10.9538      2.5417      0.0045     31.9519     77.5526     87.3571 
  3913.0000    -19.2907      9.7473      9.1851      4.8874     10.9295      2.5597      0.0012     30.8344     82.4700     83.8557 
  3913.5000    -19.2258     11.1209      9.8443      8.0508     10.9220      2.5669      0.0047     30.1715     85.2726     80.9865 
  3914.0000    -19.1670     11.2597      9.8089     13.2323     10.9304      2.5510      0.0070     29.3763     84.2316     77.3197 
  3914.5000    -18.8341     10.9321      9.5620      9.4320     10.9362      2.4845      0.0064     29.6020     77.1587     81.3941 
  3915.0000    -19.5509     10.2519      9.3057      7.6817     10.9340      2.4686      0.0072     29.6194     70.4475     82.1128 
  3915.5000    -19.6960      9.6972      8.9947      7.4309     10.9322      2.4753      0.0093     29.5527     69.5042     82.9641 
  3916.0000    -19.7151     10.0933      8.8008      8.7778     10.9156      2.4882     -0.0040     29.0080     71.3475     84.2658 
  3916.5000    -19.7196     11.7624     10.3540     11.2567     10.8807      2.4839     -0.0109     28.2761     67.7904     83.7371 
  3917.0000    -19.7470     13.7075     12.2788     14.5789     11.1638      2.4402     -0.0065     28.0770     60.9546     81.9510 
  3917.5000    -19.7267     16.0380     14.6998     20.7457     10.8354      2.4364      0.0030     27.9401     58.7794     78.6349 
  3918.0000    -19.6967     18.4907     16.6057     28.5915     10.6273      2.4610      0.0079     27.9436     59.1451     76.7450 
  3918.5000    -19.7137     17.7845     16.3028     26.4480     10.4962      2.5533      0.0141     27.4803     60.4520     74.4621 
  3919.0000    -19.6971     15.8705     15.0828     15.6466     10.4795      2.5544      0.0256     25.5093     61.6330     75.7149 
  3919.5000    -19.6805     13.2859     13.3486     12.1908     10.4822      2.5292      0.0121     23.3947     62.9126     78.4851 
  3920.0000    -19.5199     12.2233     11.8137     11.1968     10.4786      2.4991      0.0082     23.6198     60.5857     80.3488 
  3920.5000    -19.5207     12.0254     11.4860     11.3426     10.4789      2.4903      0.0117     24.5764     57.9233     80.8429 
  3921.0000    -19.5457     11.9882     11.7161     12.6192     10.4866      2.4944      0.0257     26.3635     57.9854     79.9464 
  3921.5000    -19.3478     12.0274     11.8437     13.7293     10.4828      2.5155      0.0406     29.1547     62.0044     77.7469 
  3922.0000    -18.6962     11.9314     11.5634     11.6298     10.4817      2.5164      0.0255     28.6898     69.7991     78.9111 
  3922.5000    -17.7456     11.1039     10.5586      6.2124     10.4815      2.5209      0.0139     26.9312     73.9161     81.0216 
  3923.0000    -16.6787      9.7814      9.5223      3.6054     10.4648      2.5344      0.0330     24.4291     70.0664     83.9444 
  3923.5000    -15.3852      9.0343      8.5877      3.9320     10.4521      2.5037      0.0382     22.9365     63.4502     84.7988 
  3924.0000    -15.7225      8.0543      7.7448      9.1051     10.4455      2.4667      0.0290     22.3688     53.7042     84.2436 
  3924.5000    -17.0827      7.1071      6.9846     11.3183     10.4444      2.4474      0.0313     21.7968     44.6557     81.5560 
  3925.0000    -17.4287      6.6473      6.4235      7.9153     10.4335      2.4377      0.0299     20.9228     37.5542     79.9515 
  3925.5000    -17.4665      6.5430      6.3476      5.9683     10.4325      2.4331      0.0241     19.5511     34.0263     80.4045 
  3926.0000    -17.4526      7.0750      6.9209      6.2922     10.4292      2.4428      0.0190     16.3790     34.7383     81.6362 
  3926.5000    -17.5101      7.6759      7.6374     10.8885     10.4208      2.4631      0.0134     14.1235     38.7202     81.3240 
  3927.0000    -17.4379      9.3165      9.3902     16.2174     10.4201      2.4932      0.0065     15.1521     41.8516     79.2299 
  3927.5000    -17.2884     14.5964     13.4205     33.8878     10.4205      2.5265     -0.0004     16.3903     43.0900     74.5372 
  3928.0000    -17.2232     21.1125     18.4604     35.6323     10.4209      2.5423      0.0025     18.6398     41.4556     68.7311 
  3928.5000    -17.2602     24.2766     20.6151     12.1675     10.4232      2.5081      0.0162     19.5006     39.9389     65.5090 
