~VERSION INFORMATION
 VERS.                           2.00:        CWLS LOG ASCII STANDARD - VERSION 2.00
 WRAP.                             NO:        ONE LINE PER DEPTH STEP
~WELL INFORMATION
#MNEM.UNIT                   DATA             INFORMATION
#----------             --------------        ------------------------------
 STRT.F                      884.0000:        START DEPTH
 STOP.F                     2365.0000:        STOP DEPTH
 STEP.F                        0.5000:        STEP VALUE
 NULL.                      -999.2500:        NULL VALUE
 COMP.                      U.S. NAVY:        COMPANY  
 LOC .                   14  22N  18W:        LOCATION   
 DATE.                        3/19/64:        LOG DATE 
 WELL.                SOUTH BARROW #6:        WELL     
 UWI .                   500231001500:        UNIQUE WELL ID 
 API .                   500231001500:        UNIQUE WELL IDENTIFIER 
 FLD .                   SOUTH BARROW:        FIELD    
 CNTY.                         NPR #4:        COUNTY  
 STAT.                         ALASKA:        STATE   
 CTRY.                            USA:        COUNTRY 
 OPER.                      U.S. NAVY:        OPERATOR  
 SRVC.                   SCHLUMBERGER:        SERVICE COMPANY 
 LAT .                         0.0000:        LATITUDE
 LON .                         0.0000:        LONGITUDE
 DIGS.               CENTER LINE DATA:        DIGITIZING COMPANY 
~CURVE INFORMATION      
#MNEM        .UNIT         API CODE           CURVE DESCRIPTION
#-----------------      --------------        ------------------------------
 DEPT        .F                      :        1  DEPTH
 SP          .MV                     :        2  
 SN          .OHMM                   :        3  
 ILD         .OHMM                   :        4  
 CILD        .OHMM                   :        5  
 DT          .US/F                   :        6  
~PARAMETER INFORMATION       
#MNEM.UNIT                  VALUE             DESCRIPTION OF MNEMONIC
#---------             ---------------        ------------------------------
 EKB .F                       40.0000:        KELLY BUSHING
 TD  .F                     2366.0000:        TOTAL DEPTH
 BHT .F                        0.0000:        BOTTOM HOLE TEMPERATURE
 BS  .                         9.6250:        BIT SIZE
 FD  .                        85.0000:        FLUID DENSITY
 CSIZ.                        11.7500:        CASING SIZE
 CBD .F                      884.0000:        CASING DRILLER 1
 CBL .F                      884.0000:        CASING LOGGER 1
 DFT .                  Miscellaneous:        TYPE FLUID IN HOLE
 DFV .                        45.0000:        VISCOSITY
 DFPH.                         0.0000:        PH
 DFL .                         2.8000:        FLUID LOSS
 RMS .                         5.3700:        RM
 MST .F                       33.0000:        RM MEAS. TEMP.
 RMF .                         2.9500:        RMF
 MFST.F                       45.0000:        RMF MEAS. TEMP.
 RMC .                         2.4800:        RMC
 MCST.F                       35.0000:        RMC MEAS. TEMP.
~OTHER INFORMATION
~A    DEPTH          SP          SN         ILD        CILD          DT  
# ...
  1810.5000    -31.0489     11.9871     10.4653     92.7747   -999.2500  
  1811.0000    -31.0505     12.0239     10.4937     92.5118   -999.2500  
  1811.5000    -31.0520     12.0605     10.5506     92.4011   -999.2500  
  1812.0000    -31.1299     12.0665     10.5829     92.0492   -999.2500  
  1812.5000    -31.2418     12.0229     10.6296     91.6675   -999.2500  
  1813.0000    -31.3473     12.0282     10.6658     91.3441   -999.2500  
  1813.5000    -31.5467     12.0988     10.7191     91.0181   -999.2500  
  1814.0000    -31.8241     12.1469     10.7678     90.6310   -999.2500  
  1814.5000    -31.8726     12.1346     10.8165     90.2529   -999.2500  
  1815.0000    -31.6595     12.1506     10.8987     89.7980   -999.2500  
  1815.5000    -31.4699     12.1667     10.9885     89.3268   -999.2500  
  1816.0000    -31.3399     12.2091     11.0338     88.8848   -999.2500  
  1816.5000    -31.2879     12.2850     11.0525     88.5567   -999.2500  
  1817.0000    -31.2673     12.3513     11.0477     88.6497   -999.2500  
  1817.5000    -31.2955     12.4187     10.9898     89.0561   -999.2500  
  1818.0000    -31.3626     12.4586     10.9470     89.3057   -999.2500  
  1818.5000    -31.3733     12.4400     10.8821     89.7063   -999.2500  
  1819.0000    -31.2929     12.3460     10.8638     90.1120   -999.2500  
  1819.5000    -31.3805     12.2248     10.7916     90.5177   -999.2500  
  1820.0000    -31.5679     12.1319     10.7482     90.9872   -999.2500  
  1820.5000    -31.7173     12.0675     10.7116     91.3725   -999.2500  
  1821.0000    -31.7843     12.0561     10.6776     91.4895   -999.2500  
  1821.5000    -31.7274     12.0773     10.6913     91.6732   -999.2500  
  1822.0000    -31.7209     12.1775     10.7594     91.3502   -999.2500  
  1822.5000    -31.8802     12.2746     10.8132     90.8244   -999.2500  
  1823.0000    -31.9622     12.3604     10.8654     90.4437   -999.2500  
  1823.5000    -31.8172     12.3943     10.9113     90.1281   -999.2500  
  1824.0000    -31.4537     12.3685     10.9983     89.5461   -999.2500  
  1824.5000    -31.1089     12.3916     11.0811     88.8354   -999.2500  
  1825.0000    -31.1378     12.4893     11.1451     88.4830   -999.2500  
  1825.5000    -31.2793     12.5526     11.1754     88.1549   -999.2500  
  1826.0000    -31.3420     12.5711     11.1757     88.1792   -999.2500  
  1826.5000    -31.3782     12.5745     11.1091     88.5100   -999.2500  
  1827.0000    -31.4186     12.5696     11.0420     89.0461   -999.2500  
  1827.5000    -31.4904     12.5432     10.9452     89.6627   -999.2500  
  1828.0000    -31.5757     12.4379     10.8177     90.6356   -999.2500  
  1828.5000    -31.6166     12.3311     10.6847     91.4519   -999.2500  
  1829.0000    -31.5376     12.2234     10.6202     92.0084   -999.2500  
  1829.5000    -31.3863     12.1158     10.6217     92.2770   -999.2500  
  1830.0000    -31.3500     12.0660     10.6614     92.0605   -999.2500  
  1830.5000    -31.4113     12.1025     10.7177     91.5256   -999.2500  
  1831.0000    -31.5026     12.2283     10.7838     91.0829   -999.2500  
  1831.5000    -31.5477     12.4631     10.8286     90.6403   -999.2500  
  1832.0000    -31.5081     12.6650     10.9782     89.7095   -999.2500  
  1832.5000    -31.5185     12.7766     11.1718     88.0574   -999.2500  
  1833.0000    -31.5750     12.8116     11.4013     86.7739   -999.2500  
  1833.5000    -31.6421     12.8521     11.5550     85.1321   -999.2500  
  1834.0000    -31.7161     13.0018     11.5198     84.7582   -999.2500  
  1834.5000    -31.8652     13.2414     11.4341     85.2183   -999.2500  
  1835.0000    -32.1745     13.3847     11.3323     85.9165   -999.2500  
  1835.5000    -32.5260     13.4318     11.2362     86.4018   -999.2500  
  1836.0000    -32.5608     13.3248     11.0679     87.2433   -999.2500  
  1836.5000    -32.2056     13.0838     10.7564     89.0376   -999.2500  
  1837.0000    -31.5756     12.7798     10.4112     91.2905   -999.2500  
  1837.5000    -31.0632     12.4093     10.1858     93.3225   -999.2500  
  1838.0000    -29.7390     12.0148      9.9655     95.6272   -999.2500  
  1838.5000    -28.5674     11.5619      9.7984     98.2414   -999.2500  
  1839.0000    -28.3958     11.3328      9.8059     99.2802   -999.2500  
  1839.5000    -28.2944     11.4285      9.6203    102.8893   -999.2500  
  1840.0000    -28.3953     11.4710      9.6463    105.7036   -999.2500  
  1840.5000    -28.4225     11.4013      9.7343    107.2695   -999.2500  
  1841.0000    -28.4825     11.3724      9.7384    107.0453   -999.2500  
  1841.5000    -28.4363     11.3485      9.8038    106.0149   -999.2500  
  1842.0000    -28.3702     11.4004      9.8557    106.0651   -999.2500  
  1842.5000    -28.3727     11.5525      9.8985    104.4325   -999.2500  
  1843.0000    -28.2696     11.7507      9.9523    103.8642   -999.2500  
  1843.5000    -28.2379     11.9136      9.9988    103.6493   -999.2500  
  1844.0000    -28.2757     11.9721     10.0431    103.7322   -999.2500  
  1844.5000    -28.3319     11.9416     10.0612    102.7476   -999.2500  
  1845.0000    -28.3114     11.8303     10.0196    103.3683   -999.2500  
  1845.5000    -28.3507     11.6732      9.9503    104.2309   -999.2500  
  1846.0000    -28.3573     11.5372      9.8796    105.6763   -999.2500  
  1846.5000    -28.3278     11.4226      9.8038    106.2045   -999.2500  
  1847.0000    -28.2748     11.4030      9.7958    106.6290   -999.2500  
  1847.5000    -28.1739     11.4280      9.7668    107.0829   -999.2500  
  1848.0000    -27.9678     11.4958      9.7764    107.1667   -999.2500  
  1848.5000    -27.8053     11.5729      9.8054    107.1209   -999.2500  
  1849.0000    -27.7637     11.6305      9.7369    107.7577   -999.2500  
  1849.5000    -27.7678     11.6429      9.6113    109.0984   -999.2500  
  1850.0000    -27.7508     11.6027      9.3220    111.8171   -999.2500  
  1850.5000    -27.7076     11.5502      8.9608    115.2478   -999.2500  
  1851.0000    -27.5703     11.4491      8.7831    118.2297   -999.2500  
  1851.5000    -27.3361     11.2418      8.6401    120.5399   -999.2500  
  1852.0000    -27.0303     10.9090      8.5817    121.4410   -999.2500  
  1852.5000    -26.6255     10.6060      8.5712    121.7312   -999.2500  
  1853.0000    -26.1770     10.4755      8.6368    121.2114   -999.2500  
  1853.5000    -25.9755     10.6064      8.7264    120.3711   -999.2500  
  1854.0000    -26.2263     11.0807      8.8670    118.5726   -999.2500  
  1854.5000    -26.7732     11.5098      8.9780    116.6238   -999.2500  
  1855.0000    -27.3319     11.7787      9.1741    114.5673   -999.2500  
  1855.5000    -27.6758     11.8177      9.2589    112.9779   -999.2500  
  1856.0000    -27.8512     11.7399      9.3170    112.1792   -999.2500  
  1856.5000    -28.0253     11.6178      9.2994    112.0236   -999.2500  
  1857.0000    -28.1270     11.4530      9.2584    112.4974   -999.2500  
  1857.5000    -28.1485     11.2202      9.1954    113.0138   -999.2500  
  1858.0000    -27.9977     11.0128      9.1491    113.6475   -999.2500  
  1858.5000    -27.7306     10.9254      9.1001    114.3329   -999.2500  
  1859.0000    -27.6891     11.0524      9.0354    114.8983   -999.2500  
  1859.5000    -27.8616     11.2431      9.0233    115.4512   -999.2500  
  1860.0000    -28.0836     11.3413      8.9993    115.4858   -999.2500  
  1860.5000    -28.1164     11.3636      8.9521    115.6720   -999.2500  
  1861.0000    -27.9395     11.2850      8.9067    116.5303   -999.2500  
  1861.5000    -27.8076     11.1938      8.7843    117.6068   -999.2500  
  1862.0000    -27.5951     11.0708      8.6865    119.2971   -999.2500  
  1862.5000    -27.3358     10.9319      8.5422    121.0617   -999.2500  
  1863.0000    -27.2425     10.7975      8.4613    122.4017   -999.2500  
  1863.5000    -27.1611     10.6720      8.3864    123.6164   -999.2500  
  1864.0000    -27.2089     10.6594      8.3338    124.7292   -999.2500  
  1864.5000    -27.2486     10.7222      8.3167    125.4377   -999.2500  
