~VERSION INFORMATION
 VERS.                           2.00:        CWLS LOG ASCII STANDARD - VERSION 2.00
 WRAP.                             NO:        ONE LINE PER DEPTH STEP
~WELL INFORMATION
#MNEM.UNIT                   DATA             INFORMATION
#----------             --------------        ------------------------------
 STRT.F                       78.0000:        START DEPTH
 STOP.F                     2392.0000:        STOP DEPTH
 STEP.F                        0.5000:        STEP VALUE
 NULL.                      -999.2500:        NULL VALUE
 COMP.              U.S.G.S./NPR -  A:        COMPANY  
 LOC .                    1  22N  18W:        LOCATION   
 DATE.                        2/14/78:        LOG DATE 
 WELL.               SOUTH BARROW #16:        WELL     
 UWI .                   500232001000:        UNIQUE WELL ID 
 API .                   500232001000:        UNIQUE WELL IDENTIFIER 
 FLD .                   SOUTH BARROW:        FIELD    
 CNTY.                    NORTH SLOPE:        COUNTY  
 STAT.                         ALASKA:        STATE   
 CTRY.                            USA:        COUNTRY 
 OPER.              U.S.G.S./NPR -  A:        OPERATOR  
 SRVC.                   SCHLUMBERGER:        SERVICE COMPANY 
 LAT .                         0.0000:        LATITUDE
 LON .                         0.0000:        LONGITUDE
 DIGS.               CENTER LINE DATA:        DIGITIZING COMPANY 
~CURVE INFORMATION      
#MNEM        .UNIT         API CODE           CURVE DESCRIPTION
#-----------------      --------------        ------------------------------
 DEPT        .F                      :        1  DEPTH
 CALI        .IN                     :        2  
 GR          .GAPI                   :        3  
 RHOB        .G/C3                   :        4  
 DRHO        .G/C3                   :        5  
 NPHI        .%                      :        6  
 DT          .US/F                   :        7  
 SP          .MV                     :        8  
 ILD         .OHMM                   :        9  
 ILM         .OHMM                   :        10 
 LL8         .OHMM                   :        11 
 LLD         .OHMM                   :        12 
 LLS         .OHMM                   :        13 
~PARAMETER INFORMATION       
#MNEM.UNIT                  VALUE             DESCRIPTION OF MNEMONIC
#---------             ---------------        ------------------------------
 EKB .F                       30.0000:        KELLY BUSHING
 TD  .F                     2399.0000:        TOTAL DEPTH
 BHT .F                       73.0000:        BOTTOM HOLE TEMPERATURE
 BS  .                         8.5000:        BIT SIZE
 FD  .                        11.0000:        FLUID DENSITY
 CSIZ.                         8.5000:        CASING SIZE
 CBD .F                     1489.0000:        CASING DRILLER 1
 CBL .F                     1487.0000:        CASING LOGGER 1
 DFT .                  Miscellaneous:        TYPE FLUID IN HOLE
 DFV .                        52.0000:        VISCOSITY
 DFPH.                         8.5000:        PH
 DFL .                         8.0000:        FLUID LOSS
 RMS .                         0.0210:        RM
 MST .F                       58.0000:        RM MEAS. TEMP.
 RMF .                         0.0130:        RMF
 MFST.F                       52.0000:        RMF MEAS. TEMP.
 RMC .                         0.0170:        RMC
 MCST.F                       56.0000:        RMC MEAS. TEMP.
~OTHER INFORMATION
~A    DEPTH        CALI          GR        RHOB        DRHO        NPHI          DT          SP         ILD         ILM         LL8         LLD         LLS  
# ...
   256.5000     13.1265     85.7048   -999.2500   -999.2500   -999.2500    151.9963    -65.2110      9.9760      5.7504     12.8986   -999.2500   -999.2500  
   257.0000     13.1623     85.0714   -999.2500   -999.2500   -999.2500    156.5971    -65.4117      9.9232      5.8658     13.1384   -999.2500   -999.2500  
   257.5000     13.1735     84.0692   -999.2500   -999.2500   -999.2500    158.7591    -65.8012      9.8706      5.9339     13.3827   -999.2500   -999.2500  
   258.0000     13.0700     81.3917   -999.2500   -999.2500   -999.2500    159.5976    -65.7906     10.1928      5.9767     13.6315   -999.2500   -999.2500  
   258.5000     13.0455     78.1883   -999.2500   -999.2500   -999.2500    158.1658    -65.3582     11.0813      6.0198     14.0352   -999.2500   -999.2500  
   259.0000     13.0210     77.2497   -999.2500   -999.2500   -999.2500    155.7421    -65.0811     12.0473      6.0468     14.4856   -999.2500   -999.2500  
   259.5000     12.9965     77.2823   -999.2500   -999.2500   -999.2500    151.5676    -64.8747     12.6436      5.9740     14.8377   -999.2500   -999.2500  
   260.0000     12.9752     77.7471   -999.2500   -999.2500   -999.2500    147.2384    -64.3575     12.9628      5.9021     15.1984   -999.2500   -999.2500  
   260.5000     12.9660     79.4131   -999.2500   -999.2500   -999.2500    150.0037    -63.7973     13.0023      5.8310     14.7119   -999.2500   -999.2500  
   261.0000     12.9569     82.6348   -999.2500   -999.2500   -999.2500    154.8735    -63.4398     12.5942      5.6869     13.0533   -999.2500   -999.2500  
   261.5000     12.8747     85.5098   -999.2500   -999.2500   -999.2500    158.9467    -63.4908     12.1303      5.5086     12.4322   -999.2500   -999.2500  
   262.0000     12.7489     87.1492   -999.2500   -999.2500   -999.2500    163.1493    -64.4886     11.4465      5.3359     12.8045   -999.2500   -999.2500  
   262.5000     12.6667     90.8460   -999.2500   -999.2500   -999.2500    164.3630    -64.2203     10.8013      5.1686     13.4879   -999.2500   -999.2500  
   263.0000     12.6211     94.8010   -999.2500   -999.2500   -999.2500    162.0040    -63.4461     10.1924      5.0066     13.6237   -999.2500   -999.2500  
   263.5000     12.5915     96.7216   -999.2500   -999.2500   -999.2500    159.0870    -63.6953      9.6179      4.8496     13.4676   -999.2500   -999.2500  
   264.0000     12.5642     95.9497   -999.2500   -999.2500   -999.2500    156.7683    -64.1339      9.0757      4.7475     13.0259   -999.2500   -999.2500  
   264.5000     12.5429     94.3558   -999.2500   -999.2500   -999.2500    157.9410    -64.0657      8.6770      4.6782     12.4360   -999.2500   -999.2500  
   265.0000     12.5515     92.9658   -999.2500   -999.2500   -999.2500    157.7695    -64.4197      8.4779      4.6098     12.0697   -999.2500   -999.2500  
   265.5000     12.5430     93.1009   -999.2500   -999.2500   -999.2500    157.2472    -64.3848      8.2834      4.5425     11.9205   -999.2500   -999.2500  
   266.0000     12.5206     93.4890   -999.2500   -999.2500   -999.2500    158.1364    -64.1161      8.1334      4.5453     12.1288   -999.2500   -999.2500  
   266.5000     12.5105     93.2817   -999.2500   -999.2500   -999.2500    156.1658    -64.0022      8.0451      4.5607     11.5354   -999.2500   -999.2500  
   267.0000     12.4887     93.3154   -999.2500   -999.2500   -999.2500    153.9888    -64.5743      7.9577      4.5761     10.9519   -999.2500   -999.2500  
   267.5000     12.4612     93.2463   -999.2500   -999.2500   -999.2500    156.7921    -65.7598      7.8713      4.6057     10.5195   -999.2500   -999.2500  
   268.0000     12.4472     91.8285   -999.2500   -999.2500   -999.2500    160.5316    -66.2738      7.8211      4.6618     10.1042   -999.2500   -999.2500  
   268.5000     12.4348     90.1790   -999.2500   -999.2500   -999.2500    162.7682    -65.8697      7.7922      4.7185      9.7053   -999.2500   -999.2500  
   269.0000     12.4232     88.8318   -999.2500   -999.2500   -999.2500    161.2590    -64.8835      7.7634      4.7829      9.3221   -999.2500   -999.2500  
   269.5000     12.4697     86.8250   -999.2500   -999.2500   -999.2500    159.1607    -64.3937      7.7229      4.8918      8.9841   -999.2500   -999.2500  
   270.0000     12.4874     84.2371   -999.2500   -999.2500   -999.2500    160.2641    -64.4562      7.6162      5.0031      8.7479   -999.2500   -999.2500  
   270.5000     12.4948     82.4087   -999.2500   -999.2500   -999.2500    159.6260    -64.0167      7.5111      5.0950      8.5180   -999.2500   -999.2500  
   271.0000     12.4997     80.8948   -999.2500   -999.2500   -999.2500    159.8924    -63.0844      8.0610      5.3765      8.2941   -999.2500   -999.2500  
   271.5000     12.5202     78.0247   -999.2500   -999.2500   -999.2500    160.6697    -63.0009      8.7880      5.6794      8.8141   -999.2500   -999.2500  
   272.0000     12.5813     74.8931   -999.2500   -999.2500   -999.2500    160.9593    -63.2518      9.5806      5.8678      9.5756   -999.2500   -999.2500  
   272.5000     12.6287     72.0937   -999.2500   -999.2500   -999.2500    159.2507    -63.2060     10.4446      6.0692      9.6542   -999.2500   -999.2500  
   273.0000     12.5898     69.5420   -999.2500   -999.2500   -999.2500    158.7172    -62.7541     11.2051      6.2826      8.0654   -999.2500   -999.2500  
   273.5000     12.5433     67.2637   -999.2500   -999.2500   -999.2500    160.4235    -62.9224     11.9571      6.9494      7.3965   -999.2500   -999.2500  
   274.0000     12.4969     65.8932   -999.2500   -999.2500   -999.2500    162.4146    -62.7289     13.5338      7.9526      8.4016   -999.2500   -999.2500  
   274.5000     12.3994     64.2316   -999.2500   -999.2500   -999.2500    162.7154    -62.0557     15.0316      9.1006      9.5432   -999.2500   -999.2500  
   275.0000     12.5628     63.0945   -999.2500   -999.2500   -999.2500    163.9157    -61.9647     14.2506     10.4144     10.7806   -999.2500   -999.2500  
   275.5000     12.9921     62.7642   -999.2500   -999.2500   -999.2500    165.3234    -62.6825     14.0103      9.2315     10.5099   -999.2500   -999.2500  
   276.0000     13.6681     63.4655   -999.2500   -999.2500   -999.2500    166.2068    -63.2086     13.4643      8.0779      9.1901   -999.2500   -999.2500  
   276.5000     13.8811     66.1689   -999.2500   -999.2500   -999.2500    164.9188    -63.7955     12.4664      7.1926      8.0361   -999.2500   -999.2500  
   277.0000     13.2415     68.8922   -999.2500   -999.2500   -999.2500    163.1057    -63.7791     10.6126      6.6197      7.5603   -999.2500   -999.2500  
   277.5000     12.8269     71.4066   -999.2500   -999.2500   -999.2500    161.5677    -62.9856      8.8757      6.0925      6.9249   -999.2500   -999.2500  
   278.0000     12.5223     73.4109   -999.2500   -999.2500   -999.2500    160.0102    -60.3521      7.2330      5.6073      6.0667   -999.2500   -999.2500  
   278.5000     12.2838     75.7091   -999.2500   -999.2500   -999.2500    158.2049    -57.9216      6.0363      5.2595      5.6340   -999.2500   -999.2500  
   279.0000     12.1077     76.9642   -999.2500   -999.2500   -999.2500    157.5210    -57.1176      6.8348      5.0489      5.8466   -999.2500   -999.2500  
   279.5000     12.0839     77.0597   -999.2500   -999.2500   -999.2500    158.1073    -56.8344      7.7390      5.0593      6.6944   -999.2500   -999.2500  
   280.0000     12.0712     75.5460   -999.2500   -999.2500   -999.2500    160.0788    -57.5968      8.7628      5.1959      7.6652   -999.2500   -999.2500  
   280.5000     12.0585     72.8044   -999.2500   -999.2500   -999.2500    162.0140    -58.8926      9.4637      5.3362      8.7768   -999.2500   -999.2500  
   281.0000     12.2039     69.7486   -999.2500   -999.2500   -999.2500    162.6348    -59.8076      9.1350      5.4803      9.0324   -999.2500   -999.2500  
   281.5000     12.7350     69.3005   -999.2500   -999.2500   -999.2500    162.6885    -60.8520      8.8147      5.4602      7.8808   -999.2500   -999.2500  
