~VERSION INFORMATION
 VERS.                           2.00:        CWLS LOG ASCII STANDARD - VERSION 2.00
 WRAP.                             NO:        ONE LINE PER DEPTH STEP
~WELL INFORMATION
#MNEM.UNIT                   DATA             INFORMATION
#----------             --------------        ------------------------------
 STRT.F                       25.0000:        START DEPTH
 STOP.F                     4165.0000:        STOP DEPTH
 STEP.F                        0.5000:        STEP VALUE
 NULL.                      -999.2500:        NULL VALUE
 COMP.    USGS/NPR HUSKY OIL OPERATOR:        COMPANY
 LOC .                     21 21N 14W:        LOCATION
 DATE.                         3/3/80:        LOG DATE
 WELL.                 WEST  DEASE #1:        WELL
 UWI .                   500232001400:        UNIQUE WELL ID
 API .                   500232001400:        UNIQUE WELL IDENTIFIER
 FLD .                        WILDCAT:        FIELD
 CNTY.                    NORTH SLOPE:        COUNTY
 STAT.                         ALASKA:        STATE
 CTRY.                            USA:        COUNTRY
 OPER.    USGS/NPR HUSKY OIL OPERATOR:        OPERATOR
 SRVC.                   SCHLUMBERGER:        SERVICE COMPANY
 LAT .                         0.0000:        LATITUDE
 LON .                         0.0000:        LONGITUDE
 DIGS.               CENTER LINE DATA:        DIGITIZING COMPANY
~CURVE INFORMATION      
#MNEM        .UNIT         API CODE           CURVE DESCRIPTION
#-----------------      --------------        ------------------------------
 DEPT        .F                      :        1  DEPTH
 SP          .MV                     :        2  
 LLD         .OHMM                   :        3  
 LLS         .OHMM                   :        4  
 MSFL        .OHMM                   :        5  
 CALI        .IN                     :        6  
 RHOB        .G/C3                   :        7  
 DRHO        .G/C3                   :        8  
 NPHI        .%                      :        9  
 GR          .GAPI                   :        10 
 DT          .US/F                   :        11 
~PARAMETER INFORMATION
#MNEM.UNIT                  VALUE             DESCRIPTION OF MNEMONIC
#---------             ---------------        ------------------------------
 EKB .F                       24.0000:        KELLY BUSHING
 TD  .F                     4173.0000:        TOTAL DEPTH
 BHT .F                       85.0000:        BOTTOM HOLE TEMPERATURE
 BS  .                        12.2500:        BIT SIZE
 FD  .                        10.4000:        FLUID DENSITY
 CSIZ.                        13.3750:        CASING SIZE
 CBD .F                      288.0000:        CASING DRILLER 1
 CBL .F                      292.0000:        CASING LOGGER 1
 DFT .                             99:        TYPE FLUID IN HOLE
 DFV .                        52.0000:        VISCOSITY
 DFPH.                         8.0000:        PH
 DFL .                         7.5000:        FLUID LOSS
 RMS .                         0.1250:        RM
 MST .F                       35.0000:        RM MEAS. TEMP.
 RMF .                         0.1440:        RMF
 MFST.F                       44.0000:        RMF MEAS. TEMP.
 RMC .                         0.2360:        RMC
 MCST.F                       36.0000:        RMC MEAS. TEMP.
~OTHER INFORMATION
~A    DEPTH          SP         LLD         LLS        MSFL        CALI        RHOB        DRHO        NPHI          GR          DT 
# ...
  2099.0000   -147.6216      7.2066      6.1474      1.7614     14.0273      2.3772      0.1577     48.1905     66.7869    115.5438 
  2099.5000   -147.5869      7.1129      6.1840      1.6613     14.2062      2.4159      0.1964     48.9580     67.4022    115.5677 
  2100.0000   -147.2578      7.1909      6.1333      1.5687     13.6698      2.4158      0.1916     47.9615     67.5707    114.4394 
  2100.5000   -147.3026      7.0026      6.0602      1.7766     13.7541      2.4130      0.1526     47.9487     66.8425    112.8599 
  2101.0000   -147.3902      6.9181      5.9682      1.7676     15.0917      2.4546      0.1547     47.8208     65.9419    112.9262 
  2101.5000   -147.2731      6.9592      5.9732      1.6683     15.0698      2.4736      0.1535     47.4772     65.2917    113.6567 
  2102.0000   -147.1827      7.1003      5.9980      1.8292     14.2833      2.4727      0.1438     45.9859     64.9100    113.2642 
  2102.5000   -147.0937      7.1257      6.1905      2.1128     13.8116      2.4839      0.1482     43.4759     64.5731    115.3598 
  2103.0000   -146.9548      7.3684      6.5587      2.0935     12.5393      2.5061      0.1819     40.4572     64.5521    112.8675 
  2103.5000   -146.9852      7.7282      7.2474      1.6075     13.1702      2.4726      0.1895     38.9567     64.9665    110.6108 
  2104.0000   -146.4820      8.0065      7.2293      1.7837     13.1670      2.5159      0.1853     40.5754     65.2469    108.7346 
  2104.5000   -146.6529      8.6055      7.0559      1.9336     14.5533      2.5034      0.1603     42.3040     65.2695    109.8648 
  2105.0000   -146.6930      8.9841      7.6013      2.0525     13.9333      2.4932      0.1387     43.6406     64.1772    105.9238 
  2105.5000   -146.4097      9.1703      7.9181      3.6582     14.3278      2.5166      0.1512     44.9419     60.8296     98.9526 
  2106.0000   -146.6188      9.2841      7.9218      2.3047     14.0301      2.5091      0.1476     46.0466     58.7988     97.1726 
  2106.5000   -146.8419      8.9714      7.3983      1.5534     13.9843      2.4903      0.1373     46.4904     60.2605     93.8877 
  2107.0000   -147.0734      8.3700      7.0686      2.1002     13.9386      2.4653      0.1436     46.5948     61.7119     99.5820 
  2107.5000   -147.0741      8.0535      6.9590      1.8790     13.6416      2.4673      0.1690     46.3820     62.8198    109.2107 
  2108.0000   -147.0702      8.1007      6.8824      2.2311     13.4094      2.4629      0.1988     45.9715     63.7655    110.1925 
  2108.5000   -147.0263      8.3630      7.1017      2.5602     13.7235      2.4197      0.1888     45.6220     64.4531    109.3425 
  2109.0000   -146.9028      8.2436      7.1230      2.3824     14.1541      2.4146      0.1485     46.3182     64.7131    107.4438 
  2109.5000   -146.9072      7.9946      7.0019      2.1590     14.3301      2.4643      0.1659     45.5222     64.8311    106.7782 
  2110.0000   -146.5397      7.7191      6.7115      2.0411     13.7128      2.4401      0.1711     46.2502     64.8326    106.6943 
  2110.5000   -146.1222      7.6266      6.3334      1.9374     13.7758      2.4425      0.1482     47.7300     64.5522    105.9187 
  2111.0000   -146.0098      7.6402      6.2951      1.6003     14.1775      2.4434      0.1487     47.9538     63.7615    107.4221 
  2111.5000   -146.0573      7.7759      6.5233      1.5258     13.6995      2.4453      0.1419     47.0164     63.5713    105.2714 
  2112.0000   -146.1047      8.0181      6.7662      1.7082     13.6681      2.4558      0.1583     46.2727     64.1155    107.0536 
  2112.5000   -146.1898      8.0780      6.9145      1.8565     13.4536      2.4687      0.1714     45.2056     65.3231    109.4734 
  2113.0000   -146.2131      8.0353      6.9787      1.8666     13.7934      2.4577      0.1514     46.0804     66.7618    108.7365 
  2113.5000   -146.2867      7.9430      7.0045      1.9308     14.3649      2.4533      0.1550     47.8296     67.8404    107.9752 
  2114.0000   -146.4738      7.9206      6.9935      1.8965     14.1882      2.5053      0.1980     49.2973     67.1931    109.0686 
  2114.5000   -146.6226      8.0295      6.9942      1.4643     14.0784      2.5026      0.1881     48.4610     66.5196    108.2225 
  2115.0000   -146.7500      8.0132      7.0428      1.6149     14.1933      2.4748      0.1910     46.9727     66.3342    106.7277 
  2115.5000   -146.8746      7.9842      7.0162      1.7715     13.8666      2.4855      0.2157     45.9825     66.3689    108.7216 
  2116.0000   -147.0278      7.8718      6.9146      1.5357     13.6884      2.4713      0.2214     46.6274     66.0101    108.8245 
  2116.5000   -147.2373      7.7895      6.8412      1.4777     13.8774      2.4765      0.1694     47.8244     65.5517    108.5740 
  2117.0000   -147.3052      7.7462      6.7702      1.7613     13.6582      2.5333      0.1700     48.1833     65.2474    109.7910 
  2117.5000   -147.3768      7.7825      6.7090      1.8609     13.4499      2.5075      0.1508     47.3007     65.4500    109.3072 
  2118.0000   -147.4581      7.8722      6.7162      2.1614     13.9387      2.5024      0.1395     45.5710     65.8592    109.5574 
  2118.5000   -147.3346      7.8330      6.7251      1.9722     13.5067      2.5077      0.1422     43.7157     66.3269    112.0367 
  2119.0000   -147.2041      7.7186      6.7584      1.2095     13.3213      2.5130      0.1491     43.0914     66.6377    110.1615 
  2119.5000   -147.4374      7.7675      6.7918      1.4303     13.8938      2.5132      0.1330     43.8791     66.9660    109.4134 
  2120.0000   -147.5691      7.9521      6.8253      1.7600     13.5733      2.4983      0.1073     45.3318     66.2443    110.4714 
  2120.5000   -147.6845      7.9584      6.8591      1.9202     13.2085      2.5221      0.1270     46.0311     66.6896    109.4131 
  2121.0000   -147.7346      7.9647      6.8930      1.8636     13.6034      2.5481      0.1543     46.2446     67.7786    109.1693 
  2121.5000   -147.6051      8.1403      6.9315      1.7142     13.7865      2.5690      0.1721     46.1725     69.0242    109.6850 
  2122.0000   -147.6899      8.2562      6.9711      1.6278     13.6347      2.5482      0.1249     45.9137     69.3007    109.9218 
  2122.5000   -147.8750      8.3046      7.0408      1.6346     13.2827      2.5335      0.1132     45.8318     69.2152    109.6031 
  2123.0000   -147.7810      8.3600      7.1638      1.9202     14.1279      2.5228      0.1068     46.1535     68.1883    107.8781 
  2123.5000   -147.7418      8.4267      7.2195      2.1714     14.4289      2.4916      0.1025     46.1704     66.5525    106.5027 
  2124.0000   -147.7675      8.3769      7.2107      2.0448     14.4100      2.4677      0.0932     45.6464     64.6666    105.4805 
  2124.5000   -147.7599      8.2950      7.0681      2.2846     14.0935      2.4348      0.0919     45.0398     63.3820    103.7478 
  2125.0000   -147.8592      8.2139      7.0210      2.4815     13.8706      2.4425      0.1152     44.2351     63.3864    104.8282 
  2125.5000   -148.1485      8.2211      6.9834      1.9250     13.1033      2.4645      0.1722     44.0567     63.6766    105.8555 
  2126.0000   -148.0208      8.2782      7.0237      2.0584     13.0389      2.4568      0.2078     45.8731     63.5851    106.5963 
  2126.5000   -148.0645      8.4095      7.0951      1.8070     13.2388      2.4081      0.1581     47.3374     63.6810    107.9336 
  2127.0000   -148.1113      8.3372      7.0959      1.7567     14.0850      2.4302      0.1555     47.5925     64.4140    107.2357 
  2127.5000   -148.1208      8.3639      7.0911      2.0276     14.5671      2.4703      0.1776     47.0025     64.8665    106.1910 
  2128.0000   -147.8981      8.8103      7.0013      1.9098     13.0866      2.4646      0.1836     46.4633     64.5494    105.4036 
  2128.5000   -147.6560      8.3378      7.0159      1.8016     14.2741      2.4331      0.1975     45.9301     63.5836    104.1801 
  2129.0000   -147.9048      8.1841      6.9311      1.1811     13.9404      2.4019      0.2012     46.4374     62.3041    104.2571 
