~VERSION INFORMATION
 VERS.                           2.00:        CWLS LOG ASCII STANDARD - VERSION 2.00
 WRAP.                             NO:        ONE LINE PER DEPTH STEP
~WELL INFORMATION
#MNEM.UNIT                   DATA             INFORMATION
#----------             --------------        ------------------------------
 STRT.F                      999.0000:        START DEPTH
 STOP.F                     2350.0000:        STOP DEPTH
 STEP.F                        0.5000:        STEP VALUE
 NULL.                      -999.2500:        NULL VALUE
 COMP.             UNITED STATES NAVY:        COMPANY  
 LOC .                   14  22N  18W:        LOCATION   
 DATE.                        3/19/68:        LOG DATE 
 WELL.                SOUTH BARROW #7:        WELL     
 UWI .                   500232000100:        UNIQUE WELL ID 
 API .                   500232000100:        UNIQUE WELL IDENTIFIER 
 FLD .                   SOUTH BARROW:        FIELD    
 CNTY.                         NPR #4:        COUNTY  
 STAT.                         ALASKA:        STATE   
 CTRY.                            USA:        COUNTRY 
 OPER.             UNITED STATES NAVY:        OPERATOR  
 SRVC.                   SCHLUMBERGER:        SERVICE COMPANY 
 LAT .                         0.0000:        LATITUDE
 LON .                         0.0000:        LONGITUDE
 DIGS.               CENTER LINE DATA:        DIGITIZING COMPANY 
~CURVE INFORMATION      
#MNEM        .UNIT         API CODE           CURVE DESCRIPTION
#-----------------      --------------        ------------------------------
 DEPT        .F                      :        1  DEPTH
 SP          .MV                     :        2  
 ILD         .OHMM                   :        3  
 ASN         .OHMM                   :        4  
 CILD        .OHMM                   :        5  
 CALI        .IN                     :        6  
 DT          .US/F                   :        7  
~PARAMETER INFORMATION       
#MNEM.UNIT                  VALUE             DESCRIPTION OF MNEMONIC
#---------             ---------------        ------------------------------
 EKB .F                       36.0000:        KELLY BUSHING
 TD  .F                     2351.0000:        TOTAL DEPTH
 BHT .F                        0.0000:        BOTTOM HOLE TEMPERATURE
 BS  .                         9.6250:        BIT SIZE
 FD  .                        76.5000:        FLUID DENSITY
 CSIZ.                        10.7500:        CASING SIZE
 CBD .F                      998.0000:        CASING DRILLER 1
 CBL .F                      999.0000:        CASING LOGGER 1
 DFT .                            Gel:        TYPE FLUID IN HOLE
 DFV .                        45.0000:        VISCOSITY
 DFPH.                         9.5000:        PH
 DFL .                         7.0000:        FLUID LOSS
 RMS .                         5.4300:        RM
 MST .F                       42.0000:        RM MEAS. TEMP.
 RMF .                         5.1700:        RMF
 MFST.F                       59.0000:        RMF MEAS. TEMP.
 RMC .                         5.0900:        RMC
 MCST.F                       56.0000:        RMC MEAS. TEMP.
~OTHER INFORMATION
~A    DEPTH          SP         ILD         ASN        CILD        CALI          DT  
# ...
  1281.0000    -63.0008      5.0598      5.4818    192.9019      9.8928    132.0579  
  1281.5000    -63.7127      5.0527      5.5000    191.0511      9.9171    130.7770  
  1282.0000    -63.7319      5.0695      5.4913    189.6744      9.9414    129.3999  
  1282.5000    -63.4544      5.1022      5.4825    188.5425      9.9320    128.2020  
  1283.0000    -62.7205      5.0446      5.4797    188.6125      9.9086    127.6187  
  1283.5000    -62.1741      5.0624      5.4804    189.5145      9.8958    128.0245  
  1284.0000    -61.6931      5.0475      5.4629    190.0457      9.9072    129.2431  
  1284.5000    -61.2037      5.0048      5.4471    189.9649      9.9185    130.3745  
  1285.0000    -60.8645      5.0477      5.4732    189.4228      9.9167    131.5134  
  1285.5000    -61.1348      5.0564      5.5048    188.8806      9.9122    133.2520  
  1286.0000    -61.9706      5.0741      5.5299    188.5337      9.8719    134.0899  
  1286.5000    -62.5839      5.0683      5.5431    188.3742      9.8223    132.9646  
  1287.0000    -62.7660      5.0549      5.5296    187.7046      9.7727    131.1151  
  1287.5000    -62.6744      5.0749      5.5045    187.0349      9.7893    129.9255  
  1288.0000    -62.2406      5.0751      5.4688    186.8591      9.8290    129.7630  
  1288.5000    -61.5736      5.0325      5.4210    186.9392      9.8687    131.1215  
  1289.0000    -61.3683      5.0223      5.3870    187.3063      9.9084    132.4592  
  1289.5000    -61.0489      5.0266      5.3918    187.4523      9.9370    133.0127  
  1290.0000    -60.2921      5.1688      5.4509    187.4415      9.9368    132.7729  
  1290.5000    -59.5279      5.0693      5.5281    187.1530      9.9365    132.2289  
  1291.0000    -58.8737      5.1167      5.5615    186.7485      9.9363    131.8156  
  1291.5000    -57.7122      5.1056      5.5646    186.7539      9.9361    131.1379  
  1292.0000    -56.9659      5.2269      5.5275    186.8138      9.9359    130.7804  
  1292.5000    -56.3763      5.0487      5.4483    187.3013      9.9357    130.7386  
  1293.0000    -56.0590      4.9651      5.4013    187.7893      9.9354    130.4731  
  1293.5000    -56.2083      5.0370      5.4400    188.2563      9.9352    130.4304  
  1294.0000    -56.7684      5.0273      5.4544    188.4128      9.9350    130.8498  
  1294.5000    -57.4426      4.9853      5.4229    188.1318      9.8863    131.1499  
  1295.0000    -57.8724      5.0049      5.4052    188.4625      9.8349    131.5735  
  1295.5000    -58.3023      4.9362      5.4142    188.6877      9.7836    132.4192  
  1296.0000    -58.6919      4.9976      5.4142    189.0003      9.7491    133.0700  
  1296.5000    -59.0043      4.9534      5.4163    189.8410      9.7413    133.5567  
  1297.0000    -59.2385      4.9450      5.4332    190.9709      9.7360    133.7449  
  1297.5000    -59.4736      4.9672      5.4456    191.7479      9.7308    133.8159  
  1298.0000    -59.6713      4.9328      5.4090    192.4494      9.7340    134.3067  
  1298.5000    -59.8150      4.8915      5.3393    193.1509      9.7553    135.0467  
  1299.0000    -60.1890      4.8473      5.2747    193.8524      9.7663    136.2590  
  1299.5000    -60.5727      4.8061      5.2347    194.5538      9.7744    137.3636  
  1300.0000    -60.3636      4.7766      5.2345    195.2553      9.7735    138.2247  
  1300.5000    -59.8056      4.7726      5.2389    195.9568      9.7727    138.5836  
  1301.0000    -59.5790      4.7833      5.2408    196.6583      9.7759    138.3407  
  1301.5000    -59.3702      4.7778      5.2413    197.3598      9.7780    138.2301  
  1302.0000    -59.4533      4.7652      5.2275    198.0613      9.7753    138.3995  
  1302.5000    -59.6097      4.7474      5.2043    198.7628      9.7788    138.8117  
  1303.0000    -59.6494      4.6870      5.1539    199.8938      9.7830    140.0562  
  1303.5000    -59.6722      4.6293      5.0929    201.5749      9.7832    141.0286  
  1304.0000    -59.6686      4.5529      5.0307    203.6097      9.7850    141.2781  
  1304.5000    -59.6615      4.5432      4.9811    205.4330      9.7925    140.8131  
  1305.0000    -59.5955      4.5086      4.9421    206.0250      9.8011    140.3383  
  1305.5000    -59.1364      4.4741      4.9005    206.3585      9.8144    140.3395  
  1306.0000    -57.9494      4.4043      4.8685    206.8036      9.8092    140.6755  
  1306.5000    -56.6228      4.5558      4.9663    207.6140      9.7973    140.4806  
  1307.0000    -55.7708      4.6679      5.1335    208.2842      9.7875    139.7553  
  1307.5000    -55.7833      4.6902      5.2743    208.8703      9.7893    138.4036  
  1308.0000    -55.9785      4.6873      5.3158    210.0388      9.7882    137.7293  
  1308.5000    -56.4218      4.6844      5.3852    211.8019      9.7761    136.4496  
  1309.0000    -57.8419      4.6815      5.6004    214.1684      9.7713    134.4716  
  1309.5000    -65.5093      4.6786      6.0268    216.9939      9.7737    129.8050  
  1310.0000    -73.9167      4.6757      6.4186    218.9440      9.7462    124.9387  
  1310.5000    -70.6330      4.6728      6.5360    219.6563      9.7055    121.8884  
  1311.0000    -65.8826      4.6699      6.1605    218.2143      9.6655    120.6876  
  1311.5000    -59.6269      4.6669      5.8732    216.7463      9.6634    121.2747  
  1312.0000    -57.0727      4.6640      5.7010    216.0570      9.6793    123.2889  
  1312.5000    -55.6361      4.6191      5.7703    216.2625      9.6936    124.0910  
  1313.0000    -58.6166      4.4872      5.9764    217.6908      9.7193    124.7720  
  1313.5000    -64.6465      4.3554      6.2982    221.1048      9.7122    125.4442  
  1314.0000    -69.4014      4.2235      6.7790    226.5592      9.6961    125.2484  
  1314.5000    -74.2677      4.1295      7.4473    234.4348      9.6786    124.5494  
  1315.0000    -75.5812      3.9258      7.9509    244.2100      9.6660    122.6077  
  1315.5000    -75.5853      3.9042      7.7341    251.0424      9.6682    119.9884  
  1316.0000    -72.9819      3.9176      6.3462    253.3020      9.6716    117.6257  
  1316.5000    -68.4734      3.9310      5.4279    250.5517      9.6835    116.5118  
  1317.0000    -58.4576      3.9445      4.9047    247.7679      9.6877    119.2287  
  1317.5000    -57.8833      4.0338      4.4935    244.8353      9.7098    125.5398  
  1318.0000    -58.3667      4.1255      4.6641    240.2281      9.7362    132.3441  
  1318.5000    -59.9207      4.2171      5.2690    233.7078      9.7839    136.5768  
  1319.0000    -64.3371      4.3520      6.3369    226.7927      9.8298    137.6505  
  1319.5000    -79.4693      4.4520      7.8581    221.7004      9.8756    132.1693  
  1320.0000    -86.4424      4.4849      9.5706    217.9264      9.8032    125.7150  
  1320.5000    -90.4223      4.7640     10.1869    213.8420      9.7255    120.3583  
  1321.0000    -91.0229      4.7338     10.2106    209.3073      9.6932    116.6294  
  1321.5000    -90.7184      4.8444     10.1875    206.1644      9.6811    115.3140  
  1322.0000    -90.1280      4.8428      9.7936    204.6471      9.6863    115.3083  
  1322.5000    -89.4058      4.8931      9.3997    202.0777      9.6919    115.2258  
  1323.0000    -87.5930      4.9486      8.6854    198.9067      9.7065    114.7180  
  1323.5000    -82.7117      5.0118      7.5868    193.2528      9.7135    113.9270  
  1324.0000    -75.4167      5.0750      6.6077    187.8667      9.7389    113.1043  
  1324.5000    -63.3823      5.1382      6.3070    183.2153      9.7718    113.4725  
  1325.0000    -57.6858      5.2014      6.2083    179.1454      9.8145    116.8236  
  1325.5000    -56.2392      5.2646      6.1168    176.0713      9.8628    121.6994  
  1326.0000    -55.0238      5.3277      6.0876    174.0594      9.9110    125.0342  
  1326.5000    -54.1534      5.3909      6.0741    172.9168      9.9592    127.3301  
  1327.0000    -54.2414      5.4541      6.0654    171.7916      9.9816    127.2634  
  1327.5000    -54.5113      5.4472      6.0430    170.5961      9.9884    126.1779  
