~VERSION INFORMATION
 VERS.                           2.00:        CWLS LOG ASCII STANDARD - VERSION 2.00
 WRAP.                             NO:        ONE LINE PER DEPTH STEP
~WELL INFORMATION
#MNEM.UNIT                   DATA             INFORMATION
#----------             --------------        ------------------------------
 STRT.F                       25.0000:        START DEPTH
 STOP.F                     2347.0000:        STOP DEPTH
 STEP.F                        0.5000:        STEP VALUE
 NULL.                      -999.2500:        NULL VALUE
 COMP.        HUSKY OIL COMPANY/NPR-A:        COMPANY
 LOC .                     26 22N 17W:        LOCATION
 DATE.                        4/14/80:        LOG DATE
 WELL.                     BARROW #20:        WELL
 UWI .                   500232001500:        UNIQUE WELL ID
 API .                   500232001500:        UNIQUE WELL IDENTIFIER
 FLD .                   SOUTH BARROW:        FIELD
 CNTY.                    NORTH SLOPE:        COUNTY
 STAT.                        ALAASKA:        STATE
 CTRY.                            USA:        COUNTRY
 OPER.        HUSKY OIL COMPANY/NPR-A:        OPERATOR
 SRVC.                   SCHLUMBERGER:        SERVICE COMPANY
 LAT .                         0.0000:        LATITUDE
 LON .                         0.0000:        LONGITUDE
 DIGS.               CENTER LINE DATA:        DIGITIZING COMPANY
~CURVE INFORMATION      
#MNEM        .UNIT         API CODE           CURVE DESCRIPTION
#-----------------      --------------        ------------------------------
 DEPT        .F                      :        1  DEPTH
 CALI        .IN                     :        2  
 GR          .GAPI                   :        3  
 DRHO        .G/C3                   :        4  
 RHOB        .G/C3                   :        5  
 NPHI        .%                      :        6  
 SP          .MV                     :        7  
 ILD         .OHMM                   :        8  
 ILM         .OHMM                   :        9  
 SFL         .OHMM                   :        10 
 LLD         .OHMM                   :        11 
 LLS         .OHMM                   :        12 
 MSFL        .OHMM                   :        13 
 DT          .US/F                   :        14 
~PARAMETER INFORMATION
#MNEM.UNIT                  VALUE             DESCRIPTION OF MNEMONIC
#---------             ---------------        ------------------------------
 EKB .F                       30.0000:        KELLY BUSHING
 TD  .F                     2356.0000:        TOTAL DEPTH
 BHT .F                        0.0000:        BOTTOM HOLE TEMPERATURE
 BS  .                         8.5000:        BIT SIZE
 FD  .                        10.8000:        FLUID DENSITY
 CSIZ.                         9.6250:        CASING SIZE
 CBD .F                     1500.0000:        CASING DRILLER 1
 CBL .F                     1485.0000:        CASING LOGGER 1
 DFT .                            GEL:        TYPE FLUID IN HOLE
 DFV .                        10.0000:        VISCOSITY
 DFPH.                         9.0000:        PH
 DFL .                        10.0000:        FLUID LOSS
 RMS .                         0.1840:        RM
 MST .F                       61.0000:        RM MEAS. TEMP.
 RMF .                         0.1270:        RMF
 MFST.F                       61.0000:        RMF MEAS. TEMP.
 RMC .                         0.2660:        RMC
 MCST.F                       61.0000:        RMC MEAS. TEMP.
~OTHER INFORMATION
~A    DEPTH        CALI          GR        DRHO        RHOB        NPHI          SP         ILD         ILM         SFL         LLD         LLS        MSFL          DT 
# ...
  1969.0000      8.6337     66.7075      0.0271      2.5005     34.5915    -49.8569   -999.2500   -999.2500   -999.2500     10.4730     10.1303      6.1182     97.2821 
  1969.5000      8.5935     66.6648      0.0243      2.5063     33.9653    -49.5778   -999.2500   -999.2500   -999.2500     10.1191      9.7029      4.8883     98.5422 
  1970.0000      8.5810     64.1588      0.0323      2.5027     33.2493    -49.2481   -999.2500   -999.2500   -999.2500      9.8674      9.0153      3.4954    100.2724 
  1970.5000      8.5884     62.1172      0.0445      2.5005     31.9189    -48.9385   -999.2500   -999.2500   -999.2500      9.6923      8.4963      3.5146    102.1533 
  1971.0000      8.6279     60.9555      0.0561      2.4904     31.3475    -48.5685   -999.2500   -999.2500   -999.2500      9.5401      8.5136      3.7828    107.9155 
  1971.5000      8.6177     58.6326      0.0607      2.4740     31.2131    -48.2075   -999.2500   -999.2500   -999.2500      9.4849      8.9508      4.0117    125.2234 
  1972.0000      8.6696     55.4913      0.0771      2.4649     31.3472    -47.8465   -999.2500   -999.2500   -999.2500      9.5853      9.3831      4.3262    129.0499 
  1972.5000      8.8848     52.6242      0.0820      2.4593     31.3271    -47.4855   -999.2500   -999.2500   -999.2500      9.9593      9.7870      4.6088    123.3906 
  1973.0000      8.6174     51.0248      0.0820      2.4515     31.1683    -47.1245   -999.2500   -999.2500   -999.2500     10.3673      9.8259      4.6037    109.6964 
  1973.5000      8.6452     50.6720      0.0819      2.4693     31.2087    -46.9177   -999.2500   -999.2500   -999.2500     10.8348      9.7090      4.4565     97.5163 
  1974.0000      8.6555     50.3146      0.0811      2.4759     30.9613    -46.8723   -999.2500   -999.2500   -999.2500     10.8253      9.5774      4.1809    104.4526 
  1974.5000      8.6583     49.8774      0.0655      2.4559     29.8184    -46.8269   -999.2500   -999.2500   -999.2500     10.7447      9.5541      4.1237    107.7452 
  1975.0000      8.6382     49.6115      0.0427      2.4407     29.3628    -46.7814   -999.2500   -999.2500   -999.2500     10.6794      9.5309      4.1973     98.2429 
  1975.5000      8.6521     49.1588      0.0492      2.4355     28.7753    -46.7824   -999.2500   -999.2500   -999.2500     10.6924      9.5077      4.5651    106.3363 
  1976.0000      8.6468     49.2534      0.0548      2.4276     28.9572    -46.8487   -999.2500   -999.2500   -999.2500     10.8761      9.6531      5.1274    105.0789 
  1976.5000      8.6258     49.2876      0.0599      2.4232     29.9442    -46.9150   -999.2500   -999.2500   -999.2500     10.9918      9.7894      5.7782     98.8063 
  1977.0000      8.6443     48.9061      0.0651      2.4297     30.1624    -46.9813   -999.2500   -999.2500   -999.2500     11.0336      9.9276      4.9324    102.1764 
  1977.5000      8.6670     49.2985      0.0606      2.4427     30.1374    -47.1248   -999.2500   -999.2500   -999.2500     11.0899     10.0456      3.7956    106.4979 
  1978.0000      8.6494     51.4609      0.0318      2.4456     29.3827    -47.3070   -999.2500   -999.2500   -999.2500     11.2374     10.2565      4.4544    101.0469 
  1978.5000      8.6458     52.9241      0.0226      2.4442     28.8316    -47.4619   -999.2500   -999.2500   -999.2500     11.7387     10.7125      5.8302     68.4274 
  1979.0000      8.6538     53.0465      0.0428      2.4469     28.8057    -47.6169   -999.2500   -999.2500   -999.2500     12.2623     11.1598      7.3552     60.9904 
  1979.5000      8.6458     52.9090      0.0522      2.4525     28.7535    -47.7718   -999.2500   -999.2500   -999.2500     12.7368     11.2648      7.7325     60.9749 
  1980.0000      8.6528     53.5775      0.0439      2.4579     28.8071    -47.9267   -999.2500   -999.2500   -999.2500     11.3610     10.2667      8.2594     62.2893 
  1980.5000      8.6639     54.2845      0.0348      2.4620     28.2085    -48.0816   -999.2500   -999.2500   -999.2500     10.0689      9.3485      8.2900     73.6659 
  1981.0000      8.6481     55.2141      0.0163      2.4613     27.7222    -48.2265   -999.2500   -999.2500   -999.2500      9.8702      8.9266      7.8594     79.2658 
  1981.5000      8.6382     58.5424      0.0079      2.4584     27.6308    -48.1874   -999.2500   -999.2500   -999.2500     10.6013      9.3261      8.8651     84.3839 
  1982.0000      8.6283     61.0911      0.0019      2.4624     27.6587    -48.1483   -999.2500   -999.2500   -999.2500     11.4565     10.1917     10.3947     89.8632 
  1982.5000      8.6184     62.0672      0.0005      2.4715     28.1535    -48.1092   -999.2500   -999.2500   -999.2500     12.4573     11.1378     10.9107     94.8026 
  1983.0000      8.6102     61.9480      0.0024      2.4833     29.1264    -48.0702   -999.2500   -999.2500   -999.2500     12.8867     12.1716     10.8096     95.0737 
  1983.5000      8.6143     60.7961      0.0051      2.4964     29.7911    -48.0337   -999.2500   -999.2500   -999.2500     13.3309     11.9833     10.6958     93.4027 
  1984.0000      8.6061     59.3796      0.0096      2.5150     30.2128    -48.0237   -999.2500   -999.2500   -999.2500     13.4166     11.8413     10.5718     92.4229 
  1984.5000      8.5944     57.8741      0.0067      2.5175     29.5868    -47.9308   -999.2500   -999.2500   -999.2500     13.1820     11.9219     10.5232     93.0044 
  1985.0000      8.5827     57.2046      0.0052      2.5202     28.8558    -47.4893   -999.2500   -999.2500   -999.2500     13.0635     12.2641     10.6989     93.3702 
  1985.5000      8.5770     57.3449      0.0055      2.5235     28.2437    -47.0478   -999.2500   -999.2500   -999.2500     13.2778     12.5696     10.9553     93.4732 
  1986.0000      8.5778     56.6323      0.0062      2.5108     27.9452    -46.6063   -999.2500   -999.2500   -999.2500     13.4956     12.7758     11.2177     93.1073 
  1986.5000      8.5970     56.1180      0.0015      2.4990     27.6967    -46.3652   -999.2500   -999.2500   -999.2500     13.7292     12.9856     11.4865     92.5853 
  1987.0000      8.6344     54.8670      0.0020      2.5063     27.5298    -46.1554   -999.2500   -999.2500   -999.2500     13.8526     13.1225     11.7539     92.1262 
  1987.5000      8.5854     54.2622      0.0030      2.4962     27.2829    -45.9457   -999.2500   -999.2500   -999.2500     13.5263     12.6832     11.8568     91.8327 
  1988.0000      8.5497     53.1565      0.0110      2.5005     27.0189    -45.7359   -999.2500   -999.2500   -999.2500     13.0770     12.1489     11.1165     91.8733 
  1988.5000      8.5140     50.4764      0.0202      2.5077     26.7500    -45.5261   -999.2500   -999.2500   -999.2500     12.8439     11.5562      9.1611     95.5154 
  1989.0000      8.5180     47.9379      0.0288      2.5155     26.4646    -45.3163   -999.2500   -999.2500   -999.2500     12.7572     11.1215      6.9879    103.2614 
  1989.5000      8.5773     46.9491      0.0574      2.5166     26.2940    -45.1482   -999.2500   -999.2500   -999.2500     12.8265     11.4090      5.9540    114.4821 
  1990.0000      8.6366     46.5634      0.0578      2.4901     26.5862    -45.0191   -999.2500   -999.2500   -999.2500     13.5607     11.8255      9.5079    111.7304 
  1990.5000      8.6605     46.3573      0.0383      2.4638     27.2149    -44.8899   -999.2500   -999.2500   -999.2500     14.2182     12.2470     12.5772    104.2068 
  1991.0000      8.6131     46.5467      0.0308      2.4630     27.6991    -44.7608   -999.2500   -999.2500   -999.2500     14.2498     12.2091     12.9609    105.9607 
  1991.5000      8.6119     47.7420      0.0407      2.4715     27.1848    -44.6317   -999.2500   -999.2500   -999.2500     13.4106     11.9959     11.6557    104.8489 
  1992.0000      8.6248     49.3514      0.0257      2.4803     26.8459    -44.5026   -999.2500   -999.2500   -999.2500     12.4534     11.7864      9.5746    106.7075 
  1992.5000      8.6198     50.0681      0.0130      2.5079     27.1188    -44.3275   -999.2500   -999.2500   -999.2500     12.2350     11.5619      6.8059    101.2510 
