~VERSION INFORMATION
 VERS.                           2.00:        CWLS LOG ASCII STANDARD - VERSION 2.00
 WRAP.                             NO:        ONE LINE PER DEPTH STEP
~WELL INFORMATION
#MNEM.UNIT                   DATA             INFORMATION
#----------             --------------        ------------------------------
 STRT.F                       98.0000:        START DEPTH
 STOP.F                     2124.0000:        STOP DEPTH
 STEP.F                        0.5000:        STEP VALUE
 NULL.                      -999.2500:        NULL VALUE
 COMP.          USGS/NPR-A OPERATIONS:        COMPANY  
 LOC .                   24  22N  17W:        LOCATION   
 DATE.                        10/5/80:        LOG DATE 
 WELL.               SOUTH BARROW #18:        WELL     
 UWI .                   500232001700:        UNIQUE WELL ID 
 API .                   500232001700:        UNIQUE WELL IDENTIFIER 
 FLD .                   SOUTH BARROW:        FIELD    
 CNTY.                    NORTH SLOPE:        COUNTY  
 STAT.                         ALASKA:        STATE   
 CTRY.                            USA:        COUNTRY 
 OPER.          USGS/NPR-A OPERATIONS:        OPERATOR  
 SRVC.                   SCHLUMBERGER:        SERVICE COMPANY 
 LAT .                         0.0000:        LATITUDE
 LON .                         0.0000:        LONGITUDE
 DIGS.               CENTER LINE DATA:        DIGITIZING COMPANY 
~CURVE INFORMATION      
#MNEM        .UNIT         API CODE           CURVE DESCRIPTION
#-----------------      --------------        ------------------------------
 DEPT        .F                      :        1  DEPTH
 CALI        .IN                     :        2  
 GR          .GAPI                   :        3  
 NPHI        .%                      :        4  
 RHOB        .G/C3                   :        5  
 DRHO        .G/C3                   :        6  
 DT          .US/F                   :        7  
 SP          .MV                     :        8  
 ILD         .OHMM                   :        9  
 ILM         .OHMM                   :        10 
 SFL         .OHMM                   :        11 
 LLD         .OHMM                   :        12 
 LLS         .OHMM                   :        13 
 MSFL        .OHMM                   :        14 
~PARAMETER INFORMATION       
#MNEM.UNIT                  VALUE             DESCRIPTION OF MNEMONIC
#---------             ---------------        ------------------------------
 EKB .F                       30.0000:        KELLY BUSHING
 TD  .F                     2125.0000:        TOTAL DEPTH
 BHT .F                        0.0000:        BOTTOM HOLE TEMPERATURE
 BS  .                         8.5000:        BIT SIZE
 FD  .                        10.3000:        FLUID DENSITY
 CSIZ.                         9.6250:        CASING SIZE
 CBD .F                     1519.0000:        CASING DRILLER 1
 CBL .F                     1520.0000:        CASING LOGGER 1
 DFT .                  Miscellaneous:        TYPE FLUID IN HOLE
 DFV .                        47.0000:        VISCOSITY
 DFPH.                         8.5000:        PH
 DFL .                        14.0000:        FLUID LOSS
 RMS .                         0.1600:        RM
 MST .F                       43.0000:        RM MEAS. TEMP.
 RMF .                         0.1100:        RMF
 MFST.F                       43.0000:        RMF MEAS. TEMP.
 RMC .                         0.1200:        RMC
 MCST.F                       43.0000:        RMC MEAS. TEMP.
~OTHER INFORMATION
~A    DEPTH        CALI          GR        NPHI        RHOB        DRHO          DT          SP         ILD         ILM         SFL         LLD         LLS        MSFL  
# ...
  1562.0000     10.2008     94.8250     39.1875      2.4712      0.0289    115.8661   -999.2500   -999.2500   -999.2500   -999.2500     13.4367     11.0376      5.4278  
  1562.5000     10.1585     89.8374     39.4489      2.4748      0.0255    118.0619   -999.2500   -999.2500   -999.2500   -999.2500     12.6180     12.3722      7.9259  
  1563.0000     10.1095     83.9819     38.4069      2.4671      0.0187    115.3886   -999.2500   -999.2500   -999.2500   -999.2500     17.5804     15.4395     12.6013  
  1563.5000     10.0503     80.7003     36.9346      2.4555      0.0266    111.8919   -999.2500   -999.2500   -999.2500   -999.2500     26.2993     19.0287     16.8200  
  1564.0000     10.0472     78.2551     35.2837      2.4287      0.0315     94.6025   -999.2500   -999.2500   -999.2500   -999.2500     23.5453     20.3257     11.4459  
  1564.5000     10.1901     76.2273     33.9654      2.4044      0.0654     66.1999   -999.2500   -999.2500   -999.2500   -999.2500     18.3471     15.6120      6.4306  
  1565.0000     10.0276     79.2893     32.4387      2.4032      0.0685    108.3419   -999.2500   -999.2500   -999.2500   -999.2500     13.9545     11.6001      4.4629  
  1565.5000      9.8312     86.1812     31.1692      2.4120      0.0221    109.6156   -999.2500   -999.2500   -999.2500   -999.2500     12.0989     10.0004      4.1304  
  1566.0000      9.6896     91.2054     31.5628      2.4544      0.0178    109.8451   -999.2500   -999.2500   -999.2500   -999.2500     11.5798      9.6523      4.0285  
  1566.5000      9.6361     92.8174     33.7921      2.4820      0.0272    109.2178   -999.2500   -999.2500   -999.2500   -999.2500     13.7237      9.6374      3.7148  
  1567.0000      9.6737     93.0340     36.6089      2.4659      0.0272    108.0880   -999.2500   -999.2500   -999.2500   -999.2500     12.3409     10.1579      3.3801  
  1567.5000      9.7136     92.9034     38.7181      2.4702      0.0356    107.3796   -999.2500   -999.2500   -999.2500   -999.2500     10.9651     10.9045      3.9552  
  1568.0000      9.6888     92.4731     39.8333      2.4798      0.0477    106.8107   -999.2500   -999.2500   -999.2500   -999.2500     12.1815     11.3022      5.5441  
  1568.5000      9.7061     91.6321     40.3868      2.4883      0.0406    106.3786   -999.2500   -999.2500   -999.2500   -999.2500     13.2573     11.5521      7.0229  
  1569.0000      9.7543     90.7832     40.7272      2.4930      0.0296    107.2617   -999.2500   -999.2500   -999.2500   -999.2500     11.2533     11.3265      6.7871  
  1569.5000      9.7308     89.9494     39.5394      2.5001      0.0207    108.0706   -999.2500   -999.2500   -999.2500   -999.2500     13.8277     11.0200      5.8025  
  1570.0000      9.7012     88.9817     38.4675      2.5078      0.0224    109.4681   -999.2500   -999.2500   -999.2500   -999.2500     13.6982     10.6580      5.1124  
  1570.5000      9.6691     88.8810     38.6057      2.4992      0.0220    111.4643   -999.2500   -999.2500   -999.2500   -999.2500     12.8043     10.3030      4.4816  
  1571.0000      9.6696     89.1994     38.3715      2.4957      0.0311    111.9225   -999.2500   -999.2500   -999.2500   -999.2500     12.3542      9.8695      3.3755  
  1571.5000      9.6817     90.1816     37.7199      2.5135      0.0434    111.7861   -999.2500   -999.2500   -999.2500   -999.2500     11.0752      9.3350      2.6308  
  1572.0000      9.6760     92.8196     37.9066      2.5017      0.0467    110.3441   -999.2500   -999.2500   -999.2500   -999.2500     12.3073      8.9061      2.7572  
  1572.5000      9.6616     93.8621     38.1261      2.4888      0.0475    108.0982   -999.2500   -999.2500   -999.2500   -999.2500     11.9979      8.8955      3.8133  
  1573.0000      9.9327     94.0519     38.6371      2.4765      0.0403    102.9475   -999.2500   -999.2500   -999.2500   -999.2500     12.2407      9.1442      5.5009  
  1573.5000     10.1291     94.6156     39.5120      2.4752      0.0233    100.4316   -999.2500   -999.2500   -999.2500   -999.2500     13.8216      9.8223      6.8692  
  1574.0000      9.9291     92.6533     39.9113      2.4970      0.0118    100.0817   -999.2500   -999.2500   -999.2500   -999.2500     17.5094     10.8912      8.7710  
  1574.5000      9.7671     88.8442     40.1260      2.5169      0.0202    102.7272   -999.2500   -999.2500   -999.2500   -999.2500     15.4873     12.1606      9.8776  
  1575.0000      9.7530     86.1753     40.2633      2.5283      0.0248    107.6793   -999.2500   -999.2500   -999.2500   -999.2500     15.3755     12.1558      7.1136  
  1575.5000      9.7658     84.8539     41.2234      2.5368      0.0156    111.0805   -999.2500   -999.2500   -999.2500   -999.2500     13.6869     10.8648      4.3237  
  1576.0000      9.6881     88.6530     39.6936      2.5492      0.0328    108.8627   -999.2500   -999.2500   -999.2500   -999.2500     12.0512      9.4037      3.4121  
  1576.5000      9.6677     93.0622     39.1188      2.5497      0.0635    108.5337   -999.2500   -999.2500   -999.2500   -999.2500     10.7164      8.4076      3.9249  
  1577.0000      9.6705     96.4486     39.2337      2.5190      0.0774    109.4033   -999.2500   -999.2500   -999.2500   -999.2500     10.6069      8.8806      4.9893  
  1577.5000      9.9405     97.5608     40.1045      2.4969      0.0856    109.5781   -999.2500   -999.2500   -999.2500   -999.2500     11.5308      9.5134      5.4080  
  1578.0000     10.1351     97.1829     41.4645      2.5015      0.0975    115.2263   -999.2500   -999.2500   -999.2500   -999.2500     13.7462      9.7361      4.5302  
  1578.5000     10.2792     96.4540     42.2728      2.5041      0.0844    176.4488   -999.2500   -999.2500   -999.2500   -999.2500     12.3042      9.7741      3.7837  
  1579.0000     10.1558     96.1318     41.7458      2.4785      0.0552    106.4712   -999.2500   -999.2500   -999.2500   -999.2500     12.2401      9.9137      5.0345  
  1579.5000     10.1143     94.4198     40.4835      2.4719      0.0317    105.5313   -999.2500   -999.2500   -999.2500   -999.2500     13.0021     10.2017      7.2247  
  1580.0000     10.4345     92.4538     39.9708      2.4882      0.0196    105.9039   -999.2500   -999.2500   -999.2500   -999.2500     13.3986     10.7146      7.9654  
  1580.5000     10.0693     91.1683     39.6098      2.4994      0.0139    107.3557   -999.2500   -999.2500   -999.2500   -999.2500     13.7556     11.2941      7.9641  
  1581.0000      9.7731     92.3386     38.5178      2.5044      0.0107    109.1905   -999.2500   -999.2500   -999.2500   -999.2500     13.6304     10.8810      7.9677  
  1581.5000      9.7372     92.9479     37.0414      2.5159      0.0083    110.6325   -999.2500   -999.2500   -999.2500   -999.2500     13.1391     10.4335      7.0241  
  1582.0000      9.7259     93.4910     35.9606      2.5261      0.0122    110.8440   -999.2500   -999.2500   -999.2500   -999.2500     12.6258      8.6201      4.9120  
  1582.5000      9.7143     94.3915     35.9700      2.5107      0.0152    108.8324   -999.2500   -999.2500   -999.2500   -999.2500     12.0186      8.6343      3.9131  
  1583.0000      9.7194     94.8066     36.9191      2.5024      0.0205    107.1433   -999.2500   -999.2500   -999.2500   -999.2500     11.4672      9.0845      4.5678  
  1583.5000      9.7350     93.2290     37.8211      2.5009      0.0318    105.1678   -999.2500   -999.2500   -999.2500   -999.2500     11.1439      9.5482      6.6926  
  1584.0000      9.8475     90.7122     38.6104      2.4956      0.0199    106.4625   -999.2500   -999.2500   -999.2500   -999.2500     11.4570     10.8835      8.4340  
  1584.5000      9.9847     89.6376     38.5248      2.4868      0.0040    108.8212   -999.2500   -999.2500   -999.2500   -999.2500     13.7423     11.0772      8.3081  
  1585.0000      9.9893     89.7645     38.1208      2.4960     -0.0035    109.2222   -999.2500   -999.2500   -999.2500   -999.2500     12.1133      9.8512      6.9018  
  1585.5000      9.8879     90.2591     37.7821      2.5080      0.0051    108.4092   -999.2500   -999.2500   -999.2500   -999.2500     11.5891      9.7298      5.7448  
