~VERSION INFORMATION
 VERS.                           2.00:        CWLS LOG ASCII STANDARD - VERSION 2.00
 WRAP.                             NO:        ONE LINE PER DEPTH STEP
~WELL INFORMATION
#MNEM.UNIT                   DATA             INFORMATION
#----------             --------------        ------------------------------
 STRT.F                      101.0000:        START DEPTH
 STOP.F                     3666.0000:        STOP DEPTH
 STEP.F                        0.5000:        STEP VALUE
 NULL.                      -999.2500:        NULL VALUE
 COMP.     USGS/NPR HUSKY OIL COMPANY:        COMPANY
 LOC .                      9 20N 19W:        LOCATION
 DATE.                       12/30/79:        LOG DATE
 WELL.           WALAKPA TEST WELL #1:        WELL
 UWI .                   500232001300:        UNIQUE WELL ID
 API .                   500232001300:        UNIQUE WELL IDENTIFIER
 FLD .                        WILDCAT:        FIELD
 CNTY.                    NORTH SLOPE:        COUNTY
 STAT.                         ALASKA:        STATE
 CTRY.                            USA:        COUNTRY
 OPER.     USGS/NPR HUSKY OIL COMPANY:        OPERATOR
 SRVC.                   SCHLUMBERGER:        SERVICE COMPANY
 LAT .                         0.0000:        LATITUDE
 LON .                         0.0000:        LONGITUDE
 DIGS.               CENTER LINE DATA:        DIGITIZING COMPANY
~CURVE INFORMATION      
#MNEM        .UNIT         API CODE           CURVE DESCRIPTION
#-----------------      --------------        ------------------------------
 DEPT        .F                      :        1  DEPTH
 GR          .GAPI                   :        2  
 CALI        .IN                     :        3  
 RHOB        .G/C3                   :        4  
 DRHO        .G/C3                   :        5  
 NPHI        .%                      :        6  
 DT          .US/F                   :        7  
 SP          .MV                     :        8  
 ILD         .OHMM                   :        9  
 ILM         .OHMM                   :        10 
 LL8         .OHMM                   :        11 
 SFL         .OHMM                   :        12 
~PARAMETER INFORMATION
#MNEM.UNIT                  VALUE             DESCRIPTION OF MNEMONIC
#---------             ---------------        ------------------------------
 EKB .F                       50.0000:        KELLY BUSHING
 TD  .F                     3672.0000:        TOTAL DEPTH
 BHT .F                       80.0000:        BOTTOM HOLE TEMPERATURE
 BS  .                        12.2500:        BIT SIZE
 FD  .                         9.9000:        FLUID DENSITY
 CSIZ.                        13.3750:        CASING SIZE
 CBD .F                      100.0000:        CASING DRILLER 1
 CBL .F                      106.0000:        CASING LOGGER 1
 DFT .                             99:        TYPE FLUID IN HOLE
 DFV .                        45.0000:        VISCOSITY
 DFPH.                         8.0000:        PH
 DFL .                        23.0000:        FLUID LOSS
 RMS .                         5.9200:        RM
 MST .F                       58.0000:        RM MEAS. TEMP.
 RMF .                         6.2200:        RMF
 MFST.F                       57.0000:        RMF MEAS. TEMP.
 RMC .                         7.0500:        RMC
 MCST.F                       57.0000:        RMC MEAS. TEMP.
~OTHER INFORMATION
~A    DEPTH          GR        CALI        RHOB        DRHO        NPHI          DT          SP         ILD         ILM         LL8         SFL 
# ...
  3153.0000     85.3076      8.5468      2.5296      0.0077     26.8683     80.5504    -18.1397     14.5870     13.1340   -999.2500     15.0798 
  3153.5000     85.7836      8.5545      2.5299      0.0039     25.8095     80.4103    -17.8119     15.0696     13.9203   -999.2500     15.8894 
  3154.0000     87.8687      8.5572      2.5244     -0.0011     25.4792     79.4953    -17.1104     15.5681     14.7107   -999.2500     16.7425 
  3154.5000     89.8590      8.5424      2.5209      0.0034     25.2826     78.5324    -16.5894     15.7830     15.0589   -999.2500     17.7097 
  3155.0000     90.8041      8.5560      2.5205      0.0130     25.0811     78.1307    -16.3480     15.4909     14.6881   -999.2500     17.7267 
  3155.5000     91.6181      8.5653      2.5218      0.0143     24.8617     78.2107    -16.0214     15.0923     14.3102   -999.2500     16.8549 
  3156.0000     93.3892      8.5670      2.5145      0.0168     24.9340     79.5598    -15.2833     14.7040     13.9421   -999.2500     16.0941 
  3156.5000     95.5022      8.5662      2.5269      0.0209     26.0558     80.3829    -15.0025     14.3258     13.5834   -999.2500     15.3676 
  3157.0000     96.1609      8.5665      2.5311      0.0235     27.0535     80.6126    -14.8638     13.9615     13.2567   -999.2500     14.6739 
  3157.5000     95.9390      8.5667      2.5386      0.0309     27.4276     81.6472    -15.0531     13.6429     12.9542   -999.2500     14.2244 
  3158.0000     94.8075      8.5670      2.5401      0.0394     27.4753     82.8740    -15.9752     13.4003     12.7795   -999.2500     13.7932 
  3158.5000     90.9905      8.5668      2.5297      0.0510     27.6370     83.9757    -16.7809     13.5384     12.9112   -999.2500     13.7020 
  3159.0000     86.5558      8.5729      2.5271      0.0525     28.4526     84.2736    -17.4182     13.6779     13.0443   -999.2500     13.8038 
  3159.5000     83.7444      8.5879      2.5118      0.0221     29.2863     82.5918    -17.9330     14.0442     13.3098   -999.2500     14.1258 
  3160.0000     81.2891      8.5784      2.5472      0.0226     28.7130     75.9968    -18.0758     14.4304     13.6758   -999.2500     14.4553 
  3160.5000     81.7039      8.5757      2.6025      0.0118     27.7160     72.9169    -18.8294     14.8272     14.0519   -999.2500     17.1406 
  3161.0000     81.4423      8.5732      2.6414      0.0019     26.8765     72.7620    -19.4036     15.2349     14.4382   -999.2500     20.5560 
  3161.5000     79.7377      8.5574      2.6805      0.0207     26.1569     73.0766    -19.9777     15.6348     14.8283   -999.2500     19.7936 
  3162.0000     78.8937      8.5530      2.6171      0.0233     25.5611     74.8595    -20.7667     16.0406     15.2132   -999.2500     18.7490 
  3162.5000     82.5323      8.5562      2.5597      0.0156     24.9490     76.1188    -20.1985     16.1434     15.4071   -999.2500     17.6678 
  3163.0000     87.8859      8.5642      2.5496      0.0178     24.2789     76.5216    -19.5941     16.0505     15.3101   -999.2500     17.1109 
  3163.5000     90.9538      8.5732      2.5316      0.0177     23.6917     77.3542    -18.5260     15.6965     14.8460   -999.2500     17.0125 
  3164.0000     94.2063      8.5677      2.5105      0.0144     24.1973     79.2496    -17.8439     15.2206     14.3962   -999.2500     16.5351 
  3164.5000     92.7805      8.5664      2.5116      0.0093     24.6466     80.4082    -18.1595     14.7617     13.9654   -999.2500     15.7861 
  3165.0000     89.6184      8.5651      2.5005      0.0036     24.9839     81.0128    -19.5348     14.3193     13.5475   -999.2500     15.0710 
  3165.5000     84.4676      8.5638      2.4857     -0.0033     25.8342     81.2528    -20.6547     13.8901     13.1421   -999.2500     14.4700 
  3166.0000     87.2985      8.5626      2.4798     -0.0006     26.6618     81.1827    -21.7693     13.4739     12.7489   -999.2500     14.4293 
  3166.5000     94.0843      8.5613      2.4628      0.0185     27.4895     80.9110    -20.4308     13.0701     12.3318   -999.2500     15.1055 
  3167.0000    103.1823      8.5600      2.4510      0.0332     27.2395     81.5192    -18.1391     12.5783     11.8032   -999.2500     15.6064 
  3167.5000    106.8023      8.5587      2.4609      0.0564     26.8026     83.4648    -15.3387     12.0392     11.2972   -999.2500     14.6595 
  3168.0000    103.2461      8.5574      2.4717      0.0782     27.0179     85.4047    -14.2638     11.5233     10.8130   -999.2500     12.8284 
  3168.5000     99.6996      8.5561      2.4863      0.1121     29.5596     86.8566    -13.8709     11.0294     10.2410   -999.2500     11.7922 
  3169.0000     97.5948      8.5548      2.4796      0.1426     32.0105     88.6584    -14.2038     10.7057      9.6548   -999.2500     11.0065 
  3169.5000     95.4688      8.5536      2.4727      0.1665     34.5589     89.5609    -14.4909     10.5752      9.1022   -999.2500     10.2731 
  3170.0000     90.7815      8.5523      2.4454      0.1333     37.2729     88.9710    -14.6652     10.8483      9.2833   -999.2500     10.7314 
  3170.5000     90.1478      8.5510      2.3945      0.0688     36.9273     85.7652    -14.9414     11.1372     10.0678   -999.2500     11.4143 
  3171.0000     90.6990      8.5497      2.4176      0.0241     34.9027     83.7825    -15.7175     11.6324     10.7448   -999.2500     13.2053 
  3171.5000     89.8686      8.5484      2.4890      0.0253     31.3139     82.2593    -16.6214     12.1496     11.3553   -999.2500     15.1720 
  3172.0000     86.9271      8.5472      2.5254      0.0465     28.4413     81.4564    -17.0002     12.6898     11.9107   -999.2500     14.7837 
  3172.5000     84.2600      8.5635      2.5064      0.0472     29.4835     81.0074    -18.1558     13.1108     12.4402   -999.2500     14.4788 
  3173.0000     85.6102      8.5464      2.4873      0.0147     29.8062     79.2426    -18.2405     13.3421     12.6978   -999.2500     16.4579 
  3173.5000     89.2324      8.5595      2.4889      0.0076     28.4940     78.1636    -17.8027     13.4630     12.8530   -999.2500     19.2244 
  3174.0000     96.1839      8.5642      2.4859      0.0097     26.4183     79.9360    -17.2739     13.4571     12.8261   -999.2500     16.5148 
  3174.5000    102.5199      8.5573      2.4561      0.0265     25.3134     81.9600    -17.1386     13.2915     12.6679   -999.2500     14.0485 
  3175.0000    102.8730      8.5492      2.4599      0.0537     26.2074     84.5919    -17.7906     13.1279     12.5117   -999.2500     12.6108 
  3175.5000     96.5684      8.5551      2.4947      0.1197     28.8669     86.0569    -18.8100     12.9492     12.3278   -999.2500     10.7240 
  3176.0000     91.2133      8.5530      2.4617      0.0815     32.7291     84.5518    -19.0698     12.7435     12.1319   -999.2500     11.2458 
  3176.5000     94.2182      8.5523      2.4743      0.0127     35.4058     81.1322    -17.1477     12.5410     11.9391   -999.2500     13.6899 
  3177.0000     98.6179      8.5455      2.5720     -0.0147     34.4721     79.3972    -15.3938     12.3417     11.7687   -999.2500     17.2429 
  3177.5000    101.9923      8.5431      2.6491     -0.0132     31.8915     78.6942    -13.8186     12.3840     11.8215   -999.2500     18.4033 
  3178.0000    103.8595      8.5442      2.6478      0.0271     30.5011     81.0683    -13.5827     12.4395     11.8556   -999.2500     15.9014 
  3178.5000    104.7826      8.5485      2.6000      0.0800     32.1236     83.2876    -13.5431     12.4953     11.6382   -999.2500     13.1519 
  3179.0000    104.9120      8.5478      2.5550      0.0980     33.1425     83.7981    -13.4547     12.5514     11.4249   -999.2500     12.3921 
  3179.5000    105.0948      8.5471      2.5316      0.1064     33.7850     84.0302    -13.2687     12.6076     11.2154   -999.2500     12.4210 
  3180.0000    103.8868      8.5449      2.5335      0.1148     35.0305     84.5181    -13.1201     12.6453     11.0569   -999.2500     12.5639 
  3180.5000    101.5133      8.5476      2.5363      0.1139     36.2028     84.9249    -13.0434     12.6461     11.1598   -999.2500     12.4288 
