~VERSION INFORMATION
 VERS.                           2.00:        CWLS LOG ASCII STANDARD - VERSION 2.00
 WRAP.                             NO:        ONE LINE PER DEPTH STEP
~WELL INFORMATION
#MNEM.UNIT                   DATA             INFORMATION
#----------             --------------        ------------------------------
 STRT.F                      999.0000:        START DEPTH
 STOP.F                     2350.0000:        STOP DEPTH
 STEP.F                        0.5000:        STEP VALUE
 NULL.                      -999.2500:        NULL VALUE
 COMP.             UNITED STATES NAVY:        COMPANY  
 LOC .                   14  22N  18W:        LOCATION   
 DATE.                        3/19/68:        LOG DATE 
 WELL.                SOUTH BARROW #7:        WELL     
 UWI .                   500232000100:        UNIQUE WELL ID 
 API .                   500232000100:        UNIQUE WELL IDENTIFIER 
 FLD .                   SOUTH BARROW:        FIELD    
 CNTY.                         NPR #4:        COUNTY  
 STAT.                         ALASKA:        STATE   
 CTRY.                            USA:        COUNTRY 
 OPER.             UNITED STATES NAVY:        OPERATOR  
 SRVC.                   SCHLUMBERGER:        SERVICE COMPANY 
 LAT .                         0.0000:        LATITUDE
 LON .                         0.0000:        LONGITUDE
 DIGS.               CENTER LINE DATA:        DIGITIZING COMPANY 
~CURVE INFORMATION      
#MNEM        .UNIT         API CODE           CURVE DESCRIPTION
#-----------------      --------------        ------------------------------
 DEPT        .F                      :        1  DEPTH
 SP          .MV                     :        2  
 ILD         .OHMM                   :        3  
 ASN         .OHMM                   :        4  
 CILD        .OHMM                   :        5  
 CALI        .IN                     :        6  
 DT          .US/F                   :        7  
~PARAMETER INFORMATION       
#MNEM.UNIT                  VALUE             DESCRIPTION OF MNEMONIC
#---------             ---------------        ------------------------------
 EKB .F                       36.0000:        KELLY BUSHING
 TD  .F                     2351.0000:        TOTAL DEPTH
 BHT .F                        0.0000:        BOTTOM HOLE TEMPERATURE
 BS  .                         9.6250:        BIT SIZE
 FD  .                        76.5000:        FLUID DENSITY
 CSIZ.                        10.7500:        CASING SIZE
 CBD .F                      998.0000:        CASING DRILLER 1
 CBL .F                      999.0000:        CASING LOGGER 1
 DFT .                            Gel:        TYPE FLUID IN HOLE
 DFV .                        45.0000:        VISCOSITY
 DFPH.                         9.5000:        PH
 DFL .                         7.0000:        FLUID LOSS
 RMS .                         5.4300:        RM
 MST .F                       42.0000:        RM MEAS. TEMP.
 RMF .                         5.1700:        RMF
 MFST.F                       59.0000:        RMF MEAS. TEMP.
 RMC .                         5.0900:        RMC
 MCST.F                       56.0000:        RMC MEAS. TEMP.
~OTHER INFORMATION
~A    DEPTH          SP         ILD         ASN        CILD        CALI          DT  
# ...
  2033.0000    -19.7251      9.6666     10.2414    106.0212      9.7463    106.8674  
  2033.5000    -19.7163      9.9092     10.6730    103.1024      9.7393    105.5286  
  2034.0000    -19.7888     10.3900     11.1066    100.0076      9.7254    104.7947  
  2034.5000    -20.0194     10.8708     11.7212     96.8830      9.7095    104.8268  
  2035.0000    -20.8218     11.3516     12.6330     93.6236      9.6924    106.1617  
  2035.5000    -22.3630     11.8341     13.5228     90.2499      9.6333    107.9161  
  2036.0000    -24.9277     12.2930     14.5935     87.2688      9.5411    109.4231  
  2036.5000    -27.7331     12.6352     15.7653     84.9633      9.4987    108.8319  
  2037.0000    -31.1475     12.6215     16.7980     84.4520      9.4944    106.6024  
  2037.5000    -34.9619     12.4717     17.2224     85.2148      9.5561    105.4490  
  2038.0000    -36.5686     12.1826     16.4552     86.8215      9.6685    105.0632  
  2038.5000    -34.0732     11.8803     14.7659     88.8664      9.7481    105.6996  
  2039.0000    -29.0889     11.5546     13.3407     91.2687      9.7716    106.4227  
  2039.5000    -24.5938     11.0584     12.5589     94.2580      9.7708    105.5090  
  2040.0000    -22.3601     10.5596     12.1353     98.2278      9.7687    103.2980  
  2040.5000    -21.5684     10.2172     11.7117    102.0313      9.7497    102.0125  
  2041.0000    -20.5015      9.9461     11.2881    105.7102      9.7381    102.9256  
  2041.5000    -19.1644      9.6751     10.8645    109.3298      9.7643    105.2140  
  2042.0000    -18.7616      9.4040     10.4408    111.6251      9.7805    107.5469  
  2042.5000    -19.1777      9.1329     10.2655    113.3593      9.7909    108.4699  
  2043.0000    -19.3431      8.9268     10.1290    114.6735      9.7965    108.4701  
  2043.5000    -19.2960      8.7977      9.9925    116.0030      9.7898    108.4143  
  2044.0000    -18.9901      8.8193      9.9651    116.1967      9.7975    108.5195  
  2044.5000    -18.4499      8.9733     10.0978    115.1088      9.7984    108.1376  
  2045.0000    -18.1662      9.1837     10.2360    112.9632      9.7917    107.3860  
  2045.5000    -18.1808      9.3941     10.3904    110.5058      9.7848    106.1548  
  2046.0000    -18.0302      9.6045     10.5448    108.9759      9.7795    103.6718  
  2046.5000    -17.7420      9.5980     10.6991    108.5938      9.7665    102.7863  
  2047.0000    -17.4789      9.4266     10.8461    109.3896      9.7461    102.9675  
  2047.5000    -17.2249      9.3060     10.9385    110.6774      9.7702    104.6164  
  2048.0000    -17.3644      9.2034     10.5753    112.5259      9.7834    106.8189  
  2048.5000    -18.0330      9.1008     10.1737    113.7422      9.7883    107.8754  
  2049.0000    -19.0366      8.9983      9.7722    115.1162      9.7816    108.2618  
  2049.5000    -19.7329      8.9203      9.9456    116.7461      9.7720    108.2434  
  2050.0000    -20.3224      8.7919      9.8906    118.2506      9.7447    107.9961  
  2050.5000    -20.6700      8.6000      9.9646    119.3694      9.7217    107.1873  
  2051.0000    -20.0421      8.5905      9.8279    118.8837      9.7427    106.8877  
  2051.5000    -19.4708      8.6941     10.0438    118.3392      9.7771    107.2485  
  2052.0000    -19.4786      8.7842     10.1825    116.9883      9.7919    107.9488  
  2052.5000    -19.6355      8.8559     10.1906    115.6216      9.7917    108.5403  
  2053.0000    -19.6604      8.9588     10.1104    114.9700      9.7717    109.2321  
  2053.5000    -19.5983      8.9638     10.0638    114.4260      9.7670    110.2171  
  2054.0000    -19.3582      8.9513     10.0349    114.6648      9.7717    110.8769  
  2054.5000    -18.8251      8.9030      9.9849    115.0130      9.7769    111.6639  
  2055.0000    -18.3413      8.8440      9.9532    115.1678      9.7727    112.8072  
  2055.5000    -17.9761      8.9144      9.9766    115.2100      9.7716    113.1499  
  2056.0000    -17.4712      8.8827     10.0090    115.1279      9.7596    113.3965  
  2056.5000    -17.0287      8.9427      9.9803    114.9277      9.7591    113.6539  
  2057.0000    -16.7379      8.9579      9.9268    114.4932      9.7742    112.9974  
  2057.5000    -16.5841      9.0384     10.0033    113.7733      9.7774    113.0589  
  2058.0000    -16.8105      9.0906     10.2074    112.8302      9.7542    113.1204  
  2058.5000    -17.0830      9.1331     10.4076    112.0552      9.7327    113.1305  
  2059.0000    -17.1608      9.1757     10.4907    111.3117      9.7317    112.8393  
  2059.5000    -16.9604      9.2182     10.3995    111.2367      9.7401    112.1330  
  2060.0000    -16.5908      9.1383     10.3084    112.1248      9.7485    110.6598  
  2060.5000    -16.3933      8.9945     10.3233    113.6070      9.7482    109.7913  
  2061.0000    -16.4956      8.8337     10.3230    115.1071      9.7439    109.3452  
  2061.5000    -16.5169      8.7532     10.2164    116.3358      9.7363    109.5888  
  2062.0000    -16.6243      8.7353     10.0517    116.4799      9.7319    109.8337  
  2062.5000    -17.0067      8.7548      9.8869    116.5048      9.7338    109.6573  
  2063.0000    -17.0654      8.7764      9.7719    116.1573      9.7434    108.9317  
  2063.5000    -17.1192      8.8038     10.0175    115.8553      9.7436    107.7378  
  2064.0000    -17.0877      8.8751     10.3897    114.9170      9.7546    106.5703  
  2064.5000    -17.0583      9.0311     10.6497    113.8652      9.7735    106.2731  
  2065.0000    -16.8676      9.1119     10.7654    112.5270      9.7570    106.6915  
  2065.5000    -16.6444      9.2454     10.6815    110.7643      9.7527    107.4126  
  2066.0000    -16.7291      9.3599     10.6820    108.9172      9.7639    108.2689  
  2066.5000    -16.9505      9.4743     10.7084    106.9665      9.7522    108.7673  
  2067.0000    -17.0156      9.5888     10.7349    105.0159      9.7451    108.3306  
  2067.5000    -17.1731      9.5983     10.7613    103.3032      9.7433    108.2787  
  2068.0000    -17.5230      9.5785     10.8116    103.4624      9.7444    107.9543  
  2068.5000    -17.6713      9.5586     10.8712    103.6217      9.7411    107.2878  
  2069.0000    -17.3902      9.5388     10.9110    103.7810      9.7478    106.1290  
  2069.5000    -16.9374      9.5189     10.9543    103.9403      9.7552    105.1857  
  2070.0000    -16.5470      9.4991     10.9306    105.6270      9.7719    105.5664  
  2070.5000    -16.2269      9.4286     10.8798    107.8398      9.7804    106.2669  
  2071.0000    -16.0810      9.3210     10.6756    109.2996      9.7328    107.2451  
  2071.5000    -16.6550      9.2133     10.5303    110.8177      9.7274    107.3615  
  2072.0000    -17.2094      9.0895     10.4411    111.9313      9.7479    107.0096  
  2072.5000    -17.3866      9.0373     10.4282    112.6921      9.7720    106.5844  
  2073.0000    -17.3271      9.1046     10.5148    112.1262      9.7759    106.5825  
  2073.5000    -17.3322      9.1431     10.6114    111.5543      9.7781    106.4390  
  2074.0000    -17.2628      9.2643     10.7224    110.6826      9.7757    106.2091  
  2074.5000    -17.1713      9.3616     10.8686    109.5260      9.7680    106.0674  
  2075.0000    -17.2640      9.5365     11.0602    107.9107      9.7600    106.0540  
  2075.5000    -17.3956      9.7783     11.2889    105.8439      9.7461    105.6942  
  2076.0000    -17.7014     10.0273     11.6201    101.8853      9.7417    103.7943  
  2076.5000    -18.0971     10.7305     11.9546     97.2997      9.7724    102.2106  
  2077.0000    -18.6407     11.4921     12.5377     92.0355      9.7865    100.9486  
  2077.5000    -19.3336     12.1115     13.3745     85.5404      9.7686     99.4197  
  2078.0000    -20.2912     12.4887     15.0758     83.5734      9.7003     99.8677  
  2078.5000    -21.3208     12.6910     16.6456     82.6577      9.5918    101.0928  
  2079.0000    -24.3257     12.8757     17.3578     82.1235      9.5894    102.2635  
  2079.5000    -25.9477     12.9716     16.9998     81.7892      9.6684    104.0150  
