~VERSION INFORMATION
 VERS.                           2.00:        CWLS LOG ASCII STANDARD - VERSION 2.00
 WRAP.                             NO:        ONE LINE PER DEPTH STEP
~WELL INFORMATION
#MNEM.UNIT                   DATA             INFORMATION
#----------             --------------        ------------------------------
 STRT.F                       25.0000:        START DEPTH
 STOP.F                     2347.0000:        STOP DEPTH
 STEP.F                        0.5000:        STEP VALUE
 NULL.                      -999.2500:        NULL VALUE
 COMP.        HUSKY OIL COMPANY/NPR-A:        COMPANY
 LOC .                     26 22N 17W:        LOCATION
 DATE.                        4/14/80:        LOG DATE
 WELL.                     BARROW #20:        WELL
 UWI .                   500232001500:        UNIQUE WELL ID
 API .                   500232001500:        UNIQUE WELL IDENTIFIER
 FLD .                   SOUTH BARROW:        FIELD
 CNTY.                    NORTH SLOPE:        COUNTY
 STAT.                        ALAASKA:        STATE
 CTRY.                            USA:        COUNTRY
 OPER.        HUSKY OIL COMPANY/NPR-A:        OPERATOR
 SRVC.                   SCHLUMBERGER:        SERVICE COMPANY
 LAT .                         0.0000:        LATITUDE
 LON .                         0.0000:        LONGITUDE
 DIGS.               CENTER LINE DATA:        DIGITIZING COMPANY
~CURVE INFORMATION      
#MNEM        .UNIT         API CODE           CURVE DESCRIPTION
#-----------------      --------------        ------------------------------
 DEPT        .F                      :        1  DEPTH
 CALI        .IN                     :        2  
 GR          .GAPI                   :        3  
 DRHO        .G/C3                   :        4  
 RHOB        .G/C3                   :        5  
 NPHI        .%                      :        6  
 SP          .MV                     :        7  
 ILD         .OHMM                   :        8  
 ILM         .OHMM                   :        9  
 SFL         .OHMM                   :        10 
 LLD         .OHMM                   :        11 
 LLS         .OHMM                   :        12 
 MSFL        .OHMM                   :        13 
 DT          .US/F                   :        14 
~PARAMETER INFORMATION
#MNEM.UNIT                  VALUE             DESCRIPTION OF MNEMONIC
#---------             ---------------        ------------------------------
 EKB .F                       30.0000:        KELLY BUSHING
 TD  .F                     2356.0000:        TOTAL DEPTH
 BHT .F                        0.0000:        BOTTOM HOLE TEMPERATURE
 BS  .                         8.5000:        BIT SIZE
 FD  .                        10.8000:        FLUID DENSITY
 CSIZ.                         9.6250:        CASING SIZE
 CBD .F                     1500.0000:        CASING DRILLER 1
 CBL .F                     1485.0000:        CASING LOGGER 1
 DFT .                            GEL:        TYPE FLUID IN HOLE
 DFV .                        10.0000:        VISCOSITY
 DFPH.                         9.0000:        PH
 DFL .                        10.0000:        FLUID LOSS
 RMS .                         0.1840:        RM
 MST .F                       61.0000:        RM MEAS. TEMP.
 RMF .                         0.1270:        RMF
 MFST.F                       61.0000:        RMF MEAS. TEMP.
 RMC .                         0.2660:        RMC
 MCST.F                       61.0000:        RMC MEAS. TEMP.
~OTHER INFORMATION
~A    DEPTH        CALI          GR        DRHO        RHOB        NPHI          SP         ILD         ILM         SFL         LLD         LLS        MSFL          DT 
# ...
  2017.0000      8.5985     39.0307      0.0240      2.3876     26.5847    -39.4009   -999.2500   -999.2500   -999.2500     18.5933     17.5915     14.9501     81.0614 
  2017.5000      8.6195     39.8650      0.0364      2.3914     26.1515    -39.3163   -999.2500   -999.2500   -999.2500     18.2688     17.2844     14.5167     78.5126 
  2018.0000      8.6038     41.7910      0.0566      2.4052     26.0828    -39.2317   -999.2500   -999.2500   -999.2500     17.9499     16.9827     14.7972     83.9941 
  2018.5000      8.6020     43.7122      0.0554      2.4233     26.0262    -39.1470   -999.2500   -999.2500   -999.2500     18.0473     17.1079     15.4279     94.0244 
  2019.0000      8.6072     44.2643      0.0196      2.4070     25.8905    -39.0624   -999.2500   -999.2500   -999.2500     18.2619     17.3113     15.7088    104.4329 
  2019.5000      8.6121     43.0715      0.0087      2.4240     25.5145    -38.9612   -999.2500   -999.2500   -999.2500     18.7398     17.5474     15.0972     99.9000 
  2020.0000      8.6248     40.3287      0.0048      2.4422     24.8857    -38.5973   -999.2500   -999.2500   -999.2500     19.4287     18.1911     14.6086     87.1646 
  2020.5000      8.6405     37.6446      0.0096      2.4143     24.6358    -38.7544   -999.2500   -999.2500   -999.2500     20.1428     18.8585     14.8333     84.0954 
  2021.0000      8.6030     37.2950      0.0124      2.3725     24.4482    -38.8178   -999.2500   -999.2500   -999.2500     20.5691     19.5068     15.3674     88.7766 
  2021.5000      8.5950     37.8713      0.0144      2.3403     24.1794    -38.6921   -999.2500   -999.2500   -999.2500     20.4243     19.3513     15.9187     94.7856 
  2022.0000      8.6636     39.0310      0.0164      2.3490     23.9561    -38.2550   -999.2500   -999.2500   -999.2500     20.3285     19.2957     16.3546     95.0743 
  2022.5000      8.6264     40.1132      0.0153      2.3572     23.8557    -38.4115   -999.2500   -999.2500   -999.2500     20.3362     19.3099     15.8599     93.9860 
  2023.0000      8.5983     40.7936      0.0113      2.3639     23.9064    -38.3546   -999.2500   -999.2500   -999.2500     20.5540     19.4807     15.7324     93.5701 
  2023.5000      8.6010     41.0418      0.0077      2.3925     24.0208    -38.2917   -999.2500   -999.2500   -999.2500     20.9917     19.7902     15.8983     88.7409 
  2024.0000      8.6157     40.8614      0.0138      2.4144     23.9485    -38.2482   -999.2500   -999.2500   -999.2500     21.5177     20.2862     15.8716     79.6996 
  2024.5000      8.6444     39.9359      0.0200      2.4093     23.9537    -38.2875   -999.2500   -999.2500   -999.2500     21.8123     20.6649     15.8541     73.5847 
  2025.0000      8.6502     38.2662      0.0226      2.3942     24.4670    -38.2499   -999.2500   -999.2500   -999.2500     21.8287     20.6955     16.1226     74.9644 
  2025.5000      8.6163     37.6390      0.0157      2.3484     24.5648    -38.1324   -999.2500   -999.2500   -999.2500     21.5039     20.3406     16.3957     78.6289 
  2026.0000      8.6259     38.1925      0.0191      2.3306     24.1154    -38.1393   -999.2500   -999.2500   -999.2500     21.1157     19.9734     16.6735     90.0588 
  2026.5000      8.6243     39.0032      0.0235      2.3367     23.7207    -38.2219   -999.2500   -999.2500   -999.2500     20.7345     19.6465     16.8021     94.5199 
  2027.0000      8.6223     39.8248      0.0133      2.3401     23.5890    -38.2601   -999.2500   -999.2500   -999.2500     20.8006     19.7454     16.8893     94.8007 
  2027.5000      8.6138     39.9154      0.0062      2.3476     23.5948    -38.2739   -999.2500   -999.2500   -999.2500     20.9053     19.8447     16.9769     95.0672 
  2028.0000      8.5786     39.2818      0.0105      2.3597     23.4547    -38.2050   -999.2500   -999.2500   -999.2500     21.0105     19.9446     17.0650     95.4214 
  2028.5000      8.6094     38.7494      0.0160      2.3829     23.1102    -38.1929   -999.2500   -999.2500   -999.2500     21.2118     20.0705     17.1535     95.5543 
  2029.0000      8.6259     38.6273      0.0252      2.3965     22.8959    -38.2701   -999.2500   -999.2500   -999.2500     21.5841     20.4228     17.2425     95.7837 
  2029.5000      8.5955     38.4476      0.0190      2.3851     22.9880    -38.2405   -999.2500   -999.2500   -999.2500     21.8563     20.7262     17.3319     95.7086 
  2030.0000      8.6097     38.0193      0.0218      2.3811     23.5984    -38.1319   -999.2500   -999.2500   -999.2500     22.0883     20.9460     17.3888     95.4264 
  2030.5000      8.6317     37.8700      0.0304      2.3899     24.6323    -38.2744   -999.2500   -999.2500   -999.2500     22.3228     21.1682     17.4182     95.1598 
  2031.0000      8.6364     38.6524      0.0268      2.3910     25.2399    -38.4502   -999.2500   -999.2500   -999.2500     22.5129     21.3724     17.4477     94.8291 
  2031.5000      8.5993     39.8440      0.0199      2.3906     25.5079    -38.4967   -999.2500   -999.2500   -999.2500     22.4152     21.2797     16.9851     94.8543 
  2032.0000      8.5861     40.2806      0.0104      2.3824     24.9908    -38.5432   -999.2500   -999.2500   -999.2500     22.2896     21.1448     16.4574     95.2074 
  2032.5000      8.5920     40.3085      0.0024      2.3733     24.4441    -38.5896   -999.2500   -999.2500   -999.2500     22.1197     20.9914     16.1836     95.5752 
  2033.0000      8.6022     40.5041      0.0028      2.3756     24.3753    -38.6361   -999.2500   -999.2500   -999.2500     21.9655     20.8452     16.1848     95.9317 
  2033.5000      8.5918     40.9017      0.0057      2.3746     24.2712    -38.6825   -999.2500   -999.2500   -999.2500     21.8265     20.7197     16.4008     96.1768 
  2034.0000      8.5908     42.2111      0.0075      2.3763     23.7516    -38.7290   -999.2500   -999.2500   -999.2500     21.7898     20.6768     16.8402    100.6835 
  2034.5000      8.5898     44.1978      0.0088      2.3782     24.0150    -38.7754   -999.2500   -999.2500   -999.2500     22.0572     20.6909     17.2913    108.5098 
  2035.0000      8.5896     45.2586      0.0167      2.3918     24.0738    -38.8219   -999.2500   -999.2500   -999.2500     22.3157     20.7049     17.7545    115.7868 
  2035.5000      8.6279     45.8829      0.0238      2.4054     24.2310    -38.8684   -999.2500   -999.2500   -999.2500     22.5732     20.8137     18.0782    124.5488 
  2036.0000      8.6217     45.4697      0.0260      2.4199     24.3363    -38.9148   -999.2500   -999.2500   -999.2500     22.8338     20.9226     17.9303    111.5245 
  2036.5000      8.5900     44.9190      0.0261      2.3937     24.3512    -39.0252   -999.2500   -999.2500   -999.2500     22.1987     20.8539     16.6664     91.6876 
  2037.0000      8.5929     44.7896      0.0261      2.3764     24.6880    -39.1632   -999.2500   -999.2500   -999.2500     21.5180     20.2145     15.8537     97.8533 
  2037.5000      8.6070     44.8625      0.0248      2.3542     25.1651    -39.3012   -999.2500   -999.2500   -999.2500     20.8582     19.5947     15.6937    102.0962 
  2038.0000      8.6028     45.6634      0.0220      2.3543     25.1999    -39.4392   -999.2500   -999.2500   -999.2500     20.2186     19.0853     15.7632    102.7464 
  2038.5000      8.5886     47.3137      0.0148      2.3677     25.2838    -39.5772   -999.2500   -999.2500   -999.2500     19.8095     18.7343     15.9059    103.6383 
  2039.0000      8.5852     49.0430      0.0068      2.3774     25.3983    -39.7151   -999.2500   -999.2500   -999.2500     19.6256     18.6357     16.0498    107.4015 
  2039.5000      8.6210     50.0624      0.0121      2.3911     25.3058    -39.8531   -999.2500   -999.2500   -999.2500     20.3488     18.9815     16.1951    109.6295 
  2040.0000      8.6025     50.5550      0.0143      2.4335     25.1424    -39.9911   -999.2500   -999.2500   -999.2500     21.0739     19.7721     16.5492    103.5722 
  2040.5000      8.5958     48.7478      0.0066      2.4478     25.0997    -40.1291   -999.2500   -999.2500   -999.2500     21.7835     20.4368     16.9118     93.5832 
