~VERSION INFORMATION
 VERS.                           2.00:        CWLS LOG ASCII STANDARD - VERSION 2.00
 WRAP.                             NO:        ONE LINE PER DEPTH STEP
~WELL INFORMATION
#MNEM.UNIT                   DATA             INFORMATION
#----------             --------------        ------------------------------
 STRT.F                       25.0000:        START DEPTH
 STOP.F                     4165.0000:        STOP DEPTH
 STEP.F                        0.5000:        STEP VALUE
 NULL.                      -999.2500:        NULL VALUE
 COMP.    USGS/NPR HUSKY OIL OPERATOR:        COMPANY
 LOC .                     21 21N 14W:        LOCATION
 DATE.                         3/3/80:        LOG DATE
 WELL.                 WEST  DEASE #1:        WELL
 UWI .                   500232001400:        UNIQUE WELL ID
 API .                   500232001400:        UNIQUE WELL IDENTIFIER
 FLD .                        WILDCAT:        FIELD
 CNTY.                    NORTH SLOPE:        COUNTY
 STAT.                         ALASKA:        STATE
 CTRY.                            USA:        COUNTRY
 OPER.    USGS/NPR HUSKY OIL OPERATOR:        OPERATOR
 SRVC.                   SCHLUMBERGER:        SERVICE COMPANY
 LAT .                         0.0000:        LATITUDE
 LON .                         0.0000:        LONGITUDE
 DIGS.               CENTER LINE DATA:        DIGITIZING COMPANY
~CURVE INFORMATION      
#MNEM        .UNIT         API CODE           CURVE DESCRIPTION
#-----------------      --------------        ------------------------------
 DEPT        .F                      :        1  DEPTH
 SP          .MV                     :        2  
 LLD         .OHMM                   :        3  
 LLS         .OHMM                   :        4  
 MSFL        .OHMM                   :        5  
 CALI        .IN                     :        6  
 RHOB        .G/C3                   :        7  
 DRHO        .G/C3                   :        8  
 NPHI        .%                      :        9  
 GR          .GAPI                   :        10 
 DT          .US/F                   :        11 
~PARAMETER INFORMATION
#MNEM.UNIT                  VALUE             DESCRIPTION OF MNEMONIC
#---------             ---------------        ------------------------------
 EKB .F                       24.0000:        KELLY BUSHING
 TD  .F                     4173.0000:        TOTAL DEPTH
 BHT .F                       85.0000:        BOTTOM HOLE TEMPERATURE
 BS  .                        12.2500:        BIT SIZE
 FD  .                        10.4000:        FLUID DENSITY
 CSIZ.                        13.3750:        CASING SIZE
 CBD .F                      288.0000:        CASING DRILLER 1
 CBL .F                      292.0000:        CASING LOGGER 1
 DFT .                             99:        TYPE FLUID IN HOLE
 DFV .                        52.0000:        VISCOSITY
 DFPH.                         8.0000:        PH
 DFL .                         7.5000:        FLUID LOSS
 RMS .                         0.1250:        RM
 MST .F                       35.0000:        RM MEAS. TEMP.
 RMF .                         0.1440:        RMF
 MFST.F                       44.0000:        RMF MEAS. TEMP.
 RMC .                         0.2360:        RMC
 MCST.F                       36.0000:        RMC MEAS. TEMP.
~OTHER INFORMATION
~A    DEPTH          SP         LLD         LLS        MSFL        CALI        RHOB        DRHO        NPHI          GR          DT 
# ...
  3380.0000    -40.9949      5.5293      5.3221      0.9921      9.2262      2.1096      0.1267     40.3464     80.4252     90.0855 
  3380.5000    -40.6794      5.4380      5.0918    248.3970      9.2382      2.1431      0.1537     38.3630     77.8070     93.5458 
  3381.0000    -40.0910      5.4231      5.2248   1946.5706      9.1943      2.1717      0.1581     36.5400     75.7957     96.5304 
  3381.5000    -39.6428      5.5272      5.3622   1864.4838      9.1749      2.2007      0.1168     34.7055     78.1076     95.4302 
  3382.0000    -39.7028      5.7537      5.5351      4.0796      9.1843      2.3391      0.1195     33.2239     80.3903     97.0750 
  3382.5000    -40.5728      6.0130      5.7522      1.0129      9.1928      2.3423      0.0693     32.1035     81.6494     94.8376 
  3383.0000    -40.6584      6.2283      5.9699      0.9799      9.1784      2.3546      0.0135     31.6117     80.8402     92.4438 
  3383.5000    -40.5384      6.5043      6.1958      0.9624      9.1712      2.4758      0.0726     31.0191     77.5349     91.9243 
  3384.0000    -40.2651      6.7926      6.4388      0.8663      9.1936      2.5201      0.1047     30.6149     75.0563     91.9404 
  3384.5000    -39.0799      7.0936      6.6916      0.8326      9.1865      2.4985      0.0466     31.7766     72.6588     91.1527 
  3385.0000    -37.3813      7.3591      6.9081      1.1300      9.1968      2.5018      0.0077     33.2518     74.4031     89.6254 
  3385.5000    -37.0775      7.5718      6.8047      1.4948      9.2157      2.5296      0.0286     34.6052     78.4389     88.8072 
  3386.0000    -38.2968      7.2453      6.6280      1.4383      9.2382      2.4881      0.0307     36.0270     82.1874     90.2749 
  3386.5000    -39.3665      6.0663      5.8097      1.0727      9.4063      2.4449      0.0283     37.3224     80.7785     89.2916 
  3387.0000    -40.2770      5.5659      5.3175      1.0002      9.7853      2.4353      0.0574     38.6201     80.0324     92.0320 
  3387.5000    -40.9207      5.2917      5.1862      0.9797      9.1637      2.4411      0.0685     38.5219     79.5929     92.7964 
  3388.0000    -41.0593      5.2578      5.1476      0.9607      8.5718      2.4750      0.0750     36.9087     80.2910     93.9455 
  3388.5000    -41.0412      5.4776      5.2703      0.7492      9.1927      2.4806      0.0637     35.1586     81.2420     95.3436 
  3389.0000    -40.7754      5.6458      5.4118      0.7893      9.2087      2.4790      0.0577     33.7504     82.0100     94.9957 
  3389.5000    -40.6592      5.7856      5.6979      1.0039      9.2108      2.4798      0.0465     35.5322     82.5789     94.1543 
  3390.0000    -40.6916      6.4649      5.8164      1.0042      9.2044      2.4896      0.0554     36.5301     81.6614     93.4705 
  3390.5000    -40.7677      6.2928      5.8682      1.0046      9.2024      2.4985      0.0951     36.2536     79.5967     94.2153 
  3391.0000    -40.8439      6.0269      5.8101      1.0049      9.1999      2.4839      0.1025     34.6487     76.7602     93.8425 
  3391.5000    -40.9200      5.8692      5.6847      1.0052      9.1972      2.4297      0.0395     33.2235     75.7773     92.8731 
  3392.0000    -40.9961      5.9012      5.7627      1.0055      9.1996      2.4277      0.0102     34.2245     75.9608     94.6346 
  3392.5000    -40.8400      6.0040      5.8870      1.0058      9.2031      2.4422      0.0090     35.1254     75.7935     93.8992 
  3393.0000    -40.6877      6.2864      5.9922      1.0061      9.2056      2.4490      0.0285     35.7782     75.4787     92.8983 
  3393.5000    -40.7325      6.0700      5.7636      1.0064      9.2066      2.4785      0.0472     37.7095     76.6058     92.5158 
  3394.0000    -40.9808      5.7325      5.5149      1.0067      9.2148      2.4883      0.0705     38.0013     76.9389     91.5365 
  3394.5000    -41.0524      5.4727      5.2649      1.0071      9.2367      2.5045      0.1068     37.8818     74.8401     93.1823 
  3395.0000    -40.8034      5.3039      5.1301      1.0074      9.2333      2.5104      0.1279     37.6024     73.7324     93.6551 
  3395.5000    -40.6732      5.2593      5.1301      1.0077      9.2215      2.4949      0.1045     38.0194     74.1921     94.2326 
  3396.0000    -40.7373      5.2455      5.0119      1.0173      9.2137      2.4634      0.0684     36.6787     75.5499     94.5788 
  3396.5000    -40.7676      5.0690      4.9636      1.2850      9.2203      2.4585      0.0724     35.6838     72.3512     93.9112 
  3397.0000    -40.7979      5.1438      5.0763      1.2686      9.2311      2.4798      0.1043     34.3019     70.2902     91.9345 
  3397.5000    -40.8281      5.4033      5.2163      0.9877      9.1253      2.4585      0.0796     33.2769     69.4974     93.6402 
  3398.0000    -40.8584      5.8843      5.5481      0.9899      9.0880      2.4438      0.0019     32.8143     71.5299     92.4994 
  3398.5000    -40.6827      6.3231      5.9010      0.9883      9.0642      2.5170      0.0027     32.2958     75.7182     91.3039 
  3399.0000    -40.3351      6.6216      6.3968      0.9874      9.0427      2.5353      0.0106     31.8110     77.8979     90.6545 
  3399.5000    -39.9491      6.7491      6.5349      0.9885      9.0665      2.5027      0.0097     31.6812     79.0230     89.6140 
  3400.0000    -39.5631      6.4235      6.1827      0.9896      9.0635      2.4945      0.0039     32.0421     73.6893     88.3636 
  3400.5000    -39.1771      6.3254      6.0919      0.9905      9.0339      2.5040      0.0120     32.4041     72.3130     90.5270 
  3401.0000    -39.7479      6.6975      6.3303      0.9915      9.0396      2.5110      0.0143     32.7694     72.0580     90.7488 
  3401.5000    -40.3957      6.8561      6.6362      0.9925      9.0409      2.5107      0.0148     33.0048     73.2433     89.8845 
  3402.0000    -40.6020      6.9880      6.7691      0.9935      9.0139      2.5074      0.0185     32.5553     75.5423     89.6306 
  3402.5000    -40.4819      6.8882      6.6567      0.9967      8.9950      2.5049      0.0238     32.2962     77.6879     89.4580 
  3403.0000    -40.3220      6.7505      6.5833      1.0086      8.9961      2.5130      0.0284     32.9725     79.4968     89.5223 
  3403.5000    -40.4659      6.7386      6.4547      1.0882      8.9972      2.5227      0.0273     32.8190     79.7258     89.5031 
  3404.0000    -40.5111      6.8611      6.3637      1.3205      8.9963      2.5220      0.0284     32.1047     77.6544     89.0719 
  3404.5000    -40.4567      7.0756      6.6775      1.5016      8.9881      2.5204      0.0199     29.8012     74.5454     88.5068 
  3405.0000    -40.3691      7.3146      7.0610      1.6313      8.9744      2.5267      0.0290     27.4520     70.4215     88.0671 
  3405.5000    -40.2815      7.7922      7.5145      2.6363      8.9795      2.5326      0.0140     26.5894     65.7994     87.5812 
  3406.0000    -40.1940      8.3284      7.8916      4.1390      8.9705      2.5215      0.0061     26.0846     64.7665     86.2015 
  3406.5000    -40.1347      8.9475      8.2396      7.9367      8.9681      2.5119      0.0031     25.6673     64.3872     84.7883 
  3407.0000    -40.1347      9.6543      8.6392      6.5017      8.9591      2.5117      0.0047     25.7270     66.0673     83.7999 
  3407.5000    -40.1347      9.6866      8.7780      5.6781      8.9505      2.5036      0.0063     25.8163     69.4370     83.0202 
  3408.0000    -40.0022      9.6787      8.8664      5.2852      8.9488      2.4973      0.0070     25.8162     71.7389     82.6079 
  3408.5000    -39.5052      9.5823      8.9258     10.0985      8.9510      2.4959      0.0078     25.8722     71.6155     82.3547 
  3409.0000    -39.6815      9.5907      8.9816      6.9140      8.9572      2.4967      0.0105     26.2039     72.5380     82.4218 
  3409.5000    -39.7262      9.6776      8.9727      6.1554      8.9634      2.4974      0.0159     26.1154     73.8958     82.5091 
  3410.0000    -39.4641      9.4532      8.8751      6.1092      8.9737      2.4985      0.0190     26.3062     73.6836     82.8102 
