~VERSION INFORMATION
 VERS.                           2.00:        CWLS LOG ASCII STANDARD - VERSION 2.00
 WRAP.                             NO:        ONE LINE PER DEPTH STEP
~WELL INFORMATION
#MNEM.UNIT                   DATA             INFORMATION
#----------             --------------        ------------------------------
 STRT.F                       78.0000:        START DEPTH
 STOP.F                     2392.0000:        STOP DEPTH
 STEP.F                        0.5000:        STEP VALUE
 NULL.                      -999.2500:        NULL VALUE
 COMP.              U.S.G.S./NPR -  A:        COMPANY  
 LOC .                    1  22N  18W:        LOCATION   
 DATE.                        2/14/78:        LOG DATE 
 WELL.               SOUTH BARROW #16:        WELL     
 UWI .                   500232001000:        UNIQUE WELL ID 
 API .                   500232001000:        UNIQUE WELL IDENTIFIER 
 FLD .                   SOUTH BARROW:        FIELD    
 CNTY.                    NORTH SLOPE:        COUNTY  
 STAT.                         ALASKA:        STATE   
 CTRY.                            USA:        COUNTRY 
 OPER.              U.S.G.S./NPR -  A:        OPERATOR  
 SRVC.                   SCHLUMBERGER:        SERVICE COMPANY 
 LAT .                         0.0000:        LATITUDE
 LON .                         0.0000:        LONGITUDE
 DIGS.               CENTER LINE DATA:        DIGITIZING COMPANY 
~CURVE INFORMATION      
#MNEM        .UNIT         API CODE           CURVE DESCRIPTION
#-----------------      --------------        ------------------------------
 DEPT        .F                      :        1  DEPTH
 CALI        .IN                     :        2  
 GR          .GAPI                   :        3  
 RHOB        .G/C3                   :        4  
 DRHO        .G/C3                   :        5  
 NPHI        .%                      :        6  
 DT          .US/F                   :        7  
 SP          .MV                     :        8  
 ILD         .OHMM                   :        9  
 ILM         .OHMM                   :        10 
 LL8         .OHMM                   :        11 
 LLD         .OHMM                   :        12 
 LLS         .OHMM                   :        13 
~PARAMETER INFORMATION       
#MNEM.UNIT                  VALUE             DESCRIPTION OF MNEMONIC
#---------             ---------------        ------------------------------
 EKB .F                       30.0000:        KELLY BUSHING
 TD  .F                     2399.0000:        TOTAL DEPTH
 BHT .F                       73.0000:        BOTTOM HOLE TEMPERATURE
 BS  .                         8.5000:        BIT SIZE
 FD  .                        11.0000:        FLUID DENSITY
 CSIZ.                         8.5000:        CASING SIZE
 CBD .F                     1489.0000:        CASING DRILLER 1
 CBL .F                     1487.0000:        CASING LOGGER 1
 DFT .                  Miscellaneous:        TYPE FLUID IN HOLE
 DFV .                        52.0000:        VISCOSITY
 DFPH.                         8.5000:        PH
 DFL .                         8.0000:        FLUID LOSS
 RMS .                         0.0210:        RM
 MST .F                       58.0000:        RM MEAS. TEMP.
 RMF .                         0.0130:        RMF
 MFST.F                       52.0000:        RMF MEAS. TEMP.
 RMC .                         0.0170:        RMC
 MCST.F                       56.0000:        RMC MEAS. TEMP.
~OTHER INFORMATION
~A    DEPTH        CALI          GR        RHOB        DRHO        NPHI          DT          SP         ILD         ILM         LL8         LLD         LLS  
# ...
   409.5000     14.0711     67.2462   -999.2500   -999.2500   -999.2500    142.5149    -52.9761      4.6554      4.0018      4.6337   -999.2500   -999.2500  
   410.0000     14.2468     67.6426   -999.2500   -999.2500   -999.2500    142.8637    -53.5192      4.6207      3.9450      4.5252   -999.2500   -999.2500  
   410.5000     14.0082     69.0003   -999.2500   -999.2500   -999.2500    142.0656    -53.9837      4.5862      3.8890      4.4995   -999.2500   -999.2500  
   411.0000     14.2793     67.4387   -999.2500   -999.2500   -999.2500    142.0110    -53.2923      4.5520      3.8447      4.4918   -999.2500   -999.2500  
   411.5000     14.5027     65.6223   -999.2500   -999.2500   -999.2500    143.2173    -53.3293      4.5180      3.8017      4.4842   -999.2500   -999.2500  
   412.0000     14.2070     65.7911   -999.2500   -999.2500   -999.2500    144.4583    -54.2660      4.5290      3.7941      4.4766   -999.2500   -999.2500  
   412.5000     14.1546     67.3505   -999.2500   -999.2500   -999.2500    145.4586    -54.5944      4.5711      3.7931      4.4733   -999.2500   -999.2500  
   413.0000     14.0006     70.0611   -999.2500   -999.2500   -999.2500    145.4263    -52.7517      4.6136      3.7922      4.4822   -999.2500   -999.2500  
   413.5000     13.7965     73.1150   -999.2500   -999.2500   -999.2500    145.3941    -53.2779      4.6565      3.7913      4.4911   -999.2500   -999.2500  
   414.0000     13.6435     74.3298   -999.2500   -999.2500   -999.2500    145.4014    -55.8176      4.6998      3.7903      4.5001   -999.2500   -999.2500  
   414.5000     13.6574     72.6427   -999.2500   -999.2500   -999.2500    145.5366    -55.8078      4.7050      3.7561      4.6243   -999.2500   -999.2500  
   415.0000     13.5685     70.1970   -999.2500   -999.2500   -999.2500    145.3686    -55.7172      4.6901      3.7005      4.7923   -999.2500   -999.2500  
   415.5000     13.4806     68.6090   -999.2500   -999.2500   -999.2500    143.6206    -53.6905      4.6211      3.6456      4.7427   -999.2500   -999.2500  
   416.0000     13.5788     68.7735   -999.2500   -999.2500   -999.2500    142.7509    -51.1864      4.5134      3.5916      4.6473   -999.2500   -999.2500  
   416.5000     13.7134     69.7463   -999.2500   -999.2500   -999.2500    143.5511    -49.4449      4.4081      3.5910      4.5537   -999.2500   -999.2500  
   417.0000     13.9461     70.2947   -999.2500   -999.2500   -999.2500    143.2015    -49.8834      4.3053      3.6423      4.4620   -999.2500   -999.2500  
   417.5000     14.1323     70.6011   -999.2500   -999.2500   -999.2500    142.8132    -50.2786      4.2796      3.6944      4.3722   -999.2500   -999.2500  
   418.0000     13.8611     70.2133   -999.2500   -999.2500   -999.2500    141.2013    -49.7635      4.3166      3.7070      4.3546   -999.2500   -999.2500  
   418.5000     13.6606     69.6783   -999.2500   -999.2500   -999.2500    138.2266    -49.3211      4.3539      3.6663      4.3952   -999.2500   -999.2500  
   419.0000     13.5263     71.0152   -999.2500   -999.2500   -999.2500    136.9495    -49.7093      4.3916      3.6261      4.4361   -999.2500   -999.2500  
   419.5000     13.5862     73.7938   -999.2500   -999.2500   -999.2500    135.5128    -50.3108      4.4295      3.5862      4.4774   -999.2500   -999.2500  
   420.0000     13.5048     75.1479   -999.2500   -999.2500   -999.2500    135.2090    -50.4827      4.4678      3.5630      4.5107   -999.2500   -999.2500  
   420.5000     13.4234     73.0502   -999.2500   -999.2500   -999.2500    136.1010    -50.6411      4.5064      3.5470      4.5354   -999.2500   -999.2500  
   421.0000     13.4900     70.8355   -999.2500   -999.2500   -999.2500    136.5678    -51.4390      4.5454      3.5508      4.5603   -999.2500   -999.2500  
   421.5000     13.5534     70.7620   -999.2500   -999.2500   -999.2500    137.4760    -52.1959      4.5847      3.5676      4.5621   -999.2500   -999.2500  
   422.0000     13.7050     71.4816   -999.2500   -999.2500   -999.2500    139.1185    -51.7819      4.5251      3.5845      4.4444   -999.2500   -999.2500  
   422.5000     13.7879     71.8062   -999.2500   -999.2500   -999.2500    139.7479    -50.8530      4.4649      3.6014      4.3297   -999.2500   -999.2500  
   423.0000     13.7576     72.0506   -999.2500   -999.2500   -999.2500    139.8842    -51.3378      4.4056      3.6185      4.2179   -999.2500   -999.2500  
   423.5000     13.7224     72.0229   -999.2500   -999.2500   -999.2500    140.6125    -55.5357      4.3491      3.6356      4.1956   -999.2500   -999.2500  
   424.0000     13.8677     71.6564   -999.2500   -999.2500   -999.2500    139.8469    -56.0768      4.3272      3.6506      4.2192   -999.2500   -999.2500  
   424.5000     14.1519     71.8754   -999.2500   -999.2500   -999.2500    138.8767    -56.1349      4.3055      3.5963      4.3214   -999.2500   -999.2500  
   425.0000     14.2449     72.0699   -999.2500   -999.2500   -999.2500    138.4816    -56.3036      4.2600      3.5428      4.4261   -999.2500   -999.2500  
   425.5000     14.1348     71.9052   -999.2500   -999.2500   -999.2500    138.6265    -55.9622      4.1988      3.4901      4.3524   -999.2500   -999.2500  
   426.0000     14.0206     70.7428   -999.2500   -999.2500   -999.2500    138.5329    -56.0620      4.1386      3.4382      4.1950   -999.2500   -999.2500  
   426.5000     14.2737     69.4985   -999.2500   -999.2500   -999.2500    138.5470    -55.8794      4.0792      3.3870      4.0432   -999.2500   -999.2500  
   427.0000     14.7800     69.5527   -999.2500   -999.2500   -999.2500    139.2387    -53.3361      4.0206      3.3373      3.8969   -999.2500   -999.2500  
   427.5000     15.4176     70.6545   -999.2500   -999.2500   -999.2500    139.1519    -52.3545      3.9629      3.3467      3.8520   -999.2500   -999.2500  
   428.0000     15.7975     71.0135   -999.2500   -999.2500   -999.2500    138.8186    -52.6060      3.9060      3.3561      3.8622   -999.2500   -999.2500  
   428.5000     16.0622     67.9710   -999.2500   -999.2500   -999.2500    139.7675    -53.2360      3.8499      3.3655      3.8725   -999.2500   -999.2500  
   429.0000     16.2327     63.7401   -999.2500   -999.2500   -999.2500    142.3576    -53.6173      3.8515      3.3613      4.0462   -999.2500   -999.2500  
   429.5000     15.9618     60.2677   -999.2500   -999.2500   -999.2500    145.2895    -55.5980      4.0969      3.3463      4.2763   -999.2500   -999.2500  
   430.0000     15.6620     57.0334   -999.2500   -999.2500   -999.2500    146.5047    -57.2291      4.8889      3.3314      4.5286   -999.2500   -999.2500  
   430.5000     16.1022     55.3883   -999.2500   -999.2500   -999.2500    146.8791    -58.5489      5.8340      3.3165      4.7958   -999.2500   -999.2500  
   431.0000     16.2360     55.9863   -999.2500   -999.2500   -999.2500    146.5869    -59.9355      6.6076      3.3405      5.0787   -999.2500   -999.2500  
   431.5000     16.2131     59.8794   -999.2500   -999.2500   -999.2500    146.4599    -60.6619      5.8907      3.3653      5.3784   -999.2500   -999.2500  
   432.0000     16.1009     65.2224   -999.2500   -999.2500   -999.2500    149.5411    -59.6076      5.2515      3.3902      5.5905   -999.2500   -999.2500  
   432.5000     15.9306     70.1977   -999.2500   -999.2500   -999.2500    154.3925    -56.6651      4.6816      3.4154      4.9531   -999.2500   -999.2500  
   433.0000     16.0601     71.7224   -999.2500   -999.2500   -999.2500    152.0743    -56.1381      4.1736      3.4407      4.3884   -999.2500   -999.2500  
   433.5000     15.4241     71.1915   -999.2500   -999.2500   -999.2500    146.3006    -58.0552      4.0235      3.4662      4.2111   -999.2500   -999.2500  
   434.0000     14.5880     70.5995   -999.2500   -999.2500   -999.2500    143.9530    -56.3840      4.0029      3.4159      4.1723   -999.2500   -999.2500  
   434.5000     13.8374     69.9970   -999.2500   -999.2500   -999.2500    140.7604    -55.5107      4.0784      3.2300      4.3401   -999.2500   -999.2500  
