~VERSION INFORMATION
 VERS.                           2.00:        CWLS LOG ASCII STANDARD - VERSION 2.00
 WRAP.                             NO:        ONE LINE PER DEPTH STEP
~WELL INFORMATION
#MNEM.UNIT                   DATA             INFORMATION
#----------             --------------        ------------------------------
 STRT.F                       52.0000:        START DEPTH
 STOP.F                     2296.0000:        STOP DEPTH
 STEP.F                        0.5000:        STEP VALUE
 NULL.                      -999.2500:        NULL VALUE
 COMP.                     USGS/NPR-A:        COMPANY  
 LOC .                   23  22N  17W:        LOCATION   
 DATE.                        4/30/78:        LOG DATE 
 WELL.               SOUTH BARROW #19:        WELL     
 UWI .                   500232001200:        UNIQUE WELL ID 
 API .                   500232001200:        UNIQUE WELL IDENTIFIER 
 FLD .                   SOUTH BARROW:        FIELD    
 CNTY.                    NORTH SLOPE:        COUNTY  
 STAT.                         ALASKA:        STATE   
 CTRY.                            USA:        COUNTRY 
 OPER.                     USGS/NPR-A:        OPERATOR  
 SRVC.                   SCHLUMBERGER:        SERVICE COMPANY 
 LAT .                         0.0000:        LATITUDE
 LON .                         0.0000:        LONGITUDE
 DIGS.               CENTER LINE DATA:        DIGITIZING COMPANY 
~CURVE INFORMATION      
#MNEM        .UNIT         API CODE           CURVE DESCRIPTION
#-----------------      --------------        ------------------------------
 DEPT        .F                      :        1  DEPTH
 GR          .GAPI                   :        2  
 CALI        .IN                     :        3  
 RHOB        .G/C3                   :        4  
 DRHO        .G/C3                   :        5  
 NPHI        .%                      :        6  
 DT          .US/F                   :        7  
 SP          .MV                     :        8  
 ILD         .OHMM                   :        9  
 ILM         .OHMM                   :        10 
 LL8         .OHMM                   :        11 
 LLD         .OHMM                   :        12 
 LLS         .OHMM                   :        13 
 MSFL        .OHMM                   :        14 
~PARAMETER INFORMATION       
#MNEM.UNIT                  VALUE             DESCRIPTION OF MNEMONIC
#---------             ---------------        ------------------------------
 EKB .F                       30.0000:        KELLY BUSHING
 TD  .F                     2300.0000:        TOTAL DEPTH
 BHT .F                      173.0000:        BOTTOM HOLE TEMPERATURE
 BS  .                         8.5000:        BIT SIZE
 FD  .                        11.6000:        FLUID DENSITY
 CSIZ.                         9.6250:        CASING SIZE
 CBD .F                     1491.0000:        CASING DRILLER 1
 CBL .F                     1490.0000:        CASING LOGGER 1
 DFT .                  Miscellaneous:        TYPE FLUID IN HOLE
 DFV .                        46.0000:        VISCOSITY
 DFPH.                         8.5000:        PH
 DFL .                         6.0000:        FLUID LOSS
 RMS .                         0.1090:        RM
 MST .F                       58.0000:        RM MEAS. TEMP.
 RMF .                         0.0720:        RMF
 MFST.F                       61.0000:        RMF MEAS. TEMP.
 RMC .                         0.3000:        RMC
 MCST.F                       70.0000:        RMC MEAS. TEMP.
~OTHER INFORMATION
~A    DEPTH          GR        CALI        RHOB        DRHO        NPHI          DT          SP         ILD         ILM         LL8         LLD         LLS        MSFL  
# ...
  1828.0000     78.3711      9.4588      2.4764      0.0251     37.8597    103.0546   -999.2500   -999.2500   -999.2500   -999.2500     10.7683     10.4583      7.5914  
  1828.5000     79.2508      9.5297      2.4784      0.0271     37.9972    102.3037   -999.2500   -999.2500   -999.2500   -999.2500     10.6029     10.5421      7.0543  
  1829.0000     79.2243      9.6512      2.4816      0.0228     37.6269    102.7157   -999.2500   -999.2500   -999.2500   -999.2500     10.6528     10.6266      6.4775  
  1829.5000     78.9007      9.7395      2.4767      0.0100     38.1194    104.2367   -999.2500   -999.2500   -999.2500   -999.2500     10.7029     10.7117      5.2516  
  1830.0000     79.9310      9.6586      2.4915      0.0054     39.1994    106.1449   -999.2500   -999.2500   -999.2500   -999.2500     10.7533     10.7975      3.8974  
  1830.5000     81.6017      9.3787      2.4923      0.0031     39.9426    108.3311   -999.2500   -999.2500   -999.2500   -999.2500     10.8039     10.8993      5.2137  
  1831.0000     82.2354      9.2368      2.4894      0.0074     40.6145    109.2985   -999.2500   -999.2500   -999.2500   -999.2500     10.8597     11.0067      7.0584  
  1831.5000     81.6757      9.2442      2.4982      0.0222     40.3058    108.5759   -999.2500   -999.2500   -999.2500   -999.2500     11.0775     11.1153      6.3750  
  1832.0000     81.2330      9.2487      2.4886      0.0221     39.9631    107.7707   -999.2500   -999.2500   -999.2500   -999.2500     11.5953     11.3725      7.1447  
  1832.5000     80.0818      9.2521      2.4723      0.0137     39.6204    107.7421   -999.2500   -999.2500   -999.2500   -999.2500     12.1372     12.0972      9.0073  
  1833.0000     79.0634      9.2938      2.4792      0.0170     39.2777    107.6116   -999.2500   -999.2500   -999.2500   -999.2500     12.7045     12.0150      9.5293  
  1833.5000     78.9125      9.3340      2.4824      0.0233     39.0874    106.8393   -999.2500   -999.2500   -999.2500   -999.2500     13.0872     11.7224      9.4739  
  1834.0000     78.9420      9.2964      2.4778      0.0193     38.8482    105.5812   -999.2500   -999.2500   -999.2500   -999.2500     13.0872     11.6021      9.4188  
  1834.5000     78.9035      9.3031      2.4754      0.0108     38.6475    103.9421   -999.2500   -999.2500   -999.2500   -999.2500     13.2895     11.5664      9.3640  
  1835.0000     78.7653      9.3931      2.4874      0.0168     38.8146    103.6748   -999.2500   -999.2500   -999.2500   -999.2500     13.5156     11.6663      9.3096  
  1835.5000     79.7556      9.4840      2.4877      0.0173     39.3533    104.2824   -999.2500   -999.2500   -999.2500   -999.2500     13.7456     11.7671      8.3163  
  1836.0000     81.8554      9.3313      2.4670      0.0114     39.8920    106.1728   -999.2500   -999.2500   -999.2500   -999.2500     13.5933     12.0662      7.1660  
  1836.5000     82.6451      9.2299      2.4665      0.0080     40.4307    107.5856   -999.2500   -999.2500   -999.2500   -999.2500     13.6113     12.2244      8.2531  
  1837.0000     82.7135      9.2213      2.4803      0.0095     40.6533    107.4044   -999.2500   -999.2500   -999.2500   -999.2500     13.9268     12.1777      9.4958  
  1837.5000     82.3447      9.2517      2.4833      0.0078     40.5769    107.2497   -999.2500   -999.2500   -999.2500   -999.2500     14.5048     12.0461     10.1020  
  1838.0000     80.4272      9.2603      2.4716      0.0053     40.1649    106.5071   -999.2500   -999.2500   -999.2500   -999.2500     14.3154     11.8771      9.2617  
  1838.5000     77.4549      9.2606      2.4752      0.0121     38.9959    104.3388   -999.2500   -999.2500   -999.2500   -999.2500     13.9905     12.0942      8.5301  
  1839.0000     74.8805      9.2728      2.4770      0.0114     37.8270    102.7232   -999.2500   -999.2500   -999.2500   -999.2500     13.8769     12.5722      8.6846  
  1839.5000     73.2261      9.3653      2.4740      0.0001     36.6580    102.0657   -999.2500   -999.2500   -999.2500   -999.2500     13.8599     12.8310      9.7741  
  1840.0000     72.6688      9.4920      2.4767      0.0005     35.7895    102.3166   -999.2500   -999.2500   -999.2500   -999.2500     13.5144     12.8843      9.3397  
  1840.5000     72.0961      9.9397      2.4846      0.0001     35.1855    102.6667   -999.2500   -999.2500   -999.2500   -999.2500     12.7290     12.4377      7.9327  
  1841.0000     71.6702      9.7694      2.4938     -0.0017     36.1649    102.9088   -999.2500   -999.2500   -999.2500   -999.2500     11.0652     11.8716      5.9489  
  1841.5000     71.9018      9.3818      2.4926      0.0074     36.3111    102.5545   -999.2500   -999.2500   -999.2500   -999.2500     11.0816     11.4313      6.0779  
  1842.0000     72.4918      9.4232      2.4849      0.0070     36.1843    100.8906   -999.2500   -999.2500   -999.2500   -999.2500     11.6930     11.2119      7.3940  
  1842.5000     73.0071      9.5382      2.4803      0.0084     36.1951     99.7956   -999.2500   -999.2500   -999.2500   -999.2500     11.8786     11.3389      5.7290  
  1843.0000     73.7758      9.3369      2.4890      0.0154     36.3470     99.6464   -999.2500   -999.2500   -999.2500   -999.2500     11.9733     11.4672      3.5798  
  1843.5000     75.0000      9.1997      2.5016      0.0276     35.9492     99.7762   -999.2500   -999.2500   -999.2500   -999.2500     12.1077     11.5971      2.8911  
  1844.0000     76.9356      9.2855      2.5098      0.0402     35.5111    101.1729   -999.2500   -999.2500   -999.2500   -999.2500     12.1045     11.7284      3.6166  
  1844.5000     79.0558      9.3928      2.5143      0.0478     35.3324    103.7897   -999.2500   -999.2500   -999.2500   -999.2500     11.8259     11.8611      5.6574  
  1845.0000     79.9086      9.5002      2.4956      0.0535     36.1259    104.0695   -999.2500   -999.2500   -999.2500   -999.2500     11.2867     11.9954      7.7778  
  1845.5000     80.7614      9.6075      2.4799      0.0396     37.0828    103.5471   -999.2500   -999.2500   -999.2500   -999.2500     10.0407     12.1312      9.3221  
  1846.0000     79.3604      9.4666      2.4916      0.0313     38.1503    101.9545   -999.2500   -999.2500   -999.2500   -999.2500     10.6863     12.3768      9.2541  
  1846.5000     76.5548      9.4908      2.5002      0.0550     38.5334    101.8232   -999.2500   -999.2500   -999.2500   -999.2500     10.8473     12.5852      8.5504  
  1847.0000     75.1309      9.6269      2.4833      0.0375     38.9165    102.4485   -999.2500   -999.2500   -999.2500   -999.2500     10.1257     12.8250      8.5452  
  1847.5000     75.0834      9.3533      2.4809      0.0250     39.2997    103.8488   -999.2500   -999.2500   -999.2500   -999.2500     10.2532     13.3058      9.2574  
  1848.0000     75.2364      9.2121      2.4796      0.0168     38.4079    104.7232   -999.2500   -999.2500   -999.2500   -999.2500     10.3823     13.5813      9.5670  
  1848.5000     73.8084      9.1590      2.4769      0.0108     36.9151    102.9447   -999.2500   -999.2500   -999.2500   -999.2500     10.5129     13.6207      7.6803  
  1849.0000     71.7455      9.1657      2.4771      0.0173     35.4222    102.3551   -999.2500   -999.2500   -999.2500   -999.2500     10.6453     13.4082      5.1036  
  1849.5000     69.0246      9.1880      2.4911      0.0356     34.1187    101.0880   -999.2500   -999.2500   -999.2500   -999.2500     10.7555     13.1667      4.2202  
  1850.0000     67.0033      9.2171      2.5044      0.0442     33.5466     99.2429   -999.2500   -999.2500   -999.2500   -999.2500     10.7924     13.2316      4.8899  
  1850.5000     65.7113      9.2462      2.5166      0.0556     32.9964     97.8550   -999.2500   -999.2500   -999.2500   -999.2500     10.7969     13.4183      8.3086  
  1851.0000     65.0225      9.3440      2.5229      0.0674     32.4461     96.7916   -999.2500   -999.2500   -999.2500   -999.2500     10.4862     13.5746      8.2775  
  1851.5000     64.5240      9.4967      2.5273      0.0856     31.8959     96.3014   -999.2500   -999.2500   -999.2500   -999.2500     10.4646     13.5128      6.0083  
