~VERSION INFORMATION
 VERS.                           2.00:        CWLS LOG ASCII STANDARD - VERSION 2.00
 WRAP.                             NO:        ONE LINE PER DEPTH STEP
~WELL INFORMATION
#MNEM.UNIT                   DATA             INFORMATION
#----------             --------------        ------------------------------
 STRT.F                       78.0000:        START DEPTH
 STOP.F                     2392.0000:        STOP DEPTH
 STEP.F                        0.5000:        STEP VALUE
 NULL.                      -999.2500:        NULL VALUE
 COMP.              U.S.G.S./NPR -  A:        COMPANY  
 LOC .                    1  22N  18W:        LOCATION   
 DATE.                        2/14/78:        LOG DATE 
 WELL.               SOUTH BARROW #16:        WELL     
 UWI .                   500232001000:        UNIQUE WELL ID 
 API .                   500232001000:        UNIQUE WELL IDENTIFIER 
 FLD .                   SOUTH BARROW:        FIELD    
 CNTY.                    NORTH SLOPE:        COUNTY  
 STAT.                         ALASKA:        STATE   
 CTRY.                            USA:        COUNTRY 
 OPER.              U.S.G.S./NPR -  A:        OPERATOR  
 SRVC.                   SCHLUMBERGER:        SERVICE COMPANY 
 LAT .                         0.0000:        LATITUDE
 LON .                         0.0000:        LONGITUDE
 DIGS.               CENTER LINE DATA:        DIGITIZING COMPANY 
~CURVE INFORMATION      
#MNEM        .UNIT         API CODE           CURVE DESCRIPTION
#-----------------      --------------        ------------------------------
 DEPT        .F                      :        1  DEPTH
 CALI        .IN                     :        2  
 GR          .GAPI                   :        3  
 RHOB        .G/C3                   :        4  
 DRHO        .G/C3                   :        5  
 NPHI        .%                      :        6  
 DT          .US/F                   :        7  
 SP          .MV                     :        8  
 ILD         .OHMM                   :        9  
 ILM         .OHMM                   :        10 
 LL8         .OHMM                   :        11 
 LLD         .OHMM                   :        12 
 LLS         .OHMM                   :        13 
~PARAMETER INFORMATION       
#MNEM.UNIT                  VALUE             DESCRIPTION OF MNEMONIC
#---------             ---------------        ------------------------------
 EKB .F                       30.0000:        KELLY BUSHING
 TD  .F                     2399.0000:        TOTAL DEPTH
 BHT .F                       73.0000:        BOTTOM HOLE TEMPERATURE
 BS  .                         8.5000:        BIT SIZE
 FD  .                        11.0000:        FLUID DENSITY
 CSIZ.                         8.5000:        CASING SIZE
 CBD .F                     1489.0000:        CASING DRILLER 1
 CBL .F                     1487.0000:        CASING LOGGER 1
 DFT .                  Miscellaneous:        TYPE FLUID IN HOLE
 DFV .                        52.0000:        VISCOSITY
 DFPH.                         8.5000:        PH
 DFL .                         8.0000:        FLUID LOSS
 RMS .                         0.0210:        RM
 MST .F                       58.0000:        RM MEAS. TEMP.
 RMF .                         0.0130:        RMF
 MFST.F                       52.0000:        RMF MEAS. TEMP.
 RMC .                         0.0170:        RMC
 MCST.F                       56.0000:        RMC MEAS. TEMP.
~OTHER INFORMATION
~A    DEPTH        CALI          GR        RHOB        DRHO        NPHI          DT          SP         ILD         ILM         LL8         LLD         LLS  
# ...
  2220.0000      8.0000     84.4026      2.4902      0.0273     37.0829     99.2842    -81.4764   -999.2500   -999.2500   -999.2500      8.2985     10.4031  
  2220.5000      8.0947     87.5395      2.5032      0.0187     39.6446     99.5883    -81.5466   -999.2500   -999.2500   -999.2500      8.1237     10.2049  
  2221.0000      8.1584     89.3757      2.5137      0.0115     40.4683     99.9370    -81.6995   -999.2500   -999.2500   -999.2500      8.5819     10.2520  
  2221.5000      8.1748     90.0489      2.5225      0.0147     40.0939    100.4613    -81.7735   -999.2500   -999.2500   -999.2500      8.4874     10.2070  
  2222.0000      8.1732     89.6052      2.5329      0.0246     39.8025    101.0613    -81.8557   -999.2500   -999.2500   -999.2500      8.3406     10.0813  
  2222.5000      8.1822     88.6264      2.5388      0.0320     39.3920    101.2527    -81.9557   -999.2500   -999.2500   -999.2500      8.2139      9.9572  
  2223.0000      8.2021     88.4534      2.5163      0.0122     39.5127    101.1024    -82.1490   -999.2500   -999.2500   -999.2500      8.2336      9.8346  
  2223.5000      8.2103     88.8853      2.5063      0.0078     39.8053    100.8931    -82.3483   -999.2500   -999.2500   -999.2500      8.0387      9.6497  
  2224.0000      8.2095     88.8810      2.5036      0.0002     39.9385    100.0937    -82.4521   -999.2500   -999.2500   -999.2500      7.8311      9.4616  
  2224.5000      8.2100     88.7591      2.5039      0.0006     39.5343     99.1452    -82.4869   -999.2500   -999.2500   -999.2500      7.6288      9.2772  
  2225.0000      8.2194     88.7683      2.4973      0.0025     38.9351     98.1353    -82.5192   -999.2500   -999.2500   -999.2500      7.5900      9.0964  
  2225.5000      8.2290     89.1434      2.4878      0.0066     38.2763     97.9145    -82.6009   -999.2500   -999.2500   -999.2500      7.6455      8.9432  
  2226.0000      8.2409     89.4773      2.4791      0.0030     37.4848     98.6113    -82.6825   -999.2500   -999.2500   -999.2500      7.7014      8.9861  
  2226.5000      8.2462     90.0314      2.4678     -0.0005     37.6681    100.0899    -82.7968   -999.2500   -999.2500   -999.2500      7.7577      9.1425  
  2227.0000      8.2298     90.2365      2.4793     -0.0039     38.9177    101.3829    -82.9537   -999.2500   -999.2500   -999.2500      8.0895      9.4559  
  2227.5000      8.2179     89.5357      2.5038      0.0048     40.3811    101.5274    -83.1455   -999.2500   -999.2500   -999.2500      8.5211      9.9668  
  2228.0000      8.2123     88.9927      2.5084      0.0003     41.7816    100.8832    -83.3388   -999.2500   -999.2500   -999.2500      8.9758     10.5053  
  2228.5000      8.1960     88.9116      2.5161     -0.0043     41.8949    100.4783    -83.5264   -999.2500   -999.2500   -999.2500      9.2588     10.4859  
  2229.0000      8.1695     87.7165      2.5264     -0.0142     41.8019    100.3657    -83.6130   -999.2500   -999.2500   -999.2500      8.7584     10.0949  
  2229.5000      8.1694     87.1664      2.5156     -0.0127     42.7758    100.4992    -83.6643   -999.2500   -999.2500   -999.2500      8.1381      9.4206  
  2230.0000      8.1815     87.5784      2.4954     -0.0073     43.5918    100.6426    -83.7299   -999.2500   -999.2500   -999.2500      7.5242      8.8785  
  2230.5000      8.1892     88.6514      2.4824     -0.0011     43.3522    100.5734    -83.8643   -999.2500   -999.2500   -999.2500      7.5460      9.0586  
  2231.0000      8.1921     90.0701      2.4922      0.0074     42.4521    100.3327    -83.9858   -999.2500   -999.2500   -999.2500      7.9395      9.2424  
  2231.5000      8.1865     91.1344      2.4967      0.0137     41.4593    100.2721    -84.2052   -999.2500   -999.2500   -999.2500      8.1593      9.4299  
  2232.0000      8.1652     92.0716      2.4974      0.0118     40.8988    100.4479    -84.5080   -999.2500   -999.2500   -999.2500      8.2291      9.5169  
  2232.5000      8.1608     92.8744      2.4976      0.0101     40.9976    100.6013    -84.7367   -999.2500   -999.2500   -999.2500      8.2971      9.5267  
  2233.0000      8.1766     93.1740      2.4971      0.0163     41.4598    100.6892    -85.0060   -999.2500   -999.2500   -999.2500      8.2406      9.5364  
  2233.5000      8.1818     92.9628      2.4889      0.0103     41.6999    100.6714    -85.3609   -999.2500   -999.2500   -999.2500      8.2516      9.5475  
  2234.0000      8.1727     92.4673      2.4962      0.0043     41.8371    100.8638    -85.6673   -999.2500   -999.2500   -999.2500      8.3858      9.6537  
  2234.5000      8.1728     92.1332      2.5044      0.0044     41.3932    101.2345    -85.8541   -999.2500   -999.2500   -999.2500      8.5276      9.9190  
  2235.0000      8.1679     91.6368      2.5079      0.0045     40.7672    101.5680    -85.7281   -999.2500   -999.2500   -999.2500      8.6717     10.2713  
  2235.5000      8.1580     90.6711      2.5083      0.0045     40.1770    101.3299    -85.3558   -999.2500   -999.2500   -999.2500      8.7573     10.2879  
  2236.0000      8.1552     90.0446      2.5172      0.0017     39.3663    100.1707    -84.9558   -999.2500   -999.2500   -999.2500      8.5817     10.1184  
  2236.5000      8.1546     89.7475      2.5015     -0.0070     38.6875     99.2088    -84.5490   -999.2500   -999.2500   -999.2500      8.4045      9.9518  
  2237.0000      8.1506     89.2133      2.4896     -0.0190     38.9586     98.8198    -84.1513   -999.2500   -999.2500   -999.2500      8.2177      9.6653  
  2237.5000      8.1543     89.4479      2.5027     -0.0044     39.2298     98.8465    -83.7533   -999.2500   -999.2500   -999.2500      8.0352      9.2234  
  2238.0000      8.1801     89.8320      2.5077      0.0014     39.5614     99.1102    -83.6017   -999.2500   -999.2500   -999.2500      7.8851      9.2204  
  2238.5000      8.2081     90.0907      2.4859      0.0049     38.6879     99.8168    -83.5343   -999.2500   -999.2500   -999.2500      8.0505      9.6133  
  2239.0000      8.2320     90.2354      2.4736     -0.0028     37.8379    100.9048    -83.4506   -999.2500   -999.2500   -999.2500      8.2194     10.1508  
  2239.5000      8.2344     89.1742      2.4792      0.0056     37.8812    101.7706    -83.3280   -999.2500   -999.2500   -999.2500      8.3918     10.7182  
  2240.0000      8.2225     88.2813      2.4960      0.0031     38.4770    100.4341    -83.3738   -999.2500   -999.2500   -999.2500      8.4768     10.7511  
  2240.5000      8.1927     88.7347      2.5036      0.0017     39.0336     99.4112    -83.4452   -999.2500   -999.2500   -999.2500      8.4610     10.6323  
  2241.0000      8.1804     88.9932      2.4966      0.0032     39.7537     99.1605    -83.3082   -999.2500   -999.2500   -999.2500      8.4453     10.5149  
  2241.5000      8.2074     88.4613      2.4964      0.0102     40.2779     98.2609    -83.2222   -999.2500   -999.2500   -999.2500      8.4296     10.4207  
  2242.0000      8.2419     86.5809      2.4889      0.0070     39.7066     97.1604    -83.1481   -999.2500   -999.2500   -999.2500      8.4139     10.4780  
  2242.5000      8.2401     85.7804      2.4783      0.0036     38.9493     96.4845    -83.1008   -999.2500   -999.2500   -999.2500      8.3983     10.5356  
  2243.0000      8.1576     86.3347      2.4936      0.0131     38.2335     96.4341    -83.1486   -999.2500   -999.2500   -999.2500      8.4283     10.5526  
  2243.5000      8.1398     86.5253      2.4971      0.0151     37.8949     97.1093    -83.2822   -999.2500   -999.2500   -999.2500      8.4701     10.5641  
  2244.0000      8.1359     84.5247      2.4933      0.0131     37.5605     98.3316    -83.2773   -999.2500   -999.2500   -999.2500      8.7570     11.3478  
  2244.5000      8.1282     79.9696      2.4838      0.0104     35.6459     99.3091    -83.2896   -999.2500   -999.2500   -999.2500     10.3140     12.9492  
  2245.0000      8.1051     73.4940      2.4631      0.0016     33.2422     99.9624    -83.3378   -999.2500   -999.2500   -999.2500     12.5808     14.8768  
