~VERSION INFORMATION
 VERS.                           2.00:        CWLS LOG ASCII STANDARD - VERSION 2.00
 WRAP.                             NO:        ONE LINE PER DEPTH STEP
~WELL INFORMATION
#MNEM.UNIT                   DATA             INFORMATION
#----------             --------------        ------------------------------
 STRT.F                     1088.0000:        START DEPTH
 STOP.F                     2449.0000:        STOP DEPTH
 STEP.F                        0.5000:        STEP VALUE
 NULL.                      -999.2500:        NULL VALUE
 COMP.             UNITED STATES NAVY:        COMPANY  
 LOC .                   11  22N  18W:        LOCATION   
 DATE.                         4/7/70:        LOG DATE 
 WELL.                    GAS WELL #9:        WELL     
 UWI .                   500232000300:        UNIQUE WELL ID 
 API .                   500232000300:        UNIQUE WELL IDENTIFIER 
 FLD .                   SOUTH BARROW:        FIELD    
 CNTY.                   POINT BARROW:        COUNTY  
 STAT.                         ALASKA:        STATE   
 CTRY.                            USA:        COUNTRY 
 OPER.             UNITED STATES NAVY:        OPERATOR  
 SRVC.                   SCHLUMBERGER:        SERVICE COMPANY 
 LAT .                         0.0000:        LATITUDE
 LON .                         0.0000:        LONGITUDE
 DIGS.               CENTER LINE DATA:        DIGITIZING COMPANY 
~CURVE INFORMATION      
#MNEM        .UNIT         API CODE           CURVE DESCRIPTION
#-----------------      --------------        ------------------------------
 DEPT        .F                      :        1  DEPTH
 SP          .MV                     :        2  
 ASN         .OHMM                   :        3  
 ILD         .OHMM                   :        4  
 CILD        .MMHO                   :        5  
 CALI        .IN                     :        6  
 GR          .GAPI                   :        7  
 DRHO        .G/C3                   :        8  
 RHOB        .G/C3                   :        9  
 DT          .US/F                   :        10 
~PARAMETER INFORMATION       
#MNEM.UNIT                  VALUE             DESCRIPTION OF MNEMONIC
#---------             ---------------        ------------------------------
 EKB .F                       29.0000:        KELLY BUSHING
 TD  .F                     2450.0000:        TOTAL DEPTH
 BHT .F                       75.0000:        BOTTOM HOLE TEMPERATURE
 BS  .                         8.6250:        BIT SIZE
 FD  .                        10.7000:        FLUID DENSITY
 CSIZ.                         9.6250:        CASING SIZE
 CBD .F                     1100.0000:        CASING DRILLER 1
 CBL .F                     1102.0000:        CASING LOGGER 1
 DFT .                            Gel:        TYPE FLUID IN HOLE
 DFV .                        45.0000:        VISCOSITY
 DFPH.                         8.8000:        PH
 DFL .                         3.8000:        FLUID LOSS
 RMS .                         2.7500:        RM
 MST .F                       60.0000:        RM MEAS. TEMP.
 RMF .                         2.3600:        RMF
 MFST.F                       60.0000:        RMF MEAS. TEMP.
 RMC .                         3.7800:        RMC
 MCST.F                       60.0000:        RMC MEAS. TEMP.
~OTHER INFORMATION
~A    DEPTH          SP         ASN         ILD        CILD        CALI          GR        DRHO        RHOB          DT  
# ...
  1781.0000    -23.0165     10.4414      9.1768    106.5871      9.1141     73.7405      0.0855      2.4750    107.7254  
  1781.5000    -22.7158     10.8920      9.3747    103.4555      9.1760     70.1216      0.0776      2.4838    106.1097  
  1782.0000    -22.2151     11.1452      9.6953    100.3610      9.2106     68.1052      0.0724      2.4771    104.6256  
  1782.5000    -21.4869     11.3530     10.0415     97.8096      9.2285     69.5040      0.0771      2.4871    103.9412  
  1783.0000    -21.4861     11.5499     10.1751     95.9219      9.2291     71.4832      0.0808      2.4881    103.4167  
  1783.5000    -22.0901     11.6959     10.3768     94.6237      9.2226     72.2289      0.0808      2.4868    102.7531  
  1784.0000    -22.6003     11.7463     10.4114     94.8101      9.2016     70.7250      0.0525      2.4564    100.9915  
  1784.5000    -23.6075     12.0633     10.0953     96.1621      9.1606     68.3046      0.0318      2.4340     98.3022  
  1785.0000    -24.7388     12.5910      9.9615     98.1114      9.1090     64.8330      0.0270      2.4268     95.6711  
  1785.5000    -27.4273     13.4601      9.8121    100.2693      9.1009     62.6697      0.0238      2.4209     93.7648  
  1786.0000    -32.2835     14.4024      9.6289    101.8875      9.0797     58.2037      0.0291      2.4162     92.5812  
  1786.5000    -39.2241     14.9949      9.5058    102.9725      8.9800     51.3772      0.0211      2.3877     91.7874  
  1787.0000    -43.9940     15.1762      9.2394    105.3701      8.8933     49.0735      0.0318      2.3710     91.6834  
  1787.5000    -47.2421     15.2817      9.0030    107.7016      8.8650     50.5671      0.0191      2.3495     91.6285  
  1788.0000    -49.7120     15.2322      8.7862    109.6472      8.8605     48.9130      0.0176      2.3415     91.7879  
  1788.5000    -51.3657     15.1223      8.5672    111.5910      8.8561     47.6330      0.0142      2.3327     91.8653  
  1789.0000    -51.6532     15.0594      8.4793    113.0452      8.8516     47.6249      0.0130      2.3273     91.9135  
  1789.5000    -51.2742     15.0170      8.4132    114.2338      8.8475     46.4046      0.0143      2.3278     92.1781  
  1790.0000    -51.6162     14.8467      8.3550    115.0086      8.8450     44.4281      0.0265      2.3423     92.3788  
  1790.5000    -50.6125     14.7176      8.2695    115.4154      8.8425     43.4941      0.0225      2.3444     92.4093  
  1791.0000    -48.9914     14.5885      8.3313    115.3302      8.8400     44.3115      0.0240      2.3467     92.2854  
  1791.5000    -47.5324     14.4422      8.3223    115.0021      8.8374     44.9637      0.0267      2.3541     92.1136  
  1792.0000    -46.5200     14.4070      8.3357    115.0000      8.8349     44.9491      0.0364      2.3663     91.8603  
  1792.5000    -45.4986     14.4722      8.3995    114.5681      8.8324     45.3329      0.0472      2.3714     91.5130  
  1793.0000    -44.7480     14.4208      8.4396    113.3854      8.8291     46.2805      0.0417      2.3706     91.7241  
  1793.5000    -44.1638     14.2382      8.6205    111.4321      8.8238     48.2130      0.0485      2.3705     92.1744  
  1794.0000    -42.7977     13.6695      8.8967    108.1772      8.8186     52.2831      0.0401      2.3621     93.3564  
  1794.5000    -40.3115     12.6987      9.2724    104.3477      8.8133     54.1958      0.0479      2.3747     95.6556  
  1795.0000    -36.5689     11.9767      9.5776    101.0488      8.8080     55.3001      0.0492      2.3859     97.9922  
  1795.5000    -30.3785     11.7161      9.9124     98.0563      8.8082     57.6414      0.0643      2.4233     99.9091  
  1796.0000    -24.4885     11.7424     10.4650     95.0204      8.9014     63.2136      0.0787      2.4807    101.0318  
  1796.5000    -21.5565     11.8481     10.7416     91.1573      9.1180     68.4903      0.0819      2.5231    100.9527  
  1797.0000    -21.1748     11.8100     11.0964     87.8177      9.3504     69.3759      0.0647      2.5231    100.7838  
  1797.5000    -21.3735     11.8575     11.5148     85.2384      9.4918     67.1923      0.0566      2.5000    101.1951  
  1798.0000    -21.2852     12.0036     11.9333     82.7644      9.4615     66.3964      0.0756      2.4976    101.2097  
  1798.5000    -20.5829     12.2087     12.1829     81.2002      9.3953     70.0817      0.0905      2.4954    100.8869  
  1799.0000    -19.8826     12.3317     12.3296     80.6632      9.3262     71.1716      0.0617      2.4821    100.1771  
  1799.5000    -19.6216     12.4220     12.4763     80.2205      9.2804     71.4608      0.0361      2.4521     98.9841  
  1800.0000    -19.4730     12.5841     12.6229     79.4867      9.2561     72.1545      0.0372      2.4518     97.3611  
  1800.5000    -19.4045     12.7579     12.6987     78.7285      9.2291     72.3430      0.0566      2.4717     95.8642  
  1801.0000    -19.4260     12.8271     12.7372     78.4018      9.1865     72.2484      0.0514      2.4448     95.3160  
  1801.5000    -19.4839     12.8868     12.7757     78.0752      9.1214     72.1506      0.0516      2.4248     96.6449  
  1802.0000    -19.4521     12.8638     12.7750     77.6752      9.1210     71.5154      0.0626      2.4194     98.9624  
  1802.5000    -19.4255     12.8106     12.7311     77.3213      9.1288     70.2689      0.0676      2.4290    100.6351  
  1803.0000    -19.3966     12.7885     12.6873     77.0310      9.1320     70.0249      0.0676      2.4409    101.5391  
  1803.5000    -18.9068     12.7923     12.6434     76.5274      9.1475     70.3166      0.0751      2.4592    101.3640  
  1804.0000    -17.9341     12.9021     12.8488     75.9232      9.2848     69.6960      0.0739      2.4714    101.2218  
  1804.5000    -17.4415     13.1205     13.0576     75.4427      9.4392     69.9190      0.0733      2.4784     99.6542  
  1805.0000    -17.6899     13.3073     13.2665     74.5887      9.5368     69.8982      0.0803      2.4946     97.5044  
  1805.5000    -17.3624     13.5675     13.4753     73.8068      9.5781     71.1589      0.0844      2.4984     96.7038  
  1806.0000    -16.8036     13.7461     13.6841     73.1952      9.5939     69.2996      0.0825      2.5082     95.7457  
  1806.5000    -16.3651     13.8859     13.8674     72.4100      9.6896     66.1963      0.0781      2.5103     96.0530  
  1807.0000    -16.7442     14.0119     13.8674     71.5600      9.6450     68.9941      0.0642      2.5008     97.4088  
  1807.5000    -17.2572     14.0709     13.8674     70.7917      9.6161     69.8919      0.0594      2.4829     98.1390  
  1808.0000    -16.8603     14.0060     13.8667     71.3590      9.7532     69.1619      0.0651      2.4764     98.8698  
  1808.5000    -16.3447     13.9427     13.7580     71.8199      9.9534     68.1090      0.0675      2.4716     98.2306  
  1809.0000    -16.3031     13.8059     13.6493     72.4174     10.4336     67.8698      0.0627      2.4660     97.6338  
  1809.5000    -16.4318     13.6689     13.5406     72.9309     10.1280     68.1173      0.0555      2.4556     97.6403  
  1810.0000    -16.8953     13.5831     13.4319     73.1872      9.8481     69.4767      0.0476      2.4519     97.8362  
  1810.5000    -17.4056     13.5301     13.3383     73.3329      9.9934     71.6398      0.0540      2.4524     98.2374  
  1811.0000    -17.3925     13.5386     13.3302     73.6063      9.9817     73.6510      0.0822      2.4711     98.8046  
  1811.5000    -17.3671     13.5419     13.3220     73.5386     10.0445     75.2840      0.1018      2.4958     99.2064  
  1812.0000    -17.3721     13.5569     13.3139     73.3269     10.1544     74.6158      0.1046      2.4905    100.1045  
  1812.5000    -17.1580     13.5894     13.3057     73.4605      9.9271     75.9574      0.0994      2.4706     99.7491  
  1813.0000    -16.8871     13.6137     13.3711     73.3025     10.1649     72.6196      0.0856      2.4523     99.0042  
  1813.5000    -16.7910     13.6913     13.5137     72.7280     10.6834     70.5696      0.0780      2.4420     97.3346  
