~VERSION INFORMATION
 VERS.                           2.00:        CWLS LOG ASCII STANDARD - VERSION 2.00
 WRAP.                             NO:        ONE LINE PER DEPTH STEP
~WELL INFORMATION
#MNEM.UNIT                   DATA             INFORMATION
#----------             --------------        ------------------------------
 STRT.F                       52.0000:        START DEPTH
 STOP.F                     2296.0000:        STOP DEPTH
 STEP.F                        0.5000:        STEP VALUE
 NULL.                      -999.2500:        NULL VALUE
 COMP.                     USGS/NPR-A:        COMPANY  
 LOC .                   23  22N  17W:        LOCATION   
 DATE.                        4/30/78:        LOG DATE 
 WELL.               SOUTH BARROW #19:        WELL     
 UWI .                   500232001200:        UNIQUE WELL ID 
 API .                   500232001200:        UNIQUE WELL IDENTIFIER 
 FLD .                   SOUTH BARROW:        FIELD    
 CNTY.                    NORTH SLOPE:        COUNTY  
 STAT.                         ALASKA:        STATE   
 CTRY.                            USA:        COUNTRY 
 OPER.                     USGS/NPR-A:        OPERATOR  
 SRVC.                   SCHLUMBERGER:        SERVICE COMPANY 
 LAT .                         0.0000:        LATITUDE
 LON .                         0.0000:        LONGITUDE
 DIGS.               CENTER LINE DATA:        DIGITIZING COMPANY 
~CURVE INFORMATION      
#MNEM        .UNIT         API CODE           CURVE DESCRIPTION
#-----------------      --------------        ------------------------------
 DEPT        .F                      :        1  DEPTH
 GR          .GAPI                   :        2  
 CALI        .IN                     :        3  
 RHOB        .G/C3                   :        4  
 DRHO        .G/C3                   :        5  
 NPHI        .%                      :        6  
 DT          .US/F                   :        7  
 SP          .MV                     :        8  
 ILD         .OHMM                   :        9  
 ILM         .OHMM                   :        10 
 LL8         .OHMM                   :        11 
 LLD         .OHMM                   :        12 
 LLS         .OHMM                   :        13 
 MSFL        .OHMM                   :        14 
~PARAMETER INFORMATION       
#MNEM.UNIT                  VALUE             DESCRIPTION OF MNEMONIC
#---------             ---------------        ------------------------------
 EKB .F                       30.0000:        KELLY BUSHING
 TD  .F                     2300.0000:        TOTAL DEPTH
 BHT .F                      173.0000:        BOTTOM HOLE TEMPERATURE
 BS  .                         8.5000:        BIT SIZE
 FD  .                        11.6000:        FLUID DENSITY
 CSIZ.                         9.6250:        CASING SIZE
 CBD .F                     1491.0000:        CASING DRILLER 1
 CBL .F                     1490.0000:        CASING LOGGER 1
 DFT .                  Miscellaneous:        TYPE FLUID IN HOLE
 DFV .                        46.0000:        VISCOSITY
 DFPH.                         8.5000:        PH
 DFL .                         6.0000:        FLUID LOSS
 RMS .                         0.1090:        RM
 MST .F                       58.0000:        RM MEAS. TEMP.
 RMF .                         0.0720:        RMF
 MFST.F                       61.0000:        RMF MEAS. TEMP.
 RMC .                         0.3000:        RMC
 MCST.F                       70.0000:        RMC MEAS. TEMP.
~OTHER INFORMATION
~A    DEPTH          GR        CALI        RHOB        DRHO        NPHI          DT          SP         ILD         ILM         LL8         LLD         LLS        MSFL  
# ...
  1540.0000     79.7425      8.8168      2.5333      0.0267     44.1400    107.0720    -49.7733   -999.2500   -999.2500   -999.2500     13.9597     11.9801      7.7024  
  1540.5000     78.2018      8.8748      2.5166      0.0415     45.0241    107.6835    -49.7716   -999.2500   -999.2500   -999.2500     13.8751     11.7475      7.8376  
  1541.0000     76.4004      8.9642      2.5066      0.0423     44.3388    106.1735    -49.7700   -999.2500   -999.2500   -999.2500     13.7712      8.8783      8.6262  
  1541.5000     74.9880      8.9599      2.5005      0.0254     44.4153    105.1623    -49.7418   -999.2500   -999.2500   -999.2500     12.8983      9.1107      8.8299  
  1542.0000     73.4475      8.8834      2.4920     -0.0025     44.8575    104.6346    -49.6154   -999.2500   -999.2500   -999.2500     12.1885     12.1859      8.2890  
  1542.5000     72.1261      8.8133      2.5053      0.0116     45.1556    104.9991    -49.5465   -999.2500   -999.2500   -999.2500     15.9835     12.3867      8.4282  
  1543.0000     72.8287      8.8313      2.5270      0.0281     44.3934    107.2078    -49.3928   -999.2500   -999.2500   -999.2500     16.1982     12.3610      9.1029  
  1543.5000     75.5877      8.8461      2.5097      0.0170     43.6313    107.8547    -49.2288   -999.2500   -999.2500   -999.2500     13.0484     13.7913      9.1199  
  1544.0000     78.2908      8.8475      2.4898      0.0066     42.8691    107.7222    -48.9561   -999.2500   -999.2500   -999.2500     12.0661     15.6734      8.5690  
  1544.5000     78.6544      8.8602      2.4961      0.0134     43.2891    107.5614    -48.6661   -999.2500   -999.2500   -999.2500     15.7689     15.2961      8.1231  
  1545.0000     77.4800      8.8584      2.4905      0.0128     43.1568    108.0083    -48.4282   -999.2500   -999.2500   -999.2500     13.7236     13.7059      6.2951  
  1545.5000     76.6367      8.8763      2.4859      0.0048     42.6145    108.4966    -48.1475   -999.2500   -999.2500   -999.2500     13.4359     14.1887      2.8234  
  1546.0000     75.4783      8.8724      2.4849      0.0013     41.5773    106.5473    -47.8689   -999.2500   -999.2500   -999.2500     13.1542     15.5498      0.8866  
  1546.5000     73.5745      8.8677      2.4842      0.0002     40.3755    105.5031    -47.8137   -999.2500   -999.2500   -999.2500     13.7167     16.2648      0.5851  
  1547.0000     71.2856      8.8591      2.4769      0.0019     40.6575    104.9849    -48.0214   -999.2500   -999.2500   -999.2500     14.5274     15.7440      1.6281  
  1547.5000     69.3458      8.8552      2.4515      0.0034     41.5779    103.6102    -48.3129   -999.2500   -999.2500   -999.2500     15.1065     15.2074      5.6787  
  1548.0000     66.5957      8.8446      2.3962     -0.0036     41.2674    104.4305    -48.4998   -999.2500   -999.2500   -999.2500     14.0005     14.3678      7.7374  
  1548.5000     63.7493      8.8341      2.3348      0.0012     40.7897    120.3594    -48.7835   -999.2500   -999.2500   -999.2500     13.1447     13.5566      7.5875  
  1549.0000     62.5428      8.8821      2.2835      0.0159     40.3119    122.1088    -49.0847   -999.2500   -999.2500   -999.2500     12.5927     13.3985      7.9009  
  1549.5000     63.4652      9.0633      2.2611      0.0443     39.9821    121.6518    -49.1450   -999.2500   -999.2500   -999.2500     10.9829     13.7417      8.1068  
  1550.0000     67.4561      9.7893      2.2607      0.0129     43.7765    111.0278    -49.2973   -999.2500   -999.2500   -999.2500     12.6468     13.9404      8.2270  
  1550.5000     73.9394     10.1554      2.3374      0.0029     44.9468    100.5194    -49.4801   -999.2500   -999.2500   -999.2500     14.3793     13.9037      8.3987  
  1551.0000     78.6532      9.0178      2.4679      0.0096     41.1563    101.8268    -49.5805   -999.2500   -999.2500   -999.2500     13.4332     13.6914      9.1050  
  1551.5000     80.6320      8.9348      2.4907      0.0189     38.5523    104.4447    -49.7021   -999.2500   -999.2500   -999.2500     13.2526     13.5862      9.3499  
  1552.0000     80.7993      8.8779      2.4787      0.0092     37.3373    105.4230    -49.7744   -999.2500   -999.2500   -999.2500     13.9723     13.5444      9.2860  
  1552.5000     80.2868      8.8763      2.4794      0.0128     37.2067    105.8391    -49.8069   -999.2500   -999.2500   -999.2500     13.9162     13.5299      9.3147  
  1553.0000     80.8025      8.8895      2.4896      0.0134     37.4929    105.5628    -49.7712   -999.2500   -999.2500   -999.2500     11.6483     13.5995     10.0325  
  1553.5000     81.9220      8.8940      2.4818      0.0063     37.2212    105.2856    -49.7355   -999.2500   -999.2500   -999.2500     12.6278     13.8064     10.5529  
  1554.0000     81.7919      8.8886      2.4809     -0.0030     37.4866    104.6445    -49.6998   -999.2500   -999.2500   -999.2500     13.7075     13.6625      7.8983  
  1554.5000     80.5618      8.8789      2.4907     -0.0038     38.3882    103.9421    -49.6760   -999.2500   -999.2500   -999.2500     13.6393     13.2142      4.8076  
  1555.0000     78.9935      8.8629      2.5013      0.0053     38.8001    103.4700    -49.7751   -999.2500   -999.2500   -999.2500     13.5715     12.7805      3.9685  
  1555.5000     77.3271      8.8618      2.5029      0.0080     38.5495    102.5714    -49.7067   -999.2500   -999.2500   -999.2500     13.5676     12.6639      5.8794  
  1556.0000     77.3301      8.8670      2.4999      0.0132     38.2990    103.4644    -49.4609   -999.2500   -999.2500   -999.2500     13.8068     12.6002      9.0246  
  1556.5000     78.0254      8.8652      2.5031      0.0199     38.3022    105.1410    -49.6199   -999.2500   -999.2500   -999.2500     14.0503     12.8409      8.8719  
  1557.0000     78.2766      8.8735      2.5045      0.0327     39.6660    106.2941    -49.5581   -999.2500   -999.2500   -999.2500     14.2981     13.0608      8.1747  
  1557.5000     78.3915      8.9047      2.5099      0.0570     40.9995    107.3630    -49.4739   -999.2500   -999.2500   -999.2500     14.3673     13.2244      7.2452  
  1558.0000     78.3027      8.9352      2.4947      0.0612     42.6253    108.7279    -49.4633   -999.2500   -999.2500   -999.2500     13.8751     12.9414      6.2963  
  1558.5000     78.0040      8.9435      2.4614      0.0209     44.1970    106.7825    -49.4697   -999.2500   -999.2500   -999.2500     13.0555     12.4491      4.5376  
  1559.0000     76.8074      8.9312      2.4764      0.0002     43.7293    105.6037    -49.4090   -999.2500   -999.2500   -999.2500     11.6889     11.9755      4.4393  
  1559.5000     74.5987      8.9292      2.4986      0.0069     42.5265    105.2642    -48.9730   -999.2500   -999.2500   -999.2500     12.5870     12.3903      6.5862  
  1560.0000     73.1087      8.9338      2.5162      0.0206     41.4527    104.5163    -48.7348   -999.2500   -999.2500   -999.2500     13.9228     12.8541      9.1512  
  1560.5000     74.5597      8.9497      2.5260      0.0321     42.1326     99.6113    -48.4233   -999.2500   -999.2500   -999.2500     16.9214     13.3352      9.5877  
  1561.0000     78.3025      8.9823      2.5178      0.0369     43.3455    108.0271    -48.2093   -999.2500   -999.2500   -999.2500     19.8940     13.2350      7.8309  
  1561.5000     81.9523      8.9687      2.5207      0.0506     43.7288    108.6103    -48.2661   -999.2500   -999.2500   -999.2500     20.0439     12.7061      6.7038  
  1562.0000     83.1658      9.0525      2.4989      0.0589     43.6417    108.6765    -48.2486   -999.2500   -999.2500   -999.2500     20.3500     12.7687      7.6422  
  1562.5000     81.5234      9.2213      2.4706      0.0298     43.6238    108.2165    -48.3347   -999.2500   -999.2500   -999.2500     18.5084     12.8639      8.8357  
  1563.0000     80.2518      9.1114      2.4822      0.0101     43.6228    106.2878    -48.5120   -999.2500   -999.2500   -999.2500     15.9685     13.0066      8.8762  
  1563.5000     79.5250      9.0015      2.4965      0.0152     43.2600    106.0309    -48.6079   -999.2500   -999.2500   -999.2500     17.1270     13.2299      8.9139  
