~VERSION INFORMATION
 VERS.                           2.00:        CWLS LOG ASCII STANDARD - VERSION 2.00
 WRAP.                             NO:        ONE LINE PER DEPTH STEP
~WELL INFORMATION
#MNEM.UNIT                   DATA             INFORMATION
#----------             --------------        ------------------------------
 STRT.F                       98.0000:        START DEPTH
 STOP.F                     2124.0000:        STOP DEPTH
 STEP.F                        0.5000:        STEP VALUE
 NULL.                      -999.2500:        NULL VALUE
 COMP.          USGS/NPR-A OPERATIONS:        COMPANY  
 LOC .                   24  22N  17W:        LOCATION   
 DATE.                        10/5/80:        LOG DATE 
 WELL.               SOUTH BARROW #18:        WELL     
 UWI .                   500232001700:        UNIQUE WELL ID 
 API .                   500232001700:        UNIQUE WELL IDENTIFIER 
 FLD .                   SOUTH BARROW:        FIELD    
 CNTY.                    NORTH SLOPE:        COUNTY  
 STAT.                         ALASKA:        STATE   
 CTRY.                            USA:        COUNTRY 
 OPER.          USGS/NPR-A OPERATIONS:        OPERATOR  
 SRVC.                   SCHLUMBERGER:        SERVICE COMPANY 
 LAT .                         0.0000:        LATITUDE
 LON .                         0.0000:        LONGITUDE
 DIGS.               CENTER LINE DATA:        DIGITIZING COMPANY 
~CURVE INFORMATION      
#MNEM        .UNIT         API CODE           CURVE DESCRIPTION
#-----------------      --------------        ------------------------------
 DEPT        .F                      :        1  DEPTH
 CALI        .IN                     :        2  
 GR          .GAPI                   :        3  
 NPHI        .%                      :        4  
 RHOB        .G/C3                   :        5  
 DRHO        .G/C3                   :        6  
 DT          .US/F                   :        7  
 SP          .MV                     :        8  
 ILD         .OHMM                   :        9  
 ILM         .OHMM                   :        10 
 SFL         .OHMM                   :        11 
 LLD         .OHMM                   :        12 
 LLS         .OHMM                   :        13 
 MSFL        .OHMM                   :        14 
~PARAMETER INFORMATION       
#MNEM.UNIT                  VALUE             DESCRIPTION OF MNEMONIC
#---------             ---------------        ------------------------------
 EKB .F                       30.0000:        KELLY BUSHING
 TD  .F                     2125.0000:        TOTAL DEPTH
 BHT .F                        0.0000:        BOTTOM HOLE TEMPERATURE
 BS  .                         8.5000:        BIT SIZE
 FD  .                        10.3000:        FLUID DENSITY
 CSIZ.                         9.6250:        CASING SIZE
 CBD .F                     1519.0000:        CASING DRILLER 1
 CBL .F                     1520.0000:        CASING LOGGER 1
 DFT .                  Miscellaneous:        TYPE FLUID IN HOLE
 DFV .                        47.0000:        VISCOSITY
 DFPH.                         8.5000:        PH
 DFL .                        14.0000:        FLUID LOSS
 RMS .                         0.1600:        RM
 MST .F                       43.0000:        RM MEAS. TEMP.
 RMF .                         0.1100:        RMF
 MFST.F                       43.0000:        RMF MEAS. TEMP.
 RMC .                         0.1200:        RMC
 MCST.F                       43.0000:        RMC MEAS. TEMP.
~OTHER INFORMATION
~A    DEPTH        CALI          GR        NPHI        RHOB        DRHO          DT          SP         ILD         ILM         SFL         LLD         LLS        MSFL  
# ...
  1778.0000      9.7477     99.6364     37.4855      2.4794      0.0207     99.4016   -999.2500   -999.2500   -999.2500   -999.2500      9.9227      8.3632      2.4939  
  1778.5000      9.7209     98.6788     37.5802      2.4656      0.0145     93.0969   -999.2500   -999.2500   -999.2500   -999.2500     10.3956      9.0650      2.7956  
  1779.0000      9.7190     94.3018     36.6058      2.4670      0.0185     90.2225   -999.2500   -999.2500   -999.2500   -999.2500     12.6778     10.5293      5.9335  
  1779.5000      9.6814     91.6869     36.0311      2.4805      0.0200     89.0051   -999.2500   -999.2500   -999.2500   -999.2500     16.1331     13.5669     13.6439  
  1780.0000      9.7052     87.3074     36.3164      2.5147      0.0153     91.5224   -999.2500   -999.2500   -999.2500   -999.2500     19.6664     16.6819     15.4882  
  1780.5000      9.7340     81.7910     36.0033      2.5530      0.0023     94.2580   -999.2500   -999.2500   -999.2500   -999.2500     20.2387     16.6772     11.9889  
  1781.0000      9.7247     78.1828     33.3063      2.5742      0.0103     82.6716   -999.2500   -999.2500   -999.2500   -999.2500     17.8412     15.2619     10.9691  
  1781.5000      9.6376     79.1532     29.6418      2.5642      0.0246     95.7768   -999.2500   -999.2500   -999.2500   -999.2500     16.1354     13.3278      9.7481  
  1782.0000      9.6135     81.4093     26.5742      2.5094      0.0129     96.8027   -999.2500   -999.2500   -999.2500   -999.2500     15.8237     12.8014      7.9779  
  1782.5000      9.6811     83.2211     26.8961      2.4917      0.0059     97.0466   -999.2500   -999.2500   -999.2500   -999.2500     15.4256     12.7390      7.1579  
  1783.0000      9.7176     85.2602     28.2544      2.5042      0.0164     96.3825   -999.2500   -999.2500   -999.2500   -999.2500     15.1946     12.6354      7.4848  
  1783.5000      9.7310     87.2432     28.7933      2.5021      0.0124     96.9434   -999.2500   -999.2500   -999.2500   -999.2500     14.7361     12.5462      6.2001  
  1784.0000      9.7470     89.1379     29.1517      2.4972      0.0046     97.7982   -999.2500   -999.2500   -999.2500   -999.2500     14.3409     12.1949      3.8571  
  1784.5000      9.7564     88.5913     29.3468      2.5005      0.0182     99.2290   -999.2500   -999.2500   -999.2500   -999.2500     13.9563     11.7617      2.6074  
  1785.0000      9.7636     88.3928     29.7116      2.5063      0.0353     98.8297   -999.2500   -999.2500   -999.2500   -999.2500     13.6244     11.3695      2.4205  
  1785.5000      9.7727     88.1397     29.2988      2.5030      0.0315     97.9482   -999.2500   -999.2500   -999.2500   -999.2500     13.4044     10.9976      2.8028  
  1786.0000      9.7865     87.4207     29.6939      2.4818      0.0276     96.4767   -999.2500   -999.2500   -999.2500   -999.2500     13.5858     11.2835      3.2547  
  1786.5000      9.9265     86.0452     30.4407      2.4749      0.0244     95.1021   -999.2500   -999.2500   -999.2500   -999.2500     13.9534     11.7196      3.8175  
  1787.0000      9.9124     84.5136     30.1776      2.4725      0.0234     94.0064   -999.2500   -999.2500   -999.2500   -999.2500     14.4528     12.2386      5.1481  
  1787.5000      9.8397     83.5343     29.8803      2.4725      0.0246     92.9347   -999.2500   -999.2500   -999.2500   -999.2500     15.2546     12.7214      7.5183  
  1788.0000      9.9573     83.1517     29.8826      2.4767      0.0225     83.9184   -999.2500   -999.2500   -999.2500   -999.2500     16.1010     13.1419      8.7868  
  1788.5000      9.9150     82.7551     29.4156      2.4822      0.0209     90.6257   -999.2500   -999.2500   -999.2500   -999.2500     16.6558     13.4637     10.3051  
  1789.0000      9.8271     82.5359     28.5697      2.4964      0.0209     94.7584   -999.2500   -999.2500   -999.2500   -999.2500     16.1660     13.4552     10.6516  
  1789.5000      9.8499     82.9134     27.4370      2.5007      0.0231     95.5669   -999.2500   -999.2500   -999.2500   -999.2500     15.8489     13.1577      9.2471  
  1790.0000      9.8303     84.3323     26.8046      2.5180      0.0259     96.9531   -999.2500   -999.2500   -999.2500   -999.2500     14.9846     12.4301      6.5927  
  1790.5000      9.8574     86.8752     26.3054      2.5277      0.0288     96.7084   -999.2500   -999.2500   -999.2500   -999.2500     14.3101     11.8225      5.3360  
  1791.0000      9.8775     89.8088     26.0843      2.5332      0.0343     96.5206   -999.2500   -999.2500   -999.2500   -999.2500     14.0618     11.4668      5.6988  
  1791.5000      9.8513     91.4512     26.1039      2.5445      0.0504    139.6514   -999.2500   -999.2500   -999.2500   -999.2500     13.9355     11.4750      7.1372  
  1792.0000      9.9408     92.3098     26.3068      2.5322      0.0375     93.7851   -999.2500   -999.2500   -999.2500   -999.2500     14.5939     11.9878      8.8722  
  1792.5000      9.9454     90.4051     26.6899      2.5032      0.0154     94.8730   -999.2500   -999.2500   -999.2500   -999.2500     15.2834     12.6488      8.3119  
  1793.0000      9.9163     90.2497     26.9997      2.5031      0.0108     94.6441   -999.2500   -999.2500   -999.2500   -999.2500     15.6319     12.9083      7.0320  
  1793.5000      9.8834     90.6257     27.7118      2.5055      0.0135     66.4634   -999.2500   -999.2500   -999.2500   -999.2500     14.8329     12.5759      5.0177  
  1794.0000      9.8815     92.0874     28.1881      2.5175      0.0212     84.9799   -999.2500   -999.2500   -999.2500   -999.2500     13.9929     11.7535      3.8017  
  1794.5000      9.8983     91.4858     28.6574      2.5278      0.0148     94.2419   -999.2500   -999.2500   -999.2500   -999.2500     13.1226     11.1397      3.5906  
  1795.0000      9.8802     90.7038     28.7600      2.5318      0.0129     97.1152   -999.2500   -999.2500   -999.2500   -999.2500     12.4842     10.5964      3.7714  
  1795.5000      9.8849     89.7064     28.6919      2.5264      0.0210     97.4164   -999.2500   -999.2500   -999.2500   -999.2500     12.3063     10.3782      4.1143  
  1796.0000      9.9063     88.5736     28.9095      2.5017      0.0230     97.1736   -999.2500   -999.2500   -999.2500   -999.2500     12.6931     10.6072      4.4607  
  1796.5000      9.9238     87.2542     30.0142      2.4881      0.0225     97.0419   -999.2500   -999.2500   -999.2500   -999.2500     12.8456     10.9155      4.0595  
  1797.0000      9.9587     89.0277     30.9496      2.4882      0.0241    102.4198   -999.2500   -999.2500   -999.2500   -999.2500     12.9721     11.0089      3.7145  
  1797.5000     10.0038     89.5292     31.4381      2.4910      0.0263    165.7270   -999.2500   -999.2500   -999.2500   -999.2500     12.9890     11.1031      3.8543  
  1798.0000     10.0167     89.4106     31.2407      2.4953      0.0289     95.9720   -999.2500   -999.2500   -999.2500   -999.2500     12.9217     11.1981      4.1563  
  1798.5000     10.0272     89.6087     31.2850      2.4990      0.0318     95.4630   -999.2500   -999.2500   -999.2500   -999.2500     13.1375     11.2939      4.0588  
  1799.0000     10.0382     88.0581     31.0682      2.4980      0.0352     95.3794   -999.2500   -999.2500   -999.2500   -999.2500     13.6979     11.4501      3.9595  
  1799.5000     10.0529     87.1981     30.9025      2.4957      0.0340     95.6833   -999.2500   -999.2500   -999.2500   -999.2500     14.1064     11.6478      3.8737  
  1800.0000     10.1622     86.2409     30.3359      2.4917      0.0220     96.3860   -999.2500   -999.2500   -999.2500   -999.2500     14.2899     12.0171      3.4239  
  1800.5000     10.0898     86.2539     30.2494      2.4870      0.0115     97.0887   -999.2500   -999.2500   -999.2500   -999.2500     14.6030     12.2546      3.3873  
  1801.0000     10.0270     87.0721     30.3425      2.4925      0.0200     97.6094   -999.2500   -999.2500   -999.2500   -999.2500     15.2752     12.2129      3.6629  
  1801.5000     10.0020     87.2784     30.0617      2.5008      0.0281     97.4120   -999.2500   -999.2500   -999.2500   -999.2500     14.4644     11.8461      3.5777  
