~VERSION INFORMATION
 VERS.                           2.00:        CWLS LOG ASCII STANDARD - VERSION 2.00
 WRAP.                             NO:        ONE LINE PER DEPTH STEP
~WELL INFORMATION
#MNEM.UNIT                   DATA             INFORMATION
#----------             --------------        ------------------------------
 STRT.F                       96.0000:        START DEPTH
 STOP.F                     2280.0000:        STOP DEPTH
 STEP.F                        0.5000:        STEP VALUE
 NULL.                      -999.2500:        NULL VALUE
 COMP.    USGS/NPR HUSKY OIL OPERATOR:        COMPANY  
 LOC .                   23  22N  17W:        LOCATION   
 DATE.                        9/11/80:        LOG DATE 
 WELL.               SOUTH BARROW #15:        WELL     
 UWI .                   500232001600:        UNIQUE WELL ID 
 API .                   500232001600:        UNIQUE WELL IDENTIFIER 
 FLD .                   SOUTH BARROW:        FIELD    
 CNTY.                    NORTH SLOPE:        COUNTY  
 STAT.                         ALASKA:        STATE   
 CTRY.                            USA:        COUNTRY 
 OPER.    USGS/NPR HUSKY OIL OPERATOR:        OPERATOR  
 SRVC.                   SCHLUMBERGER:        SERVICE COMPANY 
 LAT .                         0.0000:        LATITUDE
 LON .                         0.0000:        LONGITUDE
 DIGS.               CENTER LINE DATA:        DIGITIZING COMPANY 
~CURVE INFORMATION      
#MNEM        .UNIT         API CODE           CURVE DESCRIPTION
#-----------------      --------------        ------------------------------
 DEPT        .F                      :        1  DEPTH
 CALI        .IN                     :        2  
 GR          .GAPI                   :        3  
 RHOB        .G/C3                   :        4  
 DRHO        .G/C3                   :        5  
 NPHI        .%                      :        6  
 DT          .US/F                   :        7  
 SP          .MV                     :        8  
 ILD         .OHMM                   :        9  
 ILM         .OHMM                   :        10 
 SFL         .OHMM                   :        11 
 LLD         .OHMM                   :        12 
 LLS         .OHMM                   :        13 
 MSFL        .OHMM                   :        14 
~PARAMETER INFORMATION       
#MNEM.UNIT                  VALUE             DESCRIPTION OF MNEMONIC
#---------             ---------------        ------------------------------
 EKB .F                       30.0000:        KELLY BUSHING
 TD  .F                     2279.0000:        TOTAL DEPTH
 BHT .F                        0.0000:        BOTTOM HOLE TEMPERATURE
 BS  .                         8.5000:        BIT SIZE
 FD  .                        10.3000:        FLUID DENSITY
 CSIZ.                         9.6250:        CASING SIZE
 CBD .F                     1514.0000:        CASING DRILLER 1
 CBL .F                     1520.0000:        CASING LOGGER 1
 DFT .                  Miscellaneous:        TYPE FLUID IN HOLE
 DFV .                        43.0000:        VISCOSITY
 DFPH.                         0.0000:        PH
 DFL .                         0.0000:        FLUID LOSS
 RMS .                         0.1800:        RM
 MST .F                       48.0000:        RM MEAS. TEMP.
 RMF .                         0.1400:        RMF
 MFST.F                       48.0000:        RMF MEAS. TEMP.
 RMC .                         0.0000:        RMC
 MCST.F                        0.0000:        RMC MEAS. TEMP.
~OTHER INFORMATION
~A    DEPTH        CALI          GR        RHOB        DRHO        NPHI          DT          SP         ILD         ILM         SFL         LLD         LLS        MSFL  
# ...
  1752.0000     11.1065     89.6800      2.2536      0.1362     40.9090    109.3842   -999.2500   -999.2500   -999.2500   -999.2500     10.1557      8.0083      7.0851  
  1752.5000     10.0700     89.7981      2.2126      0.1090     41.0336    109.2757   -999.2500   -999.2500   -999.2500   -999.2500      9.7614      7.6112      5.8692  
  1753.0000     10.3565     89.4325      2.1884      0.1027     41.1416    108.6380   -999.2500   -999.2500   -999.2500   -999.2500      9.4658      7.8174      4.7432  
  1753.5000     10.2254     89.3660      2.1548      0.1102     40.7541    112.5170   -999.2500   -999.2500   -999.2500   -999.2500      9.3307      8.3243      5.5472  
  1754.0000     11.2362     90.1505      2.0787      0.0961     40.5997    111.7177   -999.2500   -999.2500   -999.2500   -999.2500      9.4530      8.8952      6.4267  
  1754.5000     12.0334     91.2004      2.0614      0.0980     41.6864    108.8726   -999.2500   -999.2500   -999.2500   -999.2500      9.5565      9.3859      6.8339  
  1755.0000     11.3194     92.0562      2.0979      0.1059     43.7700    109.3476   -999.2500   -999.2500   -999.2500   -999.2500     11.4248      9.4035      6.8599  
  1755.5000     11.9436     93.0805      2.1267      0.1054     46.1387    111.2852   -999.2500   -999.2500   -999.2500   -999.2500     10.5903      9.1888      5.8902  
  1756.0000     11.6855     92.5595      2.1436      0.1099     47.7798    113.2615   -999.2500   -999.2500   -999.2500   -999.2500      8.7580      8.3529      3.7870  
  1756.5000     10.6800     90.2658      2.1267      0.0861     47.7870    112.9313   -999.2500   -999.2500   -999.2500   -999.2500      7.8114      6.9146      2.1235  
  1757.0000     10.7325     87.9055      2.0596      0.0832     41.6503    111.6070   -999.2500   -999.2500   -999.2500   -999.2500      7.5177      5.6859      2.3519  
  1757.5000     12.0923     89.1313      1.9924      0.0968     40.7822    110.4852   -999.2500   -999.2500   -999.2500   -999.2500      8.3743      5.6432      4.3198  
  1758.0000     12.3140     91.1896      1.9856      0.1129     39.9141    110.2446   -999.2500   -999.2500   -999.2500   -999.2500      9.9898      6.9272      6.1218  
  1758.5000     12.7080     91.2975      2.0701      0.1209     37.9701    110.4990   -999.2500   -999.2500   -999.2500   -999.2500     10.6840      8.5650      8.1299  
  1759.0000     11.6576     90.3993      2.1803      0.1274     35.7735    112.1062   -999.2500   -999.2500   -999.2500   -999.2500     12.0673     10.5900     10.3160  
  1759.5000     11.9135     87.3942      2.2056      0.0953     34.3363    111.4795   -999.2500   -999.2500   -999.2500   -999.2500     15.7236     12.6849     12.1491  
  1760.0000     11.3468     79.6895      2.2161      0.0626     35.7024    112.6003   -999.2500   -999.2500   -999.2500   -999.2500     17.6844     14.9317     15.7922  
  1760.5000      9.7131     72.4235      2.2313      0.0222     38.0607    112.0546   -999.2500   -999.2500   -999.2500   -999.2500     15.6927     15.6746     16.0674  
  1761.0000      8.7380     74.6139      2.2061     -0.0149     41.5195    112.1329   -999.2500   -999.2500   -999.2500   -999.2500     12.8713     12.6376     12.6365  
  1761.5000      8.3461     82.0862      2.1447     -0.0022     44.3061    113.5576   -999.2500   -999.2500   -999.2500   -999.2500     10.5571     10.0168      9.3051  
  1762.0000      9.0533     90.0662      2.0588      0.0822     43.8451    114.6198   -999.2500   -999.2500   -999.2500   -999.2500      9.3043      8.4547      7.9073  
  1762.5000     10.9385     92.1756      2.0097      0.0913     42.5011    115.7497   -999.2500   -999.2500   -999.2500   -999.2500      9.0449      8.3760      8.2152  
  1763.0000     11.0673     92.3632      2.0829      0.1247     41.0591    115.3494   -999.2500   -999.2500   -999.2500   -999.2500      9.0412      8.4486      8.5916  
  1763.5000     10.7342     92.9786      2.1249      0.1255     40.1240    114.5358   -999.2500   -999.2500   -999.2500   -999.2500      9.3753      8.6001      8.6381  
  1764.0000     11.7178     93.3819      2.1586      0.1205     40.2182    113.1401   -999.2500   -999.2500   -999.2500   -999.2500      9.6707      8.2575      8.1030  
  1764.5000     10.6157     92.8656      2.2124      0.1278     40.5591    111.9566   -999.2500   -999.2500   -999.2500   -999.2500      9.6787      8.1479      7.5898  
  1765.0000     10.2124     91.0618      2.2449      0.1485     40.1659    109.9825   -999.2500   -999.2500   -999.2500   -999.2500      9.5552      8.6631      7.3138  
  1765.5000     10.0024     89.9883      2.2217      0.1379     39.4983    102.7667   -999.2500   -999.2500   -999.2500   -999.2500      9.5573      8.9369      7.2895  
  1766.0000     10.4089     89.0472      2.1349      0.1007     40.3171     97.9158   -999.2500   -999.2500   -999.2500   -999.2500      9.6179      8.5437      7.9054  
  1766.5000     11.8296     87.5688      2.0782      0.0765     40.5943     98.2531   -999.2500   -999.2500   -999.2500   -999.2500      9.4995      8.4909      8.4288  
  1767.0000     11.4637     85.9648      2.0326      0.0205     39.4484     99.7896   -999.2500   -999.2500   -999.2500   -999.2500      9.2360      8.3892      8.4603  
  1767.5000     10.5479     86.3206      2.0230     -0.0101     39.5229    106.3252   -999.2500   -999.2500   -999.2500   -999.2500      8.6128      7.9057      7.8976  
  1768.0000      9.4114     88.7268      2.0209      0.0342     40.1770    111.7022   -999.2500   -999.2500   -999.2500   -999.2500      8.0222      7.4172      6.1846  
  1768.5000     10.2236     91.6473      1.9778      0.0723     40.8312    111.6706   -999.2500   -999.2500   -999.2500   -999.2500      7.7530      7.0361      4.1517  
  1769.0000     11.9333     92.6394      1.9439      0.0718     41.2964    115.8476   -999.2500   -999.2500   -999.2500   -999.2500      7.5908      7.1379      3.8710  
  1769.5000     11.9202     92.6022      1.9697      0.0790     41.8395    115.5998   -999.2500   -999.2500   -999.2500   -999.2500      7.9247      7.6820      5.6549  
  1770.0000     11.9962     91.0025      1.9983      0.0841     41.1145    110.7998   -999.2500   -999.2500   -999.2500   -999.2500      8.6166      8.2906      8.0993  
  1770.5000     12.3282     89.0691      2.0366      0.0817     39.7557    111.5056   -999.2500   -999.2500   -999.2500   -999.2500      9.3688      8.5529      8.9585  
  1771.0000     12.3293     86.0777      2.0443      0.0591     39.3852    111.7731   -999.2500   -999.2500   -999.2500   -999.2500      9.5643      8.4710      8.9904  
  1771.5000     10.5606     83.6059      2.0499      0.0376     40.0953    112.7607   -999.2500   -999.2500   -999.2500   -999.2500      9.1405      8.3256      7.9096  
  1772.0000     10.7463     84.3575      2.0832      0.0817     41.3983    110.8673   -999.2500   -999.2500   -999.2500   -999.2500      8.8436      8.2885      6.5020  
  1772.5000     10.6853     85.5658      2.0803      0.1001     42.4893    109.7663   -999.2500   -999.2500   -999.2500   -999.2500      8.7120      8.3195      7.1418  
  1773.0000     11.4557     86.0977      2.0640      0.1134     41.9375    108.2458   -999.2500   -999.2500   -999.2500   -999.2500      9.1844      8.3694      8.0899  
  1773.5000     11.5655     86.7219      2.0632      0.1040     41.0171    110.4441   -999.2500   -999.2500   -999.2500   -999.2500      9.6335      8.5467      8.5182  
  1774.0000     11.8654     86.6170      2.0973      0.0836     40.8686    111.7355   -999.2500   -999.2500   -999.2500   -999.2500      9.7962      8.6383      8.7585  
  1774.5000     11.4621     86.1284      2.1476      0.0622     41.1659    114.2260   -999.2500   -999.2500   -999.2500   -999.2500      9.4122      8.2458      8.4340  
  1775.0000     10.4967     85.5356      2.1975      0.0628     41.9739    115.7602   -999.2500   -999.2500   -999.2500   -999.2500      9.1569      7.6243      7.1682  
  1775.5000     10.1981     85.5996      2.1975      0.0882     43.2813    114.2652   -999.2500   -999.2500   -999.2500   -999.2500      8.9085      6.9996      4.8776  
