~VERSION INFORMATION
 VERS.                           2.00:        CWLS LOG ASCII STANDARD - VERSION 2.00
 WRAP.                             NO:        ONE LINE PER DEPTH STEP
~WELL INFORMATION
#MNEM.UNIT                   DATA             INFORMATION
#----------             --------------        ------------------------------
 STRT.F                     1244.0000:        START DEPTH
 STOP.F                     2340.0000:        STOP DEPTH
 STEP.F                        0.5000:        STEP VALUE
 NULL.                      -999.2500:        NULL VALUE
 COMP.        U.S. NAVY DEPT NP & OSR:        COMPANY  
 LOC .                   14  22N  18W:        LOCATION   
 DATE.                        3/16/73:        LOG DATE 
 WELL.               SOUTH BARROW #10:        WELL     
 UWI .                   500232000400:        UNIQUE WELL ID 
 API .                   500232000400:        UNIQUE WELL IDENTIFIER 
 FLD .                   SOUTH BARROW:        FIELD    
 CNTY.                         NPR #4:        COUNTY  
 STAT.                         ALASKA:        STATE   
 CTRY.                            USA:        COUNTRY 
 OPER.        U.S. NAVY DEPT NP & OSR:        OPERATOR  
 SRVC.                   SCHLUMBERGER:        SERVICE COMPANY 
 LAT .                         0.0000:        LATITUDE
 LON .                         0.0000:        LONGITUDE
 DIGS.               CENTER LINE DATA:        DIGITIZING COMPANY 
~CURVE INFORMATION      
#MNEM        .UNIT         API CODE           CURVE DESCRIPTION
#-----------------      --------------        ------------------------------
 DEPT        .F                      :        1  DEPTH
 SP          .MV                     :        2  
 LL8         .OHMM                   :        3  
 ILD         .OHMM                   :        4  
 CILD        .MMHO                   :        5  
 DT          .US/F                   :        6  
~PARAMETER INFORMATION       
#MNEM.UNIT                  VALUE             DESCRIPTION OF MNEMONIC
#---------             ---------------        ------------------------------
 EKB .F                       38.0000:        KELLY BUSHING
 TD  .F                     2349.0000:        TOTAL DEPTH
 BHT .F                       60.0000:        BOTTOM HOLE TEMPERATURE
 BS  .                         9.6250:        BIT SIZE
 FD  .                        10.6000:        FLUID DENSITY
 CSIZ.                        10.7500:        CASING SIZE
 CBD .F                     1240.0000:        CASING DRILLER 1
 CBL .F                     1244.0000:        CASING LOGGER 1
 DFT .                  Miscellaneous:        TYPE FLUID IN HOLE
 DFV .                        15.0000:        VISCOSITY
 DFPH.                        11.0000:        PH
 DFL .                         1.8000:        FLUID LOSS
 RMS .                         1.1900:        RM
 MST .F                       55.0000:        RM MEAS. TEMP.
 RMF .                         0.8500:        RMF
 MFST.F                       55.0000:        RMF MEAS. TEMP.
 RMC .                         1.2000:        RMC
 MCST.F                       55.0000:        RMC MEAS. TEMP.
~OTHER INFORMATION
~A    DEPTH          SP         LL8         ILD        CILD          DT  
# ...
  1843.5000    -16.4879     10.8339      7.7297    124.9765    119.2404  
  1844.0000    -16.4335     10.9834      7.8271    123.7234    119.3463  
  1844.5000    -17.0065     11.0652      7.9147    122.4901    119.2236  
  1845.0000    -17.2314     11.1337      7.9916    121.3772    118.2781  
  1845.5000    -17.8415     11.1788      8.0578    120.6639    117.1384  
  1846.0000    -18.0079     11.1949      8.1139    119.8357    115.3891  
  1846.5000    -17.1601     11.1043      8.1034    119.2693    114.8558  
  1847.0000    -16.5150     10.9049      8.0986    120.2150    115.1333  
  1847.5000    -16.2145     10.6164      7.9737    122.2490    115.7286  
  1848.0000    -15.7139     10.3345      7.7733    125.5461    116.2437  
  1848.5000    -15.1406     10.0599      7.5398    128.7523    116.7820  
  1849.0000    -15.2015      9.7974      7.2706    132.8973    117.1236  
  1849.5000    -15.4441      9.5984      7.0892    136.1717    117.4341  
  1850.0000    -15.8627      9.3628      6.9070    139.6256    119.2258  
  1850.5000    -16.3384      9.2452      6.7137    142.8118    121.4039  
  1851.0000    -16.5343      9.1741      6.5695    144.7563    123.3542  
  1851.5000    -16.6718      9.2238      6.4544    146.0669    124.4914  
  1852.0000    -16.8324      9.2734      6.4187    147.3775    125.4953  
  1852.5000    -16.9892      9.3231      6.4034    148.6880    124.6746  
  1853.0000    -16.9782      9.3220      6.3607    150.0421    124.3919  
  1853.5000    -16.2788      9.2066      6.3366    151.4727    124.0047  
  1854.0000    -15.6026      9.0288      6.2153    153.3723    122.4281  
  1854.5000    -14.9320      8.9356      6.1191    155.6033    121.7956  
  1855.0000    -14.5520      8.9179      6.0538    156.3194    121.7220  
  1855.5000    -14.6114      8.9002      6.0834    156.5119    121.5964  
  1856.0000    -14.4665      8.9128      6.0325    157.4863    122.9650  
  1856.5000    -14.3037      8.7030      5.9662    159.0019    124.5297  
  1857.0000    -14.2261      8.6797      5.8779    160.4280    124.8755  
  1857.5000    -14.0991      8.8123      5.8386    161.4789    124.7666  
  1858.0000    -14.3178      8.9991      5.8566    160.3404    123.5465  
  1858.5000    -14.3833      9.2246      5.9842    157.5801    122.3381  
  1859.0000    -14.7022      9.4462      6.1923    152.6298    122.3137  
  1859.5000    -14.7099      9.5133      6.3578    149.1659    122.3981  
  1860.0000    -14.5086      9.6321      6.4329    146.9765    123.1521  
  1860.5000    -14.6657      9.8174      6.4563    145.0013    121.3957  
  1861.0000    -15.1484     10.1805      6.6569    142.9524    119.5322  
  1861.5000    -15.6129     10.4778      6.8513    138.1802    114.2648  
  1862.0000    -16.0021     10.8505      7.1837    132.6626    110.0371  
  1862.5000    -15.9199     11.2253      7.5681    126.3362    110.4061  
  1863.0000    -15.6523     11.4768      7.9524    121.4296    111.7642  
  1863.5000    -15.5040     11.6859      8.3368    117.2205    112.6015  
  1864.0000    -15.4635     12.1617      8.7211    113.7396    111.2741  
  1864.5000    -15.4050     12.7534      9.1055    109.8962    108.7441  
  1865.0000    -14.8731     12.9997      9.4898    106.2597    105.5049  
  1865.5000    -14.0665     13.1808      9.7531    103.1125    104.9127  
  1866.0000    -13.1987     13.1583      9.9717     99.9653    103.8495  
  1866.5000    -13.5811     12.8477     10.2085     97.4995    102.6998  
  1867.0000    -13.8898     12.5076     10.2445     96.4402    102.3804  
  1867.5000    -14.1879     12.1984     10.2728     96.7418    102.6657  
  1868.0000    -14.8043     11.9490     10.1680     98.2028    103.1721  
  1868.5000    -15.8213     11.7585      9.9654     99.1836    103.7737  
  1869.0000    -16.4604     11.5982      9.8503    100.4781    102.8010  
  1869.5000    -16.7368     11.4721      9.6879    101.7837    104.4788  
  1870.0000    -16.9427     11.4427      9.5819    102.2823    106.8881  
  1870.5000    -17.0864     11.4680      9.6039    102.6684    107.0670  
  1871.0000    -17.1026     11.5877      9.6413    103.0544    106.7700  
  1871.5000    -17.1626     11.7506      9.6730    103.4405    106.3128  
  1872.0000    -17.1367     11.8612      9.7048    103.3010    105.8359  
  1872.5000    -16.9663     11.8783      9.7365    102.5159    105.1625  
  1873.0000    -16.9091     11.9006      9.7683    101.7308    104.2992  
  1873.5000    -16.9349     11.9924      9.8000    100.9457    103.7679  
  1874.0000    -16.8534     12.1149      9.8501    100.4516    103.5862  
  1874.5000    -16.7276     12.2069      9.8921     99.8810    103.5793  
  1875.0000    -16.6556     12.1355      9.9375     99.6046    104.0988  
  1875.5000    -16.2846     12.0428      9.9442     99.5000    104.4608  
  1876.0000    -16.7872     12.0250      9.9012     99.5741    104.4270  
  1876.5000    -17.6089     12.1411      9.9395     99.4979    104.3259  
  1877.0000    -18.0255     12.3091     10.0151     98.9134    104.1764  
  1877.5000    -17.9302     12.4230     10.1087     97.8918    104.3939  
  1878.0000    -17.8067     12.4575     10.2023     97.1569    105.0752  
  1878.5000    -17.7773     12.5171     10.2960     97.4794    106.6136  
  1879.0000    -17.7743     12.6746     10.3896     97.0877    105.7317  
  1879.5000    -17.8394     12.8406     10.4636     96.8562    104.5617  
  1880.0000    -18.0954     12.9972     10.4661     96.3043    102.8620  
  1880.5000    -18.2221     13.0358     10.4476     95.6112    101.9717  
  1881.0000    -18.1544     12.8446     10.3078     95.8451    102.8816  
  1881.5000    -17.9785     12.5739     10.1681     96.4446    103.3307  
  1882.0000    -17.6866     12.4788     10.0937     98.9785    103.6137  
  1882.5000    -17.6577     12.1832     10.0187     98.9916    103.6619  
  1883.0000    -17.7578     12.1423      9.8900    100.2401    104.2926  
  1883.5000    -18.0390     12.1075      9.6842    100.9432    105.0491  
  1884.0000    -18.1804     12.0711      9.6687    101.2668    105.3816  
  1884.5000    -17.8934     12.0727      9.7300    101.2750    104.9638  
  1885.0000    -17.6008     12.2331      9.7806    100.9863    105.3527  
  1885.5000    -17.6684     12.6296      9.8872    100.2847    105.6813  
  1886.0000    -17.7689     13.0161     10.0438     98.8571    105.9389  
  1886.5000    -17.6208     13.2612     10.1824     96.5222    105.2146  
  1887.0000    -17.5699     13.3834     10.3210     94.9687    104.9358  
  1887.5000    -17.6721     13.5567     10.4596     93.6205    104.4132  
  1888.0000    -17.8862     13.7294     10.6054     92.0396    101.7020  
  1888.5000    -17.8668     13.8652     10.8199     90.4791    100.5650  
  1889.0000    -17.7672     13.8047     11.0505     90.2219    100.2048  
  1889.5000    -17.8082     13.4377     11.0356     90.5560    100.7183  
  1890.0000    -17.7958     13.1143     10.8742     92.6548    103.0618  
  1890.5000    -17.6882     12.9140     10.6154     94.5587    103.4619  
  1891.0000    -17.7642     12.8099     10.5217     95.7427    103.8809  
  1891.5000    -17.9591     12.7052     10.3487     96.6758    104.1798  
  1892.0000    -18.1813     12.5758     10.2792     97.5488    104.8980  
  1892.5000    -18.1291     12.4721     10.2035     97.5031    105.6162  
  1893.0000    -18.2956     12.4602     10.1752     97.7663    105.9688  
  1893.5000    -18.5425     12.5355     10.1267     97.9475    106.0816  
  1894.0000    -18.7719     12.5489     10.0884     98.0711    105.5696  
  1894.5000    -19.0329     12.4399     10.0702     98.1354    104.8927  
  1895.0000    -18.9892     12.1595     10.0465     98.7268    104.9423  
  1895.5000    -18.5993     11.9688     10.0191     99.3932    104.6376  
  1896.0000    -18.2602     11.9341      9.9916     99.7919    104.6225  
  1896.5000    -18.0777     11.9593      9.9642     99.6750    105.5106  
  1897.0000    -17.9924     11.8806      9.9292     99.7538    106.3463  
  1897.5000    -17.7892     11.7655      9.8611    100.0113    107.8630  
