~VERSION INFORMATION
 VERS.                           2.00:        CWLS LOG ASCII STANDARD - VERSION 2.00
 WRAP.                             NO:        ONE LINE PER DEPTH STEP
~WELL INFORMATION
#MNEM.UNIT                   DATA             INFORMATION
#----------             --------------        ------------------------------
 STRT.F                       25.0000:        START DEPTH
 STOP.F                     4165.0000:        STOP DEPTH
 STEP.F                        0.5000:        STEP VALUE
 NULL.                      -999.2500:        NULL VALUE
 COMP.    USGS/NPR HUSKY OIL OPERATOR:        COMPANY
 LOC .                     21 21N 14W:        LOCATION
 DATE.                         3/3/80:        LOG DATE
 WELL.                 WEST  DEASE #1:        WELL
 UWI .                   500232001400:        UNIQUE WELL ID
 API .                   500232001400:        UNIQUE WELL IDENTIFIER
 FLD .                        WILDCAT:        FIELD
 CNTY.                    NORTH SLOPE:        COUNTY
 STAT.                         ALASKA:        STATE
 CTRY.                            USA:        COUNTRY
 OPER.    USGS/NPR HUSKY OIL OPERATOR:        OPERATOR
 SRVC.                   SCHLUMBERGER:        SERVICE COMPANY
 LAT .                         0.0000:        LATITUDE
 LON .                         0.0000:        LONGITUDE
 DIGS.               CENTER LINE DATA:        DIGITIZING COMPANY
~CURVE INFORMATION      
#MNEM        .UNIT         API CODE           CURVE DESCRIPTION
#-----------------      --------------        ------------------------------
 DEPT        .F                      :        1  DEPTH
 SP          .MV                     :        2  
 LLD         .OHMM                   :        3  
 LLS         .OHMM                   :        4  
 MSFL        .OHMM                   :        5  
 CALI        .IN                     :        6  
 RHOB        .G/C3                   :        7  
 DRHO        .G/C3                   :        8  
 NPHI        .%                      :        9  
 GR          .GAPI                   :        10 
 DT          .US/F                   :        11 
~PARAMETER INFORMATION
#MNEM.UNIT                  VALUE             DESCRIPTION OF MNEMONIC
#---------             ---------------        ------------------------------
 EKB .F                       24.0000:        KELLY BUSHING
 TD  .F                     4173.0000:        TOTAL DEPTH
 BHT .F                       85.0000:        BOTTOM HOLE TEMPERATURE
 BS  .                        12.2500:        BIT SIZE
 FD  .                        10.4000:        FLUID DENSITY
 CSIZ.                        13.3750:        CASING SIZE
 CBD .F                      288.0000:        CASING DRILLER 1
 CBL .F                      292.0000:        CASING LOGGER 1
 DFT .                             99:        TYPE FLUID IN HOLE
 DFV .                        52.0000:        VISCOSITY
 DFPH.                         8.0000:        PH
 DFL .                         7.5000:        FLUID LOSS
 RMS .                         0.1250:        RM
 MST .F                       35.0000:        RM MEAS. TEMP.
 RMF .                         0.1440:        RMF
 MFST.F                       44.0000:        RMF MEAS. TEMP.
 RMC .                         0.2360:        RMC
 MCST.F                       36.0000:        RMC MEAS. TEMP.
~OTHER INFORMATION
~A    DEPTH          SP         LLD         LLS        MSFL        CALI        RHOB        DRHO        NPHI          GR          DT 
# ...
  3624.0000    -39.2684      6.1663      6.0370      0.6803     11.0164      1.7994      0.0581     34.4730     66.5665     88.1337 
  3624.5000    -39.3796      6.0339      5.9269      0.6024     11.0153      1.8194      0.0850     34.1104     66.0515     88.0765 
  3625.0000    -39.1047      5.9611      5.7312      0.6366     11.0182      1.8264      0.0831     34.0239     65.9552     88.1411 
  3625.5000    -38.7633      5.9164      5.7460      0.5778     11.0098      1.8260      0.0762     34.1820     65.9252     89.7237 
  3626.0000    -38.5935      6.0359      5.8341      0.5575     11.0015      1.8243      0.0811     33.2152     66.2299     91.3009 
  3626.5000    -38.7036      5.9598      5.8814      0.5268     10.9950      1.7985      0.0718     32.3281     66.5899     88.2245 
  3627.0000    -38.8464      5.8802      5.8898      0.4740     10.9958      1.7672      0.0660     32.2079     66.6173     91.8454 
  3627.5000    -39.0287      6.1365      6.0328      0.4760     10.9801      1.7651      0.0665     32.4720     65.8472     88.0085 
  3628.0000    -39.0772      6.4031      5.9563      0.5953     10.9644      1.8433      0.0737     35.4407     63.6359     86.9372 
  3628.5000    -39.0883      6.4999      5.8914      0.6838     10.9488      1.9209      0.0822     39.8191     62.2983     86.5061 
  3629.0000    -39.0993      5.8673      5.7004      0.5653     10.9537      1.9034      0.0813     40.6458     62.4072     87.4729 
  3629.5000    -39.1104      5.4010      5.3174      0.4334     10.9427      1.7785      0.0393     40.2735     63.4065     88.7293 
  3630.0000    -39.1239      5.0991      4.9618      0.3736     10.9409      1.7172      0.0436     38.1255     64.3971     89.1508 
  3630.5000    -39.1611      4.8667      4.7945      0.3538     10.9589      1.7748      0.0626     35.8258     65.6268     89.9083 
  3631.0000    -39.1983      5.1398      4.9216      0.3485     10.9844      1.8524      0.0738     35.2571     66.9652     96.4430 
  3631.5000    -39.2355      5.4757      5.1960      0.3832     11.3449      1.9301      0.0581     35.4785     67.4959     94.4488 
  3632.0000    -39.2055      5.7802      5.5786      0.4788     10.2200      1.9547      0.0448     34.4196     67.4668     92.3281 
  3632.5000    -39.0644      6.4887      6.0481      0.6790      9.5543      1.8738      0.0741     33.5192     67.4906     91.6830 
  3633.0000    -38.8146      6.4875      6.2742      0.7804      9.5300      1.7956      0.0764     32.9703     67.9686     84.8894 
  3633.5000    -38.7120      6.1377      6.0501      0.7240      9.5142      1.7815      0.0780     33.0681     67.9968     86.0024 
  3634.0000    -38.6913      6.0738      5.8055      0.6877      9.5182      1.7840      0.0915     33.2372     66.1332     87.3507 
  3634.5000    -38.6238      6.1063      5.8280      0.6294      9.5033      1.8613      0.1050     32.1450     64.3180     88.6765 
  3635.0000    -38.5197      5.9288      5.8320      0.6639      9.4951      2.0102      0.1396     29.2206     64.9039     88.4342 
  3635.5000    -38.4157      6.5954      6.1817      1.0278      9.4947      2.1491      0.1492     28.6737     65.7783     87.6880 
  3636.0000    -38.3775      7.2558      6.9167      2.6669      9.4622      2.2414      0.1194     29.0615     66.6187     86.7845 
  3636.5000    -38.4186      7.2756      7.1017      5.0265      9.4554      2.2974      0.0949     30.1524     67.6280     85.4011 
  3637.0000    -38.5083      7.2267      7.0807      5.0311      9.4917      2.3447      0.0916     30.9603     68.2766     85.1431 
  3637.5000    -38.5583      6.5659      6.2803      3.0040      9.5701      2.3433      0.1034     31.7682     67.9273     85.5238 
  3638.0000    -38.5449      6.2353      6.1230      1.6625      9.6102      2.3313      0.1153     31.1808     66.9248     86.9770 
  3638.5000    -38.4435      6.4563      6.2712      1.6282      9.6504      2.2803      0.1171     30.2868     65.1773     87.8242 
  3639.0000    -38.4415      6.3417      6.2548      1.8912      9.6742      2.2280      0.1102     30.5639     63.1171     87.5782 
  3639.5000    -38.5839      6.6746      6.5080      1.5416      9.6958      2.1498      0.1098     32.1170     61.5541     85.9789 
  3640.0000    -38.5725      6.5186      6.4092      1.1817      9.7073      2.1649      0.1582     30.9987     62.5950     83.7747 
  3640.5000    -38.4038      6.6696      6.5133      1.0976      9.7128      2.1110      0.1537     29.8804     65.9527     82.7849 
  3641.0000    -38.5074      6.7698      6.5031      0.8302      9.7169      2.1127      0.1467     28.9380     68.6246     83.2156 
  3641.5000    -38.6276      6.7291      6.5406      0.5244      9.7186      2.1549      0.1477     28.3051     67.9810     85.1754 
  3642.0000    -38.7601      6.8051      6.6855      0.5289      9.7218      2.1795      0.1079     27.6722     65.4360     87.0956 
  3642.5000    -38.8641      6.8371      6.7154      0.8062      9.7257      2.1868      0.0871     28.2864     63.2055     86.5818 
  3643.0000    -38.8652      6.9373      6.7382      1.0465      9.7243      2.2139      0.0652     28.9672     62.6450     86.4074 
  3643.5000    -38.8083      6.9049      6.6657      1.1156      9.7279      2.2583      0.0912     28.9862     63.1049     86.0689 
  3644.0000    -38.6716      6.8891      6.5736      1.0630      9.7562      2.2319      0.1193     28.6805     63.9106     86.0052 
  3644.5000    -38.7144      6.8709      6.5773      0.9811      9.7721      2.1911      0.1511     29.2556     64.3039     85.9875 
  3645.0000    -38.5732      6.8526      6.6095      1.2291      9.7711      2.1787      0.1303     29.8308     63.9482     85.9887 
  3645.5000    -38.3854      6.8777      6.7225      1.4566      9.7882      2.1738      0.0884     30.9377     62.9592     86.0184 
  3646.0000    -38.4861      7.1168      6.8692      1.4077      9.8010      2.1985      0.0472     32.0950     61.7910     86.3272 
  3646.5000    -38.6671      6.9846      6.6713      1.5801      9.8128      2.2079      0.0299     33.9089     60.5527     86.2484 
  3647.0000    -38.6235      6.7384      6.3890      1.4860      9.8188      2.1671      0.0419     33.8640     59.2282     86.2934 
  3647.5000    -38.5290      6.4155      6.1109      1.0375      9.8210      2.1001      0.0597     33.2718     59.2260     86.8194 
  3648.0000    -38.4345      6.2105      5.9750      0.6548      9.8157      2.0301      0.0515     33.6810     60.3859     87.4164 
  3648.5000    -38.3400      6.0882      5.9271      0.6544      9.8068      1.9601      0.0160     36.3699     61.8514     88.0107 
  3649.0000    -38.4581      6.3648      6.2079      0.8879      9.8215      2.0196      0.0435     37.6056     61.6563     88.0387 
  3649.5000    -38.5677      6.3167      5.9514      1.0129      9.8356      2.0414      0.0803     38.7082     61.5499     88.2379 
  3650.0000    -38.5070      5.8814      5.6685      0.8494      9.8252      1.9793      0.1110     39.3976     62.1695     89.6970 
  3650.5000    -38.4753      5.6000      5.4240      0.6647      9.8188      1.9936      0.1416     38.1989     61.1044     87.9840 
  3651.0000    -38.6095      5.4278      5.1900      0.4854      9.8243      2.0463      0.1699     37.0002     59.9480     88.9593 
  3651.5000    -38.7474      5.4662      5.0932      0.3969      9.8268      2.1419      0.1592     36.6649     58.4135     89.6287 
  3652.0000    -38.7391      5.6061      5.3019      0.7038      9.8028      2.1860      0.1394     36.8419     57.1282     89.8811 
  3652.5000    -38.5926      5.8027      5.5909      3.2490      9.7629      2.2165      0.1097     37.2114     58.6483     90.3455 
  3653.0000    -38.5651      6.0459      5.8446      2.8067      9.6795      2.2342      0.1291     36.5169     59.9788     91.0005 
  3653.5000    -38.4388      5.9425      5.7857      1.4530      9.6941      2.1206      0.0714     35.8223     60.2035     89.4775 
  3654.0000    -38.3379      5.8057      5.6143      1.0911      9.7112      2.0430      0.0644     38.0296     60.0760     90.8166 
