~VERSION INFORMATION
 VERS.                           2.00:        CWLS LOG ASCII STANDARD - VERSION 2.00
 WRAP.                             NO:        ONE LINE PER DEPTH STEP
~WELL INFORMATION
#MNEM.UNIT                   DATA             INFORMATION
#----------             --------------        ------------------------------
 STRT.F                     1244.0000:        START DEPTH
 STOP.F                     2340.0000:        STOP DEPTH
 STEP.F                        0.5000:        STEP VALUE
 NULL.                      -999.2500:        NULL VALUE
 COMP.        U.S. NAVY DEPT NP & OSR:        COMPANY  
 LOC .                   14  22N  18W:        LOCATION   
 DATE.                        3/16/73:        LOG DATE 
 WELL.               SOUTH BARROW #10:        WELL     
 UWI .                   500232000400:        UNIQUE WELL ID 
 API .                   500232000400:        UNIQUE WELL IDENTIFIER 
 FLD .                   SOUTH BARROW:        FIELD    
 CNTY.                         NPR #4:        COUNTY  
 STAT.                         ALASKA:        STATE   
 CTRY.                            USA:        COUNTRY 
 OPER.        U.S. NAVY DEPT NP & OSR:        OPERATOR  
 SRVC.                   SCHLUMBERGER:        SERVICE COMPANY 
 LAT .                         0.0000:        LATITUDE
 LON .                         0.0000:        LONGITUDE
 DIGS.               CENTER LINE DATA:        DIGITIZING COMPANY 
~CURVE INFORMATION      
#MNEM        .UNIT         API CODE           CURVE DESCRIPTION
#-----------------      --------------        ------------------------------
 DEPT        .F                      :        1  DEPTH
 SP          .MV                     :        2  
 LL8         .OHMM                   :        3  
 ILD         .OHMM                   :        4  
 CILD        .MMHO                   :        5  
 DT          .US/F                   :        6  
~PARAMETER INFORMATION       
#MNEM.UNIT                  VALUE             DESCRIPTION OF MNEMONIC
#---------             ---------------        ------------------------------
 EKB .F                       38.0000:        KELLY BUSHING
 TD  .F                     2349.0000:        TOTAL DEPTH
 BHT .F                       60.0000:        BOTTOM HOLE TEMPERATURE
 BS  .                         9.6250:        BIT SIZE
 FD  .                        10.6000:        FLUID DENSITY
 CSIZ.                        10.7500:        CASING SIZE
 CBD .F                     1240.0000:        CASING DRILLER 1
 CBL .F                     1244.0000:        CASING LOGGER 1
 DFT .                  Miscellaneous:        TYPE FLUID IN HOLE
 DFV .                        15.0000:        VISCOSITY
 DFPH.                        11.0000:        PH
 DFL .                         1.8000:        FLUID LOSS
 RMS .                         1.1900:        RM
 MST .F                       55.0000:        RM MEAS. TEMP.
 RMF .                         0.8500:        RMF
 MFST.F                       55.0000:        RMF MEAS. TEMP.
 RMC .                         1.2000:        RMC
 MCST.F                       55.0000:        RMC MEAS. TEMP.
~OTHER INFORMATION
~A    DEPTH          SP         LL8         ILD        CILD          DT  
  1244.0000    -48.1566     16.9933     17.1605      5.3554    133.2647  
  1244.5000    -47.7312     16.9883     17.0697     27.6594    127.2877  
  1245.0000    -47.5771     16.9833     15.7413     66.3134    117.3461  
  1245.5000    -47.3122     16.9783     13.1640     73.5441    114.8084  
  1246.0000    -46.1779     16.9733     11.2701     89.5565    114.4879  
  1246.5000    -44.4599     16.9684     11.1925     88.7746    119.5293  
  1247.0000    -42.8138     16.9634     11.2963     88.3066    132.0313  
  1247.5000    -41.9167     16.9584     13.7824     81.9004    102.8556  
  1248.0000    -41.1524     16.9629     19.1630     60.3594    100.2745  
  1248.5000    -40.3233     16.9806     19.9728     54.9802    101.0878  
  1249.0000    -40.4071     16.9983     15.5712     66.8921    101.0147  
  1249.5000    -40.1787     17.0160     13.7343     72.8958    102.2042  
  1250.0000    -39.8775     17.0337     12.6556     78.5386    103.2391  
  1250.5000    -39.5774     17.0577     12.1849     81.7946    103.1684  
  1251.0000    -39.4571     17.0808     13.5033     75.4073    101.5035  
  1251.5000    -39.3237     17.0610     15.0292     68.1049     99.3218  
  1252.0000    -39.2155     17.1276     15.6520     65.9985     98.3576  
  1252.5000    -39.6354     17.2479     15.8652     64.4462     98.8715  
  1253.0000    -40.0182     17.4005     16.3397     62.9236    100.1429  
  1253.5000    -40.2195     17.3747     16.9537     61.7125     99.3564  
  1254.0000    -40.2563     17.2760     17.1836     60.2981     98.2240  
  1254.5000    -40.2028     17.2319     17.0708     59.9500     97.5464  
  1255.0000    -40.1343     17.1432     16.8363     60.1483     97.2293  
  1255.5000    -40.2647     16.9299     16.5810     60.8813     97.4946  
  1256.0000    -40.5240     16.7798     16.3258     62.4895     98.1255  
  1256.5000    -40.8608     16.3063     15.9015     64.0382     99.6031  
  1257.0000    -41.1944     15.9671     15.2886     65.9208    100.3111  
  1257.5000    -41.7618     15.6562     14.7533     68.6215    101.5281  
  1258.0000    -42.6563     15.3454     14.2180     71.1299    103.0502  
  1258.5000    -43.8551     15.0345     13.7587     73.6974    104.6548  
  1259.0000    -45.2867     14.7239     13.2261     76.6158    105.5403  
  1259.5000    -46.2689     14.4307     12.7622     79.1352    106.5410  
  1260.0000    -46.3798     14.1530     12.3817     81.4823    108.3014  
  1260.5000    -46.0178     13.8693     11.8859     84.0525    109.6107  
  1261.0000    -44.7943     13.6187     11.5765     86.0772    109.3427  
  1261.5000    -43.5928     13.3531     11.2580     88.0036    108.8668  
  1262.0000    -43.4213     13.2506     10.9143     89.9300    108.0924  
  1262.5000    -44.1738     13.2217     10.7286     91.8563    107.9830  
  1263.0000    -45.8809     13.2431     10.3899     93.5515    109.2478  
  1263.5000    -47.6374     13.2764     10.4008     93.9397    109.6021  
  1264.0000    -48.1424     13.3697     10.3831     93.8493    110.8094  
  1264.5000    -46.8062     13.5505     10.3883     93.7785    116.5634  
  1265.0000    -45.2973     13.7684     10.4003     93.4178    125.9820  
  1265.5000    -44.2130     14.1007     10.3839     92.5275    113.4402  
  1266.0000    -43.1743     14.2752     10.8864     90.7382    107.0127  
  1266.5000    -42.5813     14.5364     11.2639     87.7938    106.5146  
  1267.0000    -42.8767     14.7844     11.7274     84.7738    106.6246  
  1267.5000    -43.0496     15.0320     12.1339     81.7840    106.7963  
  1268.0000    -41.8538     15.3237     12.5452     79.4356    106.0858  
  1268.5000    -40.4311     15.6177     12.9065     77.4189    105.3335  
  1269.0000    -39.2583     15.9117     13.2677     76.1218    104.5246  
  1269.5000    -38.8286     16.1986     13.6290     75.0407    104.0323  
  1270.0000    -38.5921     16.4730     13.9233     73.5598    103.1799  
  1270.5000    -38.1167     16.6830     14.1136     71.8248    102.3624  
  1271.0000    -37.6911     16.7261     14.3039     70.7950    101.8624  
  1271.5000    -37.7462     16.6355     14.3799     70.4923    102.0333  
  1272.0000    -38.2276     16.4172     14.2578     69.8082    101.6643  
  1272.5000    -38.7483     16.0491     14.2528     71.3001    101.1687  
  1273.0000    -38.7554     15.7414     13.9471     72.4407    102.0018  
  1273.5000    -38.6182     15.6382     13.7983     73.1721    103.6409  
  1274.0000    -38.5121     15.6600     13.7064     73.5698    104.7065  
  1274.5000    -38.2965     15.7267     13.6598     73.7629    105.1917  
  1275.0000    -37.8302     15.7764     13.6633     73.6667    103.1241  
  1275.5000    -37.5220     15.9005     13.7332     73.3829    101.3583  
  1276.0000    -37.6698     16.1985     13.8789     72.4602    100.2561  
  1276.5000    -37.6132     16.6668     14.0846     71.0020    100.5745  
  1277.0000    -37.4250     17.0217     14.7260     69.5438    100.1563  
  1277.5000    -37.1242     17.2265     14.9123     68.1819     99.6109  
  1278.0000    -36.9506     17.2911     15.1658     67.3579     99.4456  
  1278.5000    -36.7612     17.3529     15.3066     66.5585     99.2937  
  1279.0000    -36.6175     17.4147     15.2711     66.0314     98.3343  
  1279.5000    -36.6665     17.5130     15.3321     65.8629     97.4777  
  1280.0000    -36.7632     17.4684     15.4746     65.4097     97.4249  
  1280.5000    -36.6499     17.3878     15.7249     64.7994     97.4588  
  1281.0000    -36.1263     17.1927     15.7976     64.4965     97.4224  
  1281.5000    -35.7626     17.1703     15.8315     64.3522     98.4728  
  1282.0000    -35.8472     17.3149     15.8785     64.3497    100.8073  
  1282.5000    -35.8234     17.2841     15.8743     64.3749    102.5464  
  1283.0000    -35.4667     17.2571     15.8257     64.4498    102.8540  
  1283.5000    -35.2791     17.1916     15.8175     64.4969    100.6379  
  1284.0000    -35.3608     17.2113     15.8068     64.5519     99.0201  
  1284.5000    -35.3739     17.3562     15.7548     64.6750     99.6749  
  1285.0000    -35.2204     17.5590     15.8072     64.4694    100.0036  
  1285.5000    -35.0510     17.6803     15.8556     64.1765     99.9746  
  1286.0000    -34.8924     17.7274     15.9041     63.9253     99.7798  
  1286.5000    -34.7283     17.7638     15.9052     63.9750     99.6588  
  1287.0000    -34.7167     17.8037     15.8275     64.2905     99.8367  
  1287.5000    -34.6292     17.8128     15.7709     64.6000     99.4237  
  1288.0000    -34.7375     17.7231     15.7143     64.9094     98.8093  
  1288.5000    -34.7876     17.6472     15.6577     65.2188     98.7803  
  1289.0000    -34.6969     17.6011     15.5948     65.5282     99.8401  
  1289.5000    -34.6674     17.4658     15.4672     65.8376    100.6523  
  1290.0000    -34.7869     17.3145     15.3396     66.6385    100.9527  
  1290.5000    -34.8604     17.2433     15.2120     66.9990    100.2917  
  1291.0000    -34.4640     17.2699     15.1153     67.4363     99.9171  
  1291.5000    -33.9722     17.3473     15.1103     67.6500    100.2038  
  1292.0000    -33.7518     17.4991     15.1053     67.6806    100.6623  
  1292.5000    -33.6043     17.4836     15.1004     67.5031    101.1367  
  1293.0000    -33.5074     17.3643     15.1471     67.1952    100.4890  
  1293.5000    -33.5001     17.2979     15.1909     66.9466    100.3032  
  1294.0000    -33.6038     17.2544     15.2494     66.8959    100.7572  
  1294.5000    -33.7633     17.1961     15.2598     66.7303    100.2343  
  1295.0000    -33.8366     17.1419     15.2210     66.8700    100.0626  
  1295.5000    -33.8854     17.0562     15.2087     67.0500    100.4471  
  1296.0000    -34.0018     16.9346     15.1547     67.1000    101.0061  
  1296.5000    -34.0927     16.7862     15.1056     67.1715    101.2483  
  1297.0000    -34.2618     16.6623     14.9963     67.8380    101.1373  
  1297.5000    -34.4531     16.5378     14.8424     68.6772    101.7631  
  1298.0000    -34.5255     16.3198     14.5983     69.2098    102.2157  
