~VERSION INFORMATION
 VERS.                           2.00:        CWLS LOG ASCII STANDARD - VERSION 2.00
 WRAP.                             NO:        ONE LINE PER DEPTH STEP
~WELL INFORMATION
#MNEM.UNIT                   DATA             INFORMATION
#----------             --------------        ------------------------------
 STRT.F                      152.0000:        START DEPTH
 STOP.F                     2285.0000:        STOP DEPTH
 STEP.F                        0.5000:        STEP VALUE
 NULL.                      -999.2500:        NULL VALUE
 COMP.                      U.S. NAVY:        COMPANY  
 LOC .                   26  22N  17W:        LOCATION   
 DATE.                         4/1/74:        LOG DATE 
 WELL.            SOUTH BARROW NO. 12:        WELL     
 UWI .                   500232000600:        UNIQUE WELL ID 
 API .                   500232000600:        UNIQUE WELL IDENTIFIER 
 FLD .                   SOUTH BARROW:        FIELD    
 CNTY.                         NPPR-4:        COUNTY  
 STAT.                         ALASKA:        STATE   
 CTRY.                            USA:        COUNTRY 
 OPER.                      U.S. NAVY:        OPERATOR  
 SRVC.                   SCHLUMBERGER:        SERVICE COMPANY 
 LAT .                         0.0000:        LATITUDE
 LON .                         0.0000:        LONGITUDE
 DIGS.               CENTER LINE DATA:        DIGITIZING COMPANY 
~CURVE INFORMATION      
#MNEM        .UNIT         API CODE           CURVE DESCRIPTION
#-----------------      --------------        ------------------------------
 DEPT        .F                      :        1  DEPTH
 RHOB        .G/C3                   :        2  
 DRHO        .G/C3                   :        3  
 GR          .GAPI                   :        4  
 CALI        .IN                     :        5  
 DPHI        .%                      :        6  
 NPHI        .%                      :        7  
 SP          .MV                     :        8  
 ALL8        .OHMM                   :        9  
 ILD         .OHMM                   :        10 
 CILD        .MMHO                   :        11 
 DT          .US/F                   :        12 
~PARAMETER INFORMATION       
#MNEM.UNIT                  VALUE             DESCRIPTION OF MNEMONIC
#---------             ---------------        ------------------------------
 EKB .F                       26.0000:        KELLY BUSHING
 TD  .F                     2285.0000:        TOTAL DEPTH
~OTHER INFORMATION
~A    DEPTH        RHOB        DRHO          GR        CALI        DPHI        NPHI          SP        ALL8         ILD        CILD          DT  
# ...
  1774.5000      2.5186      0.0700     88.5828     11.5761      8.8556     28.5034    -32.6010     11.4140     12.1499     79.3375     93.3774  
  1775.0000      2.4946      0.0454     90.5003     11.7374      8.2633     28.6014    -32.8196     11.3098     12.0363     79.5630     92.7895  
  1775.5000      2.5083      0.0547     93.2327     11.5959      9.5953     29.7075    -32.8180     11.2057     11.9227     79.8480     92.7017  
  1776.0000      2.5181      0.0674     94.1495     11.3354      8.5515     30.7842    -32.7351     11.1278     11.8090     80.3219     92.7845  
  1776.5000      2.4882      0.0532     94.4336     11.7122      8.3246     31.5257    -32.3984     11.0980     11.6954     80.9766     93.5030  
  1777.0000      2.4808      0.0399     93.8743     11.6652     10.0680     31.7831    -32.0397     11.0681     11.5889     82.0210     94.3709  
  1777.5000      2.4806      0.0506     93.4787     11.6824     10.4569     32.0750    -31.8777     11.0382     11.4915     82.9250     95.0789  
  1778.0000      2.4831      0.0407     93.8994     11.7311     10.4279     31.9846    -32.0957     11.0083     11.3941     83.8289     95.6646  
  1778.5000      2.4871      0.0308     94.4060     11.7668     10.3262     30.7948    -32.3756     10.9572     11.2967     84.7329     96.1112  
  1779.0000      2.4849      0.0408     93.4218     11.7739     10.1058     29.7403    -32.6576     10.7507     11.1413     85.6369     95.9676  
  1779.5000      2.4925      0.0526     90.7651     11.7778     10.3322     28.6325    -32.7780     10.4212     10.9195     86.5560     95.5368  
  1780.0000      2.4996      0.0608     89.1234     11.8121      9.7517     28.6693    -32.7989     10.3095     10.6976     87.7613     95.2556  
  1780.5000      2.4955      0.0678     88.5453     11.9449      9.2741     29.2517    -32.7958     10.2478     10.5399     89.0035     95.0897  
  1781.0000      2.4882      0.0665     88.4607     12.0484      9.4333     29.7158    -32.9014     10.3001     10.5424     89.5647     94.9742  
  1781.5000      2.4993      0.0551     88.6815     12.0246      9.7203     29.9358    -33.0291     10.3742     10.5519     89.2020     94.7036  
  1782.0000      2.4911      0.0436     89.6528     12.0801      9.8827     28.5282    -32.9148     10.4937     10.6890     88.5267     94.1326  
  1782.5000      2.4795      0.0322     90.9154     12.1788      9.4213     27.1919    -32.7604     10.5833     10.8261     87.5679     93.5735  
  1783.0000      2.4783      0.0331     92.4213     12.6477     10.4350     27.4059    -32.5803     10.6486     10.9632     86.3788     93.2548  
  1783.5000      2.4885      0.0449     93.9272     12.2878     10.6563     28.1146    -32.3365     10.8139     11.1004     85.2671     93.1479  
  1784.0000      2.4922      0.0287     94.4085     12.1263     10.2361     29.4001    -32.2352     10.9552     11.2375     84.2965     92.9900  
  1784.5000      2.4822      0.0139     94.5707     11.9649      9.6065     30.6043    -32.2339     11.0776     11.3746     83.3258     93.0513  
  1785.0000      2.4893      0.0266     94.3420     11.8439     10.3670     31.2369    -32.0361     11.1769     11.5117     82.3974     93.6614  
  1785.5000      2.4931      0.0398     95.1615     11.8065     10.0921     30.5884    -31.7412     11.1507     11.6488     82.0765     93.9310  
  1786.0000      2.4823      0.0323     96.7350     11.8115      9.4633     30.1124    -31.6973     11.1887     11.7859     81.9083     94.1574  
  1786.5000      2.4914      0.0357     98.3938     12.0063     10.4227     29.8022    -31.9660     11.1066     11.7375     81.8054     94.3883  
  1787.0000      2.4897      0.0335     98.2509     11.9743      9.9032     29.9929    -32.2681     11.0471     11.6334     81.7066     94.3300  
  1787.5000      2.4805      0.0327     98.0166     11.8755      9.9139     30.3300    -32.3506     10.9876     11.5292     81.9058     94.2789  
  1788.0000      2.4919      0.0400     99.0116     11.7841     10.1837     30.6574    -32.1720     11.0170     11.3433     83.0952     94.7624  
  1788.5000      2.4926      0.0370    100.5444     11.7128      9.7826     31.0062    -31.9705     10.8225     11.1258     84.5639     95.2726  
  1789.0000      2.4913      0.0365    100.2490     11.5715      9.7814     31.5051    -31.9422     10.6924     10.9083     86.0037     95.7190  
  1789.5000      2.4926      0.0411    100.2856     11.5045      9.8348     31.7846    -32.0553     10.5169     10.6908     87.0649     96.0664  
  1790.0000      2.5037      0.0446    100.6274     11.4472      9.5442     31.7372    -32.2713     10.4909     10.5205     88.5389     96.6430  
  1790.5000      2.5111      0.0406    100.3104     11.3899      8.9637     31.0254    -32.4458     10.2142     10.3698     90.1800     98.0070  
  1791.0000      2.5134      0.0482     99.3952     11.4228      8.7098     30.0153    -32.5276      9.9999     10.2190     92.5156     98.8567  
  1791.5000      2.4934      0.0313     97.9559     11.4283      8.6518     29.3232    -32.6286      9.8178     10.0683     94.7227     99.2462  
  1792.0000      2.4658      0.0207     95.0211     11.5289      9.7128     29.3146    -32.8589      9.6914      9.9600     97.0270     99.4411  
  1792.5000      2.4505      0.0107     92.1883     11.6454     11.4399     29.6009    -33.1349      9.5780      9.8860     98.6178     99.5015  
  1793.0000      2.4481      0.0070     90.8306     11.6771     12.1955     30.0320    -33.3399      9.5601      9.8645     99.2997     98.1818  
  1793.5000      2.4527      0.0177     89.5518     11.7560     12.4576     30.3314    -33.3620      9.6542      9.9001     99.2219     96.9267  
  1794.0000      2.4655      0.0240     89.3190     11.6817     11.9986     30.4090    -33.3286      9.7438      9.9437     98.5725     95.7127  
  1794.5000      2.4884      0.0377     91.2868     11.2222     11.3090     30.5024    -33.3280      9.8950     10.0707     97.4666     94.5504  
  1795.0000      2.5005      0.0524     92.9882     11.2290      9.8664     30.6780    -33.2498     10.1030     10.2676     95.5973     93.5085  
  1795.5000      2.4982      0.0600     94.2991     11.4522      9.5458     30.6040    -33.0210     10.4559     10.4809     93.0236     93.1412  
  1796.0000      2.4950      0.0624     96.2880     11.4852      9.7090     30.5238    -32.7830     10.7100     10.6941     90.4216     93.3465  
  1796.5000      2.4968      0.0549     97.5747     11.5134      9.7825     30.5831    -32.2015     10.7638     10.9074     89.0585     94.1323  
  1797.0000      2.4992      0.0610     98.1275     11.4955      9.7196     31.0825    -31.9893     10.9214     10.9155     88.4891     94.8701  
  1797.5000      2.4934      0.0503     98.9436     11.4902      9.3183     31.5060    -32.0084     10.8811     10.8223     88.3947     95.6366  
  1798.0000      2.4773      0.0454     99.6054     11.5222      9.9192     32.0686    -32.2411     10.7163     10.7292     88.7916     96.4269  
  1798.5000      2.4975      0.0453    101.0975     11.5451     10.4652     31.7804    -32.6032     10.5066     10.6361     89.2707     96.9683  
  1799.0000      2.4836      0.0374    102.7577     11.5540      9.6847     31.2265    -32.5086     10.3674     10.5149     89.8707     97.4173  
  1799.5000      2.4875      0.0508    102.7902     11.5605     10.1349     31.0294    -32.5864     10.1856     10.3678     90.8399     97.9309  
  1800.0000      2.4974      0.0644    101.1437     11.5671     10.2733     31.7413    -32.7563     10.0448     10.2206     91.9546     98.4446  
  1800.5000      2.4945      0.0642     99.5131     11.5745      9.7863     32.4531    -32.9462      9.9656     10.0735     93.2913     97.7444  
  1801.0000      2.4829      0.0485     99.1887     11.5618      9.3616     33.0382    -33.0181      9.9573      9.9264     94.1027     97.4496  
  1801.5000      2.4745      0.0338     99.6297     11.4318     10.2957     33.3991    -32.9347      9.9079      9.8659     94.7584     97.4999  
