~VERSION INFORMATION
 VERS.                           2.00:        CWLS LOG ASCII STANDARD - VERSION 2.00
 WRAP.                             NO:        ONE LINE PER DEPTH STEP
~WELL INFORMATION
#MNEM.UNIT                   DATA             INFORMATION
#----------             --------------        ------------------------------
 STRT.F                       75.0000:        START DEPTH
 STOP.F                     2534.0000:        STOP DEPTH
 STEP.F                        0.5000:        STEP VALUE
 NULL.                      -999.2500:        NULL VALUE
 COMP.                      HUSKY OIL:        COMPANY  
 LOC .                   14  22N  18W:        LOCATION   
 DATE.                       12/20/76:        LOG DATE 
 WELL.               SOUTH BARROW #13:        WELL     
 UWI .                   500232000800:        UNIQUE WELL ID 
 API .                   500232000800:        UNIQUE WELL IDENTIFIER 
 FLD .                   SOUTH BARROW:        FIELD    
 CNTY.                    NORTH SLOPE:        COUNTY  
 STAT.                         ALASKA:        STATE   
 CTRY.                            USA:        COUNTRY 
 OPER.                      HUSKY OIL:        OPERATOR  
 SRVC.                   SCHLUMBERGER:        SERVICE COMPANY 
 LAT .                         0.0000:        LATITUDE
 LON .                         0.0000:        LONGITUDE
 DIGS.               CENTER LINE DATA:        DIGITIZING COMPANY 
~CURVE INFORMATION      
#MNEM        .UNIT         API CODE           CURVE DESCRIPTION
#-----------------      --------------        ------------------------------
 DEPT        .F                      :        1  DEPTH
 SP          .MV                     :        2  
 ILD         .OHMM                   :        3  
 LL8         .OHMM                   :        4  
 CILD        .MMHO                   :        5  
 ILM         .OHMM                   :        6  
 GR          .GAPI                   :        7  
 CALI        .IN                     :        8  
 DRHO        .G/C3                   :        9  
 RHOB        .G/C3                   :        10 
 NPHI        .%                      :        11 
 DPHI        .%                      :        12 
 DT          .US/F                   :        13 
~PARAMETER INFORMATION       
#MNEM.UNIT                  VALUE             DESCRIPTION OF MNEMONIC
#---------             ---------------        ------------------------------
 EKB .F                       40.0000:        KELLY BUSHING
 TD  .F                     1139.0000:        TOTAL DEPTH
 BHT .F                        0.0000:        BOTTOM HOLE TEMPERATURE
 BS  .                        14.7500:        BIT SIZE
 FD  .                        10.3000:        FLUID DENSITY
 CSIZ.                        20.0000:        CASING SIZE
 CBD .F                       65.0000:        CASING DRILLER 1
 CBL .F                       75.0000:        CASING LOGGER 1
 DFT .                  Miscellaneous:        TYPE FLUID IN HOLE
 DFV .                        34.0000:        VISCOSITY
 DFPH.                         8.5000:        PH
 DFL .                        10.2000:        FLUID LOSS
 RMS .                         5.3200:        RM
 MST .F                       55.0000:        RM MEAS. TEMP.
 RMF .                         3.8000:        RMF
 MFST.F                       55.0000:        RMF MEAS. TEMP.
 RMC .                         6.0000:        RMC
 MCST.F                       55.0000:        RMC MEAS. TEMP.
~OTHER INFORMATION
~A    DEPTH          SP         ILD         LL8        CILD         ILM          GR        CALI        DRHO        RHOB        NPHI        DPHI          DT  
# ...
  2497.5000     -8.0977      0.2699      2.6530   -999.2500      0.2615     52.9522      8.9162      0.0656      2.3336     30.7176     18.5710     95.0263  
  2498.0000     -7.7613      0.2698      2.5968   -999.2500      0.2340     53.9189      8.9152      0.0710      2.3443     30.7197     19.2082     96.0620  
  2498.5000    -10.2874      0.2698      2.5601   -999.2500      0.2114     54.5452      8.9142      0.0780      2.3525     30.2057     19.8160     96.5499  
  2499.0000    -13.2030      0.2698      2.3509   -999.2500      0.2180     55.1063      8.9145      0.0891      2.3426     29.8550     21.4842     97.0306  
  2499.5000    -15.4715      0.2697      2.0356   -999.2500      0.2297     56.0261      8.9156      0.0965      2.3364     31.1560     22.9142     98.0587  
  2500.0000    -17.8283      0.2697      2.1697   -999.2500      0.2546     57.8178      8.9167      0.0805      2.3008     32.5349     23.8884    100.7274  
  2500.5000    -20.8690      0.2697      2.0810   -999.2500      0.2852     60.0996      8.8842      0.0646      2.2765     33.6588     23.9707    103.0167  
  2501.0000    -27.1809      0.2696      2.1378   -999.2500      0.3194     60.9866      8.8340      0.0592      2.2702     32.9590     23.7597    102.3434  
  2501.5000    -31.1449      0.2696      2.2428   -999.2500      0.3208     61.1360      8.7838      0.0552      2.2705     32.0571     22.9521    100.7672  
  2502.0000    -35.9389      0.2696      2.2888   -999.2500      0.2943     61.3583      8.7336      0.0490      2.2805     33.2795     22.2747    100.0096  
  2502.5000    -39.6266      0.2695      2.4182   -999.2500      0.2539     62.5248      8.6834      0.0477      2.2941     34.1324     23.2328    102.0315  
  2503.0000    -37.4622      0.2695      2.4417   -999.2500      0.2227     64.8724      8.6332      0.0448      2.2932     34.3956     24.6944    105.4486  
  2503.5000    -28.9241      0.2695      2.5175   -999.2500      0.1975     65.8925      8.6138      0.0389      2.2748     33.9943     24.6540    106.8159  
  2504.0000    -25.3561      0.2695      2.7074   -999.2500      0.1873     66.9739      8.6072      0.0364      2.2550     33.8874     24.1324    106.0853  
  2504.5000    -25.3606      0.2694      2.7568   -999.2500      0.1888     68.0062      8.5986      0.0443      2.2580     34.2308     22.7674    104.9039  
  2505.0000    -25.3558      0.2694      3.0477   -999.2500      0.1997     68.7378      8.5933      0.0522      2.2688     34.4124     23.8015    103.8509  
  2505.5000    -25.4290      0.2694      3.2752   -999.2500      0.2112     69.4593      8.5912      0.0454      2.2836     34.2956     24.6301    104.7424  
  2506.0000    -25.6770      0.2693      3.3394   -999.2500      0.2234     70.4612      8.5910      0.0324      2.2665     34.8529     25.7046    105.5935  
  2506.5000    -26.3796      0.2693      3.5023   -999.2500      0.2073     68.5649      8.5921      0.0220      2.2521     35.5294     26.5474    106.0862  
  2507.0000    -26.5114      0.2693      3.5091   -999.2500      0.1820     65.0227      8.5980      0.0233      2.2411     34.7881     25.6062    105.8138  
  2507.5000    -25.3355      0.2692      3.4671   -999.2500      0.1629     59.8571      8.5966      0.0324      2.2342     33.9469     25.8475    104.3232  
  2508.0000    -24.4922      0.2692      3.3367   -999.2500      0.1462     51.3960      8.5992      0.0401      2.2345     33.1127     24.9613    103.0636  
  2508.5000    -24.1655      0.2692      3.1214   -999.2500      0.1379     41.9880      8.6020      0.0446      2.2477     32.7188     24.1308    102.6702  
  2509.0000    -24.0216      0.2691      3.1748   -999.2500      0.1301     33.4335      8.6047      0.0485      2.2596     32.7166     24.4250    102.3569  
  2509.5000    -24.2987      0.2691      3.8602   -999.2500      0.1265     27.5189      8.6059      0.0464      2.2622     32.3646     23.5787    102.2597  
  2510.0000    -25.0013      0.2691      4.4000   -999.2500      0.1581     31.0122      8.6072      0.0415      2.2640     32.7104     22.3267    101.1885  
  2510.5000    -25.4777      0.2690      3.8512   -999.2500      0.1933     36.0507      8.6084      0.0535      2.2887     34.0450     23.9859     98.4325  
  2511.0000    -25.6742      0.2698      3.4651   -999.2500      0.2331     37.3359      8.6194      0.0326      2.2907     34.7696     24.3888     96.1508  
  2511.5000    -25.2879      0.2700      3.4610   -999.2500      0.2290     37.3261      8.6326      0.0141      2.2747     34.2652     24.2063     95.2032  
  2512.0000    -24.7701      0.2695      3.8613   -999.2500      0.2233     37.3218      8.6156      0.0215      2.2557     33.3543     23.1263     95.8022  
  2512.5000    -24.5968      0.2697      3.3583   -999.2500      0.2200     37.3274      8.5972      0.0347      2.2724     31.8056     23.1988     95.2900  
  2513.0000    -24.1301      0.2705      2.7708   -999.2500      0.2155     37.2912      8.6046      0.0285      2.2803     30.6145     23.7202     93.2505  
  2513.5000    -21.6540      0.2709      2.5494   -999.2500      0.2106     37.3204      8.6057      0.0270      2.2804     30.3546     22.9000     91.7515  
  2514.0000    -16.5615      0.2705      2.4327   -999.2500      0.2070     37.3877      8.6164      0.0267      2.2755     31.3109     21.8419     91.4138  
  2514.5000    -14.0282      0.2705      2.3444   -999.2500      0.2062     37.3156      8.6394      0.0416      2.2922     31.3470     20.9111     91.7183  
  2515.0000    -19.8814      0.2708      2.3640   -999.2500      0.2099     37.3113      8.6447      0.0629      2.3114     30.6317     20.9481     92.4573  
  2515.5000    -23.8799      0.2701      2.3029   -999.2500      0.2155     37.3316      8.6473      0.0645      2.3178     29.9702     21.4169     93.3784  
  2516.0000    -27.6125      0.2700      2.0882   -999.2500      0.2091     37.3350      8.6329      0.0527      2.3128     29.0854     22.9456     93.4373  
  2516.5000    -36.0015      0.2702      2.1003   -999.2500      0.1887     37.3384      8.6135      0.0315      2.2976     27.5480     22.7234     93.5897  
  2517.0000    -41.4586      0.2705      2.0837   -999.2500      0.1564     37.3418      8.6028      0.0238      2.2873     23.6445     22.2683     94.1256  
  2517.5000    -38.4782      0.2701      1.9649   -999.2500      0.1320     37.3453      8.6090      0.0162      2.2918     19.7267     22.5696     94.9322  
  2518.0000    -32.2039      0.2707      1.8839   -999.2500      0.1158     37.3487      8.5990      0.0152      2.2976     15.8090     22.2805     97.0667  
  2518.5000    -30.5661      0.2712      2.0839   -999.2500      0.1154     37.3521      8.5883      0.0325      2.3048      9.3405     22.5913     98.2100  
  2519.0000    -31.7441      0.2702      2.4179   -999.2500      0.1150     37.3555      8.5887      0.0400      2.2953      0.4982     21.6560     97.6185  
  2519.5000    -32.9540      0.2711      2.6263   -999.2500      0.1146     37.3552      8.5832      0.0361      2.2919     -0.0891     21.8996     96.9116  
  2520.0000    -32.9334      0.2712      2.7437   -999.2500      0.1144     37.3483      8.5802      0.0676      2.3017     -0.0901     22.6526     96.7626  
  2520.5000    -32.3665      0.2703      2.8175   -999.2500      0.1144     37.3414      8.5764      0.0503      2.2987     -0.0910     22.2500     97.5972  
  2521.0000    -31.9688      0.2714      3.0819   -999.2500      0.1188     37.3345      8.5743      0.0413      2.2856     -0.0920     21.2556     98.3347  
  2521.5000    -32.2607      0.2710      3.2245   -999.2500      0.1388     37.3163      8.5767      0.0462      2.3022     -0.0930     19.8506     98.6566  
  2522.0000    -32.6999      0.2688      3.1332   -999.2500      0.1655     37.3297      8.5724      0.0534      2.3181     -0.0940     18.7025     96.4213  
  2522.5000    -33.0866      0.2666      3.1968   -999.2500      0.2001     37.3538      8.5667      0.0630      2.3456     -0.0950     18.5302     93.0575  
