~VERSION INFORMATION
 VERS.                           2.00:        CWLS LOG ASCII STANDARD - VERSION 2.00
 WRAP.                             NO:        ONE LINE PER DEPTH STEP
~WELL INFORMATION
#MNEM.UNIT                   DATA             INFORMATION
#----------             --------------        ------------------------------
 STRT.F                       50.0000:        START DEPTH
 STOP.F                     2158.0000:        STOP DEPTH
 STEP.F                        0.5000:        STEP VALUE
 NULL.                      -999.2500:        NULL VALUE
 COMP.              HUSKY OIL COMPANY:        COMPANY  
 LOC .                   25  22N  17W:        LOCATION   
 DATE.                        2-19-77:        LOG DATE 
 WELL.               SOUTH BARROW #14:        WELL     
 UWI .                   500232000900:        UNIQUE WELL ID 
 API .                   500232000900:        UNIQUE WELL IDENTIFIER 
 FLD .               SOUTH BARROW GAS:        FIELD    
 CNTY.                    NORTH SLOPE:        COUNTY  
 STAT.                         ALASKA:        STATE   
 CTRY.                            USA:        COUNTRY 
 OPER.              HUSKY OIL COMPANY:        OPERATOR  
 SRVC.                   SCHLUMBERGER:        SERVICE COMPANY 
 LAT .                         0.0000:        LATITUDE
 LON .                         0.0000:        LONGITUDE
 DIGS.               CENTER LINE DATA:        DIGITIZING COMPANY 
~CURVE INFORMATION      
#MNEM        .UNIT         API CODE           CURVE DESCRIPTION
#-----------------      --------------        ------------------------------
 DEPT        .F                      :        1  DEPTH
 LLS         .OHMM                   :        2  
 LLD         .OHMM                   :        3  
 SP          .MV                     :        4  
 ILD         .OHMM                   :        5  
 ILM         .OHMM                   :        6  
 LL8         .OHMM                   :        7  
 CALI        .IN                     :        8  
 GR          .GAPI                   :        9  
 NPHI        .%                      :        10 
 DPHI        .%                      :        11 
 RHOB        .G/C3                   :        12 
 DRHO        .G/C3                   :        13 
 DT          .US/F                   :        14 
~PARAMETER INFORMATION       
#MNEM.UNIT                  VALUE             DESCRIPTION OF MNEMONIC
#---------             ---------------        ------------------------------
 EKB .F                       31.0000:        KELLY BUSHING
 TD  .F                     1042.0000:        TOTAL DEPTH
 BHT .F                       62.0000:        BOTTOM HOLE TEMPERATURE
 BS  .                         6.0000:        BIT SIZE
 FD  .                        10.7000:        FLUID DENSITY
 CSIZ.                         7.0000:        CASING SIZE
 CBD .F                     1947.0000:        CASING DRILLER 1
 CBL .F                     1946.0000:        CASING LOGGER 1
 DFT .                  Miscellaneous:        TYPE FLUID IN HOLE
 DFV .                        50.0000:        VISCOSITY
 DFPH.                        10.0000:        PH
 DFL .                         0.0000:        FLUID LOSS
 RMS .                         0.1500:        RM
 MST .F                       50.0000:        RM MEAS. TEMP.
 RMF .                         0.1600:        RMF
 MFST.F                       61.0000:        RMF MEAS. TEMP.
 RMC .                         0.0000:        RMC
 MCST.F                        0.0000:        RMC MEAS. TEMP.
~OTHER INFORMATION
~A    DEPTH         LLS         LLD          SP         ILD         ILM         LL8        CALI          GR        NPHI        DPHI        RHOB        DRHO          DT  
# ...
  1922.0000   -999.2500   -999.2500    -47.7020     11.1791     11.3990     13.0661      8.6114     68.4868     29.0880     11.0556      2.4858      0.0696     67.0790  
  1922.5000   -999.2500   -999.2500    -47.5134     11.2543     11.4757     13.3388      8.6908     67.0661     30.0600     11.7715      2.4659      0.0593     79.4002  
  1923.0000   -999.2500   -999.2500    -48.0988     11.3300     11.5529     13.3290      8.6438     65.5833     31.3495      9.7108      2.4780      0.0483     91.7213  
  1923.5000   -999.2500   -999.2500    -49.0764     11.4062     11.6307     12.8014      8.5448     63.7578     31.3579     10.5314      2.4901      0.0789     75.9411  
  1924.0000   -999.2500   -999.2500    -49.2786     11.2786     11.5251     12.3923      8.5351     61.0598     30.8251     10.7219      2.4887      0.0805     67.0419  
  1924.5000   -999.2500   -999.2500    -48.7430     11.0208     11.2617     12.0253      8.6035     58.4517     30.5017      9.8569      2.4485      0.0640     73.5672  
  1925.0000   -999.2500   -999.2500    -48.2112     10.7690     11.0044     11.9176      8.6659     56.1086     29.9443     10.9163      2.4361      0.0631     80.0925  
  1925.5000   -999.2500   -999.2500    -47.9721     10.5229     10.7529     11.9341      8.6690     52.3714     29.6782     12.4353      2.4401      0.0672     71.8816  
  1926.0000   -999.2500   -999.2500    -47.5303     10.2824     10.5072     11.9330      8.6704     42.5192     29.7279     13.8478      2.4210      0.0496     77.8508  
  1926.5000   -999.2500   -999.2500    -47.0256     10.1451     10.3426     11.9046      8.6800     34.1483     29.7777     13.2600      2.4030      0.0417     65.3629  
  1927.0000   -999.2500   -999.2500    -46.9775     10.1425     10.3400     11.8894      8.7326     32.4247     29.8310     14.3765      2.4177      0.0555     84.2007  
  1927.5000   -999.2500   -999.2500    -47.0775     10.1400     10.3374     11.6951      8.7852     49.3778     29.7500     15.2371      2.4460      0.0552     61.8130  
  1928.0000   -999.2500   -999.2500    -47.1137     10.1375     10.3348     11.5039      8.6862     69.5176     29.5093     14.8051      2.4318      0.0467     89.2120  
  1928.5000   -999.2500   -999.2500    -47.1833     10.1349     10.3322     11.3159      8.7052     74.0734     29.3434     13.0675      2.4479      0.0558     99.3355  
  1929.0000   -999.2500   -999.2500    -47.4031     10.1324     10.3296     11.3074      8.8116     74.0210     29.4902     13.7917      2.4307      0.0434     92.5319  
  1929.5000   -999.2500   -999.2500    -47.5521     10.1240     10.3211     11.3384      8.8198     73.9686     29.8171     12.2117      2.4514      0.0680     91.3433  
  1930.0000   -999.2500   -999.2500    -47.3055     10.1154     10.3123     11.3864      8.8087     73.9162     30.3272     13.6649      2.4606      0.0837     67.6337  
  1930.5000   -999.2500   -999.2500    -46.9435     10.1068     10.3036     11.6925      8.7143     73.8638     30.5520     12.6010      2.4649      0.0899     79.3385  
  1931.0000   -999.2500   -999.2500    -46.2645     10.1921     10.3906     12.0070      8.6199     73.8114     30.1344     12.1544      2.4505      0.0653     84.7744  
  1931.5000   -999.2500   -999.2500    -45.6892     10.1773     10.3755     12.5095      8.5255     73.7590     29.5921     11.8755      2.4508      0.0447     77.9215  
  1932.0000   -999.2500   -999.2500    -46.0105     10.1626     10.3664     12.6785      8.4312     73.7066     29.3636     12.6102      2.4798      0.0597     86.4467  
  1932.5000   -999.2500   -999.2500    -46.8784     10.1478     10.3684     12.3998      8.3320     73.6542     28.6678     12.5377      2.4966      0.0868     71.4631  
  1933.0000   -999.2500   -999.2500    -47.5447     10.1331     10.3703     11.6979      8.1488     73.6018     27.6360     10.5479      2.4779      0.0734    119.2410  
  1933.5000   -999.2500   -999.2500    -47.7336     10.1184     10.3723     11.0137      8.0380     73.5495     27.1088      9.8819      2.4829      0.0879     84.2965  
  1934.0000   -999.2500   -999.2500    -47.4147     10.1038     10.3742     10.5272      7.7311     73.4971     25.5634     10.9017      2.4579      0.0861     77.2786  
  1934.5000   -999.2500   -999.2500   -999.2500   -999.2500   -999.2500   -999.2500      7.8274     73.4447     23.4094     10.5373      2.4493      0.0750     72.5222  
  1935.0000   -999.2500   -999.2500   -999.2500   -999.2500   -999.2500   -999.2500      8.1010     73.3923     18.8861     12.0823      2.4320      0.0744    101.1678  
  1935.5000   -999.2500   -999.2500   -999.2500   -999.2500   -999.2500   -999.2500      8.3129     73.3399     12.2258     12.6497      2.4486      0.1033     81.7502  
  1936.0000   -999.2500   -999.2500   -999.2500   -999.2500   -999.2500   -999.2500      8.3626     73.2875      1.7423     13.6952      2.4528      0.1097     98.7030  
  1936.5000   -999.2500   -999.2500   -999.2500   -999.2500   -999.2500   -999.2500      8.1087     73.2351     -0.0689     12.7155      2.4637      0.1232   -999.2500  
  1937.0000   -999.2500   -999.2500   -999.2500   -999.2500   -999.2500   -999.2500      8.2751     73.1827     -0.0679     12.3022      2.4610      0.1315   -999.2500  
  1937.5000   -999.2500   -999.2500   -999.2500   -999.2500   -999.2500   -999.2500      8.4249     73.1303     -0.0670     11.8202      2.4194      0.1410   -999.2500  
  1938.0000   -999.2500   -999.2500   -999.2500   -999.2500   -999.2500   -999.2500      8.4419     73.0779     -0.0661     12.2457      2.3927      0.1636   -999.2500  
  1938.5000   -999.2500   -999.2500   -999.2500   -999.2500   -999.2500   -999.2500      8.4169     73.0255     -0.0652     14.9050      2.4055      0.2029   -999.2500  
  1939.0000   -999.2500   -999.2500   -999.2500   -999.2500   -999.2500   -999.2500      7.7828     72.9731     -0.0643     16.1592      2.4193      0.2285   -999.2500  
  1939.5000   -999.2500   -999.2500   -999.2500   -999.2500   -999.2500   -999.2500      7.1114     72.9207     -0.0633     15.4823      2.4059      0.2080   -999.2500  
  1940.0000   -999.2500   -999.2500   -999.2500   -999.2500   -999.2500   -999.2500      7.1055     72.8683     -0.0624     14.8575      2.4137      0.1971   -999.2500  
  1940.5000   -999.2500   -999.2500   -999.2500   -999.2500   -999.2500   -999.2500   -999.2500   -999.2500   -999.2500   -999.2500   -999.2500   -999.2500   -999.2500  
  1941.0000   -999.2500   -999.2500   -999.2500   -999.2500   -999.2500   -999.2500   -999.2500   -999.2500   -999.2500   -999.2500   -999.2500   -999.2500   -999.2500  
  1941.5000   -999.2500   -999.2500   -999.2500   -999.2500   -999.2500   -999.2500   -999.2500   -999.2500   -999.2500   -999.2500   -999.2500   -999.2500   -999.2500  
  1942.0000   -999.2500   -999.2500   -999.2500   -999.2500   -999.2500   -999.2500   -999.2500   -999.2500   -999.2500   -999.2500   -999.2500   -999.2500   -999.2500  
  1942.5000   -999.2500   -999.2500   -999.2500   -999.2500   -999.2500   -999.2500   -999.2500   -999.2500   -999.2500   -999.2500   -999.2500   -999.2500   -999.2500  
  1943.0000   -999.2500   -999.2500   -999.2500   -999.2500   -999.2500   -999.2500   -999.2500   -999.2500   -999.2500   -999.2500   -999.2500   -999.2500   -999.2500  
  1943.5000   -999.2500   -999.2500   -999.2500   -999.2500   -999.2500   -999.2500   -999.2500   -999.2500   -999.2500   -999.2500   -999.2500   -999.2500   -999.2500  
  1944.0000   -999.2500   -999.2500   -999.2500   -999.2500   -999.2500   -999.2500   -999.2500   -999.2500   -999.2500   -999.2500   -999.2500   -999.2500   -999.2500  
  1944.5000   -999.2500   -999.2500   -999.2500   -999.2500   -999.2500   -999.2500   -999.2500   -999.2500   -999.2500   -999.2500   -999.2500   -999.2500   -999.2500  
  1945.0000   -999.2500   -999.2500   -999.2500   -999.2500   -999.2500   -999.2500   -999.2500   -999.2500   -999.2500   -999.2500   -999.2500   -999.2500   -999.2500  
  1945.5000   -999.2500   -999.2500   -999.2500   -999.2500   -999.2500   -999.2500   -999.2500   -999.2500   -999.2500   -999.2500   -999.2500   -999.2500   -999.2500  
