~VERSION INFORMATION
 VERS.                           2.00:        CWLS LOG ASCII STANDARD - VERSION 2.00
 WRAP.                             NO:        ONE LINE PER DEPTH STEP
~WELL INFORMATION
#MNEM.UNIT                   DATA             INFORMATION
#----------             --------------        ------------------------------
 STRT.F                       98.0000:        START DEPTH
 STOP.F                     2124.0000:        STOP DEPTH
 STEP.F                        0.5000:        STEP VALUE
 NULL.                      -999.2500:        NULL VALUE
 COMP.          USGS/NPR-A OPERATIONS:        COMPANY  
 LOC .                   24  22N  17W:        LOCATION   
 DATE.                        10/5/80:        LOG DATE 
 WELL.               SOUTH BARROW #18:        WELL     
 UWI .                   500232001700:        UNIQUE WELL ID 
 API .                   500232001700:        UNIQUE WELL IDENTIFIER 
 FLD .                   SOUTH BARROW:        FIELD    
 CNTY.                    NORTH SLOPE:        COUNTY  
 STAT.                         ALASKA:        STATE   
 CTRY.                            USA:        COUNTRY 
 OPER.          USGS/NPR-A OPERATIONS:        OPERATOR  
 SRVC.                   SCHLUMBERGER:        SERVICE COMPANY 
 LAT .                         0.0000:        LATITUDE
 LON .                         0.0000:        LONGITUDE
 DIGS.               CENTER LINE DATA:        DIGITIZING COMPANY 
~CURVE INFORMATION      
#MNEM        .UNIT         API CODE           CURVE DESCRIPTION
#-----------------      --------------        ------------------------------
 DEPT        .F                      :        1  DEPTH
 CALI        .IN                     :        2  
 GR          .GAPI                   :        3  
 NPHI        .%                      :        4  
 RHOB        .G/C3                   :        5  
 DRHO        .G/C3                   :        6  
 DT          .US/F                   :        7  
 SP          .MV                     :        8  
 ILD         .OHMM                   :        9  
 ILM         .OHMM                   :        10 
 SFL         .OHMM                   :        11 
 LLD         .OHMM                   :        12 
 LLS         .OHMM                   :        13 
 MSFL        .OHMM                   :        14 
~PARAMETER INFORMATION       
#MNEM.UNIT                  VALUE             DESCRIPTION OF MNEMONIC
#---------             ---------------        ------------------------------
 EKB .F                       30.0000:        KELLY BUSHING
 TD  .F                     2125.0000:        TOTAL DEPTH
 BHT .F                        0.0000:        BOTTOM HOLE TEMPERATURE
 BS  .                         8.5000:        BIT SIZE
 FD  .                        10.3000:        FLUID DENSITY
 CSIZ.                         9.6250:        CASING SIZE
 CBD .F                     1519.0000:        CASING DRILLER 1
 CBL .F                     1520.0000:        CASING LOGGER 1
 DFT .                  Miscellaneous:        TYPE FLUID IN HOLE
 DFV .                        47.0000:        VISCOSITY
 DFPH.                         8.5000:        PH
 DFL .                        14.0000:        FLUID LOSS
 RMS .                         0.1600:        RM
 MST .F                       43.0000:        RM MEAS. TEMP.
 RMF .                         0.1100:        RMF
 MFST.F                       43.0000:        RMF MEAS. TEMP.
 RMC .                         0.1200:        RMC
 MCST.F                       43.0000:        RMC MEAS. TEMP.
~OTHER INFORMATION
~A    DEPTH        CALI          GR        NPHI        RHOB        DRHO          DT          SP         ILD         ILM         SFL         LLD         LLS        MSFL  
# ...
  1946.0000     10.6205     73.6222     30.2535      2.5006      0.0300    100.5304   -999.2500   -999.2500   -999.2500   -999.2500     11.0707      9.5240      2.2736  
  1946.5000     10.8844     76.8575     31.3020      2.5166      0.0174     98.4404   -999.2500   -999.2500   -999.2500   -999.2500     10.8203      9.4495      2.2033  
  1947.0000     11.0907     80.2418     32.1599      2.5217      0.0332    103.0506   -999.2500   -999.2500   -999.2500   -999.2500     10.5755      9.4385      2.6099  
  1947.5000     10.5181     81.1182     32.7266      2.5147      0.0554    127.5621   -999.2500   -999.2500   -999.2500   -999.2500     10.5794      9.4386      3.1003  
  1948.0000     10.4678     81.6486     32.2689      2.5012      0.0526     97.7149   -999.2500   -999.2500   -999.2500   -999.2500     10.7660      9.3549      2.8526  
  1948.5000     10.5054     81.8727     31.4295      2.5273      0.0660     96.3304   -999.2500   -999.2500   -999.2500   -999.2500     10.7666      9.3137      2.4839  
  1949.0000     10.7685     84.2087     31.0615      2.5236      0.0673     96.4430   -999.2500   -999.2500   -999.2500   -999.2500     10.8800      9.2874      2.5327  
  1949.5000     11.0758     85.5038     30.6388      2.5155      0.0536     96.5555   -999.2500   -999.2500   -999.2500   -999.2500     10.9784      9.2559      3.1436  
  1950.0000     10.8953     85.8508     30.3932      2.5208      0.0401     64.4202   -999.2500   -999.2500   -999.2500   -999.2500     11.0015      9.3710      3.4072  
  1950.5000     10.2820     82.9157     30.2036      2.5177      0.0371     96.0377   -999.2500   -999.2500   -999.2500   -999.2500     11.0560      9.5198      2.8281  
  1951.0000     10.2452     81.3038     30.2276      2.5038      0.0317     95.5100   -999.2500   -999.2500   -999.2500   -999.2500     11.2256      9.6709      2.7787  
  1951.5000     10.2363     80.3486     30.0452      2.5001      0.0312    148.8245   -999.2500   -999.2500   -999.2500   -999.2500     11.2819      9.7118      2.7284  
  1952.0000     10.2124     80.2008     29.8494      2.4966      0.0285     96.0768   -999.2500   -999.2500   -999.2500   -999.2500     11.2044      9.7381      2.4255  
  1952.5000     10.2779     80.4019     29.8406      2.4909      0.0239     93.8593   -999.2500   -999.2500   -999.2500   -999.2500     11.0968      9.7620      2.1856  
  1953.0000     10.2607     81.3558     29.9327      2.4958      0.0304     95.4262   -999.2500   -999.2500   -999.2500   -999.2500     11.0147      9.6664      2.0499  
  1953.5000     10.2281     82.2925     30.4954      2.5079      0.0482     95.0748   -999.2500   -999.2500   -999.2500   -999.2500     11.3906     10.0288      2.0904  
  1954.0000     10.2116     81.6928     31.1598      2.5118      0.0439    114.4462   -999.2500   -999.2500   -999.2500   -999.2500     11.7852      9.9769      2.0618  
  1954.5000     10.2132     79.7933     31.6970      2.5115      0.0303    137.9158   -999.2500   -999.2500   -999.2500   -999.2500     11.8340      9.9150      2.0818  
  1955.0000     10.1938     78.9662     31.7530      2.5150      0.0137     94.2715   -999.2500   -999.2500   -999.2500   -999.2500     11.5058      9.8034      2.4058  
  1955.5000     10.2002     79.0711     29.8307      2.5250      0.0387    105.1213   -999.2500   -999.2500   -999.2500   -999.2500     11.2071      9.5919      2.7423  
  1956.0000     10.1894     79.4205     28.8892      2.5398      0.0372     92.2160   -999.2500   -999.2500   -999.2500   -999.2500     11.4840      9.4767      2.8735  
  1956.5000     10.1920     79.3846     28.2557      2.4862      0.0187     92.3632   -999.2500   -999.2500   -999.2500   -999.2500     11.7617      9.6520      2.6435  
  1957.0000     10.3661     78.3837     28.6593      2.4987      0.0314     90.2452   -999.2500   -999.2500   -999.2500   -999.2500     12.2559      9.9421      2.2350  
  1957.5000     10.2304     77.8747     29.1288      2.5042      0.0418     80.2496   -999.2500   -999.2500   -999.2500   -999.2500     12.1149      9.3700      1.7395  
  1958.0000     10.1914     78.1190     29.2392      2.4961      0.0384    103.5971   -999.2500   -999.2500   -999.2500   -999.2500     11.1343      8.6195      1.3090  
  1958.5000     10.1686     78.3537     28.9320      2.4877      0.0398    116.0469   -999.2500   -999.2500   -999.2500   -999.2500     10.1645      7.9290      0.8689  
  1959.0000     10.1626     77.6056     28.3146      2.4789      0.0566    141.0890   -999.2500   -999.2500   -999.2500   -999.2500      9.5652      7.2939      0.8326  
  1959.5000     10.1697     75.9237     27.9644      2.4776      0.1039    143.9387   -999.2500   -999.2500   -999.2500   -999.2500      9.0012      7.1844      0.9771  
  1960.0000     10.3041     71.0051     28.7889      2.4546      0.1255    146.7884   -999.2500   -999.2500   -999.2500   -999.2500      9.4882      8.0829      1.4123  
  1960.5000     10.8172     66.1755     30.6445      2.4043      0.0935    115.4363   -999.2500   -999.2500   -999.2500   -999.2500     10.4494      9.8531      1.4727  
  1961.0000     11.9873     65.3067     31.3315      2.3801      0.0864    113.2219   -999.2500   -999.2500   -999.2500   -999.2500     11.5081      9.4936      1.1710  
  1961.5000     12.0808     65.0881     30.1514      2.4158      0.1048    128.0158   -999.2500   -999.2500   -999.2500   -999.2500     11.1374      8.6800      0.9015  
  1962.0000     11.3907     64.0410     28.9767      2.4414      0.1133    128.4373   -999.2500   -999.2500   -999.2500   -999.2500     10.3503      8.0866      0.8252  
  1962.5000     11.2877     61.8499     27.9888      2.4111      0.1121    114.6629   -999.2500   -999.2500   -999.2500   -999.2500      9.6633      7.5783      0.7723  
  1963.0000     11.2431     59.0441     27.4314      2.4005      0.1418    129.3386   -999.2500   -999.2500   -999.2500   -999.2500      8.8938      7.3166      0.7212  
  1963.5000     10.5301     54.7359     29.2640      2.3063      0.1022     87.0085   -999.2500   -999.2500   -999.2500   -999.2500      9.2414      7.5410      0.6944  
  1964.0000     11.7962     51.5619     30.5458      2.2655      0.0760     98.6662   -999.2500   -999.2500   -999.2500   -999.2500     10.1082      8.0936      0.7240  
  1964.5000     13.2818     49.6187     31.6277      2.2896      0.1218    103.6666   -999.2500   -999.2500   -999.2500   -999.2500     11.0329      8.5413      0.7023  
  1965.0000     13.6966     49.3463     33.2322      2.2780      0.1284    104.2687   -999.2500   -999.2500   -999.2500   -999.2500     10.5989      8.3832      0.5851  
  1965.5000     13.8438     50.0211     34.6210      2.2565      0.0851    109.0851   -999.2500   -999.2500   -999.2500   -999.2500     10.0430      8.1662      0.4771  
  1966.0000     13.8562     53.3569     34.0160      2.2993      0.1013     98.4154   -999.2500   -999.2500   -999.2500   -999.2500      9.5163      7.4969      0.5713  
  1966.5000     12.6648     57.5334     32.8886      2.3165      0.1697     92.8266   -999.2500   -999.2500   -999.2500   -999.2500      9.6371      7.2786      1.0929  
  1967.0000     10.5528     61.7098     34.8393      2.2939      0.1402     94.9924   -999.2500   -999.2500   -999.2500   -999.2500     11.1721      8.0966      2.8688  
  1967.5000     11.8571     65.7170     37.8394      2.3533      0.1194     96.4397   -999.2500   -999.2500   -999.2500   -999.2500     11.6341      8.4473      4.0365  
  1968.0000     13.4090     71.1418     38.7264      2.3977      0.0505     95.6666   -999.2500   -999.2500   -999.2500   -999.2500     11.7864      8.7691      4.4027  
  1968.5000     13.2155     75.1026     36.0506      2.4616      0.0124     94.8027   -999.2500   -999.2500   -999.2500   -999.2500     11.7311      9.0985      5.0340  
  1969.0000     11.7944     72.5825     30.8134      2.4950      0.0226     94.7629   -999.2500   -999.2500   -999.2500   -999.2500     11.4351      9.4402      6.1596  
  1969.5000     10.3733     70.6798     27.2269      2.4711      0.0168     94.7230   -999.2500   -999.2500   -999.2500   -999.2500     12.1735      9.9894      7.4448  
