~VERSION INFORMATION
 VERS.                           2.00:        CWLS LOG ASCII STANDARD - VERSION 2.00
 WRAP.                             NO:        ONE LINE PER DEPTH STEP
~WELL INFORMATION
#MNEM.UNIT                   DATA             INFORMATION
#----------             --------------        ------------------------------
 STRT.F                      101.0000:        START DEPTH
 STOP.F                     3666.0000:        STOP DEPTH
 STEP.F                        0.5000:        STEP VALUE
 NULL.                      -999.2500:        NULL VALUE
 COMP.     USGS/NPR HUSKY OIL COMPANY:        COMPANY
 LOC .                      9 20N 19W:        LOCATION
 DATE.                       12/30/79:        LOG DATE
 WELL.           WALAKPA TEST WELL #1:        WELL
 UWI .                   500232001300:        UNIQUE WELL ID
 API .                   500232001300:        UNIQUE WELL IDENTIFIER
 FLD .                        WILDCAT:        FIELD
 CNTY.                    NORTH SLOPE:        COUNTY
 STAT.                         ALASKA:        STATE
 CTRY.                            USA:        COUNTRY
 OPER.     USGS/NPR HUSKY OIL COMPANY:        OPERATOR
 SRVC.                   SCHLUMBERGER:        SERVICE COMPANY
 LAT .                         0.0000:        LATITUDE
 LON .                         0.0000:        LONGITUDE
 DIGS.               CENTER LINE DATA:        DIGITIZING COMPANY
~CURVE INFORMATION      
#MNEM        .UNIT         API CODE           CURVE DESCRIPTION
#-----------------      --------------        ------------------------------
 DEPT        .F                      :        1  DEPTH
 GR          .GAPI                   :        2  
 CALI        .IN                     :        3  
 RHOB        .G/C3                   :        4  
 DRHO        .G/C3                   :        5  
 NPHI        .%                      :        6  
 DT          .US/F                   :        7  
 SP          .MV                     :        8  
 ILD         .OHMM                   :        9  
 ILM         .OHMM                   :        10 
 LL8         .OHMM                   :        11 
 SFL         .OHMM                   :        12 
~PARAMETER INFORMATION
#MNEM.UNIT                  VALUE             DESCRIPTION OF MNEMONIC
#---------             ---------------        ------------------------------
 EKB .F                       50.0000:        KELLY BUSHING
 TD  .F                     3672.0000:        TOTAL DEPTH
 BHT .F                       80.0000:        BOTTOM HOLE TEMPERATURE
 BS  .                        12.2500:        BIT SIZE
 FD  .                         9.9000:        FLUID DENSITY
 CSIZ.                        13.3750:        CASING SIZE
 CBD .F                      100.0000:        CASING DRILLER 1
 CBL .F                      106.0000:        CASING LOGGER 1
 DFT .                             99:        TYPE FLUID IN HOLE
 DFV .                        45.0000:        VISCOSITY
 DFPH.                         8.0000:        PH
 DFL .                        23.0000:        FLUID LOSS
 RMS .                         5.9200:        RM
 MST .F                       58.0000:        RM MEAS. TEMP.
 RMF .                         6.2200:        RMF
 MFST.F                       57.0000:        RMF MEAS. TEMP.
 RMC .                         7.0500:        RMC
 MCST.F                       57.0000:        RMC MEAS. TEMP.
~OTHER INFORMATION
~A    DEPTH          GR        CALI        RHOB        DRHO        NPHI          DT          SP         ILD         ILM         LL8         SFL 
# ...
  1501.0000     82.9349     13.2359      2.4688      0.1742     34.1026     99.6843    -53.6386     16.6574     13.4816     17.6924   -999.2500 
  1501.5000     83.1818     13.1094      2.4529      0.1828     34.8836     99.7630    -53.7021     16.6353     13.6052     17.6288   -999.2500 
  1502.0000     84.3470     12.8106      2.4797      0.2221     35.6082     99.9762    -52.2155     16.8471     13.9623     17.8558   -999.2500 
  1502.5000     85.4874     12.9361      2.4701      0.2171     36.4573     99.6274    -50.8442     17.0615     14.2452     18.3125   -999.2500 
  1503.0000     86.2875     13.0810      2.4540      0.1962     36.8920     97.9401    -50.2962     17.2998     14.3924     18.9315   -999.2500 
  1503.5000     86.6151     13.0592      2.4300      0.1285     36.2345     97.3684    -50.4164     17.5367     14.5482     19.5715   -999.2500 
  1504.0000     86.8445     12.9232      2.4567      0.1458     34.5573     97.2185    -50.7856     17.7344     14.7253     19.5501   -999.2500 
  1504.5000     87.0760     12.8801      2.5048      0.1974     32.3879     97.0352    -50.8675     17.9344     14.7987     19.4221   -999.2500 
  1505.0000     87.6660     12.9747      2.4815      0.1892     31.8203     96.6183    -50.7676     17.9466     14.8954     19.2301   -999.2500 
  1505.5000     88.3126     12.8812      2.4714      0.1619     33.2603     96.0668    -50.1328     17.7326     14.8065     19.0205   -999.2500 
  1506.0000     88.0296     12.8630      2.4918      0.1784     34.3422     96.2774    -49.4338     17.4224     14.5161     18.8133   -999.2500 
  1506.5000     87.7465     12.9789      2.5157      0.2076     34.6140     98.2322    -49.8189     17.0725     14.1540     18.6083   -999.2500 
  1507.0000     87.8317     13.0207      2.5273      0.1913     34.6109    100.1930    -50.1446     16.8719     13.9317     18.2515   -999.2500 
  1507.5000     88.4334     13.0499      2.5076      0.1499     34.3286    101.2416    -50.3643     16.6880     13.7602     17.9061   -999.2500 
  1508.0000     88.2030     13.1813      2.4993      0.1544     34.0580    101.2179    -50.4595     16.5430     13.6853     17.7109   -999.2500 
  1508.5000     85.7298     13.1023      2.4852      0.1362     34.7525    101.2821    -49.9087     16.4001     13.6339     17.6187   -999.2500 
  1509.0000     84.2081     13.0475      2.4996      0.1642     35.5322    101.4575    -49.4808     16.2585     13.6695     17.6066   -999.2500 
  1509.5000     83.5610     13.0517      2.4989      0.1730     35.9000    101.6372    -49.1988     16.3277     13.7053     17.8014   -999.2500 
  1510.0000     84.2740     13.0071      2.4814      0.1861     35.9686    101.3576    -68.6532     16.4677     13.7412     17.9671   -999.2500 
  1510.5000     86.3734     13.0131      2.4702      0.1731     35.7023    100.7541    -68.4033     16.6089     13.7280     17.9273   -999.2500 
  1511.0000     88.1428     13.3982      2.4675      0.1685     34.8918    100.2300    -68.1327     16.7513     13.6829     17.8876   -999.2500 
  1511.5000     90.7108     13.8148      2.4406      0.0984     33.0553    100.0668    -68.4110     16.8948     13.7365     17.8211   -999.2500 
  1512.0000     92.0779     13.4000      2.4641      0.0957     31.9093    100.2910    -68.9736     17.0397     13.8033     17.5776   -999.2500 
  1512.5000     89.9082     13.5574      2.5118      0.1064     32.3009    100.6618    -68.7776     17.1858     13.8997     17.5064   -999.2500 
  1513.0000     86.0685     13.6989      2.4903      0.0749     33.0216    101.4475    -68.6656     17.2448     13.9978     17.5734   -999.2500 
  1513.5000     85.5694     13.3228      2.4980      0.0663     33.4666    105.2483    -68.5277     17.2487     14.0414     17.8576   -999.2500 
  1514.0000     84.9297     12.9581      2.5193      0.0984     35.0417    116.4620    -68.3003     17.2526     14.0084     18.1262   -999.2500 
  1514.5000     84.5218     13.1708      2.4928      0.1131     36.7756    130.8722    -68.2992     17.2565     13.8645     18.2058   -999.2500 
  1515.0000     83.7938     13.3547      2.4750      0.1420     37.3205    137.7342    -68.4584     17.2784     13.7400     17.6873   -999.2500 
  1515.5000     83.6042     13.4720      2.4636      0.1797     36.7126    140.6558    -68.4751     17.3175     13.6441     17.6250   -999.2500 
  1516.0000     82.9270     14.0441      2.4114      0.1838     36.1067    147.3302    -68.1042     17.3566     13.6417     17.6291   -999.2500 
  1516.5000     81.3396     14.0650      2.4344      0.1888     35.6183    144.1885    -67.7939     17.3958     13.7285     17.6332   -999.2500 
  1517.0000     78.7057     14.4545      2.4148      0.1813     34.9113    133.2404    -67.4646     17.6032     13.8264     17.7438   -999.2500 
  1517.5000     76.1020     14.0432      2.3957      0.1366     34.1032    136.8889    -67.0872     17.8367     13.9671     17.8990   -999.2500 
  1518.0000     74.8407     13.3501      2.4433      0.1029     32.9878    137.5708    -67.3328     18.0889     14.4172     18.3389   -999.2500 
  1518.5000     74.6989     13.1979      2.4782      0.1200     31.7073    120.2668    -67.6068     18.7808     16.4965     19.0596   -999.2500 
  1519.0000     75.2372     13.1749      2.4109      0.0559     30.4003    108.6676    -67.2439     19.4991     16.6960     21.7286   -999.2500 
  1519.5000     75.8505     13.1770      2.3900      0.0285     31.4085     99.1293    -66.4970     19.9528     16.7479     28.8490   -999.2500 
  1520.0000     75.6893     13.1635      2.4393      0.0367     32.8571     97.6489    -65.9378     20.1033     16.5670     26.1376   -999.2500 
  1520.5000     74.8026     13.0932      2.4967      0.0527     34.2308     99.8704    -65.4607     20.1901     16.5777     23.5546   -999.2500 
  1521.0000     73.9160     13.0637      2.5247      0.0637     34.7567    103.5273    -65.4271     21.6805     17.1213     23.5321   -999.2500 
  1521.5000     72.2918     13.0502      2.5115      0.0499     33.8088    113.4426    -65.8519     23.2370     18.1404     24.5172   -999.2500 
  1522.0000     70.5624     13.0446      2.4952      0.0481     33.1026    118.5705    -66.7984     24.9053     19.6442     25.6812   -999.2500 
  1522.5000     70.3389     13.0538      2.4656      0.0535     32.5906     98.9085    -67.9861     26.1266     21.0102     29.5524   -999.2500 
  1523.0000     71.4643     13.0113      2.4269      0.0436     32.8565     95.6555    -69.1363     27.0623     22.4754     33.7676   -999.2500 
  1523.5000     74.7807     12.9193      2.3936      0.0304     33.1475     95.1953    -70.0596     28.0316     23.7005     34.8059   -999.2500 
  1524.0000     79.4629     12.8269      2.3792      0.0253     34.7641     95.2239    -70.2917     28.5629     22.7533     35.7372   -999.2500 
  1524.5000     83.5396     12.7693      2.3881      0.0372     35.9049     97.5495    -69.9246     26.3791     21.5031     38.1850   -999.2500 
  1525.0000     86.7772     12.7440      2.4056      0.0540     36.4258    100.7013    -68.9194     23.6112     19.0095     33.4632   -999.2500 
  1525.5000     87.5151     12.7202      2.4449      0.0834     36.4188    104.7895    -68.0147     21.1337     16.6590     25.0205   -999.2500 
  1526.0000     86.8330     12.8356      2.5037      0.1384     35.7304    107.4350    -67.4149     18.9162     14.5991     19.9985   -999.2500 
  1526.5000     86.2128     13.2090      2.4952      0.1655     35.6906    107.9250    -66.9865     17.6669     14.1943     19.1391   -999.2500 
  1527.0000     85.9523     13.0116      2.4718      0.1364     36.4089    106.3198    -66.7338     17.1077     13.8594     18.8041   -999.2500 
  1527.5000     85.3166     12.9428      2.4722      0.1069     37.4875    104.3207    -66.3917     16.7821     13.6334     18.7833   -999.2500 
  1528.0000     84.6328     12.9121      2.4824      0.1329     37.3444    102.7275    -66.4196     16.6850     13.5529     18.9385   -999.2500 
  1528.5000     84.1977     12.8562      2.5075      0.1587     36.7716    101.9022    -66.4618     16.7920     13.6568     18.8391   -999.2500 
