~VERSION INFORMATION
 VERS.                           2.00:        CWLS LOG ASCII STANDARD - VERSION 2.00
 WRAP.                             NO:        ONE LINE PER DEPTH STEP
~WELL INFORMATION
#MNEM.UNIT                   DATA             INFORMATION
#----------             --------------        ------------------------------
 STRT.F                       50.0000:        START DEPTH
 STOP.F                     2158.0000:        STOP DEPTH
 STEP.F                        0.5000:        STEP VALUE
 NULL.                      -999.2500:        NULL VALUE
 COMP.              HUSKY OIL COMPANY:        COMPANY  
 LOC .                   25  22N  17W:        LOCATION   
 DATE.                        2-19-77:        LOG DATE 
 WELL.               SOUTH BARROW #14:        WELL     
 UWI .                   500232000900:        UNIQUE WELL ID 
 API .                   500232000900:        UNIQUE WELL IDENTIFIER 
 FLD .               SOUTH BARROW GAS:        FIELD    
 CNTY.                    NORTH SLOPE:        COUNTY  
 STAT.                         ALASKA:        STATE   
 CTRY.                            USA:        COUNTRY 
 OPER.              HUSKY OIL COMPANY:        OPERATOR  
 SRVC.                   SCHLUMBERGER:        SERVICE COMPANY 
 LAT .                         0.0000:        LATITUDE
 LON .                         0.0000:        LONGITUDE
 DIGS.               CENTER LINE DATA:        DIGITIZING COMPANY 
~CURVE INFORMATION      
#MNEM        .UNIT         API CODE           CURVE DESCRIPTION
#-----------------      --------------        ------------------------------
 DEPT        .F                      :        1  DEPTH
 LLS         .OHMM                   :        2  
 LLD         .OHMM                   :        3  
 SP          .MV                     :        4  
 ILD         .OHMM                   :        5  
 ILM         .OHMM                   :        6  
 LL8         .OHMM                   :        7  
 CALI        .IN                     :        8  
 GR          .GAPI                   :        9  
 NPHI        .%                      :        10 
 DPHI        .%                      :        11 
 RHOB        .G/C3                   :        12 
 DRHO        .G/C3                   :        13 
 DT          .US/F                   :        14 
~PARAMETER INFORMATION       
#MNEM.UNIT                  VALUE             DESCRIPTION OF MNEMONIC
#---------             ---------------        ------------------------------
 EKB .F                       31.0000:        KELLY BUSHING
 TD  .F                     1042.0000:        TOTAL DEPTH
 BHT .F                       62.0000:        BOTTOM HOLE TEMPERATURE
 BS  .                         6.0000:        BIT SIZE
 FD  .                        10.7000:        FLUID DENSITY
 CSIZ.                         7.0000:        CASING SIZE
 CBD .F                     1947.0000:        CASING DRILLER 1
 CBL .F                     1946.0000:        CASING LOGGER 1
 DFT .                  Miscellaneous:        TYPE FLUID IN HOLE
 DFV .                        50.0000:        VISCOSITY
 DFPH.                        10.0000:        PH
 DFL .                         0.0000:        FLUID LOSS
 RMS .                         0.1500:        RM
 MST .F                       50.0000:        RM MEAS. TEMP.
 RMF .                         0.1600:        RMF
 MFST.F                       61.0000:        RMF MEAS. TEMP.
 RMC .                         0.0000:        RMC
 MCST.F                        0.0000:        RMC MEAS. TEMP.
~OTHER INFORMATION
~A    DEPTH         LLS         LLD          SP         ILD         ILM         LL8        CALI          GR        NPHI        DPHI        RHOB        DRHO          DT  
# ...
  1850.0000   -999.2500   -999.2500    -45.5827      8.2800      8.4505     10.0044      8.3332     93.6743     37.9994     13.9631      2.4302      0.0424    104.1224  
  1850.5000   -999.2500   -999.2500    -45.9971      8.1575      8.3222     10.2850      8.3161     95.5327     38.9530     14.3730      2.4301      0.0442    104.6743  
  1851.0000   -999.2500   -999.2500    -45.8288      8.1516      8.3107     10.5606      8.3347     97.1683     39.8269     14.0000      2.4360      0.0337    104.8764  
  1851.5000   -999.2500   -999.2500    -45.1365      8.1283      8.2873     10.2029      8.3201     97.6451     39.8044     13.8141      2.4442      0.0396    104.7439  
  1852.0000   -999.2500   -999.2500    -44.2238      8.0715      8.2315      9.7998      8.3151     97.3645     38.2458     13.4903      2.4601      0.0512    104.2007  
  1852.5000   -999.2500   -999.2500    -43.5937      8.0454      8.2158      9.4128      8.3280     97.7203     37.4063     12.8498      2.4700      0.0553    103.1942  
  1853.0000   -999.2500   -999.2500    -43.6817      8.1595      8.3210      9.3891      8.3591     98.8441     37.5265     12.0373      2.4569      0.0400    102.9808  
  1853.5000   -999.2500   -999.2500    -43.8342      8.1083      8.2671      9.6590      8.4301     98.3764     38.4495     11.5441      2.4427      0.0389    104.4033  
  1854.0000   -999.2500   -999.2500    -43.8094      8.1172      8.2767      9.9367      8.4388     96.5736     39.7372     12.0822      2.4553      0.0537    107.2416  
  1854.5000   -999.2500   -999.2500    -43.8206      8.1394      8.2979     10.2223      8.4282     95.2512     40.6498     13.1134      2.4596      0.0491    109.9903  
  1855.0000   -999.2500   -999.2500    -43.8544      8.2034      8.3699     10.2588      8.4060     95.9353     41.0482     12.1519      2.4583      0.0613    110.5440  
  1855.5000   -999.2500   -999.2500    -43.7857      8.2331      8.3944     10.1681      8.3989     97.6147     41.0188     12.0801      2.4598      0.0666    110.5768  
  1856.0000   -999.2500   -999.2500    -43.8508      8.3943      8.5758     10.1966      8.3961     98.9006     40.6485     12.0100      2.4649      0.0594    109.2908  
  1856.5000   -999.2500   -999.2500    -44.0134      8.5821      8.7677     10.7068      8.4279     98.4250     40.2329     11.9189      2.4542      0.0484    108.8621  
  1857.0000   -999.2500   -999.2500    -43.8851      8.7534      8.9252     11.3875      8.4383     96.9181     40.1840     11.9148      2.4592      0.0482    109.6484  
  1857.5000   -999.2500   -999.2500    -43.1105      8.8054      8.9782     11.6749      8.4211     95.1314     39.1301     12.4133      2.4818      0.0655    109.5752  
  1858.0000   -999.2500   -999.2500    -42.4629      8.8541      9.0277     11.4857      8.3823     91.4763     37.3339     12.1183      2.4654      0.0486    108.8679  
  1858.5000   -999.2500   -999.2500    -42.3758      8.8782      9.0511     11.1300      8.3698     94.2570     36.6390     10.5045      2.4381      0.0309    107.3342  
  1859.0000   -999.2500   -999.2500    -42.8063      9.0446      9.2435     10.7079      8.4083     94.2708     37.6553     11.7547      2.4215      0.0212    105.6656  
  1859.5000   -999.2500   -999.2500    -43.0060      9.2642      9.4679     10.8542      8.4935     94.8147     39.6477     13.3604      2.4284      0.0301    106.0171  
  1860.0000   -999.2500   -999.2500    -42.9788      9.4891      9.6978     11.1036      8.4021     95.0315     40.8128     14.6091      2.4256      0.0383    106.6700  
  1860.5000   -999.2500   -999.2500    -42.9004      9.7195      9.9333     11.4316      8.5207     95.3471     42.0176     14.0492      2.4544      0.0565    109.8446  
  1861.0000   -999.2500   -999.2500    -42.7887      9.7369      9.9310     11.5664      8.5316     96.2448     42.3217     14.0152      2.4415      0.0491    110.7196  
  1861.5000   -999.2500   -999.2500    -42.7971      9.6416      9.8338     11.7063      8.5226     96.2881     41.5777     12.4080      2.4210      0.0202    110.5640  
  1862.0000   -999.2500   -999.2500    -43.2184      9.5473      9.7376     12.0594      8.5142     93.8334     40.0270     13.5243      2.4202      0.0176    109.6874  
  1862.5000   -999.2500   -999.2500    -43.9955      9.4539      9.6423     12.2227      8.5491     91.0840     38.5980     14.4008      2.4365      0.0173    107.7516  
  1863.0000   -999.2500   -999.2500    -44.5041      9.3614      9.5480     11.6501      8.5832     88.4961     38.0037     14.0767      2.4661      0.0493    106.1674  
  1863.5000   -999.2500   -999.2500    -44.3343      9.2365      9.4259     10.7460      8.5843     86.2621     37.2690     13.4664      2.4798      0.0685    105.3394  
  1864.0000   -999.2500   -999.2500    -43.8804      9.1004      9.2869      9.9120      8.5339     89.1581     36.4209     11.3212      2.4626      0.0469    104.1952  
  1864.5000   -999.2500   -999.2500    -43.6408      8.9662      9.1500     10.2450      8.4824     91.1636     36.4737     11.0492      2.4544      0.0536    102.8551  
  1865.0000   -999.2500   -999.2500    -43.8293      8.8340      9.0151     10.9193      8.4590     91.7070     37.2737     12.6959      2.4504      0.0534    102.8522  
  1865.5000   -999.2500   -999.2500    -44.0654      8.8203      8.9926     11.5079      8.4868     91.4261     38.5917     12.0885      2.4265      0.0196    104.2835  
  1866.0000   -999.2500   -999.2500    -43.6652      8.7880      8.9597     11.4186      8.4963     90.6760     38.1272     13.0468      2.4098      0.0181    106.1779  
  1866.5000   -999.2500   -999.2500    -43.0230      8.8034      8.9790     10.9301      8.4940     90.3845     37.1767     14.3786      2.4565      0.0360     88.2245  
  1867.0000   -999.2500   -999.2500    -42.4475      8.8932      9.0706     10.4124      8.4871     91.6219     36.8041     14.4068      2.4309      0.0328    107.8848  
  1867.5000   -999.2500   -999.2500    -42.2087      8.9839      9.1631     10.7804      8.5032     93.6347     37.1236     12.2217      2.4095      0.0158    105.8683  
  1868.0000   -999.2500   -999.2500    -42.0646      9.0755      9.2566     11.1808      8.5168     94.4476     38.5130     13.8207      2.3905      0.0080    105.0986  
  1868.5000   -999.2500   -999.2500    -42.7740      9.2061      9.4139     11.4287      8.5361     92.9613     40.2962     15.3181      2.4042      0.0065    106.3153  
  1869.0000   -999.2500   -999.2500    -43.4833      9.4551      9.6685     11.5473      8.5385     90.9171     40.1718     15.9057      2.4188      0.0237    107.7159  
  1869.5000   -999.2500   -999.2500    -44.1790      9.7108      9.9300     11.6153      8.5241     88.3784     39.6378     15.6164      2.4340      0.0422    109.8708  
  1870.0000   -999.2500   -999.2500    -44.7597      9.9735     10.1985     12.1503      8.5002     85.8398     38.4447     14.3018      2.4541      0.0531    108.6324  
  1870.5000   -999.2500   -999.2500    -44.9981     10.0818     10.2790     12.9869      8.5029     86.6734     37.2237     13.5478      2.4303      0.0332    107.1369  
  1871.0000   -999.2500   -999.2500    -45.1095     10.2835     10.5077     13.2008      8.5133     88.1429     35.8319     12.9191      2.4182      0.0169    106.4649  
  1871.5000   -999.2500   -999.2500    -45.2845     10.5053     10.7253     12.9165      8.4847     88.4529     34.5335     14.0400      2.4082      0.0084    105.1954  
  1872.0000   -999.2500   -999.2500    -45.2883     10.7351     10.9560     12.4520      8.5056     86.5803     33.0762     14.5807      2.4102     -0.0005    103.6622  
  1872.5000   -999.2500   -999.2500    -45.1350     10.7700     10.9800     12.4108      8.5566     84.8775     32.7296     15.1408      2.4122     -0.0021    102.2550  
  1873.0000   -999.2500   -999.2500    -44.9918     10.7945     11.0050     12.6801      8.5563     85.2897     33.4700     15.5303      2.4199      0.0046    103.4858  
  1873.5000   -999.2500   -999.2500    -44.8954     10.8190     11.0300     12.7998      8.5510     85.0342     34.1963     15.1203      2.4249      0.0123     99.9384  
