~VERSION INFORMATION
 VERS.                           2.00:        CWLS LOG ASCII STANDARD - VERSION 2.00
 WRAP.                             NO:        ONE LINE PER DEPTH STEP
~WELL INFORMATION
#MNEM.UNIT                   DATA             INFORMATION
#----------             --------------        ------------------------------
 STRT.F                      990.0000:        START DEPTH
 STOP.F                     2362.0000:        STOP DEPTH
 STEP.F                        0.5000:        STEP VALUE
 NULL.                      -999.2500:        NULL VALUE
 COMP.                 U.S. AIR FORCE:        COMPANY  
 LOC .                   14  22N  18W:        LOCATION   
 DATE.                        4/21/69:        LOG DATE 
 WELL.       SOUTH BARROW GAS WELL #8:        WELL     
 UWI .                   500232000200:        UNIQUE WELL ID 
 API .                   500232000200:        UNIQUE WELL IDENTIFIER 
 FLD .                S. B. GAS FIELD:        FIELD    
 CNTY.                   POINT BARROW:        COUNTY  
 STAT.                         ALASKA:        STATE   
 CTRY.                            USA:        COUNTRY 
 OPER.                 U.S. AIR FORCE:        OPERATOR  
 SRVC.                   SCHLUMBERGER:        SERVICE COMPANY 
 LAT .                         0.0000:        LATITUDE
 LON .                         0.0000:        LONGITUDE
 DIGS.               CENTER LINE DATA:        DIGITIZING COMPANY 
~CURVE INFORMATION      
#MNEM        .UNIT         API CODE           CURVE DESCRIPTION
#-----------------      --------------        ------------------------------
 DEPT        .F                      :        1  DEPTH
 SP          .MV                     :        2  
 ASN         .OHMM                   :        3  
 ILD         .OHMM                   :        4  
 CILD        .MMHO                   :        5  
 CALI        .IN                     :        6  
 DT          .US/F                   :        7  
~PARAMETER INFORMATION       
#MNEM.UNIT                  VALUE             DESCRIPTION OF MNEMONIC
#---------             ---------------        ------------------------------
 EKB .F                       31.0000:        KELLY BUSHING
 TD  .F                     2363.0000:        TOTAL DEPTH
 BHT .F                       74.0000:        BOTTOM HOLE TEMPERATURE
 BS  .                         8.6250:        BIT SIZE
 FD  .                        10.6000:        FLUID DENSITY
 CSIZ.                         9.6250:        CASING SIZE
 CBD .F                      992.0000:        CASING DRILLER 1
 CBL .F                      990.0000:        CASING LOGGER 1
 DFT .                            Gel:        TYPE FLUID IN HOLE
 DFV .                        54.0000:        VISCOSITY
 DFPH.                        10.0000:        PH
 DFL .                         4.8000:        FLUID LOSS
 RMS .                         2.0000:        RM
 MST .F                       82.0000:        RM MEAS. TEMP.
 RMF .                         2.1800:        RMF
 MFST.F                       61.0000:        RMF MEAS. TEMP.
 RMC .                         4.1900:        RMC
 MCST.F                       53.0000:        RMC MEAS. TEMP.
~OTHER INFORMATION
~A    DEPTH          SP         ASN         ILD        CILD        CALI          DT  
   990.0000    -22.8561      0.0782      2.3253   -999.2500   -999.2500   -999.2500  
   990.5000    -40.2045      0.3215      1.7367   -999.2500   -999.2500   -999.2500  
   991.0000    -55.7076      1.1282      3.7430   -999.2500   -999.2500   -999.2500  
   991.5000    -59.7138      1.8210      7.0024   -999.2500   -999.2500   -999.2500  
   992.0000    -59.4037      2.1981      6.0857      1.1397   -999.2500   -999.2500  
   992.5000    -58.7398      2.3193      2.6356      1.1524   -999.2500   -999.2500  
   993.0000    -58.0759      2.4405      2.7375      1.1652   -999.2500   -999.2500  
   993.5000    -59.2157      2.5413      2.8394      1.1780   -999.2500   -999.2500  
   994.0000    -59.5920      2.5904      2.9413     81.6460   -999.2500   -999.2500  
   994.5000    -59.8997      2.6133      3.0500    218.4109   -999.2500   -999.2500  
   995.0000    -60.0017      2.6352      3.1175    296.5894   -999.2500   -999.2500  
   995.5000    -59.7155      2.6620      3.1510    295.5062   -999.2500   -999.2500  
   996.0000    -59.4291      2.6923      3.2321    287.9734   -999.2500   -999.2500  
   996.5000    -58.9331      2.7387      3.6349    270.6530   -999.2500   -999.2500  
   997.0000    -58.5496      2.7785      4.2976    243.6269   -999.2500   -999.2500  
   997.5000    -58.3379      2.8181      4.9234    212.0636   -999.2500   -999.2500  
   998.0000    -58.0324      2.8575      4.1299    235.2411   -999.2500   -999.2500  
   998.5000    -57.8093      2.9229      3.3363    275.6442   -999.2500   -999.2500  
   999.0000    -57.3176      2.9717      3.2322    304.8318   -999.2500   -999.2500  
   999.5000    -56.5382      2.9942      3.2657    316.7486   -999.2500   -999.2500  
  1000.0000    -55.8661      2.9791      3.3570    304.9740   -999.2500   -999.2500  
  1000.5000    -55.3438      2.9868      3.4303    285.2410   -999.2500   -999.2500  
  1001.0000    -56.0535      3.0036      3.3969    271.2440   -999.2500   -999.2500  
  1001.5000    -57.1736      3.0307      3.4335    268.0875   -999.2500   -999.2500  
  1002.0000    -57.3474      3.0320      3.4765    265.8949   -999.2500   -999.2500  
  1002.5000    -57.6692      3.0009      3.4937    263.6323   -999.2500   -999.2500  
  1003.0000    -57.9619      2.9975      3.5045    259.9450   -999.2500   -999.2500  
  1003.5000    -58.1027      3.0458      3.5770    255.0070   -999.2500   -999.2500  
  1004.0000    -58.4506      3.1316      3.6123    250.6115   -999.2500   -999.2500  
  1004.5000    -58.8448      3.2755      3.7261    246.3834   -999.2500   -999.2500  
  1005.0000    -59.0669      3.3656      3.7759    243.2935   -999.2500   -999.2500  
  1005.5000    -58.9141      3.4001      3.7991    242.6197   -999.2500   -999.2500  
  1006.0000    -59.0631      3.3675      3.7523    242.3494   -999.2500   -999.2500  
  1006.5000    -59.4039      3.2961      3.7114    244.3930   -999.2500   -999.2500  
  1007.0000    -59.6956      3.2611      3.6459    247.9574   -999.2500   -999.2500  
  1007.5000    -59.7231      3.2480      3.6677    252.7295   -999.2500   -999.2500  
  1008.0000    -59.8045      3.2309      3.5995    258.6639   -999.2500   -999.2500  
  1008.5000    -59.7353      3.1909      3.4903    268.4473   -999.2500   -999.2500  
  1009.0000    -59.6684      3.1668      3.4532    276.8848   -999.2500   -999.2500  
  1009.5000    -59.8197      3.1511      3.4294    284.8578   -999.2500   -999.2500  
  1010.0000    -61.0389      3.1250      3.4123    290.6289   -999.2500   -999.2500  
  1010.5000    -62.4546      3.0937      3.3661    296.4812   -999.2500   -999.2500  
  1011.0000    -63.8191      3.0967      3.3170    299.6838   -999.2500   -999.2500  
  1011.5000    -66.7829      3.1286      3.3595    299.8508   -999.2500   -999.2500  
  1012.0000    -67.4298      3.1323      3.3689    296.0724   -999.2500   -999.2500  
  1012.5000    -65.0191      3.1258      3.4080    289.4752   -999.2500   -999.2500  
  1013.0000    -62.3864      3.1245      3.4507    283.0009   -999.2500   -999.2500  
  1013.5000    -60.5742      3.1329      3.4761    275.7060   -999.2500   -999.2500  
  1014.0000    -60.1350      3.1498      3.5110    271.1281   -999.2500   -999.2500  
  1014.5000    -59.6958      3.1553      3.5277    267.4016   -999.2500   -999.2500  
  1015.0000    -59.0326      3.1388      3.5306    265.6198   -999.2500   -999.2500  
  1015.5000    -58.8976      3.1242      3.5392    265.1567   -999.2500   -999.2500  
  1016.0000    -59.5551      3.1345      3.5445    265.5249   -999.2500   -999.2500  
  1016.5000    -60.0613      3.1356      3.5188    265.1303   -999.2500   -999.2500  
  1017.0000    -60.5699      3.0943      3.4963    263.9191   -999.2500   -999.2500  
  1017.5000    -61.0107      3.0968      3.5928    261.9552   -999.2500   -999.2500  
  1018.0000    -60.6868      3.1183      3.5704    260.1768   -999.2500   -999.2500  
  1018.5000    -60.4276      3.1823      3.6606    257.0339   -999.2500   -999.2500  
  1019.0000    -60.5226      3.2438      3.6804    254.2478   -999.2500   -999.2500  
  1019.5000    -60.4282      3.2995      3.7080    251.9784   -999.2500   -999.2500  
  1020.0000    -59.7096      3.3455      3.7697    249.0791   -999.2500   -999.2500  
  1020.5000    -58.4338      3.3840      3.8246    246.1099   -999.2500   -999.2500  
  1021.0000    -58.0382      3.4333      3.8613    243.4303   -999.2500   -999.2500  
  1021.5000    -57.8163      3.4952      3.9204    240.7507   -999.2500   -999.2500  
  1022.0000    -57.8422      3.5132      3.9721    237.3661   -999.2500   -999.2500  
  1022.5000    -57.9092      3.5012      3.9604    233.7196   -999.2500   -999.2500  
  1023.0000    -57.7810      3.4833      3.9475    231.1688   -999.2500   -999.2500  
  1023.5000    -58.0828      3.5053      3.9966    229.0383   -999.2500   -999.2500  
  1024.0000    -57.9815      3.5461      4.0394    226.6206   -999.2500   -999.2500  
  1024.5000    -57.8483      3.5803      4.0610    224.2743   -999.2500   -999.2500  
  1025.0000    -57.9046      3.6050      4.1254    221.2784   -999.2500   -999.2500  
  1025.5000    -58.0128      3.6140      4.1706    218.4998   -999.2500   -999.2500  
  1026.0000    -58.7690      3.6043      4.4235    214.6709   -999.2500   -999.2500  
  1026.5000    -59.5875      3.5683      4.6280    213.3422   -999.2500   -999.2500  
  1027.0000    -59.7220      3.5012      4.6822    212.9053   -999.2500   -999.2500  
  1027.5000    -59.2247      3.4668      4.6150    212.9471   -999.2500   -999.2500  
  1028.0000    -58.8568      3.4671      4.5312    213.9020   -999.2500   -999.2500  
  1028.5000    -59.1064      3.4660      4.4551    215.5269   -999.2500   -999.2500  
  1029.0000    -59.2016      3.4573      4.4787    217.5339   -999.2500   -999.2500  
  1029.5000    -59.5481      3.4052      4.3854    220.4651   -999.2500   -999.2500  
  1030.0000    -59.6438      3.3399      4.2333    225.0718   -999.2500   -999.2500  
  1030.5000    -59.7631      3.2743      4.0260    230.1395   -999.2500   -999.2500  
  1031.0000    -59.9524      3.2435      3.8186    236.4701   -999.2500   -999.2500  
  1031.5000    -60.3235      3.2232      3.7185    241.8688   -999.2500   -999.2500  
  1032.0000    -60.9379      3.1883      3.7072    245.5604   -999.2500   -999.2500  
  1032.5000    -61.3292      3.1318      3.6326    248.3744   -999.2500   -999.2500  
  1033.0000    -60.7910      3.0823      3.5510    250.3556   -999.2500   -999.2500  
  1033.5000    -59.9766      3.0839      3.5802    251.3361   -999.2500   -999.2500  
  1034.0000    -58.9138      3.1095      3.5837    251.2219   -999.2500   -999.2500  
  1034.5000    -57.9043      3.1360      3.5886    249.8304   -999.2500   -999.2500  
  1035.0000    -57.8701      3.1574      3.6644    247.5029   -999.2500   -999.2500  
  1035.5000    -58.1211      3.1912      3.6264    244.7227   -999.2500   -999.2500  
  1036.0000    -58.3441      3.2528      3.7655    239.3001   -999.2500   -999.2500  
  1036.5000    -58.7030      3.3313      3.8223    235.6993   -999.2500   -999.2500  
