~VERSION INFORMATION
 VERS.                           2.00:        CWLS LOG ASCII STANDARD - VERSION 2.00
 WRAP.                             NO:        ONE LINE PER DEPTH STEP
~WELL INFORMATION
#MNEM.UNIT                   DATA             INFORMATION
#----------             --------------        ------------------------------
 STRT.F                       50.0000:        START DEPTH
 STOP.F                     2158.0000:        STOP DEPTH
 STEP.F                        0.5000:        STEP VALUE
 NULL.                      -999.2500:        NULL VALUE
 COMP.              HUSKY OIL COMPANY:        COMPANY  
 LOC .                   25  22N  17W:        LOCATION   
 DATE.                        2-19-77:        LOG DATE 
 WELL.               SOUTH BARROW #14:        WELL     
 UWI .                   500232000900:        UNIQUE WELL ID 
 API .                   500232000900:        UNIQUE WELL IDENTIFIER 
 FLD .               SOUTH BARROW GAS:        FIELD    
 CNTY.                    NORTH SLOPE:        COUNTY  
 STAT.                         ALASKA:        STATE   
 CTRY.                            USA:        COUNTRY 
 OPER.              HUSKY OIL COMPANY:        OPERATOR  
 SRVC.                   SCHLUMBERGER:        SERVICE COMPANY 
 LAT .                         0.0000:        LATITUDE
 LON .                         0.0000:        LONGITUDE
 DIGS.               CENTER LINE DATA:        DIGITIZING COMPANY 
~CURVE INFORMATION      
#MNEM        .UNIT         API CODE           CURVE DESCRIPTION
#-----------------      --------------        ------------------------------
 DEPT        .F                      :        1  DEPTH
 LLS         .OHMM                   :        2  
 LLD         .OHMM                   :        3  
 SP          .MV                     :        4  
 ILD         .OHMM                   :        5  
 ILM         .OHMM                   :        6  
 LL8         .OHMM                   :        7  
 CALI        .IN                     :        8  
 GR          .GAPI                   :        9  
 NPHI        .%                      :        10 
 DPHI        .%                      :        11 
 RHOB        .G/C3                   :        12 
 DRHO        .G/C3                   :        13 
 DT          .US/F                   :        14 
~PARAMETER INFORMATION       
#MNEM.UNIT                  VALUE             DESCRIPTION OF MNEMONIC
#---------             ---------------        ------------------------------
 EKB .F                       31.0000:        KELLY BUSHING
 TD  .F                     1042.0000:        TOTAL DEPTH
 BHT .F                       62.0000:        BOTTOM HOLE TEMPERATURE
 BS  .                         6.0000:        BIT SIZE
 FD  .                        10.7000:        FLUID DENSITY
 CSIZ.                         7.0000:        CASING SIZE
 CBD .F                     1947.0000:        CASING DRILLER 1
 CBL .F                     1946.0000:        CASING LOGGER 1
 DFT .                  Miscellaneous:        TYPE FLUID IN HOLE
 DFV .                        50.0000:        VISCOSITY
 DFPH.                        10.0000:        PH
 DFL .                         0.0000:        FLUID LOSS
 RMS .                         0.1500:        RM
 MST .F                       50.0000:        RM MEAS. TEMP.
 RMF .                         0.1600:        RMF
 MFST.F                       61.0000:        RMF MEAS. TEMP.
 RMC .                         0.0000:        RMC
 MCST.F                        0.0000:        RMC MEAS. TEMP.
~OTHER INFORMATION
~A    DEPTH         LLS         LLD          SP         ILD         ILM         LL8        CALI          GR        NPHI        DPHI        RHOB        DRHO          DT  
# ...
  1178.0000   -999.2500   -999.2500    -67.3116     10.5808     10.0564     10.7988      8.3364     86.1088     41.5999     15.4359      2.3900      0.0728    116.9651  
  1178.5000   -999.2500   -999.2500    -67.4286     10.5840     10.0765     10.8903      8.2878     86.3445     40.9974     15.9395      2.3934      0.0698    116.2126  
  1179.0000   -999.2500   -999.2500    -67.5202     10.6278     10.1021     10.9510      8.3023     85.6259     40.4607     16.4259      2.3860      0.0708    115.8646  
  1179.5000   -999.2500   -999.2500    -67.3319     10.6718     10.1279     10.9911      8.3871     84.5623     40.4612     16.1068      2.3850      0.0612    116.6059  
  1180.0000   -999.2500   -999.2500    -67.0191     10.7159     10.1468     11.0313      8.2863     85.3074     40.9693     16.9681      2.3925      0.0712    116.6550  
  1180.5000   -999.2500   -999.2500    -66.6781     10.6660     10.1645     11.0716      8.2749     87.2795     41.5878     16.6122      2.3992      0.0730    117.3466  
  1181.0000   -999.2500   -999.2500    -66.3409     10.6097     10.0392     11.0560      8.5294     88.1109     42.4062     16.1327      2.4002      0.0919    117.0716  
  1181.5000   -999.2500   -999.2500    -66.2222     10.5537      9.8324     10.7829      8.3954     88.5644     43.1007     16.1522      2.4290      0.1130    116.5136  
  1182.0000   -999.2500   -999.2500    -66.3243     10.2132      9.6299     10.5165      8.7024     89.5560     44.6130     14.9524      2.4081      0.1152    115.5361  
  1182.5000   -999.2500   -999.2500    -66.5279      9.8800      9.5257     10.4441      8.7125     91.3351     44.4757     14.5766      2.3987      0.0968    116.3783  
  1183.0000   -999.2500   -999.2500    -66.4276      9.5577      9.4619     10.3405      8.7481     91.4748     43.6477     15.3753      2.3961      0.0978    117.1964  
  1183.5000   -999.2500   -999.2500    -65.9972      9.5262      9.3984     10.1294      8.7740     90.5891     44.1832     15.8109      2.3827      0.0924    118.3179  
  1184.0000   -999.2500   -999.2500    -65.7631      9.6112      9.3355     10.1508      8.8475     88.5891     45.2044     16.1922      2.3721      0.1066    119.6468  
  1184.5000   -999.2500   -999.2500    -65.6864      9.6991      9.3610     11.1526      8.9502     85.7263     45.5788     16.6282      2.3631      0.0618    118.4822  
  1185.0000   -999.2500   -999.2500    -65.5856     10.0245      9.4128     11.5598      8.6180     87.5073     44.5912     17.3220      2.4033      0.0713    118.4907  
  1185.5000   -999.2500   -999.2500    -65.3843     10.1339      9.5613     11.0134      8.3430     89.2618     44.8169     17.9594      2.4056      0.0723    118.7348  
  1186.0000   -999.2500   -999.2500    -65.2194     10.2444      9.7704     10.3506      8.5828     91.0164     44.8986     15.5926      2.3759      0.0475    118.6771  
  1186.5000   -999.2500   -999.2500    -65.2724     10.3561      9.9841     10.4570      8.5732     90.2033     44.1922     15.5332      2.3533      0.0160    118.3523  
  1187.0000   -999.2500   -999.2500    -65.7616     10.4691     10.2025     10.6878      8.4752     88.6475     42.9010     17.0269      2.3888      0.0508    117.0473  
  1187.5000   -999.2500   -999.2500    -66.2661     10.5833     10.4257     11.2879      8.4949     88.5121     42.1665     18.8729      2.4084      0.0917    116.6062  
  1188.0000   -999.2500   -999.2500    -66.4344     10.6712     10.6537     12.0174      8.4867     88.6486     42.3257     16.0865      2.4237      0.1122    117.5694  
  1188.5000   -999.2500   -999.2500    -66.5077     10.7426     10.5406     11.6916      8.6651     86.8368     42.1880     15.0123      2.4325      0.1099    118.4719  
  1189.0000   -999.2500   -999.2500    -66.5488     10.8145     10.4112     11.5134      8.6720     85.2287     41.2380     14.1587      2.4092      0.0988    117.7410  
  1189.5000   -999.2500   -999.2500    -66.5594     10.9219     10.3392     11.6310      8.5455     84.1460     40.8116     13.9544      2.4172      0.1279    115.4730  
  1190.0000   -999.2500   -999.2500    -66.4382     11.1756     10.5526     11.8751      8.7965     83.5455     39.7938     14.7372      2.3900      0.1452    113.8364  
  1190.5000   -999.2500   -999.2500    -66.3303     11.4351     10.7704     11.7908      8.7154     83.1216     39.7552     14.9925      2.3708      0.0737    112.8986  
  1191.0000   -999.2500   -999.2500    -66.1270     11.3113     10.8345     11.5903      8.6278     84.1397     40.1144     16.2598      2.4010      0.0739    113.5486  
  1191.5000   -999.2500   -999.2500    -65.8985     11.0235     10.6065     11.3001      8.7387     86.1299     40.1610     17.7212      2.4160      0.1008    113.4190  
  1192.0000   -999.2500   -999.2500    -65.9339     10.7429     10.3834     11.0972      8.8382     86.2912     40.9129     15.4993      2.4069      0.0915    112.7945  
  1192.5000   -999.2500   -999.2500    -66.0153     10.4695     10.1649     10.9351      8.7216     86.0994     41.7186     14.3298      2.4232      0.0944    112.4759  
  1193.0000   -999.2500   -999.2500    -66.0161     10.6135     10.1910     11.2597      8.5811     86.0272     42.1830     15.6015      2.4498      0.1057    113.7358  
  1193.5000   -999.2500   -999.2500    -66.0495     11.0452     10.5260     11.8010      8.6431     86.0642     41.2625     14.1583      2.4426      0.1221    115.4343  
  1194.0000   -999.2500   -999.2500    -66.1305     10.9472     10.8721     11.6434      8.7294     85.2344     39.9594     12.5053      2.4522      0.1313    116.9263  
  1194.5000   -999.2500   -999.2500    -66.1138     10.8229     10.7905     11.3194      8.7749     84.2819     39.3994     13.2637      2.4244      0.1178    117.1088  
  1195.0000   -999.2500   -999.2500    -65.9343     10.6999     10.6479     11.1334      8.6543     83.6115     38.1188     12.7197      2.3753      0.0859    116.3607  
  1195.5000   -999.2500   -999.2500    -65.8642     10.5784     10.5072     11.0017      8.4424     83.8732     37.9707     14.5366      2.3807      0.0701    113.6714  
  1196.0000   -999.2500   -999.2500    -65.9276     10.4632     10.3684     11.0582      8.4718     82.9487     39.2102     18.5240      2.4258      0.0916    112.8832  
  1196.5000   -999.2500   -999.2500    -66.0201     10.5654     10.2314     11.1647      8.5932     82.1464     41.5968     16.1294      2.4038      0.0779    113.8184  
  1197.0000   -999.2500   -999.2500    -66.0295     10.6686     10.1346     11.3124      8.5493     83.0398     42.6497     14.1182      2.3741      0.0366    114.6021  
  1197.5000   -999.2500   -999.2500    -66.1168     10.7783     10.1826     11.3896      8.6020     84.5286     42.0631     15.8230      2.3925      0.0303    115.3828  
  1198.0000   -999.2500   -999.2500    -66.4209     10.9110     10.2308     11.3829      8.6378     86.1191     40.9376     17.3243      2.4042      0.0323    115.8348  
  1198.5000   -999.2500   -999.2500    -66.6911     11.0453     10.2793     11.3137      8.5848     87.7826     40.4067     15.8231      2.4128      0.0507    114.2330  
  1199.0000   -999.2500   -999.2500    -66.8582     11.1774     10.3280     11.3151      8.6373     88.4139     40.5027     15.5712      2.4227      0.0611    114.6844  
  1199.5000   -999.2500   -999.2500    -67.0014     11.1574     10.3750     11.4132      8.7446     88.2276     40.5014     14.8113      2.4017      0.0461    114.2722  
  1200.0000   -999.2500   -999.2500    -66.9708     11.1375     10.4180     11.7187      8.6653     87.1142     40.7670     13.4429      2.4198      0.0424    114.1386  
  1200.5000   -999.2500   -999.2500    -66.8941     11.1176     10.4612     11.9846      8.6913     85.9297     40.5926     15.2318      2.4282      0.0592    113.9868  
  1201.0000   -999.2500   -999.2500    -66.6381     11.1292     10.5046     11.8823      8.7848     85.3729     40.4541     14.3142      2.4157      0.0459    113.5458  
  1201.5000   -999.2500   -999.2500    -66.2857     11.1772     10.4836     11.7563      8.8783     85.1258     40.5708     14.1212      2.4198      0.0346    112.9345  
