~VERSION INFORMATION
 VERS.                           2.00:        CWLS LOG ASCII STANDARD - VERSION 2.00
 WRAP.                             NO:        ONE LINE PER DEPTH STEP
~WELL INFORMATION
#MNEM.UNIT                   DATA             INFORMATION
#----------             --------------        ------------------------------
 STRT.F                       78.0000:        START DEPTH
 STOP.F                     2392.0000:        STOP DEPTH
 STEP.F                        0.5000:        STEP VALUE
 NULL.                      -999.2500:        NULL VALUE
 COMP.              U.S.G.S./NPR -  A:        COMPANY  
 LOC .                    1  22N  18W:        LOCATION   
 DATE.                        2/14/78:        LOG DATE 
 WELL.               SOUTH BARROW #16:        WELL     
 UWI .                   500232001000:        UNIQUE WELL ID 
 API .                   500232001000:        UNIQUE WELL IDENTIFIER 
 FLD .                   SOUTH BARROW:        FIELD    
 CNTY.                    NORTH SLOPE:        COUNTY  
 STAT.                         ALASKA:        STATE   
 CTRY.                            USA:        COUNTRY 
 OPER.              U.S.G.S./NPR -  A:        OPERATOR  
 SRVC.                   SCHLUMBERGER:        SERVICE COMPANY 
 LAT .                         0.0000:        LATITUDE
 LON .                         0.0000:        LONGITUDE
 DIGS.               CENTER LINE DATA:        DIGITIZING COMPANY 
~CURVE INFORMATION      
#MNEM        .UNIT         API CODE           CURVE DESCRIPTION
#-----------------      --------------        ------------------------------
 DEPT        .F                      :        1  DEPTH
 CALI        .IN                     :        2  
 GR          .GAPI                   :        3  
 RHOB        .G/C3                   :        4  
 DRHO        .G/C3                   :        5  
 NPHI        .%                      :        6  
 DT          .US/F                   :        7  
 SP          .MV                     :        8  
 ILD         .OHMM                   :        9  
 ILM         .OHMM                   :        10 
 LL8         .OHMM                   :        11 
 LLD         .OHMM                   :        12 
 LLS         .OHMM                   :        13 
~PARAMETER INFORMATION       
#MNEM.UNIT                  VALUE             DESCRIPTION OF MNEMONIC
#---------             ---------------        ------------------------------
 EKB .F                       30.0000:        KELLY BUSHING
 TD  .F                     2399.0000:        TOTAL DEPTH
 BHT .F                       73.0000:        BOTTOM HOLE TEMPERATURE
 BS  .                         8.5000:        BIT SIZE
 FD  .                        11.0000:        FLUID DENSITY
 CSIZ.                         8.5000:        CASING SIZE
 CBD .F                     1489.0000:        CASING DRILLER 1
 CBL .F                     1487.0000:        CASING LOGGER 1
 DFT .                  Miscellaneous:        TYPE FLUID IN HOLE
 DFV .                        52.0000:        VISCOSITY
 DFPH.                         8.5000:        PH
 DFL .                         8.0000:        FLUID LOSS
 RMS .                         0.0210:        RM
 MST .F                       58.0000:        RM MEAS. TEMP.
 RMF .                         0.0130:        RMF
 MFST.F                       52.0000:        RMF MEAS. TEMP.
 RMC .                         0.0170:        RMC
 MCST.F                       56.0000:        RMC MEAS. TEMP.
~OTHER INFORMATION
~A    DEPTH        CALI          GR        RHOB        DRHO        NPHI          DT          SP         ILD         ILM         LL8         LLD         LLS  
# ...
  1302.0000     12.4572     97.9094   -999.2500   -999.2500   -999.2500    116.2180     20.1926      9.1105      8.3979      9.9629   -999.2500   -999.2500  
  1302.5000     12.3633     94.5041   -999.2500   -999.2500   -999.2500    116.4810     19.1989      9.0967      8.3586      9.8079   -999.2500   -999.2500  
  1303.0000     12.3955     92.6615   -999.2500   -999.2500   -999.2500    116.6472     18.2439      9.0829      8.3194      9.6554   -999.2500   -999.2500  
  1303.5000     12.5560     92.6593   -999.2500   -999.2500   -999.2500    117.1768     17.6048      9.0366      8.2804      9.5052   -999.2500   -999.2500  
  1304.0000     12.6712     92.5286   -999.2500   -999.2500   -999.2500    118.1961     17.5113      8.9665      8.2416      9.3573   -999.2500   -999.2500  
  1304.5000     12.6728     91.7299   -999.2500   -999.2500   -999.2500    119.2443     17.6453      8.8970      8.2030      9.2118   -999.2500   -999.2500  
  1305.0000     12.5579     91.0421   -999.2500   -999.2500   -999.2500    119.7682     17.7793      8.8281      8.1645      9.0685   -999.2500   -999.2500  
  1305.5000     12.4642     91.2433   -999.2500   -999.2500   -999.2500    120.0222     17.7847      8.7596      8.1263      8.9274   -999.2500   -999.2500  
  1306.0000     12.4755     92.1306   -999.2500   -999.2500   -999.2500    119.5626     17.6188      8.6917      8.0882      8.9752   -999.2500   -999.2500  
  1306.5000     12.5019     90.8129   -999.2500   -999.2500   -999.2500    118.7019     19.3355      8.6244      8.0503      9.1137   -999.2500   -999.2500  
  1307.0000     12.6292     88.1070   -999.2500   -999.2500   -999.2500    117.6005     19.8958      8.5575      8.0125      9.2543   -999.2500   -999.2500  
  1307.5000     12.7249     86.4472   -999.2500   -999.2500   -999.2500    116.8135     18.9301      8.4944      7.9750      9.3971   -999.2500   -999.2500  
  1308.0000     12.6517     86.0725   -999.2500   -999.2500   -999.2500    116.6972     18.2764      8.5179      7.9401      9.5420   -999.2500   -999.2500  
  1308.5000     12.4845     85.9912   -999.2500   -999.2500   -999.2500    116.9982     17.6986      8.5414      7.9069      9.6893   -999.2500   -999.2500  
  1309.0000     12.2816     87.5938   -999.2500   -999.2500   -999.2500    117.4568     17.1208      8.5650      7.8739      9.8388   -999.2500   -999.2500  
  1309.5000     12.2500     88.9422   -999.2500   -999.2500   -999.2500    117.8463     16.5712      8.5886      7.8410      9.8998   -999.2500   -999.2500  
  1310.0000     12.2306     89.0090   -999.2500   -999.2500   -999.2500    118.3647     16.2921      8.6123      7.8082      9.8083   -999.2500   -999.2500  
  1310.5000     12.2029     89.3260   -999.2500   -999.2500   -999.2500    118.9177     15.8936      8.6361      7.8168      9.7176   -999.2500   -999.2500  
  1311.0000     12.2287     89.5785   -999.2500   -999.2500   -999.2500    119.1379     15.5405      8.6599      7.8305      9.6277   -999.2500   -999.2500  
  1311.5000     12.2719     89.8884   -999.2500   -999.2500   -999.2500    119.1820     17.3050      8.6838      7.8443      9.5387   -999.2500   -999.2500  
  1312.0000     12.3457     88.5399   -999.2500   -999.2500   -999.2500    119.2385     19.3445      8.7078      7.8582      9.4505   -999.2500   -999.2500  
  1312.5000     12.3609     89.5334   -999.2500   -999.2500   -999.2500    119.4888     19.5847      8.7318      7.8720      9.3631   -999.2500   -999.2500  
  1313.0000     12.2771     90.3685   -999.2500   -999.2500   -999.2500    119.5845     19.7634      8.7589      7.8859      9.2765   -999.2500   -999.2500  
  1313.5000     12.2588     90.5717   -999.2500   -999.2500   -999.2500    119.6149     20.0815      8.7905      7.8998      9.2506   -999.2500   -999.2500  
  1314.0000     12.2498     89.9185   -999.2500   -999.2500   -999.2500    119.7877     20.0238      8.8222      7.9137      9.2910   -999.2500   -999.2500  
  1314.5000     12.2436     87.6391   -999.2500   -999.2500   -999.2500    120.1637     18.6882      8.8541      7.9276      9.3315   -999.2500   -999.2500  
  1315.0000     12.2603     87.0946   -999.2500   -999.2500   -999.2500    119.5891     18.1511      8.8860      7.9416      9.3722   -999.2500   -999.2500  
  1315.5000     12.2642     88.5819   -999.2500   -999.2500   -999.2500    118.1477     17.7167      8.9181      7.9556      9.4131   -999.2500   -999.2500  
  1316.0000     12.2723     89.5505   -999.2500   -999.2500   -999.2500    117.4376     17.2823      8.9650      7.9696      9.4541   -999.2500   -999.2500  
  1316.5000     12.2422     89.2466   -999.2500   -999.2500   -999.2500    117.8828     16.9058      9.0489      7.9837      9.4954   -999.2500   -999.2500  
  1317.0000     12.2467     89.0219   -999.2500   -999.2500   -999.2500    118.2014     16.8067      9.1336      7.9977      9.5368   -999.2500   -999.2500  
  1317.5000     12.2435     88.0760   -999.2500   -999.2500   -999.2500    117.9074     16.7075      9.2191      8.0118      9.5784   -999.2500   -999.2500  
  1318.0000     12.2310     86.4626   -999.2500   -999.2500   -999.2500    116.6579     17.4245      9.3053      8.1911      9.6202   -999.2500   -999.2500  
  1318.5000     12.2226     86.4532   -999.2500   -999.2500   -999.2500    115.3495     18.5013      9.3924      8.3857      9.6007   -999.2500   -999.2500  
  1319.0000     12.3231     87.2626   -999.2500   -999.2500   -999.2500    113.4248     18.5616      9.4803      8.5849      9.5473   -999.2500   -999.2500  
  1319.5000     12.3811     87.0579   -999.2500   -999.2500   -999.2500    109.9887     17.2295      9.5690      8.7888      9.7169   -999.2500   -999.2500  
  1320.0000     12.4729     85.0291   -999.2500   -999.2500   -999.2500    106.9318     16.9745      9.6586      8.9976      9.8896   -999.2500   -999.2500  
  1320.5000     12.5646     83.0625   -999.2500   -999.2500   -999.2500    105.6062     18.1393      9.7511      9.2114     10.0654   -999.2500   -999.2500  
  1321.0000     12.6844     82.3145   -999.2500   -999.2500   -999.2500    107.3747     19.1348      9.8458      9.3767     10.2443   -999.2500   -999.2500  
  1321.5000     12.5597     81.1978   -999.2500   -999.2500   -999.2500    110.2444     19.5258      9.9415      9.4787     10.4263   -999.2500   -999.2500  
  1322.0000     12.4580     81.6989   -999.2500   -999.2500   -999.2500    111.3445     17.1279     10.0380      9.5818     10.6116   -999.2500   -999.2500  
  1322.5000     12.4219     82.7993   -999.2500   -999.2500   -999.2500    109.0068     16.7440     10.1356      9.6861     10.8002   -999.2500   -999.2500  
  1323.0000     12.5707     81.8861   -999.2500   -999.2500   -999.2500    106.4911     18.6166     10.2340      9.7914     10.9922   -999.2500   -999.2500  
  1323.5000     12.6053     79.4958   -999.2500   -999.2500   -999.2500    105.2829     19.8441     10.3334      9.8980     11.1875   -999.2500   -999.2500  
  1324.0000     12.6177     78.0025   -999.2500   -999.2500   -999.2500    104.9137     20.2624     10.4338     10.0056     11.3863   -999.2500   -999.2500  
  1324.5000     12.6468     78.8990   -999.2500   -999.2500   -999.2500    104.6377     20.5070     10.5352     10.1145     11.5887   -999.2500   -999.2500  
  1325.0000     12.6414     79.6075   -999.2500   -999.2500   -999.2500    105.1634     20.7418     10.6375     10.0797     11.7947   -999.2500   -999.2500  
  1325.5000     12.6519     79.7322   -999.2500   -999.2500   -999.2500    106.8002     20.4075     10.7408     10.0272     11.8789   -999.2500   -999.2500  
  1326.0000     12.5079     78.0145   -999.2500   -999.2500   -999.2500    108.0664     19.1281     10.8452      9.9748     11.7045   -999.2500   -999.2500  
  1326.5000     12.3728     75.7674   -999.2500   -999.2500   -999.2500    108.7926     18.3429     10.8280      9.9228     11.5326   -999.2500   -999.2500  
  1327.0000     12.4721     74.6439   -999.2500   -999.2500   -999.2500    110.0765     16.9239     10.6769      9.8711     11.3633   -999.2500   -999.2500  
