~VERSION INFORMATION
 VERS.                           2.00:        CWLS LOG ASCII STANDARD - VERSION 2.00
 WRAP.                             NO:        ONE LINE PER DEPTH STEP
~WELL INFORMATION
#MNEM.UNIT                   DATA             INFORMATION
#----------             --------------        ------------------------------
 STRT.F                      151.0000:        START DEPTH
 STOP.F                     2726.0000:        STOP DEPTH
 STEP.F                        0.5000:        STEP VALUE
 NULL.                      -999.2500:        NULL VALUE
 COMP.                      U.S. NAVY:        COMPANY  
 WELL.                     IKO BAY #1:        WELL     
 FLD .                        WILDCAT:        FIELD    
 LOC .                   16  21N  16W:        LOCATION   
 CNTY.                    NORTH SLOPE:        COUNTY  
 STAT.                         ALASKA:        STATE   
 CTRY.                            USA:        COUNTRY 
 DATE.                         2/8/75:        LOG DATE 
 API .                   502790000000:        UNIQUE WELL IDENTIFIER 
 OPER.                      U.S. NAVY:        OPERATOR  
 SRVC.                            440:        SERVICE COMPANY 
 UWI .                   502790000000:        UNIQUE WELL ID 
 LAT .                         0.0000:        LATITUDE
 LON .                         0.0000:        LONGITUDE
 DIGS.                             65:        DIGITIZING COMPANY 
~CURVE INFORMATION      
#MNEM.UNIT                 API CODE           CURVE DESCRIPTION
#---------              --------------        ------------------------------
 DEPT.F                              :        1  DEPTH
 SP  .MV                             :        2
 ILD .OHMM                           :        3
 LL8 .OHMM                           :        4
 ILM .OHMM                           :        5
 RHOB.G/C3                           :        6
 DRHO.G/C3                           :        7
 CALI.IN                             :        8
 GR  .GAPI                           :        9
 NPHI.%                              :       10
 DT  .US/F                           :       11
~PARAMETER INFORMATION       
#MNEM.UNIT                  VALUE             DESCRIPTION OF MNEMONIC
#---------             ---------------        ------------------------------
 EKB .F                        0.0000:        KELLY BUSHING
 TD  .F                     2731.0000:        TOTAL DEPTH
 BHT .F                             0.0000:        BOTTOM HOLE TEMPERATURE
 BS  .                             14.7500:        BIT SIZE
 FD  .                              0.0000:        FLUID DENSITY
 CSIZ.                             16.0000:        CASING SIZE
 CBD .F                           149.0000:        CASING DRILLER 1
 CBL .F                           152.0000:        CASING LOGGER 1
 DFT .                            Gel:        TYPE FLUID IN HOLE
 DFV .                              0.0000:        VISCOSITY
 DFPH.                              0.0000:        PH
 DFL .                              0.0000:        FLUID LOSS
 RMS .                              0.3000:        RM
 MST .F                       49.0000:        RM MEAS. TEMP.
 RMF .                              0.2300:        RMF
 MFST.F                       49.0000:        RMF MEAS. TEMP.
 RMC .                              0.4600:        RMC
 MCST.F                       49.0000:        RMC MEAS. TEMP.
 UWI .                   502790000000:        UNIQUE WELL ID
~OTHER INFORMATION
~A    DEPTH          SP         ILD         LL8         ILM        RHOB        DRHO        CALI          GR        NPHI          DT  
# ...
   691.0000    -45.8553      6.5472      5.2107   -999.2500   -999.2500   -999.2500     13.9238   -999.2500   -999.2500    132.1281  
   691.5000    -45.4025      6.4838      5.2402   -999.2500   -999.2500   -999.2500     13.9237   -999.2500   -999.2500    132.8033  
   692.0000    -45.2604      6.3713      5.3329   -999.2500   -999.2500   -999.2500     13.9237   -999.2500   -999.2500    130.7414  
   692.5000    -45.1026      6.2984      5.4500   -999.2500   -999.2500   -999.2500     13.9237   -999.2500   -999.2500    129.1708  
   693.0000    -44.7309      6.3024      5.5208   -999.2500   -999.2500   -999.2500     13.9237   -999.2500   -999.2500    128.8148  
   693.5000    -43.9549      6.3341      5.5648   -999.2500   -999.2500   -999.2500     13.9237   -999.2500   -999.2500    128.8640  
   694.0000    -43.5288      6.4302      5.5086   -999.2500   -999.2500   -999.2500     13.9236   -999.2500   -999.2500    129.2841  
   694.5000    -43.8031      6.4817      5.5101   -999.2500   -999.2500   -999.2500     13.9236   -999.2500   -999.2500    129.4352  
   695.0000    -44.3010      6.5486      5.5117   -999.2500   -999.2500   -999.2500     13.9236   -999.2500   -999.2500    129.7022  
   695.5000    -44.7716      6.6081      5.5102   -999.2500   -999.2500   -999.2500     13.9222   -999.2500   -999.2500    130.0032  
   696.0000    -44.9859      6.6139      5.5165   -999.2500   -999.2500   -999.2500     13.9205   -999.2500   -999.2500    130.0834  
   696.5000    -45.0788      6.6169      5.5843   -999.2500   -999.2500   -999.2500     13.9187   -999.2500   -999.2500    129.6185  
   697.0000    -45.3186      6.6173      5.6314   -999.2500   -999.2500   -999.2500     13.9169   -999.2500   -999.2500    128.3512  
   697.5000    -45.4118      6.6586      5.6704   -999.2500   -999.2500   -999.2500     13.9151   -999.2500   -999.2500    127.3932  
   698.0000    -45.2281      6.7335      5.7095   -999.2500   -999.2500   -999.2500     13.9133   -999.2500   -999.2500    127.1160  
   698.5000    -44.9108      6.8655      5.7204   -999.2500   -999.2500   -999.2500     13.9115   -999.2500   -999.2500    127.0851  
   699.0000    -44.5058      6.9173      5.6839   -999.2500   -999.2500   -999.2500     13.9097   -999.2500   -999.2500    127.8252  
   699.5000    -44.4290      6.8856      5.6573   -999.2500   -999.2500   -999.2500     13.9089   -999.2500   -999.2500    127.9880  
   700.0000    -44.3069      6.8245      5.6171   -999.2500   -999.2500   -999.2500     13.9103   -999.2500   -999.2500    127.7340  
   700.5000    -44.1800      6.7617      5.5674   -999.2500   -999.2500   -999.2500     13.9118   -999.2500   -999.2500    127.6175  
   701.0000    -44.0313      6.6544      5.5017   -999.2500   -999.2500   -999.2500     13.9132   -999.2500   -999.2500    128.0117  
   701.5000    -43.9968      6.5048      5.4375   -999.2500   -999.2500   -999.2500     13.9114   -999.2500   -999.2500    128.7566  
   702.0000    -44.2689      6.3746      5.4182   -999.2500   -999.2500   -999.2500     13.9091   -999.2500   -999.2500    130.0797  
   702.5000    -44.3045      6.2523      5.3563   -999.2500   -999.2500   -999.2500     13.9123   -999.2500   -999.2500    130.3951  
   703.0000    -43.9268      6.1953      5.3382   -999.2500   -999.2500   -999.2500     13.9137   -999.2500   -999.2500    130.6466  
   703.5000    -44.3085      6.2004      5.3430   -999.2500   -999.2500   -999.2500     13.9151   -999.2500   -999.2500    130.7401  
   704.0000    -44.4405      6.2680      5.3040   -999.2500   -999.2500   -999.2500     13.9165   -999.2500   -999.2500    131.2231  
   704.5000    -44.5705      6.2712      5.2655   -999.2500   -999.2500   -999.2500     13.9179   -999.2500   -999.2500    132.3391  
   705.0000    -44.5281      6.2086      5.3056   -999.2500   -999.2500   -999.2500     13.9193   -999.2500   -999.2500    132.1800  
   705.5000    -44.1469      6.2188      5.2804   -999.2500   -999.2500   -999.2500     13.9207   -999.2500   -999.2500    132.0918  
   706.0000    -44.1889      6.2335      5.3052   -999.2500   -999.2500   -999.2500     13.9221   -999.2500   -999.2500    131.3695  
   706.5000    -44.1121      6.2483      5.3121   -999.2500   -999.2500   -999.2500     13.9235   -999.2500   -999.2500    130.6745  
   707.0000    -44.0723      6.3828      5.2875   -999.2500   -999.2500   -999.2500     13.9249   -999.2500   -999.2500    130.7510  
   707.5000    -44.5443      6.4948      5.2933   -999.2500   -999.2500   -999.2500     13.9263   -999.2500   -999.2500    130.5097  
   708.0000    -44.9797      6.5449      5.2859   -999.2500   -999.2500   -999.2500     13.9277   -999.2500   -999.2500    130.8921  
   708.5000    -45.4670      6.5959      5.2749   -999.2500   -999.2500   -999.2500     13.9291   -999.2500   -999.2500    131.3840  
   709.0000    -44.7604      6.6024      5.3084   -999.2500   -999.2500   -999.2500     13.9305   -999.2500   -999.2500    131.3269  
   709.5000    -43.7399      6.5836      5.3572   -999.2500   -999.2500   -999.2500     13.9319   -999.2500   -999.2500    131.1261  
   710.0000    -43.5211      6.5754      5.4939   -999.2500   -999.2500   -999.2500     13.9333   -999.2500   -999.2500    130.8428  
   710.5000    -43.4301      6.5689      5.5572   -999.2500   -999.2500   -999.2500     13.9347   -999.2500   -999.2500    130.5443  
   711.0000    -42.9401      6.5625      5.5408   -999.2500   -999.2500   -999.2500     13.9361   -999.2500   -999.2500    130.6091  
   711.5000    -42.6794      6.5561      5.5488   -999.2500   -999.2500   -999.2500     13.9375   -999.2500   -999.2500    130.9593  
   712.0000    -42.6542      6.5496      5.5544   -999.2500   -999.2500   -999.2500     13.9389   -999.2500   -999.2500    131.1425  
   712.5000    -42.8269      6.5116      5.5376   -999.2500   -999.2500   -999.2500     13.9403   -999.2500   -999.2500    131.3794  
   713.0000    -43.5107      6.4067      5.5261   -999.2500   -999.2500   -999.2500     13.9417   -999.2500   -999.2500    131.2337  
   713.5000    -44.9520      6.3018      5.5884   -999.2500   -999.2500   -999.2500     13.9431   -999.2500   -999.2500    129.6690  
   714.0000    -45.5966      6.2247      5.6464   -999.2500   -999.2500   -999.2500     13.9445   -999.2500   -999.2500    128.8652  
   714.5000    -44.5427      6.3282      5.7044   -999.2500   -999.2500   -999.2500     13.9459   -999.2500   -999.2500    129.8504  
   715.0000    -44.4414      6.4317      5.7624   -999.2500   -999.2500   -999.2500     13.9473   -999.2500   -999.2500    130.5187  
   715.5000    -44.4339      6.5352      5.8204   -999.2500   -999.2500   -999.2500     13.9487   -999.2500   -999.2500    131.4410  
   716.0000    -43.6108      6.6387      5.8784   -999.2500   -999.2500   -999.2500     13.9501   -999.2500   -999.2500    130.9809  
   716.5000    -43.9193      6.7407      5.9364   -999.2500   -999.2500   -999.2500     13.9515   -999.2500   -999.2500    128.1518  
   717.0000    -44.6601      6.9296      6.0046   -999.2500   -999.2500   -999.2500     13.9529   -999.2500   -999.2500    126.9813  
   717.5000    -44.7535      7.0849      6.0566   -999.2500   -999.2500   -999.2500     13.9543   -999.2500   -999.2500    126.4990  
   718.0000    -44.1143      7.2030      6.1025   -999.2500   -999.2500   -999.2500     13.9557   -999.2500   -999.2500    126.2682  
   718.5000    -43.1594      7.2920      6.1195   -999.2500   -999.2500   -999.2500     13.9571   -999.2500   -999.2500    126.2485  
   719.0000    -42.5412      7.2328      6.1066   -999.2500   -999.2500   -999.2500     13.9585   -999.2500   -999.2500    125.8550  
   719.5000    -42.0748      7.1577      6.0946   -999.2500   -999.2500   -999.2500     13.9599   -999.2500   -999.2500    125.1012  
   720.0000    -42.2308      7.0038      6.0913   -999.2500   -999.2500   -999.2500     13.9613   -999.2500   -999.2500    125.0164  
   720.5000    -42.9048      6.8855      6.0697   -999.2500   -999.2500   -999.2500     13.9627   -999.2500   -999.2500    124.9851  
