~VERSION INFORMATION
 VERS.                           2.00:        CWLS LOG ASCII STANDARD - VERSION 2.00
 WRAP.                             NO:        ONE LINE PER DEPTH STEP
~WELL INFORMATION
#MNEM.UNIT                   DATA             INFORMATION
#----------             --------------        ------------------------------
 STRT.F                     1088.0000:        START DEPTH
 STOP.F                     2449.0000:        STOP DEPTH
 STEP.F                        0.5000:        STEP VALUE
 NULL.                      -999.2500:        NULL VALUE
 COMP.             UNITED STATES NAVY:        COMPANY  
 LOC .                   11  22N  18W:        LOCATION   
 DATE.                         4/7/70:        LOG DATE 
 WELL.                    GAS WELL #9:        WELL     
 UWI .                   500232000300:        UNIQUE WELL ID 
 API .                   500232000300:        UNIQUE WELL IDENTIFIER 
 FLD .                   SOUTH BARROW:        FIELD    
 CNTY.                   POINT BARROW:        COUNTY  
 STAT.                         ALASKA:        STATE   
 CTRY.                            USA:        COUNTRY 
 OPER.             UNITED STATES NAVY:        OPERATOR  
 SRVC.                   SCHLUMBERGER:        SERVICE COMPANY 
 LAT .                         0.0000:        LATITUDE
 LON .                         0.0000:        LONGITUDE
 DIGS.               CENTER LINE DATA:        DIGITIZING COMPANY 
~CURVE INFORMATION      
#MNEM        .UNIT         API CODE           CURVE DESCRIPTION
#-----------------      --------------        ------------------------------
 DEPT        .F                      :        1  DEPTH
 SP          .MV                     :        2  
 ASN         .OHMM                   :        3  
 ILD         .OHMM                   :        4  
 CILD        .MMHO                   :        5  
 CALI        .IN                     :        6  
 GR          .GAPI                   :        7  
 DRHO        .G/C3                   :        8  
 RHOB        .G/C3                   :        9  
 DT          .US/F                   :        10 
~PARAMETER INFORMATION       
#MNEM.UNIT                  VALUE             DESCRIPTION OF MNEMONIC
#---------             ---------------        ------------------------------
 EKB .F                       29.0000:        KELLY BUSHING
 TD  .F                     2450.0000:        TOTAL DEPTH
 BHT .F                       75.0000:        BOTTOM HOLE TEMPERATURE
 BS  .                         8.6250:        BIT SIZE
 FD  .                        10.7000:        FLUID DENSITY
 CSIZ.                         9.6250:        CASING SIZE
 CBD .F                     1100.0000:        CASING DRILLER 1
 CBL .F                     1102.0000:        CASING LOGGER 1
 DFT .                            Gel:        TYPE FLUID IN HOLE
 DFV .                        45.0000:        VISCOSITY
 DFPH.                         8.8000:        PH
 DFL .                         3.8000:        FLUID LOSS
 RMS .                         2.7500:        RM
 MST .F                       60.0000:        RM MEAS. TEMP.
 RMF .                         2.3600:        RMF
 MFST.F                       60.0000:        RMF MEAS. TEMP.
 RMC .                         3.7800:        RMC
 MCST.F                       60.0000:        RMC MEAS. TEMP.
~OTHER INFORMATION
~A    DEPTH          SP         ASN         ILD        CILD        CALI          GR        DRHO        RHOB          DT  
# ...
  1979.0000    -11.7320     11.5022     10.0931     98.0643      9.6154     80.2557      0.0068      2.4724     99.2624  
  1979.5000    -11.4298     11.6651     10.0863     97.6982      9.4221     74.8112      0.0191      2.4714     99.6666  
  1980.0000    -11.8087     11.6440     10.0795     96.6962      9.4459     69.7306      0.0246      2.4619    100.7670  
  1980.5000    -12.2040     11.6367     10.0610     96.3274      9.5146     68.2997      0.0301      2.4785    101.2600  
  1981.0000    -12.6013     11.6016     10.2245     94.7891      9.6555     68.9171      0.0345      2.4856    100.9019  
  1981.5000    -12.4089     11.7169     10.5055     93.2509      9.6699     69.0335      0.0460      2.4893    100.2366  
  1982.0000    -12.1762     11.8986     10.6748     91.7154      9.6787     71.8996      0.0613      2.5033     99.8251  
  1982.5000    -11.9847     12.0834     10.8223     90.4607      9.6876     76.2210      0.0688      2.5174     99.3199  
  1983.0000    -12.7370     12.3551     10.9195     89.7887      9.6499     79.1256      0.0514      2.5008     98.0898  
  1983.5000    -13.3420     12.6446     10.9946     89.1168      9.5937     81.6263      0.0375      2.4998     97.1082  
  1984.0000    -13.2913     12.8716     11.0682     88.4331      9.5676     75.8613      0.0273      2.4893     96.5022  
  1984.5000    -12.8714     12.9846     11.0733     88.2806      9.5767     70.3805      0.0132      2.4769     96.6042  
  1985.0000    -12.3357     12.8539     11.0875     89.0088      9.5771     69.6256      0.0113      2.4830     97.0239  
  1985.5000    -11.9750     12.6048     10.8555     90.0127      9.5720     69.3363      0.0185      2.4899     97.5715  
  1986.0000    -11.9214     12.3481     10.7140     91.2750      9.5966     68.2982      0.0170      2.4948     97.8901  
  1986.5000    -12.1936     11.8436     10.6831     92.2245      9.5382     68.7499      0.0157      2.4927     97.9949  
  1987.0000    -11.8284     11.7230     10.6553     92.7677      9.5330     71.0648      0.0128      2.4949     98.0803  
  1987.5000    -11.4362     11.9689     10.6275     92.8297      9.5224     72.8067      0.0081      2.4933     98.0871  
  1988.0000    -11.1249     12.2149     10.5998     92.3598      9.5026     74.7927      0.0096      2.4945     97.9818  
  1988.5000    -11.5399     12.3623     10.5945     91.9318      9.4721     75.8190      0.0115      2.4772     97.7682  
  1989.0000    -12.4121     12.4059     10.6670     91.6007      9.4341     74.4947      0.0103      2.4610     97.2406  
  1989.5000    -12.5309     12.4842     10.7395     90.7060      9.4161     71.7652      0.0077      2.4552     96.8098  
  1990.0000    -12.2514     12.5393     10.8891     89.4419      9.3767     69.1552      0.0112      2.4546     96.6528  
  1990.5000    -11.3630     12.5796     11.1087     88.1009      9.3191     67.5962      0.0059      2.4503     96.4713  
  1991.0000    -11.2469     12.6533     11.2952     86.9153      9.2559     67.6109      0.0078      2.4502     96.3314  
  1991.5000    -11.4411     12.7891     11.4503     85.6327      9.2560     67.7100      0.0121      2.4591     96.3957  
  1992.0000    -12.4056     13.0778     11.6577     84.5710      9.2154     65.2220      0.0133      2.4669     96.5432  
  1992.5000    -13.0346     13.3833     11.8630     83.0492      9.1612     63.5644      0.0136      2.4709     96.7680  
  1993.0000    -13.1898     13.6298     12.1215     81.6588      9.1339     62.7356      0.0127      2.4614     96.9255  
  1993.5000    -13.4246     13.7819     12.3513     80.0805      9.1089     63.4837      0.0115      2.4525     96.8082  
  1994.0000    -12.9549     13.9537     12.5222     78.7813      9.0855     65.3254      0.0117      2.4514     96.4709  
  1994.5000    -12.2107     14.1498     12.6712     78.0950      9.0929     66.5983      0.0223      2.4618     96.0091  
  1995.0000    -11.8296     14.2472     12.7630     77.6922      9.1004     66.3386      0.0190      2.4686     95.5177  
  1995.5000    -11.9059     14.3318     12.8240     77.5000      9.1079     65.4820      0.0193      2.4721     95.3550  
  1996.0000    -12.1271     14.2971     12.9067     77.0899      9.0805     64.7246      0.0283      2.4822     95.4096  
  1996.5000    -12.5154     14.2298     13.0347     76.2679      9.0401     64.5007      0.0461      2.4859     95.6682  
  1997.0000    -11.9852     14.2749     13.1468     75.6744      8.9967     65.2147      0.0444      2.4690     96.0365  
  1997.5000    -11.5482     14.4204     13.1482     75.7369      8.9662     66.0148      0.0281      2.4417     96.3819  
  1998.0000    -12.2363     14.5659     13.1724     75.7857      8.8747     68.3394      0.0374      2.4339     96.5442  
  1998.5000    -13.3766     14.6714     13.2093     75.5890      8.9489     69.6490      0.0534      2.4479     96.3014  
  1999.0000    -12.9972     14.6951     13.2156     75.5234      8.9752     70.0983      0.0564      2.4341     95.6178  
  1999.5000    -12.2037     14.6634     13.1628     75.7012      8.9683     69.2209      0.0422      2.3956     95.2831  
  2000.0000    -11.3454     14.4730     12.9051     77.0522      8.9526     66.8607      0.0526      2.3798     95.2245  
  2000.5000    -11.2188     14.2456     12.5693     78.9334      8.9418     65.4398      0.0691      2.3814     95.1931  
  2001.0000    -12.4453     14.0144     12.2583     80.9224      9.0172     68.2741      0.0956      2.4021     95.3248  
  2001.5000    -13.1392     13.7265     11.9702     82.9484      9.1803     68.6496      0.1096      2.4171     95.6702  
  2002.0000    -12.8138     13.3481     11.6778     84.8341      9.1805     67.4799      0.0981      2.3912     96.1843  
  2002.5000    -12.4666     12.9299     11.3668     86.7267      9.0502     66.1568      0.0885      2.3609     97.2331  
  2003.0000    -12.5632     12.5378     11.1610     88.8029      8.9935     66.4181      0.0622      2.3327     98.2851  
  2003.5000    -11.8899     12.2641     10.8894     90.7941      9.0592     68.3272      0.0310      2.3105     99.2766  
  2004.0000    -11.9002     12.1224     10.5983     92.5467      9.1257     69.7305      0.0215      2.3024    100.1920  
  2004.5000    -12.3137     12.0070     10.3150     94.3340      9.6162     70.7456      0.0408      2.3244    100.8062  
  2005.0000    -12.7327     11.9053     10.0956     96.1875     10.0884     71.8454      0.0589      2.3590    100.8929  
  2005.5000    -12.5324     11.7397      9.9618     97.8890     10.4482     73.7280      0.0549      2.3481    100.9431  
  2006.0000    -12.1752     11.4945      9.7820     99.2555     10.5760     73.6258      0.0791      2.3598    101.2370  
  2006.5000    -11.9252     11.2950      9.7417    100.0000     11.0198     74.1380      0.0727      2.3641    102.0901  
  2007.0000    -11.7380     11.0878      9.7069    100.7277     11.0858     74.1235      0.0539      2.3523    103.0190  
  2007.5000    -11.3146     10.9473      9.7177    100.1098      9.8427     74.6009      0.0420      2.3309    103.6106  
  2008.0000    -10.8051     10.9829      9.6057    100.9459     10.2135     75.4440      0.0495      2.3076    104.2827  
  2008.5000    -10.5507     11.2190      9.5787    101.1990     10.9861     75.7595      0.0630      2.3002    104.9366  
  2009.0000    -10.9358     11.3915      9.6257    101.1590     11.3927     75.5770      0.0513      2.2810    104.9409  
  2009.5000    -11.2296     11.4267      9.7073    100.4614     11.2134     73.1324      0.0349      2.2327    104.4294  
  2010.0000    -10.5843     11.4258      9.8758     98.8521     10.7221     68.7469      0.0584      2.2256    103.3879  
  2010.5000    -10.0726     11.4249      9.9861     98.3549     11.1813     65.1509      0.0713      2.2342    102.9869  
  2011.0000     -9.7371     11.4240      9.9968     97.2088     11.1895     67.1573      0.0976      2.2222    104.2236  
  2011.5000     -9.7861     11.4046     10.0429     97.2332     10.8484     69.6617      0.1088      2.1969    104.6605  
