~VERSION INFORMATION
 VERS.                           2.00:        CWLS LOG ASCII STANDARD - VERSION 2.00
 WRAP.                             NO:        ONE LINE PER DEPTH STEP
~WELL INFORMATION
#MNEM.UNIT                   DATA             INFORMATION
#----------             --------------        ------------------------------
 STRT.F                      884.0000:        START DEPTH
 STOP.F                     2365.0000:        STOP DEPTH
 STEP.F                        0.5000:        STEP VALUE
 NULL.                      -999.2500:        NULL VALUE
 COMP.                      U.S. NAVY:        COMPANY  
 LOC .                   14  22N  18W:        LOCATION   
 DATE.                        3/19/64:        LOG DATE 
 WELL.                SOUTH BARROW #6:        WELL     
 UWI .                   500231001500:        UNIQUE WELL ID 
 API .                   500231001500:        UNIQUE WELL IDENTIFIER 
 FLD .                   SOUTH BARROW:        FIELD    
 CNTY.                         NPR #4:        COUNTY  
 STAT.                         ALASKA:        STATE   
 CTRY.                            USA:        COUNTRY 
 OPER.                      U.S. NAVY:        OPERATOR  
 SRVC.                   SCHLUMBERGER:        SERVICE COMPANY 
 LAT .                         0.0000:        LATITUDE
 LON .                         0.0000:        LONGITUDE
 DIGS.               CENTER LINE DATA:        DIGITIZING COMPANY 
~CURVE INFORMATION      
#MNEM        .UNIT         API CODE           CURVE DESCRIPTION
#-----------------      --------------        ------------------------------
 DEPT        .F                      :        1  DEPTH
 SP          .MV                     :        2  
 SN          .OHMM                   :        3  
 ILD         .OHMM                   :        4  
 CILD        .OHMM                   :        5  
 DT          .US/F                   :        6  
~PARAMETER INFORMATION       
#MNEM.UNIT                  VALUE             DESCRIPTION OF MNEMONIC
#---------             ---------------        ------------------------------
 EKB .F                       40.0000:        KELLY BUSHING
 TD  .F                     2366.0000:        TOTAL DEPTH
 BHT .F                        0.0000:        BOTTOM HOLE TEMPERATURE
 BS  .                         9.6250:        BIT SIZE
 FD  .                        85.0000:        FLUID DENSITY
 CSIZ.                        11.7500:        CASING SIZE
 CBD .F                      884.0000:        CASING DRILLER 1
 CBL .F                      884.0000:        CASING LOGGER 1
 DFT .                  Miscellaneous:        TYPE FLUID IN HOLE
 DFV .                        45.0000:        VISCOSITY
 DFPH.                         0.0000:        PH
 DFL .                         2.8000:        FLUID LOSS
 RMS .                         5.3700:        RM
 MST .F                       33.0000:        RM MEAS. TEMP.
 RMF .                         2.9500:        RMF
 MFST.F                       45.0000:        RMF MEAS. TEMP.
 RMC .                         2.4800:        RMC
 MCST.F                       35.0000:        RMC MEAS. TEMP.
~OTHER INFORMATION
~A    DEPTH          SP          SN         ILD        CILD          DT  
# ...
  1538.0000    -38.8800     12.3427     11.1320     89.5327   -999.2500  
  1538.5000    -38.9946     12.1739     10.9987     90.6437   -999.2500  
  1539.0000    -38.8467     11.8980     10.9473     91.2059   -999.2500  
  1539.5000    -38.6445     11.6471     10.9007     91.6982   -999.2500  
  1540.0000    -38.4939     11.5391     10.8585     91.9721   -999.2500  
  1540.5000    -38.3855     11.5304     10.8095     92.3028   -999.2500  
  1541.0000    -38.2704     11.6019     10.7658     92.6403   -999.2500  
  1541.5000    -38.2320     11.7526     10.8569     92.3636   -999.2500  
  1542.0000    -38.2509     11.9156     11.0277     91.0762   -999.2500  
  1542.5000    -38.1504     12.0275     11.1895     89.9202   -999.2500  
  1543.0000    -38.0676     12.0856     11.3224     88.7881   -999.2500  
  1543.5000    -37.9172     12.1412     11.4762     87.8284   -999.2500  
  1544.0000    -37.5428     12.2087     11.4885     87.2125   -999.2500  
  1544.5000    -37.1727     12.2762     11.5008     86.6849   -999.2500  
  1545.0000    -37.1279     12.3614     11.5131     86.2773   -999.2500  
  1545.5000    -37.2028     12.4389     11.5201     86.4428   -999.2500  
  1546.0000    -37.2012     12.4057     11.3940     87.1224   -999.2500  
  1546.5000    -37.0626     12.3400     11.1900     88.6462   -999.2500  
  1547.0000    -36.8910     12.2326     10.9106     90.6373   -999.2500  
  1547.5000    -36.6941     12.0159     10.6464     92.7438   -999.2500  
  1548.0000    -36.3673     11.6857     10.4095     94.6625   -999.2500  
  1548.5000    -36.0304     11.3723     10.1698     96.8564   -999.2500  
  1549.0000    -35.9884     11.1769      9.9128     98.7953   -999.2500  
  1549.5000    -35.9083     11.0447      9.7656    100.5459   -999.2500  
  1550.0000    -35.8718     10.9458      9.5183    102.6342   -999.2500  
  1550.5000    -35.8465     10.8357      9.2468    104.7269   -999.2500  
  1551.0000    -35.6448     10.7207      9.0319    107.1178   -999.2500  
  1551.5000    -35.3022     10.5875      8.8064    109.2826   -999.2500  
  1552.0000    -35.1648     10.4491      8.6508    111.3900   -999.2500  
  1552.5000    -35.1459     10.2498      8.4952    113.1619   -999.2500  
  1553.0000    -35.1575      9.9891      8.3797    114.6659   -999.2500  
  1553.5000    -34.9662      9.7976      8.2672    115.9117   -999.2500  
  1554.0000    -34.9481      9.7155      8.1777    117.1008   -999.2500  
  1554.5000    -35.0393      9.7355      8.1188    117.8421   -999.2500  
  1555.0000    -35.1597      9.7808      8.1260    118.1145   -999.2500  
  1555.5000    -35.4654      9.8339      8.1374    117.7836   -999.2500  
  1556.0000    -35.8783      9.9016      8.2173    117.1180   -999.2500  
  1556.5000    -36.3045      9.9615      8.2445    116.0927   -999.2500  
  1557.0000    -36.4900      9.9728      8.3155    115.2448   -999.2500  
  1557.5000    -36.3818      9.9751      8.3793    114.5692   -999.2500  
  1558.0000    -36.0345      9.9991      8.4173    113.9028   -999.2500  
  1558.5000    -35.6202     10.0260      8.4580    113.3626   -999.2500  
  1559.0000    -35.3924     10.0507      8.4399    113.0937   -999.2500  
  1559.5000    -35.1811     10.0839      8.4968    113.0000   -999.2500  
  1560.0000    -34.7219     10.0887      8.5126    113.0000   -999.2500  
  1560.5000    -34.1573     10.0613      8.4606    113.2182   -999.2500  
  1561.0000    -34.0130     10.0504      8.4280    113.5793   -999.2500  
  1561.5000    -34.2279     10.0573      8.4125    113.7527   -999.2500  
  1562.0000    -34.4735     10.0147      8.3953    113.8664   -999.2500  
  1562.5000    -34.6645      9.9880      8.3774    114.1813   -999.2500  
  1563.0000    -34.9335      9.9767      8.3237    114.4549   -999.2500  
  1563.5000    -35.2825      9.9875      8.3673    114.7115   -999.2500  
  1564.0000    -35.6426     10.0381      8.3919    114.6333   -999.2500  
  1564.5000    -35.9395     10.0769      8.4217    114.1486   -999.2500  
  1565.0000    -35.9199     10.0831      8.4630    113.5623   -999.2500  
  1565.5000    -35.6848     10.0935      8.5246    112.9542   -999.2500  
  1566.0000    -35.3485     10.1115      8.6389    112.0360   -999.2500  
  1566.5000    -34.9395     10.1338      8.6752    111.2085   -999.2500  
  1567.0000    -34.4262     10.2255      8.7575    110.2575   -999.2500  
  1567.5000    -33.9878     10.3323      8.8649    109.0233   -999.2500  
  1568.0000    -33.6398     10.4863      8.9646    107.7821   -999.2500  
  1568.5000    -33.4406     10.7109      9.0510    106.7439   -999.2500  
  1569.0000    -33.3108     10.8698      9.1137    105.8487   -999.2500  
  1569.5000    -32.8535     10.9743      9.1537    105.4365   -999.2500  
  1570.0000    -32.5102     11.1024      9.1419    105.5098   -999.2500  
  1570.5000    -32.5744     11.2229      9.1001    105.8284   -999.2500  
  1571.0000    -33.0023     11.2158      9.0293    106.4108   -999.2500  
  1571.5000    -33.7541     11.0688      8.9548    106.9663   -999.2500  
  1572.0000    -34.4358     10.8783      8.8408    108.0940   -999.2500  
  1572.5000    -34.5743     10.6822      8.7226    109.7943   -999.2500  
  1573.0000    -34.2708     10.5016      8.5947    111.4685   -999.2500  
  1573.5000    -34.1478     10.3657      8.5758    112.4550   -999.2500  
  1574.0000    -34.5575     10.2663      8.6696    111.7528   -999.2500  
  1574.5000    -35.2501     10.1632      8.8269    110.1886   -999.2500  
  1575.0000    -35.9527     10.1568      9.0097    108.2238   -999.2500  
  1575.5000    -36.5494     10.3160      9.1198    106.7536   -999.2500  
  1576.0000    -37.5928     10.9360      9.1785    106.2446   -999.2500  
  1576.5000    -39.3780     11.4840      9.2885    104.9994   -999.2500  
  1577.0000    -42.0178     11.6791      9.5834    103.1262   -999.2500  
  1577.5000    -43.7034     11.6527      9.8033    100.4176   -999.2500  
  1578.0000    -43.1199     11.4887     10.1034     97.2495   -999.2500  
  1578.5000    -40.8810     11.2503     10.3625     94.9658   -999.2500  
  1579.0000    -38.8084     11.0637     10.3398     94.4769   -999.2500  
  1579.5000    -37.5964     11.1116     10.3607     94.2731   -999.2500  
  1580.0000    -37.1896     11.3353     10.4410     94.2511   -999.2500  
  1580.5000    -37.1673     11.5094     10.5174     94.0063   -999.2500  
  1581.0000    -37.3754     11.5801     10.6375     93.0800   -999.2500  
  1581.5000    -37.5316     11.5735     10.7897     92.1540   -999.2500  
  1582.0000    -37.6938     11.5193     10.8078     91.4783   -999.2500  
  1582.5000    -37.8871     11.4454     10.8049     91.2500   -999.2500  
  1583.0000    -38.0834     11.3715     10.8197     91.4893   -999.2500  
  1583.5000    -38.1658     11.2977     10.8346     91.7500   -999.2500  
  1584.0000    -38.0162     11.2397     10.8295     91.9166   -999.2500  
  1584.5000    -37.7358     11.1901     10.7639     92.3240   -999.2500  
  1585.0000    -37.6124     11.1405     10.6984     92.7214   -999.2500  
  1585.5000    -37.5610     11.0909     10.6328     93.1188   -999.2500  
  1586.0000    -37.5920     11.0413     10.5673     93.5033   -999.2500  
  1586.5000    -37.6523     10.9918     10.5017     93.7573   -999.2500  
  1587.0000    -37.6801     10.9464     10.4362     94.3239   -999.2500  
  1587.5000    -37.7078     10.9165     10.3770     94.7261   -999.2500  
  1588.0000    -37.8003     10.8866     10.3939     95.4161   -999.2500  
  1588.5000    -38.0084     10.8567     10.4109     96.0677   -999.2500  
  1589.0000    -38.1495     10.8216     10.4278     96.3234   -999.2500  
  1589.5000    -38.0927     10.7802     10.4448     96.3705   -999.2500  
  1590.0000    -37.9588     10.7387     10.4617     96.1710   -999.2500  
  1590.5000    -37.9242     10.6972     10.4787     96.0846   -999.2500  
  1591.0000    -37.9323     10.7102     10.5537     95.9428   -999.2500  
  1591.5000    -37.9735     10.7396     10.6326     94.3681   -999.2500  
  1592.0000    -38.0682     10.8126     10.7796     93.2575   -999.2500  
