~VERSION INFORMATION
 VERS.                           2.00:        CWLS LOG ASCII STANDARD - VERSION 2.00
 WRAP.                             NO:        ONE LINE PER DEPTH STEP
~WELL INFORMATION
#MNEM.UNIT                   DATA             INFORMATION
#----------             --------------        ------------------------------
 STRT.F                     1260.0000:        START DEPTH
 STOP.F                     2340.0000:        STOP DEPTH
 STEP.F                        0.5000:        STEP VALUE
 NULL.                      -999.2500:        NULL VALUE
 COMP.        U.S.NAVY DEEPT NP & OSR:        COMPANY  
 LOC .                  144  22N 18W UPM:        LOCATION   
 DATE.                        2/24/74:        LOG DATE 
 WELL.               SOUTH BARROW #11:        WELL     
 UWI .                    50023200500:        UNIQUE WELL ID 
 API .                    50023200500:        UNIQUE WELL IDENTIFIER 
 FLD .                   SOUTH BARROW:        FIELD    
 CNTY.                          NPR-4:        COUNTY  
 STAT.                         ALASKA:        STATE   
 CTRY.                            USA:        COUNTRY 
 OPER.        U.S.NAVY DEEPT NP & OSR:        OPERATOR  
 SRVC.                   SCHLUMBERGER:        SERVICE COMPANY 
 LAT .                         0.0000:        LATITUDE
 LON .                         0.0000:        LONGITUDE
 DIGS.               CENTER LINE DATA:        DIGITIZING COMPANY 
~CURVE INFORMATION      
#MNEM        .UNIT         API CODE           CURVE DESCRIPTION
#-----------------      --------------        ------------------------------
 DEPT        .F                      :        1  DEPTH
 CALI        .IN                     :        2  
 GR          .GAPI                   :        3  
 RHOB        .G/C3                   :        4  
 NPHI        .%                      :        5  
 DPHI        .%                      :        6  
 SP          .MV                     :        7  
 LL8         .OHMM                   :        8  
 ILD         .OHMM                   :        9  
 CILD        .MMHO                   :        10 
 DT          .US/F                   :        11 
~PARAMETER INFORMATION       
#MNEM.UNIT                  VALUE             DESCRIPTION OF MNEMONIC
#---------             ---------------        ------------------------------
 EKB .F                       36.0000:        KELLY BUSHING
 TD  .F                     2350.0000:        TOTAL DEPTH
 BHT .F                       60.0000:        BOTTOM HOLE TEMPERATURE
 BS  .                         9.6250:        BIT SIZE
 FD  .                        10.8000:        FLUID DENSITY
 CSIZ.                        10.7500:        CASING SIZE
 CBD .F                     1267.0000:        CASING DRILLER 1
 CBL .F                     1267.0000:        CASING LOGGER 1
 DFT .      Salt Water-Lignosulfonate:        TYPE FLUID IN HOLE
 DFV .                        52.0000:        VISCOSITY
 DFPH.                         9.0000:        PH
 DFL .                         4.2000:        FLUID LOSS
 RMS .                         1.8800:        RM
 MST .F                       50.0000:        RM MEAS. TEMP.
 RMF .                         1.1500:        RMF
 MFST.F                       63.0000:        RMF MEAS. TEMP.
 RMC .                         1.5000:        RMC
 MCST.F                       50.0000:        RMC MEAS. TEMP.
~OTHER INFORMATION
~A    DEPTH        CALI          GR        RHOB        NPHI        DPHI          SP         LL8         ILD        CILD          DT  
# ...
  1470.0000     10.4253     94.3693      2.4396     37.6996     12.8436    -30.4226     11.8361     11.7748     86.4431    105.2741  
  1470.5000     10.4191     94.0354      2.4388     37.1641     12.6851    -30.2964     11.9861     11.9158     85.9144    103.4157  
  1471.0000     10.3918     94.3372      2.4400     36.0600     12.7148    -30.4393     12.0358     12.0473     85.5067    101.4402  
  1471.5000     10.3667     94.3697      2.4358     36.0158     13.2838    -30.8205     12.0692     12.0308     84.3930    100.0336  
  1472.0000     10.3648     94.4844      2.4203     36.3802     14.2454    -31.3485     12.0104     11.8808     83.4920     99.8581  
  1472.5000     10.3626     94.4940      2.4174     36.5407     14.1493    -31.3428     11.9478     11.6995     82.9821    100.3583  
  1473.0000     10.3594     94.3512      2.4139     36.3273     14.0664    -31.2193     11.8144     11.5153     84.2664    101.7050  
  1473.5000     10.3480     94.1298      2.4087     35.3305     14.4431    -31.1760     11.6196     11.3353     85.5506    103.1542  
  1474.0000     10.3334     94.3080      2.4078     34.5510     14.7926    -31.1825     11.4237     11.1635     87.8210    104.2962  
  1474.5000     10.3014     94.8116      2.4176     33.8759     14.3767    -30.8511     11.2107     10.9918     89.8498    104.7668  
  1475.0000     10.3105     96.2423      2.4263     33.9699     13.8501    -30.7921     11.0475     10.8201     91.2057    103.8763  
  1475.5000     10.3912     97.0223      2.4330     34.5340     13.4560    -30.8162     10.8711     10.6484     91.8739    103.1309  
  1476.0000     10.4325     97.2833      2.4264     35.0942     13.2631    -31.0247     10.6027     10.4766     92.3348    102.4308  
  1476.5000     10.4167     97.5042      2.4185     35.9674     14.1649    -30.6828     10.4828     10.3793     93.6122    103.3119  
  1477.0000     10.4331     96.9943      2.4106     36.5520     14.3302    -30.6959     10.4553     10.4269     94.3741    105.8801  
  1477.5000     10.4521     95.3312      2.4027     37.1728     14.2283    -30.7341     10.4634     10.4746     94.6712    107.8321  
  1478.0000     10.4516     94.0338      2.3983     37.3895     13.8390    -30.7524     10.4963     10.5222     94.7256    109.3525  
  1478.5000     10.3622     95.1020      2.3987     37.1982     14.0908    -30.7295     10.5681     10.5699     95.2588    108.7024  
  1479.0000     10.3284     95.9520      2.4000     36.7011     14.2274    -30.7899     10.5951     10.6176     94.8743    107.3423  
  1479.5000     10.3515     96.6210      2.4062     36.4488     14.2669    -30.8431     10.5728     10.6652     94.8507    105.9224  
  1480.0000     10.3403     97.4783      2.4117     37.1871     14.2673    -30.8465     10.5049     10.6236     93.9669    105.2172  
  1480.5000     10.3251     98.4914      2.4120     38.3368     14.3804    -30.8535     10.4252     10.5436     95.0962    105.2451  
  1481.0000     10.3297     98.8944      2.4070     38.8223     14.6425    -30.8638     10.3234     10.4636     95.8144    105.6691  
  1481.5000     10.3209     98.9349      2.4019     38.7041     14.8575    -30.8781     10.2746     10.3836     96.1497    106.4757  
  1482.0000     10.2882     99.2258      2.4001     38.0335     15.0153    -30.9117     10.2336     10.3035     96.6948    107.4962  
  1482.5000     10.2688     98.5279      2.3991     37.9318     15.2502    -30.9332     10.1916     10.2638     97.0820    108.4073  
  1483.0000     10.2391     96.8654      2.3873     38.1739     15.6725    -30.8679     10.1821     10.2294     97.6516    108.8746  
  1483.5000     10.2669     95.8355      2.3880     38.4520     15.6854    -30.7613     10.2644     10.1949     97.8663    109.0251  
  1484.0000     10.2440     95.8291      2.3913     38.5214     15.2395    -30.6808     10.2697     10.1605     98.1758    109.1819  
  1484.5000     10.2758     96.0276      2.3908     38.5374     15.3600    -30.6096     10.2500     10.1358     98.6723    109.3387  
  1485.0000     10.2484     95.6277      2.3944     38.1541     15.3953    -30.4823     10.2073     10.1358     99.3034    108.9660  
  1485.5000     10.2716     94.9548      2.4007     37.3303     15.2379    -30.1775     10.1456     10.1358     99.9819    108.0375  
  1486.0000     10.2743     94.6646      2.4015     36.6453     14.8910    -29.7456     10.0481     10.0060    101.6328    107.7171  
  1486.5000     10.2645     95.9521      2.4054     36.9321     14.5441    -29.5061      9.9507      9.8312    104.0356    108.0046  
  1487.0000     10.2583     98.1411      2.4064     37.3569     14.9251    -29.4593      9.7428      9.6564    106.4385    108.1723  
  1487.5000     10.2519     99.7042      2.3883     37.9719     15.8062    -29.4884      9.5147      9.4507    108.6094    108.2324  
  1488.0000     10.2810    100.9126      2.3841     38.8238     16.1214    -29.6337      9.2937      9.2218    111.1546    108.6380  
  1488.5000     10.2905    101.7762      2.3851     39.4429     16.1515    -29.8990      9.2382      9.0011    111.9949    109.6818  
  1489.0000     10.2940    101.6002      2.3832     40.3338     16.2317    -30.1193      9.1828      8.8068    113.2350    111.6654  
  1489.5000     10.3167    101.0794      2.3799     41.0551     16.3680    -30.3693      9.1273      8.6125    114.5358    113.4096  
  1490.0000     10.3298    100.9729      2.3793     40.6583     16.5372    -30.8601      9.1259      8.5002    115.4374    114.4141  
  1490.5000     10.3387    101.2929      2.3807     40.9962     16.4812    -30.8216      9.1429      8.5208    116.2431    115.0197  
  1491.0000     10.3513    101.9453      2.3772     42.2522     16.5519    -30.4350      9.1599      8.5414    116.4032    114.3382  
  1491.5000     10.3617    101.2356      2.3735     43.9632     16.7595    -30.3143      9.1769      8.5613    115.9485    113.9394  
  1492.0000     10.3444    100.4620      2.3690     44.4665     16.9115    -30.1996      9.1939      8.5783    115.0677    113.7641  
  1492.5000     10.2941    100.1751      2.3699     43.8299     16.9601    -30.0354      9.2110      8.5954    114.3136    113.5924  
  1493.0000     10.2150     99.1128      2.3764     41.6772     16.7239    -29.9033      9.2175      8.6125    114.2474    113.6182  
  1493.5000     10.2039     98.4386      2.3833     39.9526     16.3326    -29.9178      9.2224      8.6296    114.0801    114.0100  
  1494.0000     10.1809     98.0625      2.3853     39.1355     16.1933    -29.7410      9.2274      8.6467    114.1320    114.1746  
  1494.5000     10.1502     98.0873      2.3813     39.7736     16.3334    -29.7260      9.2323      8.6637    114.4576    114.1521  
  1495.0000     10.1290    100.2173      2.3743     39.8782     16.6290    -29.6457      9.2372      8.6808    114.7212    114.0408  
  1495.5000     10.1648    101.3550      2.3794     39.1435     16.5458    -29.5774      9.2422      8.6999    114.5815    113.7835  
  1496.0000     10.1989    100.7752      2.3791     39.1364     16.4906    -29.4312      9.2471      8.7274    114.4251    113.3226  
  1496.5000     10.2358    100.5651      2.3707     39.1083     16.8314    -29.5074      9.2521      8.7548    114.3924    112.9051  
  1497.0000     10.2271    100.4443      2.3639     39.3449     17.1437    -29.6528      9.2767      8.7822    114.1923    112.6063  
  1497.5000     10.2201    100.1145      2.3741     39.6020     17.1268    -29.8309      9.3109      8.8097    113.7912    112.6126  
  1498.0000     10.2360     99.4894      2.3851     39.5091     16.5606    -30.1524      9.3452      8.8371    113.8631    112.9457  
  1498.5000     10.2509     98.4138      2.3886     39.8397     15.5585    -30.3316      9.3795      8.8871    113.4267    113.2038  
  1499.0000     10.2612     97.1396      2.3804     40.9424     16.1234    -30.4133      9.4137      8.9395    112.3140    113.8353  
  1499.5000     10.3103     95.7729      2.3819     41.7023     16.2807    -30.3274      9.4480      8.9927    111.8255    114.6811  
