~VERSION INFORMATION
 VERS.                           2.00:        CWLS LOG ASCII STANDARD - VERSION 2.00
 WRAP.                             NO:        ONE LINE PER DEPTH STEP
~WELL INFORMATION
#MNEM.UNIT                   DATA             INFORMATION
#----------             --------------        ------------------------------
 STRT.F                      990.0000:        START DEPTH
 STOP.F                     2362.0000:        STOP DEPTH
 STEP.F                        0.5000:        STEP VALUE
 NULL.                      -999.2500:        NULL VALUE
 COMP.                 U.S. AIR FORCE:        COMPANY  
 LOC .                   14  22N  18W:        LOCATION   
 DATE.                        4/21/69:        LOG DATE 
 WELL.       SOUTH BARROW GAS WELL #8:        WELL     
 UWI .                   500232000200:        UNIQUE WELL ID 
 API .                   500232000200:        UNIQUE WELL IDENTIFIER 
 FLD .                S. B. GAS FIELD:        FIELD    
 CNTY.                   POINT BARROW:        COUNTY  
 STAT.                         ALASKA:        STATE   
 CTRY.                            USA:        COUNTRY 
 OPER.                 U.S. AIR FORCE:        OPERATOR  
 SRVC.                   SCHLUMBERGER:        SERVICE COMPANY 
 LAT .                         0.0000:        LATITUDE
 LON .                         0.0000:        LONGITUDE
 DIGS.               CENTER LINE DATA:        DIGITIZING COMPANY 
~CURVE INFORMATION      
#MNEM        .UNIT         API CODE           CURVE DESCRIPTION
#-----------------      --------------        ------------------------------
 DEPT        .F                      :        1  DEPTH
 SP          .MV                     :        2  
 ASN         .OHMM                   :        3  
 ILD         .OHMM                   :        4  
 CILD        .MMHO                   :        5  
 CALI        .IN                     :        6  
 DT          .US/F                   :        7  
~PARAMETER INFORMATION       
#MNEM.UNIT                  VALUE             DESCRIPTION OF MNEMONIC
#---------             ---------------        ------------------------------
 EKB .F                       31.0000:        KELLY BUSHING
 TD  .F                     2363.0000:        TOTAL DEPTH
 BHT .F                       74.0000:        BOTTOM HOLE TEMPERATURE
 BS  .                         8.6250:        BIT SIZE
 FD  .                        10.6000:        FLUID DENSITY
 CSIZ.                         9.6250:        CASING SIZE
 CBD .F                      992.0000:        CASING DRILLER 1
 CBL .F                      990.0000:        CASING LOGGER 1
 DFT .                            Gel:        TYPE FLUID IN HOLE
 DFV .                        54.0000:        VISCOSITY
 DFPH.                        10.0000:        PH
 DFL .                         4.8000:        FLUID LOSS
 RMS .                         2.0000:        RM
 MST .F                       82.0000:        RM MEAS. TEMP.
 RMF .                         2.1800:        RMF
 MFST.F                       61.0000:        RMF MEAS. TEMP.
 RMC .                         4.1900:        RMC
 MCST.F                       53.0000:        RMC MEAS. TEMP.
~OTHER INFORMATION
~A    DEPTH          SP         ASN         ILD        CILD        CALI          DT  
# ...
  1601.0000    -37.3037      9.9459      9.9712    100.6540   -999.2500   -999.2500  
  1601.5000    -37.5460     10.0510     10.0255     99.0134   -999.2500   -999.2500  
  1602.0000    -37.8780     10.1875     10.0799     97.6270   -999.2500   -999.2500  
  1602.5000    -38.4520     10.3223     10.1342     96.8702   -999.2500   -999.2500  
  1603.0000    -38.5088     10.4209     10.2929     96.5437   -999.2500   -999.2500  
  1603.5000    -38.5086     10.5869     10.4772     95.5204   -999.2500   -999.2500  
  1604.0000    -38.4846     10.6244     10.6616     93.9838   -999.2500   -999.2500  
  1604.5000    -38.4249     10.6921     10.8459     92.4214   -999.2500   -999.2500  
  1605.0000    -38.4789     10.8681     11.0968     90.2730   -999.2500   -999.2500  
  1605.5000    -38.3317     11.0927     11.3562     87.9010   -999.2500   -999.2500  
  1606.0000    -37.9456     11.3947     11.6157     85.6407   -999.2500   -999.2500  
  1606.5000    -37.4564     11.7615     11.8542     83.8976   -999.2500   -999.2500  
  1607.0000    -37.2090     12.0820     12.0810     81.8855   -999.2500   -999.2500  
  1607.5000    -37.4134     12.2718     12.3078     79.9719   -999.2500   -999.2500  
  1608.0000    -37.3278     12.4178     12.5346     78.0082   -999.2500   -999.2500  
  1608.5000    -37.6721     12.5973     12.7615     76.0109   -999.2500   -999.2500  
  1609.0000    -37.9744     12.7395     12.9883     74.5929   -999.2500   -999.2500  
  1609.5000    -37.7529     12.8062     13.2151     73.5331   -999.2500   -999.2500  
  1610.0000    -37.8507     12.8850     13.2453     73.2941   -999.2500   -999.2500  
  1610.5000    -37.8325     12.9859     13.1758     73.4780   -999.2500   -999.2500  
  1611.0000    -37.6152     13.0318     13.1064     73.8629   -999.2500   -999.2500  
  1611.5000    -37.5581     12.9938     13.0108     74.7891   -999.2500   -999.2500  
  1612.0000    -37.6262     12.8652     12.8055     76.5870   -999.2500   -999.2500  
  1612.5000    -37.6178     12.6226     12.6003     78.3823   -999.2500   -999.2500  
  1613.0000    -37.7386     12.2435     12.2554     80.6220   -999.2500   -999.2500  
  1613.5000    -37.8090     11.6449     11.7780     82.8797   -999.2500   -999.2500  
  1614.0000    -37.8551     11.0988     11.3006     86.4539   -999.2500   -999.2500  
  1614.5000    -37.9712     10.8230     10.8232     90.0151   -999.2500   -999.2500  
  1615.0000    -38.0817     10.6670     10.5490     92.5171   -999.2500   -999.2500  
  1615.5000    -38.3569     10.5407     10.4941     93.7958   -999.2500   -999.2500  
  1616.0000    -38.5838     10.3744     10.4391     93.9353   -999.2500   -999.2500  
  1616.5000    -38.8922     10.2482     10.3841     94.0747   -999.2500   -999.2500  
  1617.0000    -38.6938     10.2181     10.3763     94.2141   -999.2500   -999.2500  
  1617.5000    -38.7246     10.2732     10.4013     94.3536   -999.2500   -999.2500  
  1618.0000    -38.5414     10.5564     10.4262     94.4930   -999.2500   -999.2500  
  1618.5000    -37.6359     10.9390     10.4511     94.6324   -999.2500   -999.2500  
  1619.0000    -37.4383     10.8809     10.4760     94.7719   -999.2500   -999.2500  
  1619.5000    -37.1437     10.7816     10.5009     94.8591   -999.2500   -999.2500  
  1620.0000    -36.6881     10.5580     10.4681     94.9217   -999.2500   -999.2500  
  1620.5000    -36.3830     10.3997     10.4306     94.9843   -999.2500   -999.2500  
  1621.0000    -35.8482     10.3430     10.3931     95.0469   -999.2500   -999.2500  
  1621.5000    -35.8505     10.3460     10.3556     95.4525   -999.2500   -999.2500  
  1622.0000    -35.8867     10.4094     10.3181     96.5739   -999.2500   -999.2500  
  1622.5000    -36.1443     10.4291     10.2806     96.9926   -999.2500   -999.2500  
  1623.0000    -36.5361     10.4066     10.2432     97.1051   -999.2500   -999.2500  
  1623.5000    -36.6971     10.3558     10.2176     97.2581   -999.2500   -999.2500  
  1624.0000    -36.9786     10.3083     10.2176     96.8718   -999.2500   -999.2500  
  1624.5000    -37.2939     10.2711     10.2176     96.4925   -999.2500   -999.2500  
  1625.0000    -37.6584     10.2685     10.2176     96.3835   -999.2500   -999.2500  
  1625.5000    -38.5844     10.3796     10.2176     96.2745   -999.2500   -999.2500  
  1626.0000    -40.8224     10.9035     10.2159     96.7662   -999.2500   -999.2500  
  1626.5000    -43.3382     11.6869     10.2087     97.3848   -999.2500   -999.2500  
  1627.0000    -47.8145     11.9927     10.2015     97.5754   -999.2500   -999.2500  
  1627.5000    -48.5834     12.1059     10.1943     97.1284   -999.2500   -999.2500  
  1628.0000    -48.3269     12.0721     10.4226     94.2969   -999.2500   -999.2500  
  1628.5000    -48.5737     12.0047     10.6630     91.4033   -999.2500   -999.2500  
  1629.0000    -50.3073     11.9920     10.8294     90.1461   -999.2500   -999.2500  
  1629.5000    -53.9840     12.0660     10.9828     89.3242   -999.2500   -999.2500  
  1630.0000    -52.8443     12.2466     11.1363     88.2929   -999.2500   -999.2500  
  1630.5000    -49.1378     12.4443     11.2897     86.2060   -999.2500   -999.2500  
  1631.0000    -46.8003     12.6419     11.8124     82.8703   -999.2500   -999.2500  
  1631.5000    -45.2344     12.8396     12.3761     79.3125   -999.2500   -999.2500  
  1632.0000    -43.0153     13.2112     12.9201     75.4889   -999.2500   -999.2500  
  1632.5000    -40.0903     13.4983     13.3324     73.1603   -999.2500   -999.2500  
  1633.0000    -38.8985     13.8754     13.7448     71.0897   -999.2500   -999.2500  
  1633.5000    -37.5834     14.0940     14.1571     69.6167   -999.2500   -999.2500  
  1634.0000    -36.8641     14.3683     14.2607     68.3278   -999.2500   -999.2500  
  1634.5000    -37.3890     14.5845     14.3440     67.5143   -999.2500   -999.2500  
  1635.0000    -36.6817     14.6245     14.4272     66.7133   -999.2500   -999.2500  
  1635.5000    -36.9029     14.6766     14.5271     65.4964   -999.2500   -999.2500  
  1636.0000    -37.1760     14.8188     14.6745     64.6681   -999.2500   -999.2500  
  1636.5000    -37.5830     14.9835     14.8219     63.7519   -999.2500   -999.2500  
  1637.0000    -38.7866     15.1802     14.9693     62.8028   -999.2500   -999.2500  
  1637.5000    -40.2576     15.3003     15.1407     62.1582   -999.2500   -999.2500  
  1638.0000    -40.8623     15.5458     15.3342     61.9744   -999.2500   -999.2500  
  1638.5000    -39.4081     15.6536     15.5277     61.8762   -999.2500   -999.2500  
  1639.0000    -38.1652     15.5175     15.7211     61.6413   -999.2500   -999.2500  
  1639.5000    -38.3204     15.3814     15.8580     60.9872   -999.2500   -999.2500  
  1640.0000    -38.9635     15.2694     15.9521     60.5189   -999.2500   -999.2500  
  1640.5000    -38.1742     15.1620     15.9051     60.7382   -999.2500   -999.2500  
  1641.0000    -37.6701     15.0547     15.8581     61.2234   -999.2500   -999.2500  
  1641.5000    -37.3401     14.9489     15.8110     61.5684   -999.2500   -999.2500  
  1642.0000    -37.6648     14.8686     15.8159     61.8051   -999.2500   -999.2500  
  1642.5000    -36.6031     14.8314     15.8356     61.7118   -999.2500   -999.2500  
  1643.0000    -36.5666     14.7283     15.9002     61.3866   -999.2500   -999.2500  
  1643.5000    -36.9915     14.5982     15.8394     61.5894   -999.2500   -999.2500  
  1644.0000    -36.6953     14.5386     15.7600     61.8372   -999.2500   -999.2500  
  1644.5000    -36.4279     14.5248     15.6512     62.2486   -999.2500   -999.2500  
  1645.0000    -36.7052     14.3672     15.3655     63.2224   -999.2500   -999.2500  
  1645.5000    -36.8980     14.1547     15.0794     64.2927   -999.2500   -999.2500  
  1646.0000    -37.3785     13.8846     14.7932     65.5486   -999.2500   -999.2500  
  1646.5000    -37.5049     13.4535     14.4786     67.1725   -999.2500   -999.2500  
  1647.0000    -37.5847     12.9860     14.0631     68.9523   -999.2500   -999.2500  
  1647.5000    -37.8302     12.6131     13.6938     70.7598   -999.2500   -999.2500  
