~VERSION INFORMATION
 VERS.                           2.00:        CWLS LOG ASCII STANDARD - VERSION 2.00
 WRAP.                             NO:        ONE LINE PER DEPTH STEP
~WELL INFORMATION
#MNEM.UNIT                   DATA             INFORMATION
#----------             --------------        ------------------------------
 STRT.F                      990.0000:        START DEPTH
 STOP.F                     2362.0000:        STOP DEPTH
 STEP.F                        0.5000:        STEP VALUE
 NULL.                      -999.2500:        NULL VALUE
 COMP.                 U.S. AIR FORCE:        COMPANY  
 LOC .                   14  22N  18W:        LOCATION   
 DATE.                        4/21/69:        LOG DATE 
 WELL.       SOUTH BARROW GAS WELL #8:        WELL     
 UWI .                   500232000200:        UNIQUE WELL ID 
 API .                   500232000200:        UNIQUE WELL IDENTIFIER 
 FLD .                S. B. GAS FIELD:        FIELD    
 CNTY.                   POINT BARROW:        COUNTY  
 STAT.                         ALASKA:        STATE   
 CTRY.                            USA:        COUNTRY 
 OPER.                 U.S. AIR FORCE:        OPERATOR  
 SRVC.                   SCHLUMBERGER:        SERVICE COMPANY 
 LAT .                         0.0000:        LATITUDE
 LON .                         0.0000:        LONGITUDE
 DIGS.               CENTER LINE DATA:        DIGITIZING COMPANY 
~CURVE INFORMATION      
#MNEM        .UNIT         API CODE           CURVE DESCRIPTION
#-----------------      --------------        ------------------------------
 DEPT        .F                      :        1  DEPTH
 SP          .MV                     :        2  
 ASN         .OHMM                   :        3  
 ILD         .OHMM                   :        4  
 CILD        .MMHO                   :        5  
 CALI        .IN                     :        6  
 DT          .US/F                   :        7  
~PARAMETER INFORMATION       
#MNEM.UNIT                  VALUE             DESCRIPTION OF MNEMONIC
#---------             ---------------        ------------------------------
 EKB .F                       31.0000:        KELLY BUSHING
 TD  .F                     2363.0000:        TOTAL DEPTH
 BHT .F                       74.0000:        BOTTOM HOLE TEMPERATURE
 BS  .                         8.6250:        BIT SIZE
 FD  .                        10.6000:        FLUID DENSITY
 CSIZ.                         9.6250:        CASING SIZE
 CBD .F                      992.0000:        CASING DRILLER 1
 CBL .F                      990.0000:        CASING LOGGER 1
 DFT .                            Gel:        TYPE FLUID IN HOLE
 DFV .                        54.0000:        VISCOSITY
 DFPH.                        10.0000:        PH
 DFL .                         4.8000:        FLUID LOSS
 RMS .                         2.0000:        RM
 MST .F                       82.0000:        RM MEAS. TEMP.
 RMF .                         2.1800:        RMF
 MFST.F                       61.0000:        RMF MEAS. TEMP.
 RMC .                         4.1900:        RMC
 MCST.F                       53.0000:        RMC MEAS. TEMP.
~OTHER INFORMATION
~A    DEPTH          SP         ASN         ILD        CILD        CALI          DT  
# ...
  2024.0000    -29.2556     10.5903      9.2608    108.1381   -999.2500   -999.2500  
  2024.5000    -29.4584     10.3232      9.2082    109.0730   -999.2500   -999.2500  
  2025.0000    -29.7493      9.8347      9.0814    109.9860   -999.2500   -999.2500  
  2025.5000    -30.0845      9.9714      8.9273    111.4171   -999.2500   -999.2500  
  2026.0000    -29.6935      9.7505      8.8401    113.2394   -999.2500   -999.2500  
  2026.5000    -29.7650      9.6279      8.8386    114.9415   -999.2500   -999.2500  
  2027.0000    -30.3287      9.6066      8.8372    115.7120   -999.2500   -999.2500  
  2027.5000    -30.6943      9.6718      8.8358    115.8953   -999.2500   -999.2500  
  2028.0000    -31.3169      9.8128      8.8344    114.8823   -999.2500   -999.2500  
  2028.5000    -31.5651      9.8996      8.8809    113.6204   -999.2500   -999.2500  
  2029.0000    -31.7032      9.9543      8.9549    112.1428   -999.2500   -999.2500  
  2029.5000    -31.5932      9.9625      9.0288    110.9243   -999.2500   -999.2500  
  2030.0000    -31.5717      9.9818      9.1161    109.6348   -999.2500   -999.2500  
  2030.5000    -30.5947     10.0245      9.2313    108.8991   -999.2500   -999.2500  
  2031.0000    -30.1154      9.8500      9.1315    109.4806   -999.2500   -999.2500  
  2031.5000    -29.7660     10.0983      9.0386    110.5384   -999.2500   -999.2500  
  2032.0000    -29.1939     10.3466      9.0337    110.6861   -999.2500   -999.2500  
  2032.5000    -28.6769     10.0508      9.0808    109.3154   -999.2500   -999.2500  
  2033.0000    -28.6022      9.4203      9.2483    108.1264   -999.2500   -999.2500  
  2033.5000    -28.6480      9.9583      9.2961    107.4807   -999.2500   -999.2500  
  2034.0000    -28.7080      9.8484      9.3995    106.8349   -999.2500   -999.2500  
  2034.5000    -28.9320     10.0153      9.5646    106.2297   -999.2500   -999.2500  
  2035.0000    -29.2062      9.6939      9.5961    105.3644   -999.2500   -999.2500  
  2035.5000    -29.2097      9.8874      9.8697    103.9073   -999.2500   -999.2500  
  2036.0000    -29.6582     10.0808      9.9635    102.2553   -999.2500   -999.2500  
  2036.5000    -30.0969     10.2743     10.1115    100.7170   -999.2500   -999.2500  
  2037.0000    -30.4472     10.4678     10.2400    100.4971   -999.2500   -999.2500  
  2037.5000    -30.8910     10.6612     10.1303    101.2482   -999.2500   -999.2500  
  2038.0000    -31.1364     10.7190      9.9442    102.9519   -999.2500   -999.2500  
  2038.5000    -31.1208     10.3063      9.7581    103.6234   -999.2500   -999.2500  
  2039.0000    -31.2077      9.8594      9.5720    105.7686   -999.2500   -999.2500  
  2039.5000    -31.1949     10.0585      9.3859    107.5072   -999.2500   -999.2500  
  2040.0000    -31.1610      9.9299      9.1998    109.3012   -999.2500   -999.2500  
  2040.5000    -30.6911      9.8878      9.0828    110.5490   -999.2500   -999.2500  
  2041.0000    -30.2761      9.9532      9.0837    110.7244   -999.2500   -999.2500  
  2041.5000    -29.9058      9.6391      9.0846    110.7401   -999.2500   -999.2500  
  2042.0000    -29.1742      9.8431      9.0855    110.7558   -999.2500   -999.2500  
  2042.5000    -29.1017     10.0174      9.0212    110.7715   -999.2500   -999.2500  
  2043.0000    -28.9937     10.0413      8.9705    111.0446   -999.2500   -999.2500  
  2043.5000    -28.7992     10.0652      8.9023    111.5246   -999.2500   -999.2500  
  2044.0000    -28.5700     10.0891      8.8877    112.4780   -999.2500   -999.2500  
  2044.5000    -28.3558     10.0102      8.8864    112.7820   -999.2500   -999.2500  
  2045.0000    -28.7893      9.9167      8.9611    112.2678   -999.2500   -999.2500  
  2045.5000    -29.3336      9.8232      9.0358    111.8890   -999.2500   -999.2500  
  2046.0000    -29.7029      9.8648      9.1105    109.7096   -999.2500   -999.2500  
  2046.5000    -29.9214     10.0006      9.2538    107.1908   -999.2500   -999.2500  
  2047.0000    -30.0222      9.9888      9.4139    105.2641   -999.2500   -999.2500  
  2047.5000    -30.0996     10.3393      9.5716    104.2716   -999.2500   -999.2500  
  2048.0000    -29.9861     10.6898      9.6815    103.4139   -999.2500   -999.2500  
  2048.5000    -29.8822     11.0403      9.7913    101.2384   -999.2500   -999.2500  
  2049.0000    -29.8530     10.8390     10.0448     99.1663   -999.2500   -999.2500  
  2049.5000    -29.8588     10.8522     10.3554     96.6669   -999.2500   -999.2500  
  2050.0000    -29.9858     10.9955     10.4041     96.9416   -999.2500   -999.2500  
  2050.5000    -30.0924     10.3431     10.3937     97.7530   -999.2500   -999.2500  
  2051.0000    -30.4055     10.2687     10.3833     98.5644   -999.2500   -999.2500  
  2051.5000    -31.2675     10.3461     10.3729     99.3757   -999.2500   -999.2500  
  2052.0000    -32.2512     10.3531     10.3625    100.1871   -999.2500   -999.2500  
  2052.5000    -30.7831     10.3127     10.3080    100.9062   -999.2500   -999.2500  
  2053.0000    -30.1902     10.1820     10.1985    101.4608   -999.2500   -999.2500  
  2053.5000    -30.0636     10.0085     10.0891    102.2390   -999.2500   -999.2500  
  2054.0000    -29.5538      9.7735      9.9797    104.1765   -999.2500   -999.2500  
  2054.5000    -29.8902      9.8339      9.8702    104.8088   -999.2500   -999.2500  
  2055.0000    -29.6162      9.7320      9.7608    105.2922   -999.2500   -999.2500  
  2055.5000    -29.2325      9.7519      9.6513    105.8871   -999.2500   -999.2500  
  2056.0000    -29.2675      9.7508      9.5419    106.5613   -999.2500   -999.2500  
  2056.5000    -29.5091      9.7164      9.4324    106.8521   -999.2500   -999.2500  
  2057.0000    -29.8095      9.6559      9.3985    107.2678   -999.2500   -999.2500  
  2057.5000    -29.8973      9.5923      9.4365    107.5820   -999.2500   -999.2500  
  2058.0000    -29.9326      9.5221      9.4744    107.0164   -999.2500   -999.2500  
  2058.5000    -30.0631      9.8084      9.6170    104.7896   -999.2500   -999.2500  
  2059.0000    -29.9902     10.0003     10.0115    102.3912   -999.2500   -999.2500  
  2059.5000    -30.1293     10.2984     10.4060     99.4212   -999.2500   -999.2500  
  2060.0000    -30.4084     10.6458     10.8006     95.1083   -999.2500   -999.2500  
  2060.5000    -30.7139     11.2247     11.1925     91.7720   -999.2500   -999.2500  
  2061.0000    -31.0830     11.6510     11.5614     88.4620   -999.2500   -999.2500  
  2061.5000    -31.6313     12.1411     11.9304     85.1521   -999.2500   -999.2500  
  2062.0000    -32.9672     12.4759     11.8993     85.1789   -999.2500   -999.2500  
  2062.5000    -34.7879     12.6220     11.7320     86.0153   -999.2500   -999.2500  
  2063.0000    -35.4755     12.2761     11.4839     86.9532   -999.2500   -999.2500  
  2063.5000    -35.1247     11.7581     11.1855     88.5484   -999.2500   -999.2500  
  2064.0000    -32.9385     11.0276     10.6866     94.5867   -999.2500   -999.2500  
  2064.5000    -31.4133     10.2971     10.1187    101.3342   -999.2500   -999.2500  
  2065.0000    -31.0394      9.9657      9.4626    107.6560   -999.2500   -999.2500  
  2065.5000    -30.8982      9.6879      9.0919    112.8671   -999.2500   -999.2500  
  2066.0000    -30.5639      9.4675      8.5877    117.0767   -999.2500   -999.2500  
  2066.5000    -30.0961      9.4757      8.2624    119.6997   -999.2500   -999.2500  
  2067.0000    -29.7019      9.4960      8.3782    119.5814   -999.2500   -999.2500  
  2067.5000    -29.7357      9.5389      8.6142    118.0273   -999.2500   -999.2500  
  2068.0000    -29.6413      9.5945      8.8928    114.5700   -999.2500   -999.2500  
  2068.5000    -29.2777      9.7488      9.1714    111.5975   -999.2500   -999.2500  
  2069.0000    -28.8992     10.0300      9.2557    109.5510   -999.2500   -999.2500  
  2069.5000    -28.8661      9.7988      9.1450    109.0551   -999.2500   -999.2500  
  2070.0000    -28.8799     10.3037      9.0410    109.8019   -999.2500   -999.2500  
  2070.5000    -29.2181     10.4286      8.9740    110.7480   -999.2500   -999.2500  
