~VERSION INFORMATION
 VERS.                           2.00:        CWLS LOG ASCII STANDARD - VERSION 2.00
 WRAP.                             NO:        ONE LINE PER DEPTH STEP
~WELL INFORMATION
#MNEM.UNIT                   DATA             INFORMATION
#----------             --------------        ------------------------------
 STRT.F                      152.0000:        START DEPTH
 STOP.F                     2285.0000:        STOP DEPTH
 STEP.F                        0.5000:        STEP VALUE
 NULL.                      -999.2500:        NULL VALUE
 COMP.                      U.S. NAVY:        COMPANY  
 LOC .                   26  22N  17W:        LOCATION   
 DATE.                         4/1/74:        LOG DATE 
 WELL.            SOUTH BARROW NO. 12:        WELL     
 UWI .                   500232000600:        UNIQUE WELL ID 
 API .                   500232000600:        UNIQUE WELL IDENTIFIER 
 FLD .                   SOUTH BARROW:        FIELD    
 CNTY.                         NPPR-4:        COUNTY  
 STAT.                         ALASKA:        STATE   
 CTRY.                            USA:        COUNTRY 
 OPER.                      U.S. NAVY:        OPERATOR  
 SRVC.                   SCHLUMBERGER:        SERVICE COMPANY 
 LAT .                         0.0000:        LATITUDE
 LON .                         0.0000:        LONGITUDE
 DIGS.               CENTER LINE DATA:        DIGITIZING COMPANY 
~CURVE INFORMATION      
#MNEM        .UNIT         API CODE           CURVE DESCRIPTION
#-----------------      --------------        ------------------------------
 DEPT        .F                      :        1  DEPTH
 RHOB        .G/C3                   :        2  
 DRHO        .G/C3                   :        3  
 GR          .GAPI                   :        4  
 CALI        .IN                     :        5  
 DPHI        .%                      :        6  
 NPHI        .%                      :        7  
 SP          .MV                     :        8  
 ALL8        .OHMM                   :        9  
 ILD         .OHMM                   :        10 
 CILD        .MMHO                   :        11 
 DT          .US/F                   :        12 
~PARAMETER INFORMATION       
#MNEM.UNIT                  VALUE             DESCRIPTION OF MNEMONIC
#---------             ---------------        ------------------------------
 EKB .F                       26.0000:        KELLY BUSHING
 TD  .F                     2285.0000:        TOTAL DEPTH
~OTHER INFORMATION
~A    DEPTH        RHOB        DRHO          GR        CALI        DPHI        NPHI          SP        ALL8         ILD        CILD          DT  
# ...
  2187.0000      2.5138      0.0594    115.0962     10.0418      8.5703     46.0846    -33.1203      8.3025      7.1982    138.7718    117.6649  
  2187.5000      2.5057      0.0528    116.4676     10.0514      8.5700     45.1556    -33.2606      8.2344      7.1746    138.7506    117.6715  
  2188.0000      2.5025      0.0590    119.4109     10.0694      9.2907     46.0008    -33.5623      8.1866      7.1510    138.3862    117.3503  
  2188.5000      2.5116      0.0886    122.3622     10.1002      9.0418     46.6758    -33.9693      8.1582      7.1273    137.8006    116.6003  
  2189.0000      2.5157      0.0873    124.2134     10.0875      8.5639     46.5194    -34.1264      8.1097      7.1037    137.3015    115.8404  
  2189.5000      2.4967      0.0645    123.8583     10.0687      8.4292     45.4290    -33.7816      8.1524      7.0801    136.7729    114.9088  
  2190.0000      2.4938      0.0506    123.1243     10.0749      9.4359     42.9253    -33.2680      8.2479      7.0565    136.4752    113.7084  
  2190.5000      2.5214      0.0374    123.0059     10.1469      9.3985     42.8295    -32.9197      8.3502      7.0329    136.2727    112.5017  
  2191.0000      2.5285      0.0293    122.3577     10.1870      8.0440     42.6417    -32.7295      8.5028      7.1898    135.1025    110.6008  
  2191.5000      2.5171      0.0217    121.1757     10.2260      7.6536     42.3225    -32.5795      8.7898      7.3502    132.4977    107.9068  
  2192.0000      2.5298      0.0235    119.9936     10.2480      8.7555     41.5933    -32.5810      9.1188      7.5105    128.5252    105.3872  
  2192.5000      2.5641      0.0403    118.2796     10.2606      7.3705     41.1784    -32.7127      9.5188      7.7597    123.8180    103.0797  
  2193.0000      2.5776      0.0441    114.8408     10.2680      5.4609     40.5840    -33.0622      9.9983      8.0119    119.2177    100.1932  
  2193.5000      2.5826      0.0404    111.8245     10.2717      4.5801     39.4479    -33.5580     10.0372      8.2640    113.7832     98.6636  
  2194.0000      2.5921      0.0304    109.1509     10.2631      4.7452     38.5117    -34.2009     10.0377      8.5161    110.3467     97.9797  
  2194.5000      2.6135      0.0219    109.2757     10.2362      3.7577     38.1670    -34.9487     10.4231      8.7682    106.9103     97.8138  
  2195.0000      2.6539      0.0118    110.3324     10.1962      2.5064     37.6564    -36.0124     10.7992      9.2131    103.4738     97.6382  
  2195.5000      2.7007      0.0018    109.5976     10.1385      0.3707     38.3879    -36.8848     11.1988      9.6824     99.7253     96.9072  
  2196.0000      2.7347      0.0430    106.3495     10.1130     -0.0626     39.3177    -36.8561     11.6106     10.4062     94.3380     94.2260  
  2196.5000      2.7399      0.0260     99.8055     10.0876     -0.0641     40.5850    -36.5718     12.0224     11.0651     88.7133     90.8929  
  2197.0000      2.7423      0.0091     94.7950     10.0624     -0.0656     39.9921    -36.6659     12.4342     11.6725     83.3262     90.1411  
  2197.5000      2.7707      0.0039     90.8648     10.0389     -0.0671     38.3658    -37.4883     13.4013     12.2799     78.2155     89.9238  
  2198.0000      2.7659      0.0029     86.1661     10.0428     -0.0686     37.1924    -39.1606     14.8818     13.2583     73.2246     90.1139  
  2198.5000      2.7063      0.0018     75.8606     10.0160     -0.0701     36.0074    -41.3245     16.3927     14.5118     67.4167     93.6716  
  2199.0000      2.6605      0.0025     68.7065     10.0667     -0.0716     34.8357    -43.6499     17.9708     16.1288     60.4864     99.6376  
  2199.5000      2.6220      0.0050     65.2996     10.0329     -0.0384     34.1190    -45.5286     19.3027     18.0475     54.9901    103.4553  
  2200.0000      2.5595      0.0075     60.8860     10.0792      2.9788     32.6948    -47.0956     19.6974     19.0521     50.8331    106.4588  
  2200.5000      2.4970      0.0251     56.4725     10.0170      6.5554     31.5619    -48.9392     19.4564     19.5289     47.8547    105.3435  
  2201.0000      2.4170      0.0372     52.8182      9.9547      9.9390     31.8946    -51.1562     19.2073     19.0409     47.8204     99.7459  
  2201.5000      2.3364      0.0202     54.1605      9.9541     14.1916     32.3562    -53.0269     18.4574     18.1911     49.6482     95.8624  
  2202.0000      2.3334      0.0032     59.5658      9.9609     18.9191     31.6279    -53.8519     17.4259     17.1106     52.8140     94.8551  
  2202.5000      2.3728     -0.0029     64.9710      9.9738     19.1030     30.8995    -53.6008     16.3126     16.0302     57.3420     93.5649  
  2203.0000      2.4198     -0.0015     69.5258     10.0004     16.8157     30.0265    -52.6666     15.2921     15.1679     60.5819     92.2949  
  2203.5000      2.4585      0.0023     73.2432     10.0270     14.3457     29.3019    -50.7937     14.5580     14.4640     63.8218     91.2637  
  2204.0000      2.4986      0.0059     77.1400     10.0536     11.6812     28.9350    -48.5414     13.9591     13.7601     67.0618     90.7157  
  2204.5000      2.5317      0.0048     80.7347     10.0759      9.2656     29.2312    -46.1472     13.3932     13.3901     70.0487     92.8169  
  2205.0000      2.5379     -0.0014     80.2669     10.0757      7.6437     29.7089    -44.8212     13.1792     13.1830     71.3262     97.0542  
  2205.5000      2.5180     -0.0076     77.8926     10.0754      7.3701     30.0395    -44.2001     13.0809     13.0924     72.6038    102.2481  
  2206.0000      2.4899     -0.0033     73.4412     10.0752      8.6813     30.4079    -44.0972     13.1341     13.1558     73.8813    107.3167  
  2206.5000      2.4726      0.0121     68.5592     10.0650     10.1511     31.4068    -44.7179     13.2740     13.2193     72.7526    111.4984  
  2207.0000      2.4591      0.0159     64.7367     10.0347     11.0101     32.6875    -45.8945     13.4646     13.6021     68.9235    112.8565  
  2207.5000      2.4188      0.0075     62.9778     10.0366     11.8128     33.4838    -47.0807     13.8393     14.1081     66.5399    111.9597  
  2208.0000      2.4063      0.0106     61.0045     10.0375     14.1613     32.6719    -47.8764     14.1917     14.9407     63.5899    106.7999  
  2208.5000      2.4026      0.0255     59.0312     10.0330     15.1263     32.7531    -48.6545     14.9443     15.8427     60.3863     99.6929  
  2209.0000      2.3860      0.0162     57.6570     10.0284     15.1435     33.9065    -49.4194     15.2937     16.7447     56.9412     96.9059  
  2209.5000      2.3997      0.0226     59.9528     10.0238     16.1254     34.5408    -50.1857     16.1581     16.8405     54.6359    100.5983  
  2210.0000      2.4339      0.0249     62.7560     10.0193     14.8473     34.7470    -50.7813     17.0316     16.9341     53.7033    108.0341  
  2210.5000      2.4440      0.0109     61.3046     10.0147     13.2188     33.0267    -51.0502     17.1593     17.0007     53.5433    116.8787  
  2211.0000      2.4452      0.0198     58.6158     10.0102     12.2958     31.8347    -51.3249     16.9404     17.0162     53.7743    122.5935  
  2211.5000      2.4052      0.0126     56.6758     10.0056     12.8116     32.1456    -51.8669     16.3066     17.0416     53.8375    124.0449  
  2212.0000      2.3684      0.0062     55.1842     10.0010     15.2269     32.8512    -52.3841     15.8172     17.3077     53.2716    125.7256  
  2212.5000      2.3542      0.0060     54.1920     10.0108     17.3119     32.9492    -52.8031     15.3323     17.4475     52.9892    126.4272  
  2213.0000      2.3638      0.0120     53.6906     10.0319     17.7604     32.6875    -53.3336     15.0595     17.3324     52.2000    124.5678  
  2213.5000      2.3653      0.0193     54.4083     10.0283     17.2706     33.1007    -53.9102     15.2252     17.3898     50.9060    125.2976  
  2214.0000      2.3598      0.0189     55.8724      9.9783     17.2846     34.9081    -54.4378     15.9859     17.9990     49.6119    128.0361  
