~VERSION INFORMATION
 VERS.                           2.00:        CWLS LOG ASCII STANDARD - VERSION 2.00
 WRAP.                             NO:        ONE LINE PER DEPTH STEP
~WELL INFORMATION
#MNEM.UNIT                   DATA             INFORMATION
#----------             --------------        ------------------------------
 STRT.F                       50.0000:        START DEPTH
 STOP.F                     2158.0000:        STOP DEPTH
 STEP.F                        0.5000:        STEP VALUE
 NULL.                      -999.2500:        NULL VALUE
 COMP.              HUSKY OIL COMPANY:        COMPANY  
 LOC .                   25  22N  17W:        LOCATION   
 DATE.                        2-19-77:        LOG DATE 
 WELL.               SOUTH BARROW #14:        WELL     
 UWI .                   500232000900:        UNIQUE WELL ID 
 API .                   500232000900:        UNIQUE WELL IDENTIFIER 
 FLD .               SOUTH BARROW GAS:        FIELD    
 CNTY.                    NORTH SLOPE:        COUNTY  
 STAT.                         ALASKA:        STATE   
 CTRY.                            USA:        COUNTRY 
 OPER.              HUSKY OIL COMPANY:        OPERATOR  
 SRVC.                   SCHLUMBERGER:        SERVICE COMPANY 
 LAT .                         0.0000:        LATITUDE
 LON .                         0.0000:        LONGITUDE
 DIGS.               CENTER LINE DATA:        DIGITIZING COMPANY 
~CURVE INFORMATION      
#MNEM        .UNIT         API CODE           CURVE DESCRIPTION
#-----------------      --------------        ------------------------------
 DEPT        .F                      :        1  DEPTH
 LLS         .OHMM                   :        2  
 LLD         .OHMM                   :        3  
 SP          .MV                     :        4  
 ILD         .OHMM                   :        5  
 ILM         .OHMM                   :        6  
 LL8         .OHMM                   :        7  
 CALI        .IN                     :        8  
 GR          .GAPI                   :        9  
 NPHI        .%                      :        10 
 DPHI        .%                      :        11 
 RHOB        .G/C3                   :        12 
 DRHO        .G/C3                   :        13 
 DT          .US/F                   :        14 
~PARAMETER INFORMATION       
#MNEM.UNIT                  VALUE             DESCRIPTION OF MNEMONIC
#---------             ---------------        ------------------------------
 EKB .F                       31.0000:        KELLY BUSHING
 TD  .F                     1042.0000:        TOTAL DEPTH
 BHT .F                       62.0000:        BOTTOM HOLE TEMPERATURE
 BS  .                         6.0000:        BIT SIZE
 FD  .                        10.7000:        FLUID DENSITY
 CSIZ.                         7.0000:        CASING SIZE
 CBD .F                     1947.0000:        CASING DRILLER 1
 CBL .F                     1946.0000:        CASING LOGGER 1
 DFT .                  Miscellaneous:        TYPE FLUID IN HOLE
 DFV .                        50.0000:        VISCOSITY
 DFPH.                        10.0000:        PH
 DFL .                         0.0000:        FLUID LOSS
 RMS .                         0.1500:        RM
 MST .F                       50.0000:        RM MEAS. TEMP.
 RMF .                         0.1600:        RMF
 MFST.F                       61.0000:        RMF MEAS. TEMP.
 RMC .                         0.0000:        RMC
 MCST.F                        0.0000:        RMC MEAS. TEMP.
~OTHER INFORMATION
~A    DEPTH         LLS         LLD          SP         ILD         ILM         LL8        CALI          GR        NPHI        DPHI        RHOB        DRHO          DT  
# ...
  2066.0000     19.1434     40.2539    -26.8161     39.1439     18.2473     19.6387      5.9662     59.9920     28.1297     24.3431      2.3620     -0.0059     96.5617  
  2066.5000     18.4753     34.7100    -26.9412     40.9687     15.6402     17.6886      5.9790     46.1279     27.7412     26.1936      2.3374      0.0169     95.4725  
  2067.0000     17.9718     39.6278    -27.0692     40.6898     14.7982     17.8137      5.9918     41.4979     26.8810     27.9943      2.2689      0.0117     94.3962  
  2067.5000     18.0192     51.3700    -27.1360     37.2643     14.0016     17.5957      6.0046     43.3315     26.3750     28.2273      2.2511      0.0036     93.1199  
  2068.0000     17.3776     66.4185    -27.2779     31.9864     13.2478     15.3975      6.0016     46.1387     26.9926     25.8561      2.2831     -0.0041     93.4937  
  2068.5000     16.2492     50.0539    -27.4634     26.7928     12.5412     13.6437      5.9566     47.7753     27.0668     21.8264      2.2611      0.0004     96.2820  
  2069.0000     14.4315     51.3021    -27.5704     23.6676     13.3542     13.5714      5.9116     45.8337     27.1115     18.5153      2.1994      0.0081     96.9835  
  2069.5000     13.7702     44.4468    -27.5458     21.5613     13.9923     13.9749      5.8670     41.9862     27.3566     18.9047      2.1654     -0.0020     96.8304  
  2070.0000     14.4718     65.5934    -27.4830     19.8673     13.9235     13.8868      5.8349     38.5167     27.6018     24.0958      2.1812      0.0113     97.1088  
  2070.5000     15.3219     48.1264    -27.3809     20.9952     13.8657     13.6028      5.8775     36.9953     27.7806     26.7742      2.1835      0.0020    100.0406  
  2071.0000     15.9161     47.2591    -27.0825     21.8103     13.8721     13.8572      5.8852     37.1582     27.4775     25.5051      2.1993      0.0224    102.3018  
  2071.5000     16.0136     39.6799    -26.7340     22.0190     14.5096     14.3301      5.8827     37.4883     27.4432     24.7723      2.1987      0.0190    102.5176  
  2072.0000     16.3036     59.2524    -26.5071     22.4469     15.4275     15.1837      5.8499     36.7926     27.1184     28.6890      2.2070      0.0125    102.3373  
  2072.5000     16.6426     44.8577    -26.3535     23.4416     16.4034     15.8331      5.8617     35.3855     26.5050     30.6229      2.2190      0.0066    102.3929  
  2073.0000     16.9369     39.0333    -26.2140     23.9100     17.4411     17.0994      5.8782     34.9383     25.5932     28.9394      2.2129      0.0212    103.0910  
  2073.5000     17.2111     41.4646    -26.0911     25.1043     18.5445     18.4903      5.8680     35.6726     25.6398     28.1612      2.2017      0.0118    101.7121  
  2074.0000     18.4561     51.9485    -25.8411     27.1518     17.9508     17.1575      5.8708     37.5812     25.1787     27.3795      2.2310      0.0018     95.6352  
  2074.5000     18.0343     36.9124    -25.5461     29.3664     17.6235     14.9270      5.8730     38.3243     24.8100     27.0530      2.2818      0.0006     92.5631  
  2075.0000     17.4579     30.7090    -25.4269     28.7416     17.2107     13.3499      5.8795     36.8646     24.6897     26.4420      2.3158      0.0095     92.4912  
  2075.5000     17.5305     24.6248    -25.4753     28.3173     16.8693     15.1918      5.8711     35.4160     25.6388     26.4448      2.2704     -0.0016     94.4388  
  2076.0000     17.5647     31.4248    -25.5238     27.5683     16.9325     18.8323      5.8850     36.0861     24.4454     26.8758      2.2357      0.0040     96.4565  
  2076.5000     18.0372     31.4530    -25.5722     27.7321     17.2529     21.6404      5.8829     36.4575     23.7293     27.4777      2.1967      0.0056     97.7534  
  2077.0000     19.9489     40.6640    -25.6207     28.5002     18.6311     20.9241      5.8808     36.3347     23.5619     25.5850      2.1553      0.0072    101.1310  
  2077.5000     20.8180     51.3286    -25.6870     28.9517     20.2044     20.4379      5.8788     37.3788     23.5537     22.8320      2.1629     -0.0014    103.9431  
  2078.0000     20.6178     48.4258    -26.1980     27.1021     21.6688     20.5570      5.8825     38.4985     23.2443     20.9548      2.1756      0.0063    106.3331  
  2078.5000     20.5166     49.4938    -26.8271     25.0413     23.2287     17.3672      5.8828     38.2382     22.4807     24.8370      2.1998      0.0117    109.2325  
  2079.0000     19.0602     35.7430    -27.6687     22.8750     24.8420     14.6724      5.8721     36.3241     22.3557     29.9178      2.2310      0.0092    106.7843  
  2079.5000     17.5554     27.7981    -28.2719     21.6996     25.7502     15.5093      5.8778     35.1463     22.8585     31.1993      2.3111      0.0007    104.9519  
  2080.0000     17.8725     49.3186    -28.5022     21.3259     22.9856     19.1462      5.8594     34.6882     22.9323     31.9417      2.4372      0.0027    100.8818  
  2080.5000     18.2486     41.0655    -29.0983     19.8954     20.5179     20.1136      5.8491     34.4791     22.8856     29.9308      2.5021     -0.0129     97.6687  
  2081.0000     17.8628     35.8816    -29.5022     17.9675     18.3151     16.0488      5.8230     34.8086     23.0297     28.5227      2.5064      0.0105     97.4790  
  2081.5000     17.3848     40.2560    -29.7818     17.5239     17.5749     13.7437      5.8057     35.4766     24.1096     27.8289      2.4292      0.0350     95.8815  
  2082.0000     15.7093     28.9185    -30.0912     17.5589     17.5694     12.9747      5.8030     36.9317     24.7029     24.7761      2.3758      0.0144     93.3693  
  2082.5000     14.0240     26.8076    -30.4680     17.5697     17.4624     12.8163      5.7958     39.6943     25.2616     21.1536      2.4065      0.0241     92.7122  
  2083.0000     13.7065     21.4785    -31.0592     16.1220     16.2294     13.7080      5.8462     43.5012     25.5318     15.8531      2.4976      0.0603     94.9646  
  2083.5000     13.9850     20.3718    -31.6461     14.5824     14.8074     14.8385      5.8563     45.9162     25.0577     11.6980      2.4759      0.0439     95.0291  
  2084.0000     14.1767     25.0045    -32.1596     13.1899     13.5100     13.6389      5.8554     47.7330     23.8440     10.4342      2.4944      0.0392     91.9794  
  2084.5000     14.3707     27.9374    -32.1387     12.6060     12.5855     12.5812      5.8349     48.7691     23.6696     15.0393      2.5166      0.0492     90.7784  
  2085.0000     14.5996     29.5819    -32.4549     12.2930     11.9253     12.3579      5.8244     50.6800     23.2972     19.2878      2.5026      0.0439     90.6507  
  2085.5000     14.5285     23.5645    -32.8798     12.1453     11.9130     12.4593      5.8381     54.6433     22.0316     17.3527      2.4878      0.0353     88.5453  
  2086.0000     14.3412     17.1281    -33.5036     12.0890     12.2198     12.5616      5.9051     58.9827     21.8052     13.6587      2.5004      0.0240     87.5071  
  2086.5000     14.1496     17.6480    -34.2482     13.2308     12.8682     12.4881      5.9442     63.3168     22.0488     10.2630      2.5258      0.0474     87.5045  
  2087.0000     14.3514     19.5503    -34.9208     14.0083     13.4582     12.3293      5.9589     65.5357     21.9468      9.0296      2.5353      0.0500     86.4022  
  2087.5000     14.4148     20.2976    -35.4287     13.7466     13.2096     12.6570      5.9929     68.0492     21.6164      7.4084      2.5440      0.0505     84.0501  
  2088.0000     14.5395     22.5340    -35.9521     13.1393     12.9655     12.6257      6.0072     68.8968     21.6157      7.1017      2.5558      0.0184     83.5267  
  2088.5000     14.5548     28.4601    -36.3288     12.5589     12.8817     12.3766      6.0038     67.6615     22.0538      7.8049      2.5699      0.0367     83.9916  
  2089.0000     14.1907     26.0620    -36.2434     12.2365     12.9597     12.3477      5.9866     69.3821     22.7591      7.9601      2.5317      0.0392     83.8801  
  2089.5000     14.0653     19.7100    -36.4021     12.5423     13.3998     13.3704      5.9600     73.9255     24.0056      7.7397      2.4746      0.0218     83.5006  
