~VERSION INFORMATION
 VERS.                           2.00:        CWLS LOG ASCII STANDARD - VERSION 2.00
 WRAP.                             NO:        ONE LINE PER DEPTH STEP
~WELL INFORMATION
#MNEM.UNIT                   DATA             INFORMATION
#----------             --------------        ------------------------------
 STRT.F                       68.0000:        START DEPTH
 STOP.F                     2380.0000:        STOP DEPTH
 STEP.F                        0.5000:        STEP VALUE
 NULL.                      -999.2500:        NULL VALUE
 COMP.                     USGS/NPR-A:        COMPANY  
 LOC .                   30  22N  16W:        LOCATION   
 DATE.                        3/18/78:        LOG DATE 
 WELL.               SOUTH BARROW #17:        WELL     
 UWI .                   500232001100:        UNIQUE WELL ID 
 API .                   500232001100:        UNIQUE WELL IDENTIFIER 
 FLD .                   SOUTH BARROW:        FIELD    
 CNTY.                     NOTH SLOPE:        COUNTY  
 STAT.                         ALASKA:        STATE   
 CTRY.                            USA:        COUNTRY 
 OPER.                     USGS/NPR-A:        OPERATOR  
 SRVC.                   SCHLUMBERGER:        SERVICE COMPANY 
 LAT .                         0.0000:        LATITUDE
 LON .                         0.0000:        LONGITUDE
 DIGS.               CENTER LINE DATA:        DIGITIZING COMPANY 
~CURVE INFORMATION      
#MNEM        .UNIT         API CODE           CURVE DESCRIPTION
#-----------------      --------------        ------------------------------
 DEPT        .F                      :        1  DEPTH
 CALI        .IN                     :        2  
 GR          .GAPI                   :        3  
 NPHI        .%                      :        4  
 RHOB        .G/C3                   :        5  
 DRHO        .G/C3                   :        6  
 DT          .US/F                   :        7  
 SP          .MV                     :        8  
 ILD         .OHMM                   :        9  
 ILM         .OHMM                   :        10 
 LL8         .OHMM                   :        11 
 LLD         .OHMM                   :        12 
 LLS         .OHMM                   :        13 
~PARAMETER INFORMATION       
#MNEM.UNIT                  VALUE             DESCRIPTION OF MNEMONIC
#---------             ---------------        ------------------------------
 EKB .F                       33.0000:        KELLY BUSHING
 TD  .F                     2382.0000:        TOTAL DEPTH
 BHT .F                        0.0000:        BOTTOM HOLE TEMPERATURE
 BS  .                         8.5000:        BIT SIZE
 FD  .                        10.8000:        FLUID DENSITY
 CSIZ.                         9.6250:        CASING SIZE
 CBD .F                     1512.0000:        CASING DRILLER 1
 CBL .F                     1512.0000:        CASING LOGGER 1
 DFT .                  Miscellaneous:        TYPE FLUID IN HOLE
 DFV .                        43.0000:        VISCOSITY
 DFPH.                         8.5000:        PH
 DFL .                         4.0000:        FLUID LOSS
 RMS .                         0.0760:        RM
 MST .F                       60.0000:        RM MEAS. TEMP.
 RMF .                         0.0000:        RMF
 MFST.F                        0.0000:        RMF MEAS. TEMP.
 RMC .                         0.1640:        RMC
 MCST.F                       55.0000:        RMC MEAS. TEMP.
~OTHER INFORMATION
~A    DEPTH        CALI          GR        NPHI        RHOB        DRHO          DT          SP         ILD         ILM         LL8         LLD         LLS  
# ...
  1904.0000      8.7839     93.7352     37.6130      2.4290      0.0137    111.6177     41.3979   -999.2500   -999.2500   -999.2500     13.9855     11.0657  
  1904.5000      8.7714     91.1038     37.2115      2.4306      0.0217    110.4023     41.6235   -999.2500   -999.2500   -999.2500     14.6111     11.8753  
  1905.0000      8.7153     87.4612     37.7800      2.4560      0.0527    108.8241     41.7508   -999.2500   -999.2500   -999.2500     15.8270     12.2599  
  1905.5000      8.7408     85.2883     38.2563      2.4243      0.0417    107.6363     41.6861   -999.2500   -999.2500   -999.2500     17.4266     12.2282  
  1906.0000      8.7663     83.4636     37.7793      2.4140      0.0137    107.3888     41.5793   -999.2500   -999.2500   -999.2500     17.5299     12.1393  
  1906.5000      8.8020     82.4768     36.7267      2.4389      0.0224    107.3882     41.6851   -999.2500   -999.2500   -999.2500     16.5179     11.9645  
  1907.0000      8.7887     83.0301     35.2152      2.4402      0.0406    107.5324     41.9220   -999.2500   -999.2500   -999.2500     16.4929     11.6134  
  1907.5000      8.8250     84.2727     35.7872      2.4323      0.0714    107.2189     42.0488   -999.2500   -999.2500   -999.2500     17.1780     11.9841  
  1908.0000      8.8809     83.7562     37.6176      2.4384      0.0781    106.1510     41.9903   -999.2500   -999.2500   -999.2500     18.5793     12.3520  
  1908.5000      8.9645     82.3092     38.2581      2.3800      0.0352    105.2669     42.0523   -999.2500   -999.2500   -999.2500     19.2289     13.0794  
  1909.0000      9.0066     81.5400     37.8804      2.3566      0.0306    104.7750     42.0574   -999.2500   -999.2500   -999.2500     18.5466     13.3088  
  1909.5000      8.8218     81.3855     37.9252      2.3749      0.0645    104.4245     41.9834   -999.2500   -999.2500   -999.2500     18.0491     13.4418  
  1910.0000      8.8243     82.2267     38.3620      2.3949      0.1190    104.9223     41.8773   -999.2500   -999.2500   -999.2500     17.5703     12.7582  
  1910.5000      8.9394     83.2931     38.6648      2.3758      0.1289    106.5379     41.8569   -999.2500   -999.2500   -999.2500     17.2656     12.1168  
  1911.0000      9.2543     84.9846     38.6492      2.3898      0.1389    108.1856     41.8740   -999.2500   -999.2500   -999.2500     16.1868     11.2826  
  1911.5000      9.4385     86.0432     38.5260      2.3906      0.1185    108.8146     41.7684   -999.2500   -999.2500   -999.2500     15.4150     10.7076  
  1912.0000      9.5091     85.8760     38.3205      2.3839      0.0874    108.0668     41.6691   -999.2500   -999.2500   -999.2500     15.4881     10.8086  
  1912.5000      9.0828     84.0511     38.0642      2.4017      0.1007    106.5756     41.5757   -999.2500   -999.2500   -999.2500     15.8550     11.4620  
  1913.0000      8.9024     81.7250     39.3092      2.4240      0.1322    105.8537     41.5713   -999.2500   -999.2500   -999.2500     17.1532     12.4491  
  1913.5000      9.2265     81.3537     41.8529      2.4000      0.1192    106.1468     41.6156   -999.2500   -999.2500   -999.2500     18.9354     12.6471  
  1914.0000      9.6207     82.4164     42.9276      2.4051      0.0872    107.5668     41.7512   -999.2500   -999.2500   -999.2500     18.9190     12.2633  
  1914.5000      9.6266     84.9843     42.3239      2.4313      0.0489    108.9481     41.7405   -999.2500   -999.2500   -999.2500     17.5953     11.8951  
  1915.0000      9.2431     85.9605     41.7801      2.4567      0.0530    109.1445     41.7238   -999.2500   -999.2500   -999.2500     16.2685     11.6275  
  1915.5000      8.9005     85.7028     41.3982      2.4171      0.0244    108.6993     41.7715   -999.2500   -999.2500   -999.2500     16.7565     11.5865  
  1916.0000      8.9002     85.0116     40.9247      2.4038      0.0168    107.0286     41.7764   -999.2500   -999.2500   -999.2500     17.5846     12.0805  
  1916.5000      8.8996     84.4002     40.4511      2.4344      0.0458    105.9743     41.8172   -999.2500   -999.2500   -999.2500     17.8893     12.5094  
  1917.0000      8.8923     84.0048     40.0385      2.4462      0.0582    105.2047     41.9129   -999.2500   -999.2500   -999.2500     18.2028     12.7307  
  1917.5000      8.9004     83.0688     38.8062      2.3958      0.0713    103.9453     41.9627   -999.2500   -999.2500   -999.2500     19.4129     12.9167  
  1918.0000      8.9235     80.9840     36.8064      2.3965      0.0740    102.5539     41.9924   -999.2500   -999.2500   -999.2500     19.7914     13.2171  
  1918.5000      8.9796     77.8694     34.6566      2.4059      0.1164    101.6417     41.9589   -999.2500   -999.2500   -999.2500     20.1338     13.3135  
  1919.0000      9.0106     75.5442     34.4294      2.3855      0.1391    101.6310     41.8872   -999.2500   -999.2500   -999.2500     20.4821     13.3043  
  1919.5000      9.6601     73.8444     35.3653      2.3794      0.1319    101.8602     41.7822   -999.2500   -999.2500   -999.2500     20.7811     13.3244  
  1920.0000      9.7682     73.2962     36.3208      2.3778      0.1371    101.5167     41.7958   -999.2500   -999.2500   -999.2500     22.1148     13.6087  
  1920.5000      9.5252     74.9506     36.8544      2.3922      0.1581    100.5740     41.7265   -999.2500   -999.2500   -999.2500     24.0033     13.9241  
  1921.0000      9.3862     75.1884     36.4672      2.3845      0.1191     99.7054     41.6834   -999.2500   -999.2500   -999.2500     26.7053     14.9697  
  1921.5000      9.6322     75.1292     36.1447      2.4225      0.1043     98.7404     41.8182   -999.2500   -999.2500   -999.2500     26.7352     15.7497  
  1922.0000      9.6758     75.6194     34.9022      2.4463      0.1093     97.9942     41.8628   -999.2500   -999.2500   -999.2500     26.6333     15.5101  
  1922.5000      9.1973     75.9817     32.2446      2.4397      0.1187     97.7758     41.7130   -999.2500   -999.2500   -999.2500     26.7039     15.8186  
  1923.0000      9.3099     75.5233     31.2916      2.4324      0.1410     97.8141     41.6186   -999.2500   -999.2500   -999.2500     27.3004     16.4429  
  1923.5000      9.6652     73.8965     31.2201      2.3890      0.1154     98.1184     41.5773   -999.2500   -999.2500   -999.2500     29.6231     16.0824  
  1924.0000      9.7619     73.8178     31.4371      2.3987      0.1000     98.9363     41.2809   -999.2500   -999.2500   -999.2500     24.9146     15.1579  
  1924.5000      9.5810     74.5829     31.1395      2.3993      0.1096    100.1179     40.9364   -999.2500   -999.2500   -999.2500     19.3533     14.0597  
  1925.0000      9.3091     74.4536     30.8236      2.3868      0.1074    101.3112     40.8830   -999.2500   -999.2500   -999.2500     16.2662     12.8966  
  1925.5000      9.0215     74.5568     30.8611      2.3752      0.1284    101.9387     40.8612   -999.2500   -999.2500   -999.2500     16.9026     12.0397  
  1926.0000      9.1583     74.9201     31.4118      2.3528      0.1281    102.1732     40.8734   -999.2500   -999.2500   -999.2500     20.0291     13.5067  
  1926.5000      9.2738     75.1706     32.0249      2.2888      0.1097    102.2298     40.8126   -999.2500   -999.2500   -999.2500     27.1425     14.5645  
  1927.0000      9.7145     75.1917     34.3365      2.2916      0.1304    101.6673     40.7572   -999.2500   -999.2500   -999.2500     32.3868     15.5176  
  1927.5000     10.3134     75.7028     36.6551      2.3051      0.1274    100.8545     40.7920   -999.2500   -999.2500   -999.2500     38.6831     17.2793  
  1928.0000      9.9732     76.6739     37.6750      2.3801      0.1559    100.3127     40.7890   -999.2500   -999.2500   -999.2500     28.8849     17.0038  
  1928.5000      9.4748     77.5880     38.3867      2.3860      0.1538    100.0106     40.8227   -999.2500   -999.2500   -999.2500     22.5494     14.9338  
  1929.0000      9.4831     77.5396     38.5583      2.3790      0.1402    100.7496     40.7507   -999.2500   -999.2500   -999.2500     20.2158     13.2816  
