~VERSION INFORMATION
 VERS.                           2.00:        CWLS LOG ASCII STANDARD - VERSION 2.00
 WRAP.                             NO:        ONE LINE PER DEPTH STEP
~WELL INFORMATION
#MNEM.UNIT                   DATA             INFORMATION
#----------             --------------        ------------------------------
 STRT.F                       25.0000:        START DEPTH
 STOP.F                     4165.0000:        STOP DEPTH
 STEP.F                        0.5000:        STEP VALUE
 NULL.                      -999.2500:        NULL VALUE
 COMP.    USGS/NPR HUSKY OIL OPERATOR:        COMPANY
 LOC .                     21 21N 14W:        LOCATION
 DATE.                         3/3/80:        LOG DATE
 WELL.                 WEST  DEASE #1:        WELL
 UWI .                   500232001400:        UNIQUE WELL ID
 API .                   500232001400:        UNIQUE WELL IDENTIFIER
 FLD .                        WILDCAT:        FIELD
 CNTY.                    NORTH SLOPE:        COUNTY
 STAT.                         ALASKA:        STATE
 CTRY.                            USA:        COUNTRY
 OPER.    USGS/NPR HUSKY OIL OPERATOR:        OPERATOR
 SRVC.                   SCHLUMBERGER:        SERVICE COMPANY
 LAT .                         0.0000:        LATITUDE
 LON .                         0.0000:        LONGITUDE
 DIGS.               CENTER LINE DATA:        DIGITIZING COMPANY
~CURVE INFORMATION      
#MNEM        .UNIT         API CODE           CURVE DESCRIPTION
#-----------------      --------------        ------------------------------
 DEPT        .F                      :        1  DEPTH
 SP          .MV                     :        2  
 LLD         .OHMM                   :        3  
 LLS         .OHMM                   :        4  
 MSFL        .OHMM                   :        5  
 CALI        .IN                     :        6  
 RHOB        .G/C3                   :        7  
 DRHO        .G/C3                   :        8  
 NPHI        .%                      :        9  
 GR          .GAPI                   :        10 
 DT          .US/F                   :        11 
~PARAMETER INFORMATION
#MNEM.UNIT                  VALUE             DESCRIPTION OF MNEMONIC
#---------             ---------------        ------------------------------
 EKB .F                       24.0000:        KELLY BUSHING
 TD  .F                     4173.0000:        TOTAL DEPTH
 BHT .F                       85.0000:        BOTTOM HOLE TEMPERATURE
 BS  .                        12.2500:        BIT SIZE
 FD  .                        10.4000:        FLUID DENSITY
 CSIZ.                        13.3750:        CASING SIZE
 CBD .F                      288.0000:        CASING DRILLER 1
 CBL .F                      292.0000:        CASING LOGGER 1
 DFT .                             99:        TYPE FLUID IN HOLE
 DFV .                        52.0000:        VISCOSITY
 DFPH.                         8.0000:        PH
 DFL .                         7.5000:        FLUID LOSS
 RMS .                         0.1250:        RM
 MST .F                       35.0000:        RM MEAS. TEMP.
 RMF .                         0.1440:        RMF
 MFST.F                       44.0000:        RMF MEAS. TEMP.
 RMC .                         0.2360:        RMC
 MCST.F                       36.0000:        RMC MEAS. TEMP.
~OTHER INFORMATION
~A    DEPTH          SP         LLD         LLS        MSFL        CALI        RHOB        DRHO        NPHI          GR          DT 
# ...
  2861.5000   -143.8485      7.5887      6.5278      2.1141     14.2579      2.4446      0.2379     45.1614     70.2268    101.6464 
  2862.0000   -144.4274      7.4044      6.6086      1.8884     14.9123      2.4043      0.2511     47.4458     68.9960    100.8753 
  2862.5000   -145.3873      7.2246      6.6824      2.0359     15.4263      2.3849      0.2591     50.2094     67.9166    101.8997 
  2863.0000   -145.9946      7.3755      6.7551      2.6007     14.6355      2.3789      0.2344     51.5684     68.3820    102.9304 
  2863.5000   -144.8768      7.3872      6.7830      2.5218     14.9538      2.3712      0.2052     51.6804     68.6115    103.6607 
  2864.0000   -143.8782      7.2308      6.8062      2.0761     14.8655      2.3759      0.2195     50.1390     68.6760    102.8498 
  2864.5000   -143.3816      7.1552      6.6253      1.1489     15.0769      2.3776      0.2339     49.1245     68.7663    102.3078 
  2865.0000   -144.4390      7.1250      6.5484      0.8306     14.6909      2.3667      0.2219     48.9496     68.8745    101.7318 
  2865.5000   -144.8270      7.0960      6.5514      0.9720     14.4001      2.3536      0.1961     48.1786     69.1447    101.0283 
  2866.0000   -143.7389      7.2121      6.7090      1.1319     14.1515      2.3697      0.2145     46.9878     69.2629    101.5856 
  2866.5000   -142.6513      7.3277      6.9053      0.9989     14.1113      2.3527      0.1871     46.7980     69.7395    101.6641 
  2867.0000   -143.8602      7.2670      6.8197      0.9514     13.6790      2.3563      0.1507     46.0593     69.3510    101.4026 
  2867.5000   -146.4286      7.3624      6.7353      1.0648     13.5684      2.4092      0.1510     44.7936     69.4206    100.9711 
  2868.0000   -141.7480      7.4975      6.8231      1.4395     13.8117      2.4413      0.1540     45.2502     69.6475    100.9573 
  2868.5000   -141.5978      7.5839      6.9159      1.8333     13.9654      2.4074      0.1437     45.8223     69.6857    100.9436 
  2869.0000   -143.0599      7.6713      6.9791      1.4461     13.5687      2.3823      0.1655     46.7482     69.4251    100.4537 
  2869.5000   -144.6182      7.6738      6.9898      0.9599     14.1557      2.3594      0.2034     45.5275     69.0982    101.6246 
  2870.0000   -143.8478      7.6448      6.9294      1.2104     14.3678      2.3388      0.2303     44.9901     68.1164    102.2233 
  2870.5000   -142.8216      7.5939      6.8695      1.2886     14.7280      2.3398      0.2467     45.7316     66.4643    102.5436 
  2871.0000   -142.9902      7.5842      6.7979      1.4169     14.8198      2.3460      0.2384     45.8670     66.2602    102.2322 
  2871.5000   -144.4601      7.4649      6.7257      1.4949     14.8793      2.3536      0.2246     44.9513     66.4572    101.6168 
  2872.0000   -145.0903      7.2820      6.6872      1.3587     15.0561      2.3767      0.2404     45.1335     66.1831    101.1329 
  2872.5000   -143.4520      7.2475      6.7042      1.1746     15.5365      2.3566      0.2402     46.0629     65.6969    101.8672 
  2873.0000   -141.3809      7.3274      6.7612      0.8732     15.2501      2.3389      0.2463     46.2397     65.5319    102.1921 
  2873.5000   -141.5548      7.3539      6.6503      0.9815     14.8746      2.3296      0.2335     46.3087     65.6540    102.2546 
  2874.0000   -144.5817      7.3411      6.5416      1.1003     15.0132      2.3084      0.2200     45.5729     65.5938    102.1477 
  2874.5000   -143.7308      7.3182      6.5539      1.2930     15.3831      2.2858      0.2007     44.8286     65.4106    101.9220 
  2875.0000   -142.2377      7.2925      6.5663      1.6268     15.2158      2.2713      0.1897     44.8224     66.5712    101.5520 
  2875.5000   -140.5575      7.2510      6.5785      1.1443     15.1732      2.2993      0.2241     45.5167     69.0032    102.0329 
  2876.0000   -142.1591      7.2064      6.5128      0.9251     15.0585      2.3561      0.2359     46.6069     71.2324    101.7572 
  2876.5000   -143.1399      7.1466      6.4479      1.0265     14.9698      2.3762      0.2084     47.9868     69.3414    102.4008 
  2877.0000   -142.8455      7.0740      6.4985      1.1073     14.4644      2.3875      0.2097     49.4074     69.1939    102.8874 
  2877.5000   -142.2724      6.9794      6.4888      1.2153     13.7684      2.3351      0.2169     51.0352     69.4940    103.2049 
  2878.0000   -142.1810      6.8954      6.3890      1.1976     14.3556      2.3070      0.2342     51.3552     70.5105    104.5469 
  2878.5000   -141.6854      6.8746      6.3147      1.1244     15.0164      2.2922      0.2513     51.5298     70.9820    105.0623 
  2879.0000   -142.5569      6.8539      6.2886      1.1705     15.5611      2.2709      0.2587     51.9809     70.3575    105.6825 
  2879.5000   -143.0487      6.7750      6.2528      1.5517     15.1835      2.2496      0.2156     52.9966     69.2938    106.0565 
  2880.0000   -142.9412      6.6645      6.1931      1.8126     14.3300      2.3087      0.1853     52.7607     67.7461    106.9046 
  2880.5000   -142.4497      6.5497      6.1340      1.7261     14.3823      2.4348      0.1935     51.6225     66.2225    107.3575 
  2881.0000   -142.0061      6.4016      6.0213      0.7941     14.0927      2.4875      0.1873     49.3159     65.9333    106.0835 
  2881.5000   -142.8458      6.3119      5.8381      0.7092     14.1446      2.4722      0.1668     47.6139     66.3372    105.9233 
  2882.0000   -142.4556      6.2234      5.7227      0.6907     13.8118      2.4581      0.1489     46.2014     67.3095    104.4201 
  2882.5000   -142.0073      6.2117      5.8915      0.6934     13.7967      2.4807      0.1731     45.3691     69.0648    102.9126 
  2883.0000   -141.3326      6.5178      6.1650      0.7268     13.8127      2.5061      0.1933     44.9236     70.1453    102.3038 
  2883.5000   -141.9333      6.7057      6.4123      0.8162     13.8087      2.5240      0.2208     45.2826     70.0664    101.8065 
  2884.0000   -143.7043      6.8991      6.6361      0.8951     14.0585      2.5385      0.2433     45.8076     68.2153    100.9507 
  2884.5000   -143.5471      7.1515      6.8525      0.9471     14.2634      2.5414      0.2250     46.2363     64.4342     99.6887 
  2885.0000   -141.7162      7.4878      7.1174      1.0420     14.1202      2.5255      0.1964     46.6485     62.9424    100.5306 
  2885.5000   -141.7334      7.6082      7.1054      1.1383     13.9019      2.5166      0.1812     47.0270     62.0295    101.6430 
  2886.0000   -142.2581      7.6039      6.9799      1.2792     14.5156      2.5307      0.1644     46.9249     63.1834    101.8708 
  2886.5000   -141.7352      7.5411      6.7839      1.3216     14.3501      2.5250      0.1535     46.7188     62.0509    101.6021 
  2887.0000   -141.4364      7.2898      6.7024      1.0674     14.1505      2.5224      0.1819     46.1929     61.4138    101.1979 
  2887.5000   -141.7500      7.2138      6.6268      0.9548     13.8653      2.5161      0.2171     46.9261     61.6342    101.1007 
  2888.0000   -142.2221      7.2892      6.5848      1.4719     13.8559      2.4903      0.2337     48.4021     62.6014    101.5161 
  2888.5000   -141.5321      7.2703      6.5765      1.3228     13.8096      2.4203      0.2089     50.2440     63.9676    101.7584 
  2889.0000   -141.6111      7.1639      6.5774      0.9982     13.7811      2.3607      0.1871     52.1930     65.0114    101.6854 
  2889.5000   -141.8759      7.1096      6.4483      1.4307     13.0629      2.3474      0.1619     53.2336     66.3622    101.8069 
  2890.0000   -141.8422      7.0981      6.3522      1.6686     12.9472      2.3885      0.1357     52.1108     67.4485    102.2678 
  2890.5000   -141.5257      7.0104      6.3202      1.3070     12.6913      2.4731      0.1364     48.4811     68.7230    102.5889 
  2891.0000   -141.4096      6.8977      6.2548      1.3462     12.4527      2.4978      0.1370     46.2836     69.6204    102.6219 
  2891.5000   -141.3139      6.8732      6.1066      1.4147     12.3756      2.5171      0.1467     44.8030     69.8963    102.7524 
