~VERSION INFORMATION
 VERS.                           2.00:        CWLS LOG ASCII STANDARD - VERSION 2.00
 WRAP.                             NO:        ONE LINE PER DEPTH STEP
~WELL INFORMATION
#MNEM.UNIT                   DATA             INFORMATION
#----------             --------------        ------------------------------
 STRT.F                      884.0000:        START DEPTH
 STOP.F                     2365.0000:        STOP DEPTH
 STEP.F                        0.5000:        STEP VALUE
 NULL.                      -999.2500:        NULL VALUE
 COMP.                      U.S. NAVY:        COMPANY  
 LOC .                   14  22N  18W:        LOCATION   
 DATE.                        3/19/64:        LOG DATE 
 WELL.                SOUTH BARROW #6:        WELL     
 UWI .                   500231001500:        UNIQUE WELL ID 
 API .                   500231001500:        UNIQUE WELL IDENTIFIER 
 FLD .                   SOUTH BARROW:        FIELD    
 CNTY.                         NPR #4:        COUNTY  
 STAT.                         ALASKA:        STATE   
 CTRY.                            USA:        COUNTRY 
 OPER.                      U.S. NAVY:        OPERATOR  
 SRVC.                   SCHLUMBERGER:        SERVICE COMPANY 
 LAT .                         0.0000:        LATITUDE
 LON .                         0.0000:        LONGITUDE
 DIGS.               CENTER LINE DATA:        DIGITIZING COMPANY 
~CURVE INFORMATION      
#MNEM        .UNIT         API CODE           CURVE DESCRIPTION
#-----------------      --------------        ------------------------------
 DEPT        .F                      :        1  DEPTH
 SP          .MV                     :        2  
 SN          .OHMM                   :        3  
 ILD         .OHMM                   :        4  
 CILD        .OHMM                   :        5  
 DT          .US/F                   :        6  
~PARAMETER INFORMATION       
#MNEM.UNIT                  VALUE             DESCRIPTION OF MNEMONIC
#---------             ---------------        ------------------------------
 EKB .F                       40.0000:        KELLY BUSHING
 TD  .F                     2366.0000:        TOTAL DEPTH
 BHT .F                        0.0000:        BOTTOM HOLE TEMPERATURE
 BS  .                         9.6250:        BIT SIZE
 FD  .                        85.0000:        FLUID DENSITY
 CSIZ.                        11.7500:        CASING SIZE
 CBD .F                      884.0000:        CASING DRILLER 1
 CBL .F                      884.0000:        CASING LOGGER 1
 DFT .                  Miscellaneous:        TYPE FLUID IN HOLE
 DFV .                        45.0000:        VISCOSITY
 DFPH.                         0.0000:        PH
 DFL .                         2.8000:        FLUID LOSS
 RMS .                         5.3700:        RM
 MST .F                       33.0000:        RM MEAS. TEMP.
 RMF .                         2.9500:        RMF
 MFST.F                       45.0000:        RMF MEAS. TEMP.
 RMC .                         2.4800:        RMC
 MCST.F                       35.0000:        RMC MEAS. TEMP.
~OTHER INFORMATION
~A    DEPTH          SP          SN         ILD        CILD          DT  
# ...
  1756.0000    -29.6603     11.7046      9.6994     99.7640   -999.2500  
  1756.5000    -29.5466     11.3781      9.4260    102.3510   -999.2500  
  1757.0000    -29.4688     11.0421      9.2168    104.5217   -999.2500  
  1757.5000    -29.4402     10.7589      9.0033    106.9713   -999.2500  
  1758.0000    -29.4806     10.6174      8.8003    109.4442   -999.2500  
  1758.5000    -29.5053     10.4083      8.6611    111.1534   -999.2500  
  1759.0000    -29.5465     10.3312      8.5788    112.3835   -999.2500  
  1759.5000    -29.4683     10.2812      8.5576    112.7051   -999.2500  
  1760.0000    -29.4630     10.2883      8.6186    112.3596   -999.2500  
  1760.5000    -29.5810     10.3121      8.6827    111.6472   -999.2500  
  1761.0000    -29.6835     10.3307      8.8165    110.6242   -999.2500  
  1761.5000    -29.7244     10.4429      8.9658    108.9863   -999.2500  
  1762.0000    -29.8249     10.5576      9.1851    107.1718   -999.2500  
  1762.5000    -30.0563     10.7247      9.3674    105.0628   -999.2500  
  1763.0000    -30.4910     11.0014      9.5463    102.9045   -999.2500  
  1763.5000    -31.1057     11.3018      9.7524    100.7733   -999.2500  
  1764.0000    -31.7283     11.5246     10.0935     98.1409   -999.2500  
  1764.5000    -32.1603     11.6849     10.4056     95.8745   -999.2500  
  1765.0000    -32.3540     11.8371     10.5839     93.7044   -999.2500  
  1765.5000    -32.3227     11.9863     10.6714     92.8262   -999.2500  
  1766.0000    -32.3000     12.1064     10.6234     92.8914   -999.2500  
  1766.5000    -32.1118     12.1489     10.5411     93.2658   -999.2500  
  1767.0000    -31.7510     12.1164     10.4811     93.7548   -999.2500  
  1767.5000    -31.6098     12.0023     10.4069     94.2438   -999.2500  
  1768.0000    -32.1735     11.8273     10.3881     94.6725   -999.2500  
  1768.5000    -32.8363     11.6208     10.2870     95.5555   -999.2500  
  1769.0000    -33.2379     11.4844     10.1800     96.4462   -999.2500  
  1769.5000    -33.3371     11.4778     10.1765     96.7910   -999.2500  
  1770.0000    -33.4036     11.5511     10.3445     95.9458   -999.2500  
  1770.5000    -33.4491     11.7231     10.4921     94.4775   -999.2500  
  1771.0000    -33.4765     11.9205     10.7193     92.6763   -999.2500  
  1771.5000    -33.4625     12.1748     10.9004     90.9797   -999.2500  
  1772.0000    -33.3244     12.4771     11.0678     89.5828   -999.2500  
  1772.5000    -32.8347     12.7728     11.1737     88.9785   -999.2500  
  1773.0000    -32.2771     12.9849     11.1725     88.7817   -999.2500  
  1773.5000    -31.9507     13.0232     11.2376     88.5377   -999.2500  
  1774.0000    -32.0004     12.8575     11.2848     88.2075   -999.2500  
  1774.5000    -32.0772     12.6747     11.2621     88.1155   -999.2500  
  1775.0000    -32.0266     12.5576     11.2359     88.3640   -999.2500  
  1775.5000    -31.9862     12.4233     11.1260     89.0107   -999.2500  
  1776.0000    -32.0224     12.3797     11.0519     89.6538   -999.2500  
  1776.5000    -32.0830     12.4040     10.9888     90.1247   -999.2500  
  1777.0000    -32.0254     12.4520     11.0288     90.0294   -999.2500  
  1777.5000    -31.9860     12.5031     11.1568     89.4680   -999.2500  
  1778.0000    -31.9907     12.5676     11.3168     88.3971   -999.2500  
  1778.5000    -31.9963     12.6631     11.4889     87.0912   -999.2500  
  1779.0000    -31.9753     12.7487     11.7682     85.5650   -999.2500  
  1779.5000    -31.8493     12.8598     12.0046     84.0470   -999.2500  
  1780.0000    -31.7087     13.0765     12.1929     82.5670   -999.2500  
  1780.5000    -31.7743     13.3352     12.3633     81.2399   -999.2500  
  1781.0000    -31.8558     13.5602     12.4831     80.5505   -999.2500  
  1781.5000    -31.8885     13.8025     12.5329     80.0321   -999.2500  
  1782.0000    -31.8611     13.9422     12.5270     79.8024   -999.2500  
  1782.5000    -31.9005     13.9479     12.4407     80.2321   -999.2500  
  1783.0000    -31.9762     13.7805     12.0865     81.9649   -999.2500  
  1783.5000    -31.9209     13.4821     11.6241     84.8772   -999.2500  
  1784.0000    -31.6144     13.0568     11.0567     87.7438   -999.2500  
  1784.5000    -31.1112     12.5020     10.4917     93.6294   -999.2500  
  1785.0000    -30.7363     11.9726      9.9360     97.7746   -999.2500  
  1785.5000    -30.4205     11.5008      9.5348    101.4094   -999.2500  
  1786.0000    -30.3299     11.1531      9.2276    105.0809   -999.2500  
  1786.5000    -30.2425     10.9135      8.9432    107.8729   -999.2500  
  1787.0000    -30.1733     10.7531      8.7701    109.8933   -999.2500  
  1787.5000    -30.1582     10.6509      8.6799    111.2763   -999.2500  
  1788.0000    -30.0680     10.6015      8.6011    112.2455   -999.2500  
  1788.5000    -29.9471     10.6575      8.5401    113.2194   -999.2500  
  1789.0000    -29.8927     10.7709      8.5324    113.5993   -999.2500  
  1789.5000    -29.8776     10.8182      8.5425    113.3350   -999.2500  
  1790.0000    -29.7740     10.7500      8.6599    112.5317   -999.2500  
  1790.5000    -29.5917     10.6279      8.7535    111.1655   -999.2500  
  1791.0000    -29.3247     10.5745      8.8715    109.8427   -999.2500  
  1791.5000    -29.1877     10.6522      8.9750    108.6771   -999.2500  
  1792.0000    -29.2198     10.8378      9.1414    107.2090   -999.2500  
  1792.5000    -29.3917     11.0920      9.2950    105.6485   -999.2500  
  1793.0000    -29.5547     11.3142      9.4906    103.6731   -999.2500  
  1793.5000    -29.6724     11.4873      9.7671    101.5924   -999.2500  
  1794.0000    -29.8878     11.5947     10.0624     99.1452   -999.2500  
  1794.5000    -30.0590     11.6725     10.1872     96.9832   -999.2500  
  1795.0000    -30.1649     11.7789     10.3136     95.7584   -999.2500  
  1795.5000    -30.2434     11.9666     10.4280     94.8337   -999.2500  
  1796.0000    -30.4854     12.1769     10.4891     94.1781   -999.2500  
  1796.5000    -30.6134     12.2964     10.5389     93.8194   -999.2500  
  1797.0000    -30.6548     12.2718     10.5867     93.4111   -999.2500  
  1797.5000    -30.8042     12.1939     10.6506     93.0320   -999.2500  
  1798.0000    -30.9442     12.1216     10.6565     92.9033   -999.2500  
  1798.5000    -30.9943     12.0839     10.6700     92.6560   -999.2500  
  1799.0000    -31.0055     12.1407     10.7207     92.2333   -999.2500  
  1799.5000    -31.0954     12.2067     10.8374     91.6425   -999.2500  
  1800.0000    -31.1292     12.2960     10.9569     90.7530   -999.2500  
  1800.5000    -31.1155     12.4216     11.1129     89.6817   -999.2500  
  1801.0000    -31.0948     12.5863     11.3203     88.3086   -999.2500  
  1801.5000    -31.0124     12.8275     11.5749     86.6598   -999.2500  
  1802.0000    -31.0657     13.1119     11.8806     84.5073   -999.2500  
  1802.5000    -31.2260     13.3022     12.1970     82.2894   -999.2500  
  1803.0000    -31.3071     13.4075     12.3424     80.7779   -999.2500  
  1803.5000    -31.2578     13.5302     12.3453     80.5824   -999.2500  
  1804.0000    -31.0921     13.6473     12.2135     81.0989   -999.2500  
  1804.5000    -30.6105     13.6791     12.0477     82.1511   -999.2500  
  1805.0000    -30.3745     13.5512     11.8499     83.4255   -999.2500  
  1805.5000    -30.4125     13.2688     11.6460     84.6655   -999.2500  
  1806.0000    -30.7552     12.8585     11.4183     86.1137   -999.2500  
  1806.5000    -31.0035     12.5166     11.1712     87.7075   -999.2500  
  1807.0000    -31.0545     12.2421     10.8807     89.5178   -999.2500  
  1807.5000    -31.0150     12.1039     10.6466     91.2685   -999.2500  
  1808.0000    -30.9566     12.0537     10.5299     92.5374   -999.2500  
  1808.5000    -30.7733     12.0488     10.4446     93.3294   -999.2500  
  1809.0000    -30.6349     12.0311     10.4138     93.5866   -999.2500  
  1809.5000    -30.7378     12.0042     10.4052     93.2556   -999.2500  
  1810.0000    -30.9249     11.9781     10.4570     93.1371   -999.2500  
