~VERSION INFORMATION
 VERS.                           2.00:        CWLS LOG ASCII STANDARD - VERSION 2.00
 WRAP.                             NO:        ONE LINE PER DEPTH STEP
~WELL INFORMATION
#MNEM.UNIT                   DATA             INFORMATION
#----------             --------------        ------------------------------
 STRT.F                      151.0000:        START DEPTH
 STOP.F                     2726.0000:        STOP DEPTH
 STEP.F                        0.5000:        STEP VALUE
 NULL.                      -999.2500:        NULL VALUE
 COMP.                      U.S. NAVY:        COMPANY  
 WELL.                     IKO BAY #1:        WELL     
 FLD .                        WILDCAT:        FIELD    
 LOC .                   16  21N  16W:        LOCATION   
 CNTY.                    NORTH SLOPE:        COUNTY  
 STAT.                         ALASKA:        STATE   
 CTRY.                            USA:        COUNTRY 
 DATE.                         2/8/75:        LOG DATE 
 API .                   502790000000:        UNIQUE WELL IDENTIFIER 
 OPER.                      U.S. NAVY:        OPERATOR  
 SRVC.                            440:        SERVICE COMPANY 
 UWI .                   502790000000:        UNIQUE WELL ID 
 LAT .                         0.0000:        LATITUDE
 LON .                         0.0000:        LONGITUDE
 DIGS.                             65:        DIGITIZING COMPANY 
~CURVE INFORMATION      
#MNEM.UNIT                 API CODE           CURVE DESCRIPTION
#---------              --------------        ------------------------------
 DEPT.F                              :        1  DEPTH
 SP  .MV                             :        2
 ILD .OHMM                           :        3
 LL8 .OHMM                           :        4
 ILM .OHMM                           :        5
 RHOB.G/C3                           :        6
 DRHO.G/C3                           :        7
 CALI.IN                             :        8
 GR  .GAPI                           :        9
 NPHI.%                              :       10
 DT  .US/F                           :       11
~PARAMETER INFORMATION       
#MNEM.UNIT                  VALUE             DESCRIPTION OF MNEMONIC
#---------             ---------------        ------------------------------
 EKB .F                        0.0000:        KELLY BUSHING
 TD  .F                     2731.0000:        TOTAL DEPTH
 BHT .F                             0.0000:        BOTTOM HOLE TEMPERATURE
 BS  .                             14.7500:        BIT SIZE
 FD  .                              0.0000:        FLUID DENSITY
 CSIZ.                             16.0000:        CASING SIZE
 CBD .F                           149.0000:        CASING DRILLER 1
 CBL .F                           152.0000:        CASING LOGGER 1
 DFT .                            Gel:        TYPE FLUID IN HOLE
 DFV .                              0.0000:        VISCOSITY
 DFPH.                              0.0000:        PH
 DFL .                              0.0000:        FLUID LOSS
 RMS .                              0.3000:        RM
 MST .F                       49.0000:        RM MEAS. TEMP.
 RMF .                              0.2300:        RMF
 MFST.F                       49.0000:        RMF MEAS. TEMP.
 RMC .                              0.4600:        RMC
 MCST.F                       49.0000:        RMC MEAS. TEMP.
 UWI .                   502790000000:        UNIQUE WELL ID
~OTHER INFORMATION
~A    DEPTH          SP         ILD         LL8         ILM        RHOB        DRHO        CALI          GR        NPHI          DT  
# ...
  1531.0000    -48.5316      4.6022      6.3862      4.7707      2.0012      0.0068     10.8508    154.6026     44.9107    121.5726  
  1531.5000    -48.1906      4.6382      6.4549      4.7668      2.0015      0.0002     11.7814    153.5529     44.9180    124.3853  
  1532.0000    -52.0292      4.7112      7.1370      4.8648      2.1681     -0.0027     11.9101    150.3527     44.9252    130.9904  
  1532.5000    -56.5643      4.7564      7.7976      4.9205      2.2411     -0.0012     11.2942    149.0803     44.9325    136.6800  
  1533.0000    -56.8997      4.7943      7.5831      4.9705      2.2587      0.0021     10.7281    146.8887     44.9397    133.7151  
  1533.5000    -57.0385      4.9775      6.8284      5.2309      2.2749      0.0081     11.0229    144.6972     44.0434    127.0304  
  1534.0000    -56.7594      5.2382      6.7161      5.5050      2.3127      0.0144     11.3015    141.2572     42.2106    130.8801  
  1534.5000    -55.7379      5.5126      8.1925      5.7935      2.3665      0.0259     11.6179    134.5304     40.2106    141.6676  
  1535.0000    -54.4188      5.8013     10.6120      6.0971      2.4090      0.0111     12.4005    122.1026     37.9342    149.8973  
  1535.5000    -54.5533      6.1052     11.3089      6.3863      2.4403     -0.0038     12.2636    109.3612     36.0679    167.1769  
  1536.0000    -54.9769      6.3182      9.2838      6.5701      2.3932      0.0289     11.3925    106.8811     35.2692    179.9170  
  1536.5000    -47.9041      6.5001      8.7498      6.7593      2.3300      0.0340     10.8335    107.7891     35.0729    175.6589  
  1537.0000    -35.3328      6.6872      8.7338      6.9522      2.2861      0.0196     11.9354    107.3416     35.2144    179.7430  
  1537.5000    -35.5689      6.8679      9.2120      7.1143      2.2938      0.0296     11.8592    106.2605     34.5619    171.9075  
  1538.0000    -50.3024      6.7263      9.5668      7.0192      2.3185      0.0408     11.5286    106.9056     33.1617    164.0720  
  1538.5000    -57.0634      6.5583      9.4326      6.7916      2.3421      0.0535     12.0157    108.7461     31.4673    146.6174  
  1539.0000    -57.3698      6.4709      8.9883      6.7011      2.3418      0.0412     12.1265    109.9087     31.1793    137.2521  
  1539.5000    -57.5224      6.3847      8.3075      6.6119      2.3283      0.0244     12.2816    109.7787     32.3963    128.2022  
  1540.0000    -57.3989      6.3415      7.6237      6.5575      2.3303      0.0243     12.3677    108.3017     34.3654    115.1568  
  1540.5000    -54.2070      6.3366      7.5663      6.5522      2.3411      0.0285     12.3783    105.8867     35.2448    111.7597  
  1541.0000    -44.0524      6.3440      8.0292      6.5649      2.3346      0.0229     12.5941    101.5648     34.4859    110.2246  
  1541.5000    -36.8507      6.4078      8.5252      6.6308      2.3055      0.0194     12.8674     96.3559     33.7445    109.2079  
  1542.0000    -48.0887      6.4683      8.6290      6.6900      2.2714      0.0287     13.1406     96.5981     34.0947    113.2082  
  1542.5000    -55.9725      6.5065      8.4256      6.7295      2.2584      0.0629     12.7982     97.9555     35.1132    118.1076  
  1543.0000    -48.3115      6.5101      8.1013      6.7317      2.2497      0.0799     12.3898     99.5248     36.9481    114.9827  
  1543.5000    -28.2526      6.5711      7.8071      6.8239      2.2183      0.0631     11.9995     99.6590     37.6940    111.6962  
  1544.0000    -13.5485      6.7303      7.5647      6.9859      2.2483      0.0428     11.1009    100.3974     36.7485    112.7181  
  1544.5000    -14.7005      6.8166      7.7382      7.0538      2.3143      0.0511     10.9660    101.4247     35.7965    112.5209  
  1545.0000    -34.3247      6.8877      7.9308      7.1354      2.3221      0.0429     11.2144    101.0625     34.7718    111.2519  
  1545.5000    -56.5520      7.0015      8.0157      7.2480      2.3175      0.0310     10.9239     99.5062     33.5481    109.6552  
  1546.0000    -57.5073      7.0836      8.0987      7.3323      2.3372      0.0290     10.8095     98.2711     32.2377    108.6358  
  1546.5000    -57.5180      7.1700      8.3557      7.4360      2.3753      0.0402     11.6114     98.2773     32.1291    108.3419  
  1547.0000    -57.2363      7.2488      9.0612      7.4996      2.3915      0.0624     11.8325     98.5836     31.7947    109.0337  
  1547.5000    -57.0020      7.2210      9.1461      7.4751      2.3839      0.0664     11.4541     98.6104     32.5683    110.1552  
  1548.0000    -56.8909      7.1317      8.7832      7.3827      2.3606      0.0564     10.7924     99.1999     33.6357    110.9777  
  1548.5000    -56.8928      7.0434      8.3924      7.2913      2.3542      0.0375     10.7693    100.8722     34.3047    111.5204  
  1549.0000    -57.0979      6.9563      8.1234      7.2012      2.3511      0.0368     11.5318    103.7643     35.3746    110.9871  
  1549.5000    -57.3172      6.7859      7.9277      7.0518      2.3571      0.0375     11.3051    105.7603     36.8945    109.4413  
  1550.0000    -57.5066      6.6101      7.2424      6.8697      2.3569      0.0359     10.5430    104.1053     37.7660    108.1221  
  1550.5000    -57.6209      6.4447      6.8464      6.6922      2.3527      0.0488     10.2121    102.4201     38.2131    107.3156  
  1551.0000    -57.5780      6.3557      6.8108      6.5820      2.3657      0.0632     10.4226    101.1084     37.5622    106.5940  
  1551.5000    -57.4902      6.2586      7.0430      6.4714      2.3237      0.0404     10.9582    100.4882     35.2537    106.4894  
  1552.0000    -56.3139      6.2607      7.3934      6.4737      2.3084      0.0308     11.8650     99.0719     33.8906    107.1272  
  1552.5000    -54.3691      6.2899      7.8530      6.5098      2.2959      0.0303     11.5248     97.5893     33.3088    108.1026  
  1553.0000    -49.8544      6.3582      8.1365      6.5804      2.2775      0.0202     10.8635     96.4613     33.4936    109.7655  
  1553.5000    -34.7250      6.5108      8.3430      6.8198      2.2501      0.0047     10.7519     94.3013     33.4199    112.7419  
  1554.0000    -33.1274      6.7876      8.4188      7.0384      2.2280      0.0216     11.0719     91.2897     33.0407    115.0232  
  1554.5000    -47.1636      6.9150      8.2704      7.1675      2.2181      0.0732     11.4525     88.9676     34.4249    115.9377  
  1555.0000    -57.3338      7.0255      8.3919      7.2749      2.1915      0.0868     11.8331     87.2229     36.9827    115.2157  
  1555.5000    -58.0217      7.0834      8.7211      7.3244      2.1424      0.1001     12.2137     86.2453     39.1051    113.8406  
  1556.0000    -58.1850      7.0084      8.9704      7.2674      2.1837      0.0971     12.5943     88.4494     39.3352    112.6693  
  1556.5000    -58.2350      6.9039      8.8046      7.1540      2.2499      0.1040     12.8023     90.9579     39.0753    111.9244  
  1557.0000    -58.1308      6.8632      8.2004      7.1060      2.2555      0.0980     12.7486     92.4610     38.0447    111.0611  
  1557.5000    -57.8484      6.8228      7.5879      7.0582      2.2423      0.0461     12.8245     93.9345     36.1874    110.2030  
  1558.0000    -57.7012      6.8097      7.2557      7.0413      2.2543      0.0181     12.9441     98.2720     35.1905    109.8589  
  1558.5000    -57.6495      6.8017      7.6421      7.0330      2.2855      0.0266     12.4114    102.3739     34.5979    109.5177  
  1559.0000    -57.7576      6.7937      8.0590      7.0248      2.2739      0.0396     11.8567    104.3864     35.3711    109.1074  
  1559.5000    -57.9208      6.8521      8.4121      7.0909      2.2575      0.0525     10.9859    104.4586     35.9692    109.0404  
  1560.0000    -58.2256      6.9255      8.6488      7.1669      2.2077      0.0864     10.9634    102.8218     36.7678    109.9492  
  1560.5000    -58.5236      6.9997      8.6138      7.2437      2.1781      0.1137     11.9096    101.0187     37.1546    111.2914  
