~VERSION INFORMATION
 VERS.                           2.00:        CWLS LOG ASCII STANDARD - VERSION 2.00
 WRAP.                             NO:        ONE LINE PER DEPTH STEP
~WELL INFORMATION
#MNEM.UNIT                   DATA             INFORMATION
#----------             --------------        ------------------------------
 STRT.F                       25.0000:        START DEPTH
 STOP.F                     2347.0000:        STOP DEPTH
 STEP.F                        0.5000:        STEP VALUE
 NULL.                      -999.2500:        NULL VALUE
 COMP.        HUSKY OIL COMPANY/NPR-A:        COMPANY
 LOC .                     26 22N 17W:        LOCATION
 DATE.                        4/14/80:        LOG DATE
 WELL.                     BARROW #20:        WELL
 UWI .                   500232001500:        UNIQUE WELL ID
 API .                   500232001500:        UNIQUE WELL IDENTIFIER
 FLD .                   SOUTH BARROW:        FIELD
 CNTY.                    NORTH SLOPE:        COUNTY
 STAT.                        ALAASKA:        STATE
 CTRY.                            USA:        COUNTRY
 OPER.        HUSKY OIL COMPANY/NPR-A:        OPERATOR
 SRVC.                   SCHLUMBERGER:        SERVICE COMPANY
 LAT .                         0.0000:        LATITUDE
 LON .                         0.0000:        LONGITUDE
 DIGS.               CENTER LINE DATA:        DIGITIZING COMPANY
~CURVE INFORMATION      
#MNEM        .UNIT         API CODE           CURVE DESCRIPTION
#-----------------      --------------        ------------------------------
 DEPT        .F                      :        1  DEPTH
 CALI        .IN                     :        2  
 GR          .GAPI                   :        3  
 DRHO        .G/C3                   :        4  
 RHOB        .G/C3                   :        5  
 NPHI        .%                      :        6  
 SP          .MV                     :        7  
 ILD         .OHMM                   :        8  
 ILM         .OHMM                   :        9  
 SFL         .OHMM                   :        10 
 LLD         .OHMM                   :        11 
 LLS         .OHMM                   :        12 
 MSFL        .OHMM                   :        13 
 DT          .US/F                   :        14 
~PARAMETER INFORMATION
#MNEM.UNIT                  VALUE             DESCRIPTION OF MNEMONIC
#---------             ---------------        ------------------------------
 EKB .F                       30.0000:        KELLY BUSHING
 TD  .F                     2356.0000:        TOTAL DEPTH
 BHT .F                        0.0000:        BOTTOM HOLE TEMPERATURE
 BS  .                         8.5000:        BIT SIZE
 FD  .                        10.8000:        FLUID DENSITY
 CSIZ.                         9.6250:        CASING SIZE
 CBD .F                     1500.0000:        CASING DRILLER 1
 CBL .F                     1485.0000:        CASING LOGGER 1
 DFT .                            GEL:        TYPE FLUID IN HOLE
 DFV .                        10.0000:        VISCOSITY
 DFPH.                         9.0000:        PH
 DFL .                        10.0000:        FLUID LOSS
 RMS .                         0.1840:        RM
 MST .F                       61.0000:        RM MEAS. TEMP.
 RMF .                         0.1270:        RMF
 MFST.F                       61.0000:        RMF MEAS. TEMP.
 RMC .                         0.2660:        RMC
 MCST.F                       61.0000:        RMC MEAS. TEMP.
~OTHER INFORMATION
~A    DEPTH        CALI          GR        DRHO        RHOB        NPHI          SP         ILD         ILM         SFL         LLD         LLS        MSFL          DT 
# ...
  1849.0000      8.6905     77.5685      0.0148      2.5207     38.1995    -59.1993   -999.2500   -999.2500   -999.2500      9.6833      9.1956      7.4512    107.9179 
  1849.5000      8.7128     77.6234      0.0160      2.5175     37.5371    -59.2227   -999.2500   -999.2500   -999.2500      9.7002      9.2111      7.4278    108.1300 
  1850.0000      8.6991     77.1630      0.0218      2.5153     36.9142    -59.2188   -999.2500   -999.2500   -999.2500      9.7171      9.2267      7.4099    108.6246 
  1850.5000      8.6833     76.6374      0.0277      2.5161     36.7747    -59.2149   -999.2500   -999.2500   -999.2500      9.7139      9.2239      7.3963    109.3836 
  1851.0000      8.6605     76.0839      0.0309      2.5170     36.5972    -59.2111   -999.2500   -999.2500   -999.2500      9.7103      9.2205      7.5694    110.3435 
  1851.5000      8.6377     75.4654      0.0331      2.5155     36.6650    -59.2072   -999.2500   -999.2500   -999.2500      9.7068      9.2172      7.8927    111.2546 
  1852.0000      8.6232     75.2759      0.0319      2.5157     36.8829    -59.2033   -999.2500   -999.2500   -999.2500      9.7033      9.2138      8.2896    111.5142 
  1852.5000      8.6469     75.3237      0.0277      2.5154     37.2793    -59.1994   -999.2500   -999.2500   -999.2500      9.6998      9.2105      8.7066    110.2380 
  1853.0000      8.8072     75.6365      0.0137      2.5086     36.5600    -59.1956   -999.2500   -999.2500   -999.2500      9.7956      9.2889      8.4934    108.3344 
  1853.5000      8.6614     76.2040      0.0145      2.5024     36.5782    -59.1917   -999.2500   -999.2500   -999.2500      9.9130      9.3964      8.3456    105.3306 
  1854.0000      8.6786     76.9151      0.0179      2.5023     37.7632    -59.1878   -999.2500   -999.2500   -999.2500     10.0344      9.5116      8.4025    103.5435 
  1854.5000      8.7084     77.4583      0.0205      2.5053     39.0339    -59.1839   -999.2500   -999.2500   -999.2500     10.1574      9.6208      8.4464    103.6072 
  1855.0000      8.6895     77.9428      0.0131      2.5002     40.8577    -59.1801   -999.2500   -999.2500   -999.2500     10.3008      9.5768      8.4822    104.1966 
  1855.5000      8.6706     78.0001      0.0032      2.4743     41.1009    -59.2874   -999.2500   -999.2500   -999.2500     10.4553      9.5330      8.5425    104.9271 
  1856.0000      8.6217     77.5427      0.0016      2.4671     41.5984    -59.1564   -999.2500   -999.2500   -999.2500     10.6151      9.4893      8.6033    105.3575 
  1856.5000      8.6110     76.8880      0.0103      2.4912     40.7700    -59.0618   -999.2500   -999.2500   -999.2500     10.7158      9.5943      8.6644    105.6969 
  1857.0000      8.6180     76.3511      0.0165      2.5104     39.3316    -59.0019   -999.2500   -999.2500   -999.2500     10.6167      9.5708      8.7260    105.9407 
  1857.5000      8.6685     76.0636      0.0202      2.5241     36.9546    -59.1118   -999.2500   -999.2500   -999.2500     10.4026      9.5473      8.7337    105.9227 
  1858.0000      8.6709     75.8224      0.0224      2.5253     35.6667    -59.0109   -999.2500   -999.2500   -999.2500     10.1928      9.5239      8.7357    105.3470 
  1858.5000      8.6853     75.7762      0.0223      2.5197     34.8339    -59.2106   -999.2500   -999.2500   -999.2500     10.0002      9.4836      8.3543    104.5450 
  1859.0000      8.6998     75.9386      0.0212      2.5183     34.5020    -59.1867   -999.2500   -999.2500   -999.2500      9.9276      9.4267      7.8766    104.0683 
  1859.5000      8.7176     75.9625      0.0183      2.5101     34.3419    -59.2798   -999.2500   -999.2500   -999.2500      9.9179      9.4174      7.6393    104.8540 
  1860.0000      8.7374     76.0679      0.0145      2.5065     34.3280    -59.0304   -999.2500   -999.2500   -999.2500      9.9083      9.4082      7.9053    106.6933 
  1860.5000      8.7572     76.1927      0.0113      2.5126     34.2977    -59.1954   -999.2500   -999.2500   -999.2500      9.8987      9.3990      8.3285    108.0118 
  1861.0000      8.7623     76.4728      0.0080      2.5054     34.4389    -59.4295   -999.2500   -999.2500   -999.2500      9.8840      9.3841      8.4274    109.1180 
  1861.5000      8.7058     77.0095      0.0048      2.5004     34.6912    -59.5052   -999.2500   -999.2500   -999.2500      9.8559      9.3574      8.4010    110.7827 
  1862.0000      8.7005     77.3611      0.0050      2.4972     35.4200    -59.5098   -999.2500   -999.2500   -999.2500      9.8509      9.3538      8.3655    111.7556 
  1862.5000      8.6680     77.4353      0.0091      2.4966     35.9942    -59.5308   -999.2500   -999.2500   -999.2500      9.8573      9.3598      8.2734    111.3713 
  1863.0000      8.6182     77.5776      0.0158      2.5135     36.1159    -59.5212   -999.2500   -999.2500   -999.2500      9.8638      9.3659      8.1533    111.1815 
  1863.5000      8.7194     77.8137      0.0190      2.5257     36.2315    -59.4955   -999.2500   -999.2500   -999.2500      9.8702      9.3720      8.0089    111.3186 
  1864.0000      8.6908     78.4103      0.0149      2.5042     35.9047    -59.4698   -999.2500   -999.2500   -999.2500      9.8766      9.3781      7.9539    111.4736 
  1864.5000      8.6293     78.8741      0.0144      2.5099     35.7613    -59.4441   -999.2500   -999.2500   -999.2500      9.8830      9.3841      7.9618    110.3615 
  1865.0000      8.6500     79.2668      0.0164      2.5174     36.4136    -59.4184   -999.2500   -999.2500   -999.2500      9.8895      9.3902      8.0393    109.1552 
  1865.5000      8.6417     79.0337      0.0173      2.5102     37.0594    -59.3927   -999.2500   -999.2500   -999.2500      9.8959      9.3963      8.0618    107.7639 
  1866.0000      8.6333     78.1552      0.0108      2.4955     37.9779    -59.3670   -999.2500   -999.2500   -999.2500      9.8751      9.3752      7.9381    107.0731 
  1866.5000      8.6264     77.6178      0.0019      2.4868     37.8878    -59.3413   -999.2500   -999.2500   -999.2500      9.8591      9.3584      7.8238    108.5612 
  1867.0000      8.6213     76.9325      0.0004      2.5027     37.3594    -59.3156   -999.2500   -999.2500   -999.2500      9.9109      9.4075      8.1035    110.0618 
  1867.5000      8.6163     76.9314      0.0094      2.5101     37.4354    -59.2900   -999.2500   -999.2500   -999.2500     10.0572      9.4672      8.4927    111.5616 
  1868.0000      8.6100     77.0317      0.0199      2.5171     38.1596    -59.2643   -999.2500   -999.2500   -999.2500     10.3311      9.7342      8.7702    112.2927 
  1868.5000      8.5991     77.1098      0.0246      2.5165     38.0463    -59.2386   -999.2500   -999.2500   -999.2500     10.4323      9.9021      8.8867    112.0585 
  1869.0000      8.5925     77.4478      0.0212      2.5117     37.4023    -59.2129   -999.2500   -999.2500   -999.2500     10.3789      9.8522      8.8904    111.8469 
  1869.5000      8.6169     77.5263      0.0177      2.5063     37.2401    -59.1872   -999.2500   -999.2500   -999.2500     10.3313      9.8070      8.8341    111.1653 
  1870.0000      8.6414     77.4584      0.0143      2.5015     37.4389    -59.1615   -999.2500   -999.2500   -999.2500     10.2839      9.7620      8.8873    109.5854 
  1870.5000      8.6560     77.3569      0.0148      2.4962     39.1737    -59.1335   -999.2500   -999.2500   -999.2500     10.3014      9.7646      8.9956    108.2073 
  1871.0000      8.6791     77.0891      0.0162      2.4955     40.6145    -59.1032   -999.2500   -999.2500   -999.2500     10.4240      9.8808      9.1573    107.1058 
  1871.5000      8.7457     76.6971      0.0165      2.4960     41.2639    -59.0728   -999.2500   -999.2500   -999.2500     10.8055     10.1025      9.2937    105.5641 
  1872.0000      8.7030     76.3122      0.0151      2.4981     39.7259    -59.0425   -999.2500   -999.2500   -999.2500     11.0882     10.2979      9.3287    105.4893 
  1872.5000      8.6551     75.8109      0.0121      2.4988     38.3125    -59.0121   -999.2500   -999.2500   -999.2500     11.0314     10.1844      9.2950    106.0499 
