~VERSION INFORMATION
 VERS.                           2.00:        CWLS LOG ASCII STANDARD - VERSION 2.00
 WRAP.                             NO:        ONE LINE PER DEPTH STEP
~WELL INFORMATION
#MNEM.UNIT                   DATA             INFORMATION
#----------             --------------        ------------------------------
 STRT.F                       68.0000:        START DEPTH
 STOP.F                     2380.0000:        STOP DEPTH
 STEP.F                        0.5000:        STEP VALUE
 NULL.                      -999.2500:        NULL VALUE
 COMP.                     USGS/NPR-A:        COMPANY  
 LOC .                   30  22N  16W:        LOCATION   
 DATE.                        3/18/78:        LOG DATE 
 WELL.               SOUTH BARROW #17:        WELL     
 UWI .                   500232001100:        UNIQUE WELL ID 
 API .                   500232001100:        UNIQUE WELL IDENTIFIER 
 FLD .                   SOUTH BARROW:        FIELD    
 CNTY.                     NOTH SLOPE:        COUNTY  
 STAT.                         ALASKA:        STATE   
 CTRY.                            USA:        COUNTRY 
 OPER.                     USGS/NPR-A:        OPERATOR  
 SRVC.                   SCHLUMBERGER:        SERVICE COMPANY 
 LAT .                         0.0000:        LATITUDE
 LON .                         0.0000:        LONGITUDE
 DIGS.               CENTER LINE DATA:        DIGITIZING COMPANY 
~CURVE INFORMATION      
#MNEM        .UNIT         API CODE           CURVE DESCRIPTION
#-----------------      --------------        ------------------------------
 DEPT        .F                      :        1  DEPTH
 CALI        .IN                     :        2  
 GR          .GAPI                   :        3  
 NPHI        .%                      :        4  
 RHOB        .G/C3                   :        5  
 DRHO        .G/C3                   :        6  
 DT          .US/F                   :        7  
 SP          .MV                     :        8  
 ILD         .OHMM                   :        9  
 ILM         .OHMM                   :        10 
 LL8         .OHMM                   :        11 
 LLD         .OHMM                   :        12 
 LLS         .OHMM                   :        13 
~PARAMETER INFORMATION       
#MNEM.UNIT                  VALUE             DESCRIPTION OF MNEMONIC
#---------             ---------------        ------------------------------
 EKB .F                       33.0000:        KELLY BUSHING
 TD  .F                     2382.0000:        TOTAL DEPTH
 BHT .F                        0.0000:        BOTTOM HOLE TEMPERATURE
 BS  .                         8.5000:        BIT SIZE
 FD  .                        10.8000:        FLUID DENSITY
 CSIZ.                         9.6250:        CASING SIZE
 CBD .F                     1512.0000:        CASING DRILLER 1
 CBL .F                     1512.0000:        CASING LOGGER 1
 DFT .                  Miscellaneous:        TYPE FLUID IN HOLE
 DFV .                        43.0000:        VISCOSITY
 DFPH.                         8.5000:        PH
 DFL .                         4.0000:        FLUID LOSS
 RMS .                         0.0760:        RM
 MST .F                       60.0000:        RM MEAS. TEMP.
 RMF .                         0.0000:        RMF
 MFST.F                        0.0000:        RMF MEAS. TEMP.
 RMC .                         0.1640:        RMC
 MCST.F                       55.0000:        RMC MEAS. TEMP.
~OTHER INFORMATION
~A    DEPTH        CALI          GR        NPHI        RHOB        DRHO          DT          SP         ILD         ILM         LL8         LLD         LLS  
# ...
  1751.0000      8.6969    149.5294     50.4035      2.4117     -0.0073    120.7402     42.2549   -999.2500   -999.2500   -999.2500     18.1754     17.7004  
  1751.5000      8.6527    152.8917     49.8365      2.4039      0.0006    120.6852     42.2409   -999.2500   -999.2500   -999.2500     17.9067     16.3014  
  1752.0000      8.6084    148.4400     48.5063      2.4264      0.0290    119.0339     42.2494   -999.2500   -999.2500   -999.2500     17.9337     14.6531  
  1752.5000      8.6124    140.0488     47.1406      2.4358      0.0209    117.6332     42.2624   -999.2500   -999.2500   -999.2500     18.6134     13.3832  
  1753.0000      8.6027    133.6989     45.3042      2.4233      0.0064    117.6850     42.2523   -999.2500   -999.2500   -999.2500     20.7409     14.4469  
  1753.5000      8.5876    131.0804     44.5095      2.4467      0.0195    118.1749     42.2010   -999.2500   -999.2500   -999.2500     23.0667     15.8353  
  1754.0000      8.5939    132.7839     44.4556      2.4277      0.0175    118.6845     41.9437   -999.2500   -999.2500   -999.2500     25.0814     17.3868  
  1754.5000      8.5951    135.8582     44.4273      2.4054      0.0086    117.4531     41.6766   -999.2500   -999.2500   -999.2500     24.3669     18.7994  
  1755.0000      8.5974    133.8406     44.7459      2.4041      0.0098    115.6915     41.5814   -999.2500   -999.2500   -999.2500     19.8691     17.0565  
  1755.5000      8.6674    122.9353     44.1439      2.4170      0.0261    113.0958     41.4892   -999.2500   -999.2500   -999.2500     14.8433     14.1460  
  1756.0000      8.7390    108.0783     43.1321      2.4202      0.0430    111.5691     41.5009   -999.2500   -999.2500   -999.2500     12.0625     11.7321  
  1756.5000      8.8106     98.0912     43.3845      2.3993      0.0514    111.2940     41.7296   -999.2500   -999.2500   -999.2500     11.1979     10.3969  
  1757.0000      8.8822     92.0751     45.2078      2.3666      0.0549    112.1983     42.0310   -999.2500   -999.2500   -999.2500     11.5538      9.8218  
  1757.5000      8.9538     87.8551     47.3035      2.3906      0.0896    112.4539     42.2045   -999.2500   -999.2500   -999.2500     13.3329      9.8038  
  1758.0000      9.0254     85.8208     47.4268      2.3945      0.1110    111.2003     42.5895   -999.2500   -999.2500   -999.2500     15.9672     10.6443  
  1758.5000      9.0532     85.6252     46.0168      2.3890      0.0862    109.0521     42.9290   -999.2500   -999.2500   -999.2500     19.1220     13.2935  
  1759.0000      9.0603     85.3046     43.3321      2.4146      0.0622    103.9124     43.1735   -999.2500   -999.2500   -999.2500     20.7415     14.2653  
  1759.5000      9.0119     84.2517     41.5479      2.3960      0.0387     99.8172     43.2892   -999.2500   -999.2500   -999.2500     22.4862     16.7290  
  1760.0000      8.8910     81.2297     37.6487      2.4178      0.0714     97.5960     43.3940   -999.2500   -999.2500   -999.2500     24.3776     17.0971  
  1760.5000      8.7701     77.7303     36.4202      2.4654      0.1487     99.2675     43.4409   -999.2500   -999.2500   -999.2500     18.8767     16.4815  
  1761.0000      8.6975     76.0374     36.7462      2.4549      0.1537    101.8943     43.4854   -999.2500   -999.2500   -999.2500     16.3724     15.8880  
  1761.5000      8.7027     74.3289     38.5940      2.4045      0.1160    104.2024     43.5907   -999.2500   -999.2500   -999.2500     15.4355     15.3160  
  1762.0000      8.7475     72.1085     38.9263      2.3918      0.0864    102.2398     43.5701   -999.2500   -999.2500   -999.2500     14.5303     14.7645  
  1762.5000      8.7923     69.6767     38.5766      2.4132      0.0719    101.1127     43.4348   -999.2500   -999.2500   -999.2500     14.8074     14.5009  
  1763.0000      8.8790     68.0224     38.5946      2.3945      0.0480    100.8389     43.2418   -999.2500   -999.2500   -999.2500     18.3100     16.1421  
  1763.5000      9.1887     67.2834     39.6997      2.3793      0.0545    100.8690     43.0711   -999.2500   -999.2500   -999.2500     22.6412     17.9690  
  1764.0000      9.4739     67.1747     40.0307      2.3811      0.0477    100.6372     42.9259   -999.2500   -999.2500   -999.2500     27.5704     20.0027  
  1764.5000      9.2452     67.7731     38.8847      2.3580      0.0355     99.7596     42.7610   -999.2500   -999.2500   -999.2500     33.2203     22.7979  
  1765.0000      8.9644     69.1993     38.7371      2.3928      0.0985     99.2144     42.7329   -999.2500   -999.2500   -999.2500     39.6421     26.3594  
  1765.5000      8.8699     70.0218     39.9336      2.4253      0.1399     97.6624     42.6838   -999.2500   -999.2500   -999.2500     46.3866     30.4773  
  1766.0000      8.7754     70.3345     39.9056      2.3974      0.0870     99.2089     42.5430   -999.2500   -999.2500   -999.2500     48.9420     28.1732  
  1766.5000      8.7347     72.5514     39.0520      2.4084      0.0902    101.7812     42.3802   -999.2500   -999.2500   -999.2500     23.8536     18.5125  
  1767.0000      8.7034     75.8875     40.0256      2.4631      0.1439    108.5726     42.2659   -999.2500   -999.2500   -999.2500     11.4708     12.1645  
  1767.5000      8.7635     80.6215     44.0663      2.4235      0.1057    116.3591     42.1783   -999.2500   -999.2500   -999.2500      9.6984      9.6890  
  1768.0000      9.0355     86.2929     50.0247      2.4105      0.0854    120.8360     41.8795   -999.2500   -999.2500   -999.2500      8.9907      9.2330  
  1768.5000      9.1923     90.4758     51.6337      2.4250      0.0734    121.4314     41.6190   -999.2500   -999.2500   -999.2500      8.6826      9.1875  
  1769.0000      9.1495     92.2748     50.5877      2.4196      0.0613    121.3608     41.2413   -999.2500   -999.2500   -999.2500      8.7818      9.3383  
  1769.5000      9.1068     93.0057     49.1968      2.4138      0.0639    121.2941     41.2025   -999.2500   -999.2500   -999.2500      8.8822      9.4916  
  1770.0000      9.1292     93.4161     47.8059      2.3930      0.0488    122.2504     41.5220   -999.2500   -999.2500   -999.2500      8.9837      9.6475  
  1770.5000      9.1688     93.7629     49.1280      2.4263      0.0721    123.1258     41.7478   -999.2500   -999.2500   -999.2500      9.0864      9.4042  
  1771.0000      9.3030     93.5915     51.0541      2.4266      0.0792    123.2145     41.6553   -999.2500   -999.2500   -999.2500      9.1902      9.0854  
  1771.5000      9.3724     92.7776     51.7146      2.4084      0.0818    123.3633     41.4923   -999.2500   -999.2500   -999.2500      9.0112      8.7774  
  1772.0000      9.1375     92.2760     51.5314      2.4041      0.0811    123.5182     41.4127   -999.2500   -999.2500   -999.2500      8.8229      8.4799  
  1772.5000      9.0409     93.3937     50.9922      2.4004      0.0884    123.6526     41.3389   -999.2500   -999.2500   -999.2500      8.4274      8.2274  
  1773.0000      9.0737     94.2701     50.8793      2.3830      0.1017    123.7019     41.2242   -999.2500   -999.2500   -999.2500      7.9992      8.1203  
  1773.5000      9.1223     94.4292     52.1270      2.3817      0.1372    123.5894     41.1096   -999.2500   -999.2500   -999.2500      8.1772      8.0147  
  1774.0000      9.1497     94.8751     52.2509      2.3429      0.1388    123.4354     40.9935   -999.2500   -999.2500   -999.2500      8.4393      7.9104  
  1774.5000      9.1290     94.0585     51.5678      2.3250      0.1272    123.1600     40.9355   -999.2500   -999.2500   -999.2500      8.7098      7.8198  
  1775.0000      9.1082     92.4494     51.0312      2.3584      0.1429    122.8458     40.7619   -999.2500   -999.2500   -999.2500      8.9890      7.7424  
  1775.5000      9.0874     90.8537     50.0218      2.3688      0.1383    122.7904     40.5935   -999.2500   -999.2500   -999.2500      9.2771      7.8270  
  1776.0000      9.1277     89.2077     49.6113      2.3738      0.1489    123.1727     40.4611   -999.2500   -999.2500   -999.2500      8.9940      7.9578  
