~VERSION INFORMATION
 VERS.                           2.00:        CWLS LOG ASCII STANDARD - VERSION 2.00
 WRAP.                             NO:        ONE LINE PER DEPTH STEP
~WELL INFORMATION
#MNEM.UNIT                   DATA             INFORMATION
#----------             --------------        ------------------------------
 STRT.F                       68.0000:        START DEPTH
 STOP.F                     2380.0000:        STOP DEPTH
 STEP.F                        0.5000:        STEP VALUE
 NULL.                      -999.2500:        NULL VALUE
 COMP.                     USGS/NPR-A:        COMPANY  
 LOC .                   30  22N  16W:        LOCATION   
 DATE.                        3/18/78:        LOG DATE 
 WELL.               SOUTH BARROW #17:        WELL     
 UWI .                   500232001100:        UNIQUE WELL ID 
 API .                   500232001100:        UNIQUE WELL IDENTIFIER 
 FLD .                   SOUTH BARROW:        FIELD    
 CNTY.                     NOTH SLOPE:        COUNTY  
 STAT.                         ALASKA:        STATE   
 CTRY.                            USA:        COUNTRY 
 OPER.                     USGS/NPR-A:        OPERATOR  
 SRVC.                   SCHLUMBERGER:        SERVICE COMPANY 
 LAT .                         0.0000:        LATITUDE
 LON .                         0.0000:        LONGITUDE
 DIGS.               CENTER LINE DATA:        DIGITIZING COMPANY 
~CURVE INFORMATION      
#MNEM        .UNIT         API CODE           CURVE DESCRIPTION
#-----------------      --------------        ------------------------------
 DEPT        .F                      :        1  DEPTH
 CALI        .IN                     :        2  
 GR          .GAPI                   :        3  
 NPHI        .%                      :        4  
 RHOB        .G/C3                   :        5  
 DRHO        .G/C3                   :        6  
 DT          .US/F                   :        7  
 SP          .MV                     :        8  
 ILD         .OHMM                   :        9  
 ILM         .OHMM                   :        10 
 LL8         .OHMM                   :        11 
 LLD         .OHMM                   :        12 
 LLS         .OHMM                   :        13 
~PARAMETER INFORMATION       
#MNEM.UNIT                  VALUE             DESCRIPTION OF MNEMONIC
#---------             ---------------        ------------------------------
 EKB .F                       33.0000:        KELLY BUSHING
 TD  .F                     2382.0000:        TOTAL DEPTH
 BHT .F                        0.0000:        BOTTOM HOLE TEMPERATURE
 BS  .                         8.5000:        BIT SIZE
 FD  .                        10.8000:        FLUID DENSITY
 CSIZ.                         9.6250:        CASING SIZE
 CBD .F                     1512.0000:        CASING DRILLER 1
 CBL .F                     1512.0000:        CASING LOGGER 1
 DFT .                  Miscellaneous:        TYPE FLUID IN HOLE
 DFV .                        43.0000:        VISCOSITY
 DFPH.                         8.5000:        PH
 DFL .                         4.0000:        FLUID LOSS
 RMS .                         0.0760:        RM
 MST .F                       60.0000:        RM MEAS. TEMP.
 RMF .                         0.0000:        RMF
 MFST.F                        0.0000:        RMF MEAS. TEMP.
 RMC .                         0.1640:        RMC
 MCST.F                       55.0000:        RMC MEAS. TEMP.
~OTHER INFORMATION
~A    DEPTH        CALI          GR        NPHI        RHOB        DRHO          DT          SP         ILD         ILM         LL8         LLD         LLS  
# ...
  2337.5000      5.5462     43.5087     21.0500      2.5003      0.0123     78.0285     52.2094   -999.2500   -999.2500   -999.2500     63.4777     62.8058  
  2338.0000      5.5264     42.1392     19.1656      2.5536      0.0225     74.3399     52.2146   -999.2500   -999.2500   -999.2500     67.1398     67.0307  
  2338.5000      5.5584     41.1424     17.3036      2.5977      0.0480     72.6614     52.2236   -999.2500   -999.2500   -999.2500     71.1110     71.5398  
  2339.0000      5.5771     40.1052     16.8239      2.5982      0.0472     71.9157     52.2316   -999.2500   -999.2500   -999.2500     74.0802     73.8437  
  2339.5000      5.5631     39.3969     16.6365      2.5807      0.0272     71.5625     52.2264   -999.2500   -999.2500   -999.2500     74.5195     75.2532  
  2340.0000      5.5351     38.8496     16.5377      2.5654      0.0075     71.5364     52.2307   -999.2500   -999.2500   -999.2500     81.2784     78.3216  
  2340.5000      5.5229     39.5543     16.9249      2.5701     -0.0076     71.5394     52.2292   -999.2500   -999.2500   -999.2500     86.1491     86.1246  
  2341.0000      5.5635     40.9676     17.1378      2.5811     -0.0062     72.0083     52.2076   -999.2500   -999.2500   -999.2500     93.2591     94.7050  
  2341.5000      5.6050     43.5945     16.9421      2.5811     -0.0017     72.1542     52.2203   -999.2500   -999.2500   -999.2500     98.9442    104.1401  
  2342.0000      5.5992     47.8871     16.7272      2.5797      0.0021     71.7868     52.2225   -999.2500   -999.2500   -999.2500    100.5101    104.6696  
  2342.5000      5.6138     51.9632     16.5725      2.5750      0.0045     71.1103     52.2036   -999.2500   -999.2500   -999.2500    102.1009    105.0518  
  2343.0000      5.6515     55.4806     16.3624      2.5802      0.0160     70.2334     52.1759   -999.2500   -999.2500   -999.2500    103.7168    105.4354  
  2343.5000      5.6573     60.3106     15.6974      2.5999      0.0233     69.3451     52.2203   -999.2500   -999.2500   -999.2500    107.7423    106.8958  
  2344.0000      5.6497     70.4302     15.1883      2.6295      0.0352     70.7645     52.2445   -999.2500   -999.2500   -999.2500    110.3694    117.6381  
  2344.5000      5.6448     81.2410     15.8445      2.6491      0.0274     71.4680     52.2164   -999.2500   -999.2500   -999.2500    139.4838    142.6724  
  2345.0000      5.6584     94.8864     16.1991      2.6884      0.0228     71.3104     52.2885   -999.2500   -999.2500   -999.2500    174.4091    173.0344  
  2345.5000      5.6667    113.5240     16.5160      2.7107      0.0376     70.1101     52.2578   -999.2500   -999.2500   -999.2500    198.8265    209.8576  
  2346.0000      5.6960    127.5380     16.4836      2.7510      0.0685     66.3049     52.2305   -999.2500   -999.2500   -999.2500    219.4724    232.5123  
  2346.5000      5.7226    133.0768     15.6133      2.7388      0.0557     63.3043     52.2357   -999.2500   -999.2500   -999.2500    216.4845    235.7534  
  2347.0000      5.7310    131.9884     14.3319      2.7202      0.0319     61.4137     52.2385   -999.2500   -999.2500   -999.2500    206.0265    217.6286  
  2347.5000      5.7061    127.7025     13.8055      2.7136      0.0170     61.2010     52.2413   -999.2500   -999.2500   -999.2500    204.2564    221.1124  
  2348.0000      5.6964    125.2281     14.6406      2.6992      0.0126     61.6698     52.2278   -999.2500   -999.2500   -999.2500    199.4666    228.4497  
  2348.5000      5.6938    130.7775     15.1350      2.7114      0.0214     62.2592     52.1979   -999.2500   -999.2500   -999.2500    191.3341    206.4080  
  2349.0000      5.6916    136.9005     15.7634      2.7149      0.0276     62.2048     52.2170   -999.2500   -999.2500   -999.2500    186.1364    186.4931  
  2349.5000      5.6586    141.6368     15.8877      2.7092      0.0264     61.8017     52.2151   -999.2500   -999.2500   -999.2500    163.8361    168.4963  
  2350.0000      5.6813    145.5172     15.7469      2.6993      0.0211     61.7593     52.2112   -999.2500   -999.2500   -999.2500    147.7266    152.2361  
  2350.5000      5.7040    143.6112     15.3748      2.6885      0.0170     62.4319     52.2093   -999.2500   -999.2500   -999.2500    133.2010    137.5449  
  2351.0000      5.6466    142.9859     15.1583      2.7012      0.0232     63.3945     52.2205   -999.2500   -999.2500   -999.2500    120.1038    125.3408  
  2351.5000      5.6543    142.6668     15.4566      2.7052      0.0146     64.1910     52.2317   -999.2500   -999.2500   -999.2500    132.1627    132.2309  
  2352.0000      5.6717    139.6985     15.9453      2.6978      0.0096     66.5277     52.2422   -999.2500   -999.2500   -999.2500    153.5916    148.9074  
  2352.5000      5.6806    135.3804     16.4433      2.6747      0.0073     66.2050     52.2501   -999.2500   -999.2500   -999.2500    170.7213    167.6872  
  2353.0000      5.6821    133.4300     16.6200      2.6834      0.0102     65.3557     52.2563   -999.2500   -999.2500   -999.2500    177.4555    176.6572  
  2353.5000      5.6755    133.5240     16.6570      2.6908      0.0130     64.1492     52.2625   -999.2500   -999.2500   -999.2500    169.3689    167.0674  
  2354.0000      5.6701    133.4603     16.2548      2.6884      0.0006     62.8418     52.2592   -999.2500   -999.2500   -999.2500    157.5989    157.9982  
  2354.5000      5.6653    135.4194     15.4397      2.6867     -0.0031     62.3909     52.2368   -999.2500   -999.2500   -999.2500    151.2262    153.6477  
  2355.0000      5.6757    137.9538     14.9190      2.6922     -0.0001     62.0618     52.2868   -999.2500   -999.2500   -999.2500    150.1266    145.8476  
  2355.5000      5.6850    141.6642     14.9655      2.7010      0.0203     62.3757     52.2132   -999.2500   -999.2500   -999.2500    136.0634    130.0941  
  2356.0000      5.6593    144.6701     15.1651      2.7244      0.0426     62.6896     52.2617   -999.2500   -999.2500   -999.2500    118.1113    116.0421  
  2356.5000      5.6374    147.2265     15.3477      2.7139      0.0499     63.6873     52.2473   -999.2500   -999.2500   -999.2500    104.5770    109.1215  
  2357.0000      5.6535    152.9409     15.5342      2.7148      0.0371     65.5180     52.2227   -999.2500   -999.2500   -999.2500     97.6644    108.8418  
  2357.5000      5.6252    159.7646     16.0468      2.7176      0.0290     67.4687     52.2425   -999.2500   -999.2500   -999.2500    115.8689    119.0627  
  2358.0000      5.6253    157.2094     17.0415      2.6994      0.0172     69.4194     52.2502   -999.2500   -999.2500   -999.2500    141.9043    137.1365  
  2358.5000      5.6504    139.5583     17.5817      2.6800      0.0070     69.4262     52.2490   -999.2500   -999.2500   -999.2500    156.9014    157.9539  
  2359.0000      5.6318     82.9275     17.9436      2.6910      0.0061     68.1190     52.2482   -999.2500   -999.2500   -999.2500    161.1823    169.7097  
  2359.5000      5.5471     20.6755     17.9045      2.7136      0.0107     66.8118     52.2475   -999.2500   -999.2500   -999.2500    170.1799    178.8045  
  2360.0000      5.5774     13.5835     17.6801      2.7105      0.0189     65.5045     52.2310   -999.2500   -999.2500   -999.2500    179.8562    188.3868  
  2360.5000      5.6452     13.7930     17.3261      2.7316      0.0353     64.8365     52.2096   -999.2500   -999.2500   -999.2500    190.3297    198.4825  
  2361.0000      5.6651     13.7727     17.0323      2.7332      0.0402     64.3761     52.2144   -999.2500   -999.2500   -999.2500    195.3724    185.1491  
  2361.5000      5.6724     13.6763     16.8722      2.7142      0.0188     63.9156     52.2110   -999.2500   -999.2500   -999.2500    167.4954    167.2446  
  2362.0000      5.6755     13.5950     16.8452      2.7081      0.0004     63.4551     52.1949   -999.2500   -999.2500   -999.2500    149.8385    151.0716  
  2362.5000      5.6760     13.5586     16.8913      2.7196      0.0085     63.4039     52.1850   -999.2500   -999.2500   -999.2500    137.7463    136.4626  
