~VERSION INFORMATION
 VERS.                           2.00:        CWLS LOG ASCII STANDARD - VERSION 2.00
 WRAP.                             NO:        ONE LINE PER DEPTH STEP
~WELL INFORMATION
#MNEM.UNIT                   DATA             INFORMATION
#----------             --------------        ------------------------------
 STRT.F                     1088.0000:        START DEPTH
 STOP.F                     2449.0000:        STOP DEPTH
 STEP.F                        0.5000:        STEP VALUE
 NULL.                      -999.2500:        NULL VALUE
 COMP.             UNITED STATES NAVY:        COMPANY  
 LOC .                   11  22N  18W:        LOCATION   
 DATE.                         4/7/70:        LOG DATE 
 WELL.                    GAS WELL #9:        WELL     
 UWI .                   500232000300:        UNIQUE WELL ID 
 API .                   500232000300:        UNIQUE WELL IDENTIFIER 
 FLD .                   SOUTH BARROW:        FIELD    
 CNTY.                   POINT BARROW:        COUNTY  
 STAT.                         ALASKA:        STATE   
 CTRY.                            USA:        COUNTRY 
 OPER.             UNITED STATES NAVY:        OPERATOR  
 SRVC.                   SCHLUMBERGER:        SERVICE COMPANY 
 LAT .                         0.0000:        LATITUDE
 LON .                         0.0000:        LONGITUDE
 DIGS.               CENTER LINE DATA:        DIGITIZING COMPANY 
~CURVE INFORMATION      
#MNEM        .UNIT         API CODE           CURVE DESCRIPTION
#-----------------      --------------        ------------------------------
 DEPT        .F                      :        1  DEPTH
 SP          .MV                     :        2  
 ASN         .OHMM                   :        3  
 ILD         .OHMM                   :        4  
 CILD        .MMHO                   :        5  
 CALI        .IN                     :        6  
 GR          .GAPI                   :        7  
 DRHO        .G/C3                   :        8  
 RHOB        .G/C3                   :        9  
 DT          .US/F                   :        10 
~PARAMETER INFORMATION       
#MNEM.UNIT                  VALUE             DESCRIPTION OF MNEMONIC
#---------             ---------------        ------------------------------
 EKB .F                       29.0000:        KELLY BUSHING
 TD  .F                     2450.0000:        TOTAL DEPTH
 BHT .F                       75.0000:        BOTTOM HOLE TEMPERATURE
 BS  .                         8.6250:        BIT SIZE
 FD  .                        10.7000:        FLUID DENSITY
 CSIZ.                         9.6250:        CASING SIZE
 CBD .F                     1100.0000:        CASING DRILLER 1
 CBL .F                     1102.0000:        CASING LOGGER 1
 DFT .                            Gel:        TYPE FLUID IN HOLE
 DFV .                        45.0000:        VISCOSITY
 DFPH.                         8.8000:        PH
 DFL .                         3.8000:        FLUID LOSS
 RMS .                         2.7500:        RM
 MST .F                       60.0000:        RM MEAS. TEMP.
 RMF .                         2.3600:        RMF
 MFST.F                       60.0000:        RMF MEAS. TEMP.
 RMC .                         3.7800:        RMC
 MCST.F                       60.0000:        RMC MEAS. TEMP.
~OTHER INFORMATION
~A    DEPTH          SP         ASN         ILD        CILD        CALI          GR        DRHO        RHOB          DT  
# ...
  1451.0000    -21.8803     13.4055     13.0466     76.3100     10.1874     67.7818      0.0404      2.4676    105.1029  
  1451.5000    -21.8524     13.3725     12.9117     76.7545     10.1884     67.2154      0.0229      2.4389    105.7072  
  1452.0000    -22.0536     13.6176     12.8181     77.2478     10.1399     67.2357      0.0416      2.4671    105.6980  
  1452.5000    -22.5172     13.8359     12.8483     77.5000     10.0493     69.7576      0.0740      2.4993    104.9173  
  1453.0000    -22.6975     13.4381     12.9080     77.1378     10.0336     71.7157      0.0720      2.5071    103.4721  
  1453.5000    -22.3363     13.3073     12.9917     76.5382     10.1314     74.3252      0.0788      2.5149    102.4443  
  1454.0000    -21.1508     13.4151     13.0755     75.6924     10.0917     74.9675      0.0716      2.5106    101.8550  
  1454.5000    -19.8807     13.5373     13.1592     75.3574     10.0535     73.4868      0.0600      2.5134    102.1571  
  1455.0000    -19.8330     13.7297     13.2412     75.4126     10.0273     71.5030      0.0606      2.5106    102.1437  
  1455.5000    -20.0741     13.9221     13.2477     75.4678     10.0140     70.0607      0.0499      2.4988    101.5257  
  1456.0000    -20.3307     14.1145     13.2543     75.5000     10.0006     68.3156      0.0517      2.4998    100.3510  
  1456.5000    -20.4152     14.1752     13.2608     75.5000     10.0860     67.8745      0.0502      2.5019     99.6492  
  1457.0000    -20.9213     14.0515     13.2674     75.5271     10.0723     67.7775      0.0541      2.5019     99.8085  
  1457.5000    -21.3663     13.9230     13.2287     75.8353      9.9906     68.6546      0.0456      2.4983    100.2198  
  1458.0000    -21.2885     13.7945     13.0981     76.6053      9.9798     69.6265      0.0275      2.4833    100.9535  
  1458.5000    -20.7163     13.6659     12.8160     77.8949      9.9891     70.8680      0.0397      2.4813    101.5458  
  1459.0000    -20.7230     13.5631     12.5338     79.4317     10.0337     71.4144      0.0445      2.4973    102.0055  
  1459.5000    -20.8825     13.5285     12.2407     81.5498     10.0617     71.3664      0.0501      2.4977    102.1762  
  1460.0000    -20.7399     13.3477     11.9658     83.0368     10.0453     72.2371      0.0567      2.5021    102.0180  
  1460.5000    -20.5268     13.0420     11.6931     84.7971     10.0289     72.5038      0.0508      2.4923    102.0272  
  1461.0000    -20.0664     12.7304     11.5047     86.1222     10.0316     71.9943      0.0418      2.4830    103.0632  
  1461.5000    -19.0678     12.4717     11.2772     87.3110     10.0212     69.9922      0.0639      2.5055    104.9873  
  1462.0000    -18.0692     12.2945     11.0974     88.5335     10.0135     68.6336      0.0570      2.4983    106.6284  
  1462.5000    -17.9040     12.2255     10.9316     90.2063     10.0394     69.7516      0.0361      2.4679    107.4370  
  1463.0000    -18.3711     12.2563     10.7420     91.0066     10.0550     71.0677      0.0245      2.4545    107.2698  
  1463.5000    -18.6820     12.2104     10.7227     91.2782     10.1013     69.6225      0.0378      2.4640    106.8297  
  1464.0000    -18.6603     12.1638     10.8363     90.7766     10.1309     71.0154      0.0326      2.4676    106.7518  
  1464.5000    -18.9600     12.1242     10.9341     90.0711     10.1428     70.8809      0.0428      2.4786    107.1945  
  1465.0000    -19.2371     12.0611     11.0342     89.2558     10.1454     67.0521      0.0540      2.4896    107.4809  
  1465.5000    -19.4677     12.1082     11.1466     88.5213     10.1449     65.0545      0.0383      2.4805    107.7859  
  1466.0000    -19.2121     12.2443     11.2591     87.8859     10.1482     68.2578      0.0340      2.4749    107.8999  
  1466.5000    -19.6864     12.3850     11.3715     87.4080     10.1591     70.1292      0.0352      2.4707    107.3542  
  1467.0000    -19.7621     12.5256     11.4839     86.6077     10.1739     71.3784      0.0492      2.4764    106.8494  
  1467.5000    -19.6921     12.5660     11.5963     85.8075     10.1800     70.9100      0.0624      2.4888    106.2515  
  1468.0000    -19.7812     12.4159     11.8189     84.2715     10.1880     70.4416      0.0592      2.4865    105.5273  
  1468.5000    -20.5646     12.4037     12.1307     82.8387     10.1879     70.3655      0.0533      2.4775    105.1072  
  1469.0000    -21.4843     12.5920     12.4426     81.1586     10.1847     70.6805      0.0454      2.4807    104.7818  
  1469.5000    -21.5909     12.8499     12.7545     79.4520     10.1970     71.7760      0.0423      2.4816    104.3360  
  1470.0000    -20.8357     13.1598     13.0663     77.5669     10.1876     73.3297      0.0477      2.4892    103.9114  
  1470.5000    -20.0219     13.5645     13.3793     75.5603     10.2023     73.5881      0.0531      2.4946    102.7764  
  1471.0000    -20.0141     13.9980     13.6981     73.5586     10.2076     72.9313      0.0585      2.5021    101.7724  
  1471.5000    -20.1783     14.4315     14.0169     72.0970     10.2422     72.9381      0.0497      2.4998    100.8196  
  1472.0000    -19.8836     14.8650     14.0918     71.2409     10.3186     72.4246      0.0399      2.4937     99.2563  
  1472.5000    -18.8289     15.2853     14.1261     71.3866     10.3711     68.9065      0.0322      2.4944     98.2350  
  1473.0000    -17.9820     15.3275     14.0318     71.8453     10.3688     65.6489      0.0453      2.5056     97.1709  
  1473.5000    -17.6818     15.2760     13.8516     72.5839     10.3358     65.2887      0.0418      2.5072     96.8210  
  1474.0000    -18.4912     14.9091     13.5879     74.2561     10.2888     65.8019      0.0390      2.5045     97.7786  
  1474.5000    -19.2551     14.4927     13.2467     75.7165     10.1918     66.7553      0.0457      2.5019     99.6570  
  1475.0000    -19.2648     14.1013     12.8744     78.1768     10.2341     69.2856      0.0531      2.4985    101.2197  
  1475.5000    -19.3403     13.7588     12.3531     80.2040     10.2671     69.9107      0.0604      2.5042    102.6341  
  1476.0000    -19.6692     13.5215     12.1272     82.4364     10.2215     70.0321      0.0474      2.4912    102.9861  
  1476.5000    -20.4720     13.3230     11.8811     83.6714     10.1838     68.1163      0.0384      2.4713    103.0916  
  1477.0000    -22.2679     13.1455     11.7469     84.4233     10.1615     66.0419      0.0347      2.4590    103.6635  
  1477.5000    -23.2399     12.9679     11.7145     84.8388     10.1666     66.0594      0.0411      2.4565    104.6073  
  1478.0000    -23.0334     12.8600     11.8056     84.7470     10.1848     70.2251      0.0319      2.4607    105.6224  
  1478.5000    -22.7473     12.8779     11.8966     84.1567     10.1980     74.8749      0.0226      2.4528    106.5040  
  1479.0000    -22.5178     12.9632     11.9877     83.2588     10.2020     74.5066      0.0336      2.4608    106.7112  
  1479.5000    -22.3553     13.0485     12.1274     82.2261     10.1980     73.3150      0.0440      2.4567    106.7341  
  1480.0000    -22.4502     13.1338     12.4517     80.6350     10.2118     72.3513      0.0575      2.4640    106.6359  
  1480.5000    -22.4127     13.2192     12.7759     78.7232     10.2651     71.8590      0.0605      2.4765    105.9655  
  1481.0000    -22.1170     13.3964     13.1756     76.6323     10.3062     71.0794      0.0516      2.4848    104.9083  
  1481.5000    -22.2544     13.7201     13.5924     74.7095     10.3752     70.1280      0.0414      2.4828    103.7647  
  1482.0000    -22.2310     14.1450     14.0092     73.0676     10.3909     68.8430      0.0397      2.4926    102.8348  
  1482.5000    -22.7950     14.4017     14.2397     71.6149     10.3939     68.5438      0.0351      2.4844    101.8384  
  1483.0000    -22.6860     14.5974     14.3587     70.6499     10.3776     68.2004      0.0280      2.4755    101.0287  
  1483.5000    -22.0903     14.7930     14.4778     69.8161     10.3739     63.3088      0.0471      2.4928     99.8112  
