~VERSION INFORMATION
 VERS.                           2.00:        CWLS LOG ASCII STANDARD - VERSION 2.00
 WRAP.                             NO:        ONE LINE PER DEPTH STEP
~WELL INFORMATION
#MNEM.UNIT                   DATA             INFORMATION
#----------             --------------        ------------------------------
 STRT.F                     1088.0000:        START DEPTH
 STOP.F                     2449.0000:        STOP DEPTH
 STEP.F                        0.5000:        STEP VALUE
 NULL.                      -999.2500:        NULL VALUE
 COMP.             UNITED STATES NAVY:        COMPANY  
 LOC .                   11  22N  18W:        LOCATION   
 DATE.                         4/7/70:        LOG DATE 
 WELL.                    GAS WELL #9:        WELL     
 UWI .                   500232000300:        UNIQUE WELL ID 
 API .                   500232000300:        UNIQUE WELL IDENTIFIER 
 FLD .                   SOUTH BARROW:        FIELD    
 CNTY.                   POINT BARROW:        COUNTY  
 STAT.                         ALASKA:        STATE   
 CTRY.                            USA:        COUNTRY 
 OPER.             UNITED STATES NAVY:        OPERATOR  
 SRVC.                   SCHLUMBERGER:        SERVICE COMPANY 
 LAT .                         0.0000:        LATITUDE
 LON .                         0.0000:        LONGITUDE
 DIGS.               CENTER LINE DATA:        DIGITIZING COMPANY 
~CURVE INFORMATION      
#MNEM        .UNIT         API CODE           CURVE DESCRIPTION
#-----------------      --------------        ------------------------------
 DEPT        .F                      :        1  DEPTH
 SP          .MV                     :        2  
 ASN         .OHMM                   :        3  
 ILD         .OHMM                   :        4  
 CILD        .MMHO                   :        5  
 CALI        .IN                     :        6  
 GR          .GAPI                   :        7  
 DRHO        .G/C3                   :        8  
 RHOB        .G/C3                   :        9  
 DT          .US/F                   :        10 
~PARAMETER INFORMATION       
#MNEM.UNIT                  VALUE             DESCRIPTION OF MNEMONIC
#---------             ---------------        ------------------------------
 EKB .F                       29.0000:        KELLY BUSHING
 TD  .F                     2450.0000:        TOTAL DEPTH
 BHT .F                       75.0000:        BOTTOM HOLE TEMPERATURE
 BS  .                         8.6250:        BIT SIZE
 FD  .                        10.7000:        FLUID DENSITY
 CSIZ.                         9.6250:        CASING SIZE
 CBD .F                     1100.0000:        CASING DRILLER 1
 CBL .F                     1102.0000:        CASING LOGGER 1
 DFT .                            Gel:        TYPE FLUID IN HOLE
 DFV .                        45.0000:        VISCOSITY
 DFPH.                         8.8000:        PH
 DFL .                         3.8000:        FLUID LOSS
 RMS .                         2.7500:        RM
 MST .F                       60.0000:        RM MEAS. TEMP.
 RMF .                         2.3600:        RMF
 MFST.F                       60.0000:        RMF MEAS. TEMP.
 RMC .                         3.7800:        RMC
 MCST.F                       60.0000:        RMC MEAS. TEMP.
~OTHER INFORMATION
~A    DEPTH          SP         ASN         ILD        CILD        CALI          GR        DRHO        RHOB          DT  
  1088.0000   -999.2500   -999.2500   -999.2500   -999.2500   -999.2500     49.9702   -999.2500   -999.2500   -999.2500  
  1088.5000   -999.2500   -999.2500   -999.2500   -999.2500   -999.2500     50.7592   -999.2500   -999.2500   -999.2500  
  1089.0000   -999.2500   -999.2500   -999.2500   -999.2500   -999.2500     52.0155   -999.2500   -999.2500   -999.2500  
  1089.5000   -999.2500   -999.2500   -999.2500   -999.2500   -999.2500     52.2536   -999.2500   -999.2500   -999.2500  
  1090.0000   -999.2500   -999.2500   -999.2500   -999.2500   -999.2500     52.2993   -999.2500   -999.2500   -999.2500  
  1090.5000   -999.2500   -999.2500   -999.2500   -999.2500   -999.2500     52.1039   -999.2500   -999.2500   -999.2500  
  1091.0000   -999.2500   -999.2500   -999.2500   -999.2500   -999.2500     51.5541   -999.2500   -999.2500   -999.2500  
  1091.5000   -999.2500   -999.2500   -999.2500   -999.2500   -999.2500     50.4650   -999.2500   -999.2500   -999.2500  
  1092.0000   -999.2500   -999.2500   -999.2500   -999.2500   -999.2500     49.7491   -999.2500   -999.2500   -999.2500  
  1092.5000   -999.2500   -999.2500   -999.2500   -999.2500   -999.2500     49.4104   -999.2500   -999.2500   -999.2500  
  1093.0000   -999.2500   -999.2500   -999.2500   -999.2500   -999.2500     49.9277   -999.2500   -999.2500   -999.2500  
  1093.5000   -999.2500   -999.2500   -999.2500   -999.2500   -999.2500     50.4831   -999.2500   -999.2500   -999.2500  
  1094.0000   -999.2500   -999.2500   -999.2500   -999.2500   -999.2500     51.0385   -999.2500   -999.2500   -999.2500  
  1094.5000   -999.2500   -999.2500   -999.2500   -999.2500   -999.2500     51.5940   -999.2500   -999.2500   -999.2500  
  1095.0000   -999.2500   -999.2500   -999.2500   -999.2500   -999.2500     51.2965   -999.2500   -999.2500   -999.2500  
  1095.5000   -999.2500   -999.2500   -999.2500   -999.2500   -999.2500     52.0851   -999.2500   -999.2500   -999.2500  
  1096.0000   -999.2500   -999.2500   -999.2500   -999.2500   -999.2500     52.5206   -999.2500   -999.2500   -999.2500  
  1096.5000   -999.2500   -999.2500   -999.2500   -999.2500   -999.2500     53.3139   -999.2500   -999.2500   -999.2500  
  1097.0000   -999.2500   -999.2500   -999.2500   -999.2500   -999.2500     53.0764   -999.2500   -999.2500   -999.2500  
  1097.5000   -999.2500   -999.2500   -999.2500   -999.2500   -999.2500     52.1781   -999.2500   -999.2500   -999.2500  
  1098.0000   -999.2500   -999.2500   -999.2500   -999.2500   -999.2500     51.2483   -999.2500   -999.2500   -999.2500  
  1098.5000   -999.2500   -999.2500   -999.2500   -999.2500   -999.2500     50.3184   -999.2500   -999.2500   -999.2500  
  1099.0000   -999.2500   -999.2500   -999.2500   -999.2500   -999.2500     49.4394   -999.2500   -999.2500   -999.2500  
  1099.5000   -999.2500   -999.2500   -999.2500   -999.2500   -999.2500     48.7254   -999.2500   -999.2500   -999.2500  
  1100.0000   -999.2500   -999.2500   -999.2500   -999.2500   -999.2500     48.9857   -999.2500   -999.2500   -999.2500  
  1100.5000   -999.2500   -999.2500   -999.2500   -999.2500   -999.2500     49.6266   -999.2500   -999.2500   -999.2500  
  1101.0000   -999.2500   -999.2500   -999.2500   -999.2500   -999.2500     49.0249   -999.2500   -999.2500   -999.2500  
  1101.5000   -999.2500   -999.2500   -999.2500   -999.2500   -999.2500     48.2430   -999.2500   -999.2500   -999.2500  
  1102.0000     36.2529      0.1402      0.8868    498.6518      9.3484     46.1017     -0.2822      2.5505     90.9135  
  1102.5000     26.1749      0.4111      1.5543    454.2888      9.3487     44.0568     -0.2870      2.5609    107.7780  
  1103.0000      9.3210      2.4584      5.0743    379.8159      9.4090     44.7634     -0.2459      2.5525    127.7838  
  1103.5000     -6.0780      5.5745     13.3306    413.2630      9.5027     49.8071     -0.0856      2.5646    148.1015  
  1104.0000    -12.5029      7.7304     11.5009    358.0351      9.7053     56.9594      0.0240      2.6066    152.9731  
  1104.5000    -16.7620      8.8654      9.7284      1.6948     10.5030     59.6660      0.0753      2.4690    155.8340  
  1105.0000    -19.1861      9.2739      9.7533      1.7597     12.0378     59.2492      0.1165      2.3442    148.7637  
  1105.5000    -20.9197      9.5644      9.7782      1.8246     12.4932     58.5689      0.0992      2.3569    137.4948  
  1106.0000    -22.4543      9.7479      9.8031      1.8895     12.6858     60.0224      0.0859      2.3635    129.8593  
  1106.5000    -23.5710      9.9314     10.4667      1.9544     12.8911     60.4320      0.0853      2.3839    121.3628  
  1107.0000    -24.4663      9.5757     11.8641     44.0474     13.0775     61.2100      0.1014      2.4090    121.0010  
  1107.5000    -25.3657      9.7947     12.3152     78.6651     13.0821     61.7081      0.1161      2.4168    121.2956  
  1108.0000    -26.3825      9.9694     11.4300     84.5025     13.0633     62.0034      0.1179      2.4048    121.2308  
  1108.5000    -26.9271     10.0006     11.2753     87.4793     13.0450     62.3569      0.1256      2.4024    121.1916  
  1109.0000    -27.4189     10.0318     10.4289     92.0751     13.0542     63.2627      0.1301      2.3990    121.1430  
  1109.5000    -28.0060      9.9811     10.4955     94.1072     13.0644     63.6394      0.1175      2.3933    121.1947  
  1110.0000    -28.4176      9.9775     11.8502     89.6222     13.0356     64.3842      0.0857      2.3713    121.7206  
  1110.5000    -28.8063     10.0078     11.2028     97.1589     12.9619     65.9895      0.0884      2.3805    122.0641  
  1111.0000    -29.0709      9.9826      7.9428    123.7176     12.8777     67.6088      0.0881      2.3748    121.7623  
  1111.5000    -29.3763     10.0428      7.0352    134.5093     12.7934     67.7023      0.0656      2.3579    121.5815  
  1112.0000    -29.4757     10.1517      6.9697    136.0567     12.7665     67.9026      0.0846      2.3560    119.8809  
  1112.5000    -29.6670     10.3508      7.2377    129.9116     12.7675     67.9388      0.1149      2.4126    118.5365  
  1113.0000    -29.6942     10.5749      8.4012    114.3594     12.7510     67.5558      0.1269      2.4253    118.4342  
  1113.5000    -29.7907     10.7745      9.3057    104.4827     12.7061     66.9589      0.1146      2.4279    118.0681  
  1114.0000    -29.8873     10.8734      9.4832    104.2204     12.6611     66.6873      0.1163      2.4445    117.7227  
  1114.5000    -29.9838     10.9442      9.5901    104.3595     12.6162     66.2250      0.1196      2.4402    117.2124  
  1115.0000    -30.0803     10.9612      9.5098    104.3595     12.5330     65.5555      0.1081      2.4362    116.7699  
  1115.5000    -30.3309     10.9296      9.4944    104.3595     12.4127     64.4961      0.0958      2.4264    117.5656  
  1116.0000    -30.7352     10.8831      9.5207    104.3595     12.2659     63.0858      0.0887      2.4274    118.1286  
  1116.5000    -31.1394     10.8377      9.5241    104.3595     12.1191     64.0811      0.0827      2.4293    119.1734  
  1117.0000    -31.6441     10.8520      9.5213    104.3595     11.6391     66.0587      0.0804      2.4298    119.4415  
  1117.5000    -31.8485     10.9013      9.4900    104.3595     11.3235     69.4143      0.0877      2.4309    119.6427  
  1118.0000    -31.4646     10.9558      9.4654    104.8841     11.1268     70.9322      0.0724      2.4136    119.5887  
  1118.5000    -30.7435     11.0152      9.4435    105.3087     10.8857     68.1942      0.0577      2.3972    119.4716  
  1119.0000    -30.4056     11.0618      9.3461    106.0238     10.7243     68.3467      0.0377      2.3803    119.2026  
  1119.5000    -30.1019     10.9945      9.2696    106.7389     10.6620     71.9876      0.0529      2.4031    118.0942  
  1120.0000    -29.5385     10.9038      9.1802    106.9065     10.6229     74.3545      0.0877      2.4531    118.1484  
  1120.5000    -29.3423     10.8205      9.1462    106.7105     10.5761     73.2811      0.0955      2.4744    118.7469  
