~VERSION INFORMATION
 VERS.                           2.00:        CWLS LOG ASCII STANDARD - VERSION 2.00
 WRAP.                             NO:        ONE LINE PER DEPTH STEP
~WELL INFORMATION
#MNEM.UNIT                   DATA             INFORMATION
#----------             --------------        ------------------------------
 STRT.F                      151.0000:        START DEPTH
 STOP.F                     2726.0000:        STOP DEPTH
 STEP.F                        0.5000:        STEP VALUE
 NULL.                      -999.2500:        NULL VALUE
 COMP.                      U.S. NAVY:        COMPANY  
 WELL.                     IKO BAY #1:        WELL     
 FLD .                        WILDCAT:        FIELD    
 LOC .                   16  21N  16W:        LOCATION   
 CNTY.                    NORTH SLOPE:        COUNTY  
 STAT.                         ALASKA:        STATE   
 CTRY.                            USA:        COUNTRY 
 DATE.                         2/8/75:        LOG DATE 
 API .                   502790000000:        UNIQUE WELL IDENTIFIER 
 OPER.                      U.S. NAVY:        OPERATOR  
 SRVC.                            440:        SERVICE COMPANY 
 UWI .                   502790000000:        UNIQUE WELL ID 
 LAT .                         0.0000:        LATITUDE
 LON .                         0.0000:        LONGITUDE
 DIGS.                             65:        DIGITIZING COMPANY 
~CURVE INFORMATION      
#MNEM.UNIT                 API CODE           CURVE DESCRIPTION
#---------              --------------        ------------------------------
 DEPT.F                              :        1  DEPTH
 SP  .MV                             :        2
 ILD .OHMM                           :        3
 LL8 .OHMM                           :        4
 ILM .OHMM                           :        5
 RHOB.G/C3                           :        6
 DRHO.G/C3                           :        7
 CALI.IN                             :        8
 GR  .GAPI                           :        9
 NPHI.%                              :       10
 DT  .US/F                           :       11
~PARAMETER INFORMATION       
#MNEM.UNIT                  VALUE             DESCRIPTION OF MNEMONIC
#---------             ---------------        ------------------------------
 EKB .F                        0.0000:        KELLY BUSHING
 TD  .F                     2731.0000:        TOTAL DEPTH
 BHT .F                             0.0000:        BOTTOM HOLE TEMPERATURE
 BS  .                             14.7500:        BIT SIZE
 FD  .                              0.0000:        FLUID DENSITY
 CSIZ.                             16.0000:        CASING SIZE
 CBD .F                           149.0000:        CASING DRILLER 1
 CBL .F                           152.0000:        CASING LOGGER 1
 DFT .                            Gel:        TYPE FLUID IN HOLE
 DFV .                              0.0000:        VISCOSITY
 DFPH.                              0.0000:        PH
 DFL .                              0.0000:        FLUID LOSS
 RMS .                              0.3000:        RM
 MST .F                       49.0000:        RM MEAS. TEMP.
 RMF .                              0.2300:        RMF
 MFST.F                       49.0000:        RMF MEAS. TEMP.
 RMC .                              0.4600:        RMC
 MCST.F                       49.0000:        RMC MEAS. TEMP.
 UWI .                   502790000000:        UNIQUE WELL ID
~OTHER INFORMATION
~A    DEPTH          SP         ILD         LL8         ILM        RHOB        DRHO        CALI          GR        NPHI          DT  
# ...
   511.0000    -60.9377     10.1534     15.6211   -999.2500   -999.2500   -999.2500     14.1597   -999.2500   -999.2500    138.8289  
   511.5000    -61.0563     10.0672     15.4595   -999.2500   -999.2500   -999.2500     14.1298   -999.2500   -999.2500    139.2823  
   512.0000    -61.0587      9.8929     15.2724   -999.2500   -999.2500   -999.2500     13.9413   -999.2500   -999.2500    139.0984  
   512.5000    -61.1083      9.4429     15.0894   -999.2500   -999.2500   -999.2500     13.7257   -999.2500   -999.2500    138.9732  
   513.0000    -61.3300      9.5163     14.8766   -999.2500   -999.2500   -999.2500     14.0149   -999.2500   -999.2500    138.2292  
   513.5000    -61.9522      9.7003     14.6644   -999.2500   -999.2500   -999.2500     14.2031   -999.2500   -999.2500    138.3560  
   514.0000    -62.3970      9.8988     14.4759   -999.2500   -999.2500   -999.2500     14.2157   -999.2500   -999.2500    139.5627  
   514.5000    -61.8132      9.7279     14.2873   -999.2500   -999.2500   -999.2500     14.2212   -999.2500   -999.2500    139.3709  
   515.0000    -61.0219      9.5385     14.1396   -999.2500   -999.2500   -999.2500     14.2231   -999.2500   -999.2500    138.0067  
   515.5000    -60.4112      9.3694     14.0744   -999.2500   -999.2500   -999.2500     14.2144   -999.2500   -999.2500    137.8463  
   516.0000    -60.1069      9.2122     14.1054   -999.2500   -999.2500   -999.2500     14.2160   -999.2500   -999.2500    139.4665  
   516.5000    -60.1019      9.0345     14.1229   -999.2500   -999.2500   -999.2500     14.2177   -999.2500   -999.2500    141.3084  
   517.0000    -60.0512      8.9019     14.1069   -999.2500   -999.2500   -999.2500     14.2179   -999.2500   -999.2500    142.8674  
   517.5000    -59.9910      8.8655     14.0762   -999.2500   -999.2500   -999.2500     14.2181   -999.2500   -999.2500    141.3953  
   518.0000    -60.0248      9.0439     13.9891   -999.2500   -999.2500   -999.2500     14.2167   -999.2500   -999.2500    137.8396  
   518.5000    -60.5647      9.2556     13.8577   -999.2500   -999.2500   -999.2500     14.2169   -999.2500   -999.2500    137.8712  
   519.0000    -60.9597      9.3118     13.8031   -999.2500   -999.2500   -999.2500     14.2162   -999.2500   -999.2500    138.1651  
   519.5000    -59.7446      9.3065     13.7806   -999.2500   -999.2500   -999.2500     14.2191   -999.2500   -999.2500    138.6015  
   520.0000    -59.0528      9.3047     13.7809   -999.2500   -999.2500   -999.2500     14.2204   -999.2500   -999.2500    139.8572  
   520.5000    -59.5378      9.2308     13.7664   -999.2500   -999.2500   -999.2500     14.2182   -999.2500   -999.2500    140.8935  
   521.0000    -59.7580      9.1719     13.7139   -999.2500   -999.2500   -999.2500     14.2180   -999.2500   -999.2500    139.1204  
   521.5000    -59.9237      9.0965     13.6684   -999.2500   -999.2500   -999.2500     14.2184   -999.2500   -999.2500    137.2633  
   522.0000    -60.0893      8.9898     13.5969   -999.2500   -999.2500   -999.2500     14.2181   -999.2500   -999.2500    136.9296  
   522.5000    -60.2883      8.8997     13.5192   -999.2500   -999.2500   -999.2500     14.2172   -999.2500   -999.2500    137.4358  
   523.0000    -60.6874      9.0673     13.5938   -999.2500   -999.2500   -999.2500     14.2190   -999.2500   -999.2500    138.4498  
   523.5000    -61.0927      9.2448     13.7344   -999.2500   -999.2500   -999.2500     14.2207   -999.2500   -999.2500    139.9139  
   524.0000    -61.1371      9.3953     13.8986   -999.2500   -999.2500   -999.2500     14.2245   -999.2500   -999.2500    139.8503  
   524.5000    -62.4128      9.6611     14.0470   -999.2500   -999.2500   -999.2500     14.2257   -999.2500   -999.2500    137.9864  
   525.0000    -64.4314      9.5712     14.1749   -999.2500   -999.2500   -999.2500     14.2315   -999.2500   -999.2500    135.6028  
   525.5000    -64.0224      9.4767     14.2324   -999.2500   -999.2500   -999.2500     14.2355   -999.2500   -999.2500    135.0245  
   526.0000    -62.7070      9.5680     14.2855   -999.2500   -999.2500   -999.2500     14.2404   -999.2500   -999.2500    135.1316  
   526.5000    -61.7968      9.6976     14.3771   -999.2500   -999.2500   -999.2500     14.2474   -999.2500   -999.2500    135.5091  
   527.0000    -61.7472      9.8702     14.4635   -999.2500   -999.2500   -999.2500     14.2511   -999.2500   -999.2500    137.0418  
   527.5000    -62.0239     10.0225     14.5302   -999.2500   -999.2500   -999.2500     14.2534   -999.2500   -999.2500    136.9387  
   528.0000    -62.9090      9.8391     14.6304   -999.2500   -999.2500   -999.2500     14.2589   -999.2500   -999.2500    136.1354  
   528.5000    -62.9057      9.5633     14.7287   -999.2500   -999.2500   -999.2500     14.2609   -999.2500   -999.2500    135.6130  
   529.0000    -62.3057      9.2854     14.7371   -999.2500   -999.2500   -999.2500     14.2649   -999.2500   -999.2500    134.1763  
   529.5000    -59.6219      9.1602     14.7570   -999.2500   -999.2500   -999.2500     14.2659   -999.2500   -999.2500    133.9667  
   530.0000    -59.0265      8.9565     14.6859   -999.2500   -999.2500   -999.2500     14.2678   -999.2500   -999.2500    135.4124  
   530.5000    -59.5779      8.8608     14.7029   -999.2500   -999.2500   -999.2500     14.2748   -999.2500   -999.2500    136.4188  
   531.0000    -61.5210      8.7330     14.6626   -999.2500   -999.2500   -999.2500     14.2802   -999.2500   -999.2500    136.6763  
   531.5000    -62.7699      8.6778     14.5505   -999.2500   -999.2500   -999.2500     14.2848   -999.2500   -999.2500    135.7897  
   532.0000    -63.2329      8.7245     14.4883   -999.2500   -999.2500   -999.2500     14.2900   -999.2500   -999.2500    134.0596  
   532.5000    -65.4238      8.6795     14.3300   -999.2500   -999.2500   -999.2500     14.2925   -999.2500   -999.2500    134.2607  
   533.0000    -67.5773      8.6020     14.1051   -999.2500   -999.2500   -999.2500     14.2913   -999.2500   -999.2500    134.4891  
   533.5000    -68.6476      8.5071     13.9235   -999.2500   -999.2500   -999.2500     14.2875   -999.2500   -999.2500    134.6298  
   534.0000    -68.1763      8.3860     13.6858   -999.2500   -999.2500   -999.2500     14.2905   -999.2500   -999.2500    135.0629  
   534.5000    -66.3473      8.2649     13.4221   -999.2500   -999.2500   -999.2500     14.2913   -999.2500   -999.2500    135.6362  
   535.0000    -63.7374      8.2289     13.0720   -999.2500   -999.2500   -999.2500     14.2897   -999.2500   -999.2500    135.9692  
   535.5000    -62.0348      8.2430     12.8009   -999.2500   -999.2500   -999.2500     14.2934   -999.2500   -999.2500    135.5057  
   536.0000    -61.8941      8.3106     12.4362   -999.2500   -999.2500   -999.2500     14.3020   -999.2500   -999.2500    135.1417  
   536.5000    -62.2626      8.4054     11.9981   -999.2500   -999.2500   -999.2500     14.3030   -999.2500   -999.2500    134.9042  
   537.0000    -63.4067      8.6208     11.7320   -999.2500   -999.2500   -999.2500     14.3033   -999.2500   -999.2500    134.9355  
   537.5000    -64.7375      8.9283     11.6609   -999.2500   -999.2500   -999.2500     14.2947   -999.2500   -999.2500    134.7585  
   538.0000    -64.8869      9.1693     11.6262   -999.2500   -999.2500   -999.2500     14.2983   -999.2500   -999.2500    135.1620  
   538.5000    -63.6326      9.2731     11.6778   -999.2500   -999.2500   -999.2500     14.3103   -999.2500   -999.2500    135.5048  
   539.0000    -62.0210      9.1660     11.9474   -999.2500   -999.2500   -999.2500     14.3153   -999.2500   -999.2500    135.0808  
   539.5000    -61.5655      9.0482     12.1232   -999.2500   -999.2500   -999.2500     14.3214   -999.2500   -999.2500    134.6074  
   540.0000    -62.1188      8.9631     12.2388   -999.2500   -999.2500   -999.2500     14.3216   -999.2500   -999.2500    133.9127  
   540.5000    -63.3994      8.9923     12.3595   -999.2500   -999.2500   -999.2500     14.3261   -999.2500   -999.2500    133.5398  
