~VERSION INFORMATION
 VERS.                           2.00:        CWLS LOG ASCII STANDARD - VERSION 2.00
 WRAP.                             NO:        ONE LINE PER DEPTH STEP
~WELL INFORMATION
#MNEM.UNIT                   DATA             INFORMATION
#----------             --------------        ------------------------------
 STRT.F                      999.0000:        START DEPTH
 STOP.F                     2350.0000:        STOP DEPTH
 STEP.F                        0.5000:        STEP VALUE
 NULL.                      -999.2500:        NULL VALUE
 COMP.             UNITED STATES NAVY:        COMPANY  
 LOC .                   14  22N  18W:        LOCATION   
 DATE.                        3/19/68:        LOG DATE 
 WELL.                SOUTH BARROW #7:        WELL     
 UWI .                   500232000100:        UNIQUE WELL ID 
 API .                   500232000100:        UNIQUE WELL IDENTIFIER 
 FLD .                   SOUTH BARROW:        FIELD    
 CNTY.                         NPR #4:        COUNTY  
 STAT.                         ALASKA:        STATE   
 CTRY.                            USA:        COUNTRY 
 OPER.             UNITED STATES NAVY:        OPERATOR  
 SRVC.                   SCHLUMBERGER:        SERVICE COMPANY 
 LAT .                         0.0000:        LATITUDE
 LON .                         0.0000:        LONGITUDE
 DIGS.               CENTER LINE DATA:        DIGITIZING COMPANY 
~CURVE INFORMATION      
#MNEM        .UNIT         API CODE           CURVE DESCRIPTION
#-----------------      --------------        ------------------------------
 DEPT        .F                      :        1  DEPTH
 SP          .MV                     :        2  
 ILD         .OHMM                   :        3  
 ASN         .OHMM                   :        4  
 CILD        .OHMM                   :        5  
 CALI        .IN                     :        6  
 DT          .US/F                   :        7  
~PARAMETER INFORMATION       
#MNEM.UNIT                  VALUE             DESCRIPTION OF MNEMONIC
#---------             ---------------        ------------------------------
 EKB .F                       36.0000:        KELLY BUSHING
 TD  .F                     2351.0000:        TOTAL DEPTH
 BHT .F                        0.0000:        BOTTOM HOLE TEMPERATURE
 BS  .                         9.6250:        BIT SIZE
 FD  .                        76.5000:        FLUID DENSITY
 CSIZ.                        10.7500:        CASING SIZE
 CBD .F                      998.0000:        CASING DRILLER 1
 CBL .F                      999.0000:        CASING LOGGER 1
 DFT .                            Gel:        TYPE FLUID IN HOLE
 DFV .                        45.0000:        VISCOSITY
 DFPH.                         9.5000:        PH
 DFL .                         7.0000:        FLUID LOSS
 RMS .                         5.4300:        RM
 MST .F                       42.0000:        RM MEAS. TEMP.
 RMF .                         5.1700:        RMF
 MFST.F                       59.0000:        RMF MEAS. TEMP.
 RMC .                         5.0900:        RMC
 MCST.F                       56.0000:        RMC MEAS. TEMP.
~OTHER INFORMATION
~A    DEPTH          SP         ILD         ASN        CILD        CALI          DT  
# ...
  1986.0000    -19.0355      9.6155     11.8869    108.5190      9.8490    108.1450  
  1986.5000    -19.2379      9.9411     12.3323    105.8218      9.8378    109.4523  
  1987.0000    -19.3689     10.2310     13.0674    101.8446      9.8468    110.0061  
  1987.5000    -19.6648     10.8459     14.0734     97.2979      9.8703    110.0995  
  1988.0000    -19.9382     11.6618     15.6875     91.5610      9.8937    110.1711  
  1988.5000    -20.2353     12.9988     18.3690     84.6288      9.9171    110.2065  
  1989.0000    -20.5026     14.6556     22.1875     75.5424      9.9406    109.9336  
  1989.5000    -21.1668     17.1749     27.0500     66.6501      9.9634    108.4050  
  1990.0000    -23.0181     19.9724     34.3969     57.2487      9.9263    105.5528  
  1990.5000    -25.0035     24.8941     44.1658     49.5431      9.8892    102.6022  
  1991.0000    -26.4682     29.1895     50.1999     42.9664      9.8521    102.3603  
  1991.5000    -27.1033     35.8741     54.3292     35.9348      9.8150    103.2226  
  1992.0000    -27.5909     41.9779     58.4585     31.2572      9.7823    104.4503  
  1992.5000    -28.0409     47.4408     62.5878     28.0856      9.7743    105.7051  
  1993.0000    -28.4329     49.6338     64.7443     26.6489      9.7691    106.7386  
  1993.5000    -28.7122     50.0338     64.3338     26.2872      9.7494    107.3658  
  1994.0000    -28.9183     48.5274     63.9234     26.8052      9.7313    106.8142  
  1994.5000    -29.3054     46.6613     63.5130     27.6381      9.7261    106.1950  
  1995.0000    -29.4012     45.6650     63.1026     28.3237      9.7175    105.5642  
  1995.5000    -29.3139     45.9699     62.6922     28.3929      9.7078    105.1221  
  1996.0000    -29.0572     45.9905     62.2817     28.4979      9.6964    104.9767  
  1996.5000    -28.5891     45.6874     60.7146     28.6847      9.6902    105.0568  
  1997.0000    -27.9730     44.1109     58.0130     29.3898      9.6879    105.4163  
  1997.5000    -27.7433     40.5367     51.2875     31.0356      9.6714    105.5806  
  1998.0000    -27.4766     35.0274     46.2950     34.8650      9.6728    106.0017  
  1998.5000    -27.0810     29.7122     41.3024     41.3314      9.6784    106.6342  
  1999.0000    -26.3607     24.3970     33.9564     48.5542      9.6892    108.0159  
  1999.5000    -25.1467     19.1578     27.3651     55.6750      9.6909    109.1995  
  2000.0000    -23.2282     15.7638     20.7917     63.7622      9.7049    110.0525  
  2000.5000    -21.8700     14.3200     16.1057     70.9299      9.7115    108.9047  
  2001.0000    -20.8419     13.1623     13.9764     77.6281      9.6995    107.0931  
  2001.5000    -20.3393     12.0387     13.2660     84.7147      9.6805    105.3713  
  2002.0000    -19.9308     11.1945     12.8345     92.0010      9.6119    104.9561  
  2002.5000    -19.5751     10.5664     12.5332     97.5206      9.5418    106.1960  
  2003.0000    -19.4725     10.1093     12.2056    101.4670      9.5034    108.1211  
  2003.5000    -19.5176      9.8986     11.7524    104.7745      9.4814    109.6006  
  2004.0000    -20.2676      9.6964     11.1782    107.1590      9.4747    110.1637  
  2004.5000    -21.1005      9.4941     10.6501    108.4192      9.4798    110.2436  
  2005.0000    -22.2282      9.2919     10.3879    110.4866      9.4938    109.9737  
  2005.5000    -22.6037      9.1083     10.2027    112.3677      9.5413    109.5082  
  2006.0000    -22.1363      9.0282     10.1550    113.5522      9.5888    108.5906  
  2006.5000    -21.4609      9.0221     10.2073    113.8487      9.6363    107.9826  
  2007.0000    -21.0741      9.0681     10.2625    113.2671      9.6838    107.9177  
  2007.5000    -20.8485      9.2018     10.2652    112.1341      9.7302    107.9674  
  2008.0000    -20.7383      9.4013     10.2886    110.3316      9.7516    108.0316  
  2008.5000    -20.1873      9.5999     10.3120    108.6805      9.7696    107.9852  
  2009.0000    -19.7435      9.7985     10.3354    106.8041      9.7759    107.6585  
  2009.5000    -19.5816      9.9971     10.4434    106.1472      9.7821    107.0640  
  2010.0000    -19.4390      9.9983     10.5677    105.9450      9.7883    106.1839  
  2010.5000    -19.3467      9.8858     10.6921    105.1774      9.7763    105.6104  
  2011.0000    -19.1449      9.7733     10.8164    105.4033      9.7756    105.2979  
  2011.5000    -18.8663      9.6609     10.8199    106.1706      9.7900    106.3196  
  2012.0000    -18.3433      9.5484     10.7045    107.3458      9.7906    107.3059  
  2012.5000    -17.9707      9.4359     10.5891    108.1310      9.7996    107.8820  
  2013.0000    -18.0157      9.3234     10.4738    109.4724      9.7988    108.0271  
  2013.5000    -18.1107      9.2109     10.3584    111.2674      9.7928    108.2487  
  2014.0000    -18.2410      9.0985     10.2431    112.7020      9.7840    108.2382  
  2014.5000    -18.5407      8.9933     10.1934    113.6621      9.7613    108.0675  
  2015.0000    -18.6126      9.0038     10.2081    113.8599      9.7416    107.7958  
  2015.5000    -18.4437      9.0528     10.2257    113.4897      9.7380    107.3278  
  2016.0000    -18.4193      9.1584     10.2457    112.6848      9.7726    107.0981  
  2016.5000    -18.3295      9.1888     10.2848    111.9972      9.8186    107.0772  
  2017.0000    -18.1811      9.1651     10.3583    111.7663      9.8191    107.4752  
  2017.5000    -18.0066      9.1414     10.4318    111.9101      9.8134    107.9777  
  2018.0000    -18.0090      9.1177     10.4931    112.4087      9.7951    108.7387  
  2018.5000    -18.1590      9.0941     10.4325    112.9049      9.7484    110.1624  
  2019.0000    -18.1924      9.0679     10.3719    113.1578      9.7060    111.9183  
  2019.5000    -18.2983      9.0904     10.3113    113.2590      9.7101    112.7110  
  2020.0000    -18.9394      9.2445     10.2507    112.7959      9.7327    112.8959  
  2020.5000    -19.8313      9.4038     10.3120    111.6231      9.7574    110.9872  
  2021.0000    -20.2695      9.5632     10.3876    109.6452      9.7063    108.1347  
  2021.5000    -20.3302      9.6279     10.4632    107.7456      9.6430    104.0649  
  2022.0000    -20.1593      9.6926     10.7699    107.0602      9.5798    102.4835  
  2022.5000    -19.9776      9.7573     11.3279    106.5580      9.5166    102.7441  
  2023.0000    -19.6431      9.8220     11.5683    105.7250      9.5303    106.4373  
  2023.5000    -19.2464      9.9669     11.6245    104.4353      9.5445    110.0994  
  2024.0000    -18.8628     10.1205     11.4660    102.3533      9.5587    111.3020  
  2024.5000    -18.5296     10.2741     11.1784    100.7202      9.5880    110.6208  
  2025.0000    -18.3454     10.3015     11.1289    101.5614      9.6176    108.5928  
  2025.5000    -18.3162     10.2481     11.1150    102.5358      9.6472    106.3283  
  2026.0000    -18.6152     10.1946     11.1034    103.6857      9.6769    105.4134  
  2026.5000    -18.5225     10.1412     11.5013    103.0507      9.7179    105.3387  
  2027.0000    -17.6903     10.0878     11.5367    102.6804      9.7608    105.5398  
  2027.5000    -17.2580     10.0169     11.3185    103.5735      9.8037    106.5987  
  2028.0000    -17.7520      9.9168     11.1199    105.2584      9.8031    107.4184  
  2028.5000    -18.4530      9.8166     10.9212    106.6074      9.7844    107.7967  
  2029.0000    -19.4095      9.7165     10.7225    108.1471      9.7780    107.9295  
  2029.5000    -19.5296      9.6163     10.5238    109.2379      9.7539    107.8836  
  2030.0000    -19.4906      9.5162     10.3252    110.0607      9.7341    107.8115  
  2030.5000    -19.4274      9.4200     10.2466    110.5096      9.7200    107.7459  
  2031.0000    -19.5450      9.3339     10.2310    110.5275      9.6984    107.9196  
  2031.5000    -19.5761      9.3490     10.2154    110.4662      9.6928    108.0062  
  2032.0000    -19.6176      9.4192     10.1998    109.9044      9.7102    108.0204  
  2032.5000    -19.8213      9.5341     10.1842    108.6945      9.7238    107.6107  
