~VERSION INFORMATION
 VERS.                           2.00:        CWLS LOG ASCII STANDARD - VERSION 2.00
 WRAP.                             NO:        ONE LINE PER DEPTH STEP
~WELL INFORMATION
#MNEM.UNIT                   DATA             INFORMATION
#----------             --------------        ------------------------------
 STRT.F                       75.0000:        START DEPTH
 STOP.F                     2534.0000:        STOP DEPTH
 STEP.F                        0.5000:        STEP VALUE
 NULL.                      -999.2500:        NULL VALUE
 COMP.                      HUSKY OIL:        COMPANY  
 LOC .                   14  22N  18W:        LOCATION   
 DATE.                       12/20/76:        LOG DATE 
 WELL.               SOUTH BARROW #13:        WELL     
 UWI .                   500232000800:        UNIQUE WELL ID 
 API .                   500232000800:        UNIQUE WELL IDENTIFIER 
 FLD .                   SOUTH BARROW:        FIELD    
 CNTY.                    NORTH SLOPE:        COUNTY  
 STAT.                         ALASKA:        STATE   
 CTRY.                            USA:        COUNTRY 
 OPER.                      HUSKY OIL:        OPERATOR  
 SRVC.                   SCHLUMBERGER:        SERVICE COMPANY 
 LAT .                         0.0000:        LATITUDE
 LON .                         0.0000:        LONGITUDE
 DIGS.               CENTER LINE DATA:        DIGITIZING COMPANY 
~CURVE INFORMATION      
#MNEM        .UNIT         API CODE           CURVE DESCRIPTION
#-----------------      --------------        ------------------------------
 DEPT        .F                      :        1  DEPTH
 SP          .MV                     :        2  
 ILD         .OHMM                   :        3  
 LL8         .OHMM                   :        4  
 CILD        .MMHO                   :        5  
 ILM         .OHMM                   :        6  
 GR          .GAPI                   :        7  
 CALI        .IN                     :        8  
 DRHO        .G/C3                   :        9  
 RHOB        .G/C3                   :        10 
 NPHI        .%                      :        11 
 DPHI        .%                      :        12 
 DT          .US/F                   :        13 
~PARAMETER INFORMATION       
#MNEM.UNIT                  VALUE             DESCRIPTION OF MNEMONIC
#---------             ---------------        ------------------------------
 EKB .F                       40.0000:        KELLY BUSHING
 TD  .F                     1139.0000:        TOTAL DEPTH
 BHT .F                        0.0000:        BOTTOM HOLE TEMPERATURE
 BS  .                        14.7500:        BIT SIZE
 FD  .                        10.3000:        FLUID DENSITY
 CSIZ.                        20.0000:        CASING SIZE
 CBD .F                       65.0000:        CASING DRILLER 1
 CBL .F                       75.0000:        CASING LOGGER 1
 DFT .                  Miscellaneous:        TYPE FLUID IN HOLE
 DFV .                        34.0000:        VISCOSITY
 DFPH.                         8.5000:        PH
 DFL .                        10.2000:        FLUID LOSS
 RMS .                         5.3200:        RM
 MST .F                       55.0000:        RM MEAS. TEMP.
 RMF .                         3.8000:        RMF
 MFST.F                       55.0000:        RMF MEAS. TEMP.
 RMC .                         6.0000:        RMC
 MCST.F                       55.0000:        RMC MEAS. TEMP.
~OTHER INFORMATION
~A    DEPTH          SP         ILD         LL8        CILD         ILM          GR        CALI        DRHO        RHOB        NPHI        DPHI          DT  
# ...
  1426.5000    -18.8673     14.5786     16.1196   -999.2500     15.8304     42.6663     10.6770      0.0544      2.4723     32.7013     12.2108    101.7378  
  1427.0000    -20.5638     14.6279     17.5419   -999.2500     15.5819     42.4919     10.7981      0.0566      2.4653     32.5026     13.3315    100.5084  
  1427.5000    -24.8319     14.6773     18.4172   -999.2500     15.3151     42.6308     11.0306      0.0492      2.4531     32.2333     13.7835     99.3908  
  1428.0000    -24.9394     14.7241     17.6816   -999.2500     15.2704     42.5733     11.1934      0.0250      2.4386     32.2980     13.6368    100.0325  
  1428.5000    -23.6995     14.7409     15.2883   -999.2500     15.4099     42.4560     11.0724      0.0258      2.4315     33.1085     12.3394    100.6741  
  1429.0000    -20.1358     14.7577     15.8128   -999.2500     15.5211     42.2053     10.8662      0.0389      2.4390     33.9189     11.3296    100.3590  
  1429.5000    -16.3255     14.7746     17.4238   -999.2500     15.5676     42.3153     10.7539      0.0571      2.4636     34.3679     11.8768     99.5409  
  1430.0000    -15.3550     14.7115     19.3686   -999.2500     15.4434     42.2133     10.5996      0.0581      2.4715     33.0671     11.6275     95.8997  
  1430.5000    -17.5207     14.3836     20.5477   -999.2500     14.8501     41.4428     10.8006      0.0421      2.4668     32.7041     11.1933     95.1730  
  1431.0000    -27.5312     14.0630     17.0465   -999.2500     14.1666     40.9826     10.9101      0.0412      2.4710     34.6659     11.4111     99.4688  
  1431.5000    -29.5436     13.7495     13.6559   -999.2500     13.6442     41.0644     10.9090      0.0573      2.4764     36.7156     11.5617    103.8807  
  1432.0000    -24.2491     13.4430     13.4258   -999.2500     14.0194     42.1970     10.6085      0.0721      2.4710     36.4221     12.2252    106.1096  
  1432.5000    -22.8123     13.6931     14.9651   -999.2500     14.2948     43.2979     10.3091      0.0773      2.4641     35.4375     12.2804    105.7757  
  1433.0000    -25.8586     14.0114     16.6174   -999.2500     14.5756     42.8328     10.3115      0.0568      2.4583     34.6504     11.0827    102.4778  
  1433.5000    -29.0705     14.3372     16.6849   -999.2500     14.9369     41.9127     10.3596      0.0631      2.4647     34.2181      9.9912     98.4557  
  1434.0000    -29.1169     14.6705     16.6676   -999.2500     15.4674     41.0315     10.4574      0.0688      2.4863     33.7570     10.2410     79.7677  
  1434.5000    -26.7616     15.0810     16.6726   -999.2500     16.0167     40.4123     10.5552      0.0714      2.4934     30.8449     10.6818     70.9339  
  1435.0000    -22.4807     15.5614     18.7928   -999.2500     16.5855     40.0639     10.6161      0.0709      2.4867     27.5046     11.2054     94.0109  
  1435.5000    -22.6580     16.0571     21.5513   -999.2500     17.1745     38.3590     10.6916      0.0671      2.4800     23.4265     11.6014     87.1301  
  1436.0000    -25.4332     16.5686     25.4590   -999.2500     17.7845     35.0574     10.7911      0.0602      2.4707     20.6173     10.3036     80.5606  
  1436.5000    -26.9746     17.0963     27.0398   -999.2500     18.2832     32.3491     10.7873      0.0608      2.4764     18.6743      8.6073     77.6816  
  1437.0000    -26.9510     17.6409     23.2593   -999.2500     18.7181     31.5199      9.8959      0.0713      2.5074     18.7090      8.5242     76.5179  
  1437.5000    -25.0495     18.2028     21.3134   -999.2500     19.1634     31.4245      9.7174      0.0736      2.5167     18.7877      9.2625     76.0469  
  1438.0000    -24.3981     18.4957     21.5052   -999.2500     19.4060     31.9177      9.7091      0.0683      2.5122     18.8665      9.1920     75.7320  
  1438.5000    -24.7057     18.2140     21.1028   -999.2500     19.0724     32.7371      9.8280      0.0628      2.5047     20.1849      7.8124     75.8579  
  1439.0000    -22.4838     17.9366     20.1007   -999.2500     18.7445     33.9646     10.1940      0.0662      2.5128     21.7413      6.1856     78.4490  
  1439.5000    -19.9580     17.6634     19.4534   -999.2500     18.4223     35.2398     10.6071      0.0957      2.5376     25.0556      5.0418     83.4080  
  1440.0000    -20.6033     17.3589     18.8266   -999.2500     18.1056     37.9137     11.0226      0.1745      2.5683     27.3831      7.4785     88.4978  
  1440.5000    -23.1923     17.0190     18.3611   -999.2500     17.7292     39.6413     11.2471      0.1486      2.5567     28.8431      9.8179     92.0005  
  1441.0000    -21.5872     16.6857     18.7800   -999.2500     17.3059     39.8298     11.4862      0.1048      2.5094     29.6648     11.0298     93.1119  
  1441.5000    -20.6759     16.3590     19.2833   -999.2500     16.9317     39.7871     11.7474      0.0292      2.4919     29.7084     10.3155     93.4157  
  1442.0000    -21.0943     16.0386     19.7078   -999.2500     16.5661     41.8064     12.0889      0.0450      2.4892     29.5114      9.5086     93.3732  
  1442.5000    -23.6936     15.7245     19.0446   -999.2500     16.2084     41.7667     11.9361      0.0610      2.4963     29.2784      9.4991     93.4915  
  1443.0000    -27.4184     15.4166     17.7633   -999.2500     15.8584     42.0634     11.8342      0.0661      2.4991     28.9527     10.3565     94.6530  
  1443.5000    -29.6316     15.1147     16.5522   -999.2500     15.7103     42.8844     11.7427      0.0610      2.4993     29.3039     11.0077     96.3292  
  1444.0000    -29.4331     14.8034     16.0003   -999.2500     15.6931     43.3366     11.6115      0.0448      2.4866     29.9169     11.2948     97.8954  
  1444.5000    -27.4462     14.4882     16.3787   -999.2500     15.6613     43.3680     11.5473      0.0365      2.4787     30.5298     11.9384     99.0946  
  1445.0000    -24.4578     14.1798     15.9766   -999.2500     15.0418     43.2474     11.1958      0.0308      2.4703     31.2916     11.4684     99.2768  
  1445.5000    -23.9714     13.8779     15.5843   -999.2500     14.4468     43.4825     11.1417      0.0389      2.4674     32.2853     11.9687     99.8861  
  1446.0000    -26.5294     13.5167     15.3004   -999.2500     13.8754     44.1772     11.0876      0.0556      2.4669     33.0637     12.8180    100.8980  
  1446.5000    -31.1816     13.0880     15.0565   -999.2500     13.3265     45.1027     11.0597      0.0398      2.4560     33.6927     13.2268    101.6660  
  1447.0000    -29.2733     12.6729     14.5031   -999.2500     12.7994     45.4399     11.0483      0.0394      2.4486     33.7811     13.0920    102.7684  
  1447.5000    -31.2033     12.2710     12.9835   -999.2500     12.4559     45.8554     11.0281      0.0373      2.4402     34.2298     11.6700    106.1173  
  1448.0000    -29.7829     11.8818     12.0826   -999.2500     12.2701     46.5239     10.9773      0.0478      2.4528     35.4769     11.4190    108.2979  
  1448.5000    -26.8662     11.5050     12.3713   -999.2500     12.0870     47.1925     11.1442      0.0577      2.4645     36.7239     12.0073    109.5827  
  1449.0000    -23.8451     11.4671     12.9030   -999.2500     11.9557     47.8610     10.8366      0.0676      2.4696     37.9710     13.0046    109.9325  
  1449.5000    -26.1516     11.4561     13.3381   -999.2500     11.9087     48.1297     10.5291      0.0517      2.4590     37.1601     12.6414    107.7636  
  1450.0000    -22.0904     11.4451     13.7371   -999.2500     11.8619     45.4687     10.2260      0.0475      2.4528     36.1429     13.0668    105.7591  
  1450.5000    -22.7810     11.3670     13.6943   -999.2500     11.8233     44.5977     10.3309      0.0558      2.4488     35.1062     14.4679    106.2921  
  1451.0000    -26.7840     11.3838     13.0214   -999.2500     11.7889     45.0539     10.4357      0.0511      2.4416     34.4362     14.1620    106.7569  
  1451.5000    -21.5875     11.5666     12.7407   -999.2500     11.7547     45.5101     10.4929      0.0305      2.4273     34.8887     14.2123    107.4755  
