~VERSION INFORMATION
 VERS.                           2.00:        CWLS LOG ASCII STANDARD - VERSION 2.00
 WRAP.                             NO:        ONE LINE PER DEPTH STEP
~WELL INFORMATION
#MNEM.UNIT                   DATA             INFORMATION
#----------             --------------        ------------------------------
 STRT.F                      151.0000:        START DEPTH
 STOP.F                     2726.0000:        STOP DEPTH
 STEP.F                        0.5000:        STEP VALUE
 NULL.                      -999.2500:        NULL VALUE
 COMP.                      U.S. NAVY:        COMPANY  
 WELL.                     IKO BAY #1:        WELL     
 FLD .                        WILDCAT:        FIELD    
 LOC .                   16  21N  16W:        LOCATION   
 CNTY.                    NORTH SLOPE:        COUNTY  
 STAT.                         ALASKA:        STATE   
 CTRY.                            USA:        COUNTRY 
 DATE.                         2/8/75:        LOG DATE 
 API .                   502790000000:        UNIQUE WELL IDENTIFIER 
 OPER.                      U.S. NAVY:        OPERATOR  
 SRVC.                            440:        SERVICE COMPANY 
 UWI .                   502790000000:        UNIQUE WELL ID 
 LAT .                         0.0000:        LATITUDE
 LON .                         0.0000:        LONGITUDE
 DIGS.                             65:        DIGITIZING COMPANY 
~CURVE INFORMATION      
#MNEM.UNIT                 API CODE           CURVE DESCRIPTION
#---------              --------------        ------------------------------
 DEPT.F                              :        1  DEPTH
 SP  .MV                             :        2
 ILD .OHMM                           :        3
 LL8 .OHMM                           :        4
 ILM .OHMM                           :        5
 RHOB.G/C3                           :        6
 DRHO.G/C3                           :        7
 CALI.IN                             :        8
 GR  .GAPI                           :        9
 NPHI.%                              :       10
 DT  .US/F                           :       11
~PARAMETER INFORMATION       
#MNEM.UNIT                  VALUE             DESCRIPTION OF MNEMONIC
#---------             ---------------        ------------------------------
 EKB .F                        0.0000:        KELLY BUSHING
 TD  .F                     2731.0000:        TOTAL DEPTH
 BHT .F                             0.0000:        BOTTOM HOLE TEMPERATURE
 BS  .                             14.7500:        BIT SIZE
 FD  .                              0.0000:        FLUID DENSITY
 CSIZ.                             16.0000:        CASING SIZE
 CBD .F                           149.0000:        CASING DRILLER 1
 CBL .F                           152.0000:        CASING LOGGER 1
 DFT .                            Gel:        TYPE FLUID IN HOLE
 DFV .                              0.0000:        VISCOSITY
 DFPH.                              0.0000:        PH
 DFL .                              0.0000:        FLUID LOSS
 RMS .                              0.3000:        RM
 MST .F                       49.0000:        RM MEAS. TEMP.
 RMF .                              0.2300:        RMF
 MFST.F                       49.0000:        RMF MEAS. TEMP.
 RMC .                              0.4600:        RMC
 MCST.F                       49.0000:        RMC MEAS. TEMP.
 UWI .                   502790000000:        UNIQUE WELL ID
~OTHER INFORMATION
~A    DEPTH          SP         ILD         LL8         ILM        RHOB        DRHO        CALI          GR        NPHI          DT  
# ...
  1681.0000    -55.2946      7.4228      9.2179      7.6815      2.3143      0.1001     11.4111     97.7292     33.0177    108.6377  
  1681.5000    -55.0669      7.4509      9.0135      7.7083      2.3036      0.0838     12.0507     96.7528     32.7416    107.0922  
  1682.0000    -54.5653      7.4728      8.3770      7.7310      2.2839      0.0691     12.3328     96.2466     33.1530    105.1492  
  1682.5000    -54.0991      7.4948      8.4699      7.7538      2.2756      0.0911     11.9183     95.7403     33.6627    104.4709  
  1683.0000    -54.5460      7.4842      9.4107      7.7512      2.2617      0.0743     11.6132     95.6096     35.0952    104.3471  
  1683.5000    -55.1257      7.3949     10.1079      7.6587      2.2741      0.0902     11.9657     96.1085     36.1265    104.4224  
  1684.0000    -55.2525      7.3067      9.4454      7.5673      2.3082      0.1130     12.0161     97.1937     36.4021    104.6344  
  1684.5000    -55.4502      7.2195      8.6613      7.4770      2.2967      0.1096     12.0515     97.4935     36.6869    104.9366  
  1685.0000    -55.5299      7.1333      8.2029      7.3878      2.2661      0.1056     12.4207     95.6499     36.8548    104.9339  
  1685.5000    -55.2384      7.0950      8.0140      7.3403      2.2459      0.1169     12.5802     94.2054     37.1272    104.9996  
  1686.0000    -55.0700      7.0841      8.1460      7.3290      2.2080      0.1095     11.8034     94.8189     36.9423    104.8143  
  1686.5000    -55.0671      7.0732      9.2612      7.3177      2.2252      0.0840     11.4609     95.7088     36.4045    104.3608  
  1687.0000    -55.0756      7.0720      9.0894      7.3216      2.2502      0.0559     11.1166     96.5849     35.9074    104.2239  
  1687.5000    -55.0224      7.1350      8.5573      7.3868      2.2988      0.0887     10.9103     97.6111     34.7342    104.6395  
  1688.0000    -54.7516      7.1986      8.2839      7.4527      2.2602      0.1149     11.0246     97.0314     33.8933    105.7086  
  1688.5000    -54.4795      7.2627      8.7073      7.5190      2.1911      0.1105     11.1961     94.0928     34.2997    106.6417  
  1689.0000    -54.7349      7.2655      9.2346      7.5179      2.1384      0.0833     11.1674     92.7119     36.2365    106.7869  
  1689.5000    -55.0438      7.2282      9.7000      7.4792      2.1745      0.0620     10.8685     92.4802     37.2595    107.0375  
  1690.0000    -55.0114      7.1826      9.3714      7.4352      2.2528      0.0670     10.8536     92.7466     37.0799    107.2456  
  1690.5000    -54.9794      7.1189      8.8090      7.3695      2.2416      0.0939     11.1541     93.2363     36.9956    107.2943  
  1691.0000    -54.9875      7.0956      8.2519      7.3420      2.2076      0.1140     11.5082     93.0955     37.2310    107.2834  
  1691.5000    -55.0882      7.1253      7.8683      7.3727      2.1972      0.1177     11.3904     94.3548     36.9456    106.6977  
  1692.0000    -55.2733      7.1551      8.2888      7.4035      2.1797      0.0930     10.7742    100.1683     36.0037    106.1016  
  1692.5000    -55.5793      7.1545      8.7593      7.4022      2.1797      0.0618     10.6174    101.9072     35.7318    105.8998  
  1693.0000    -55.8660      7.1344      8.9063      7.3813      2.1976      0.0755     10.9495    100.9759     36.6636    105.9019  
  1693.5000    -55.9719      7.1143      8.9123      7.3606      2.1910      0.0784     11.6527     99.2781     37.8735    106.4538  
  1694.0000    -55.9024      7.0415      8.7332      7.3113      2.1845      0.0997     11.6404    100.1342     38.5667    107.3623  
  1694.5000    -55.6610      6.9518      8.4321      7.1950      2.1597      0.0983     11.2730    101.4292     39.2430    108.1077  
  1695.0000    -55.2665      6.9124      8.2300      7.1516      2.1713      0.0783     10.7998    102.4542     39.8944    108.0266  
  1695.5000    -55.3048      6.9249      8.2538      7.1655      2.2077      0.0488     10.6370    102.6671     38.2796    107.7884  
  1696.0000    -55.6856      6.9049      8.4094      7.1478      2.2458      0.0266     10.5280    102.1513     36.6003    107.8727  
  1696.5000    -55.9373      6.8395      8.4166      7.0831      2.2960      0.0417     10.4723    100.9062     35.9866    108.2535  
  1697.0000    -55.8304      6.8159      8.3868      7.0512      2.3202      0.0583     10.6987     98.4724     36.3530    109.2896  
  1697.5000    -55.6775      6.8109      8.5002      7.0460      2.3472      0.0683     11.1913     96.6802     37.1233    110.2134  
  1698.0000    -55.4461      6.8060      8.5918      7.0409      2.3534      0.0465     11.3762     92.7729     37.7082    110.8082  
  1698.5000    -55.4120      6.8010      8.5329      7.0534      2.3755      0.0120     11.3201     88.9300     35.9415    111.3056  
  1699.0000    -55.6035      6.9386      8.3824      7.1875      2.4230      0.0262     11.0473     86.6306     31.9691    111.5962  
  1699.5000    -55.6986      7.0327      8.2347      7.3587      2.4637      0.0846     10.6828     87.6936     30.4880    111.3903  
  1700.0000    -55.4277      7.1280      8.6013      7.5819      2.3988      0.0723      9.8566     92.6969     31.9629    111.5718  
  1700.5000    -55.2484      7.1738     15.4016      7.8119      2.3183      0.0766     10.2132     97.8720     33.9775    111.9645  
  1701.0000    -55.6058      7.1867     16.6663      7.8462      2.3084      0.0914     11.0014    100.6716     34.9236    112.0924  
  1701.5000    -55.9402      7.1996     10.4744      7.6340      2.2895      0.0715     11.5165    102.9010     35.8976    111.8602  
  1702.0000    -56.0620      7.2124      9.0649      7.4771      2.2865      0.0470     11.5044    104.3004     35.2414    110.6636  
  1702.5000    -56.0829      7.1888      8.7513      7.3787      2.3136      0.0479     11.4760    102.0713     34.4616    108.1142  
  1703.0000    -56.0073      7.1653      8.6929      7.3638      2.3069      0.0424     11.8055     98.4811     34.0467    103.1199  
  1703.5000    -56.1057      7.1339      8.7315      7.3489      2.3074      0.0404     11.8425     96.7542     33.8151     97.9059  
  1704.0000    -55.9653      7.0988      8.8662      7.3517      2.3450      0.0555     11.7288     95.9244     33.9706     96.5083  
  1704.5000    -55.7395      7.0639      9.0296      7.3571      2.3615      0.0473     11.7946     96.3507     34.2830     97.0759  
  1705.0000    -55.5406      7.0292      9.1116      7.3624      2.3662      0.0657     11.8596     97.5684     35.2929    100.8684  
  1705.5000    -55.5367      6.9946      9.1427      7.3678      2.3535      0.0761     11.4062     98.4033     36.5640    105.4952  
  1706.0000    -55.6663      6.9838      9.2962      7.2806      2.3205      0.0676     11.2984    100.4247     37.2837    107.0668  
  1706.5000    -55.8268      6.9791      9.4210      7.1671      2.2990      0.0436     11.4935    102.2035     35.9758    107.5385  
  1707.0000    -55.8720      6.9745      9.0539      7.1037      2.3210      0.0318     11.5223    101.8322     34.2013    107.4729  
  1707.5000    -55.8412      6.9698      8.5161      7.1037      2.3442      0.0298     11.5709    100.1655     32.8057    107.4180  
  1708.0000    -55.7468      6.9652      8.4807      7.1037      2.3332      0.0270     11.5719     98.8632     33.3453    106.9582  
  1708.5000    -55.5972      6.9708      8.7977      7.1349      2.3306      0.0587     11.5037     98.6180     34.3529    106.2216  
  1709.0000    -55.5800      7.0242      9.2856      7.1776      2.3421      0.0720     11.5021     98.9466     35.0103    106.0529  
  1709.5000    -55.6244      6.9974      9.0405      7.2206      2.3751      0.0909     11.7908     97.9895     34.6722    106.3027  
  1710.0000    -55.6454      7.0686      8.6605      7.3295      2.3937      0.0821     11.5691     96.3641     34.2421    106.6013  
  1710.5000    -55.7638      7.0746      8.8683      7.3190      2.3872      0.0815     11.1315     96.7099     34.9599    106.9629  
