~VERSION INFORMATION
 VERS.                           2.00:        CWLS LOG ASCII STANDARD - VERSION 2.00
 WRAP.                             NO:        ONE LINE PER DEPTH STEP
~WELL INFORMATION
#MNEM.UNIT                   DATA             INFORMATION
#----------             --------------        ------------------------------
 STRT.F                      990.0000:        START DEPTH
 STOP.F                     2362.0000:        STOP DEPTH
 STEP.F                        0.5000:        STEP VALUE
 NULL.                      -999.2500:        NULL VALUE
 COMP.                 U.S. AIR FORCE:        COMPANY  
 LOC .                   14  22N  18W:        LOCATION   
 DATE.                        4/21/69:        LOG DATE 
 WELL.       SOUTH BARROW GAS WELL #8:        WELL     
 UWI .                   500232000200:        UNIQUE WELL ID 
 API .                   500232000200:        UNIQUE WELL IDENTIFIER 
 FLD .                S. B. GAS FIELD:        FIELD    
 CNTY.                   POINT BARROW:        COUNTY  
 STAT.                         ALASKA:        STATE   
 CTRY.                            USA:        COUNTRY 
 OPER.                 U.S. AIR FORCE:        OPERATOR  
 SRVC.                   SCHLUMBERGER:        SERVICE COMPANY 
 LAT .                         0.0000:        LATITUDE
 LON .                         0.0000:        LONGITUDE
 DIGS.               CENTER LINE DATA:        DIGITIZING COMPANY 
~CURVE INFORMATION      
#MNEM        .UNIT         API CODE           CURVE DESCRIPTION
#-----------------      --------------        ------------------------------
 DEPT        .F                      :        1  DEPTH
 SP          .MV                     :        2  
 ASN         .OHMM                   :        3  
 ILD         .OHMM                   :        4  
 CILD        .MMHO                   :        5  
 CALI        .IN                     :        6  
 DT          .US/F                   :        7  
~PARAMETER INFORMATION       
#MNEM.UNIT                  VALUE             DESCRIPTION OF MNEMONIC
#---------             ---------------        ------------------------------
 EKB .F                       31.0000:        KELLY BUSHING
 TD  .F                     2363.0000:        TOTAL DEPTH
 BHT .F                       74.0000:        BOTTOM HOLE TEMPERATURE
 BS  .                         8.6250:        BIT SIZE
 FD  .                        10.6000:        FLUID DENSITY
 CSIZ.                         9.6250:        CASING SIZE
 CBD .F                      992.0000:        CASING DRILLER 1
 CBL .F                      990.0000:        CASING LOGGER 1
 DFT .                            Gel:        TYPE FLUID IN HOLE
 DFV .                        54.0000:        VISCOSITY
 DFPH.                        10.0000:        PH
 DFL .                         4.8000:        FLUID LOSS
 RMS .                         2.0000:        RM
 MST .F                       82.0000:        RM MEAS. TEMP.
 RMF .                         2.1800:        RMF
 MFST.F                       61.0000:        RMF MEAS. TEMP.
 RMC .                         4.1900:        RMC
 MCST.F                       53.0000:        RMC MEAS. TEMP.
~OTHER INFORMATION
~A    DEPTH          SP         ASN         ILD        CILD        CALI          DT  
# ...
  1319.0000    -48.2288      7.4576      8.9464    108.8376   -999.2500   -999.2500  
  1319.5000    -47.7172      7.3944      8.9309    108.7691   -999.2500   -999.2500  
  1320.0000    -47.6927      7.3475      8.9469    109.0108   -999.2500   -999.2500  
  1320.5000    -47.6997      7.3199      8.9708    108.8098   -999.2500   -999.2500  
  1321.0000    -47.3766      7.3308      8.9873    108.4383   -999.2500   -999.2500  
  1321.5000    -47.2551      7.3704      8.9684    108.6769   -999.2500   -999.2500  
  1322.0000    -47.1665      7.3643      8.9818    108.4045   -999.2500   -999.2500  
  1322.5000    -47.0037      7.3320      9.0070    108.0004   -999.2500   -999.2500  
  1323.0000    -47.0781      7.3489      9.0502    108.1654   -999.2500   -999.2500  
  1323.5000    -47.0950      7.4206      9.0307    108.0534   -999.2500   -999.2500  
  1324.0000    -47.2039      7.5302      9.0097    108.0059   -999.2500   -999.2500  
  1324.5000    -47.6884      7.5548      8.9801    108.3571   -999.2500   -999.2500  
  1325.0000    -47.7294      7.5471      8.9975    108.9127   -999.2500   -999.2500  
  1325.5000    -47.9031      7.5308      9.0398    108.5821   -999.2500   -999.2500  
  1326.0000    -48.2129      7.5146      9.0651    108.4000   -999.2500   -999.2500  
  1326.5000    -48.1804      7.5078      9.0317    108.4542   -999.2500   -999.2500  
  1327.0000    -48.2217      7.5060      9.0456    108.6771   -999.2500   -999.2500  
  1327.5000    -48.3697      7.5032      8.9197    109.0506   -999.2500   -999.2500  
  1328.0000    -48.1854      7.5112      8.8357    110.0656   -999.2500   -999.2500  
  1328.5000    -48.2250      7.5214      8.7508    111.3720   -999.2500   -999.2500  
  1329.0000    -48.3903      7.5299      8.6273    112.8025   -999.2500   -999.2500  
  1329.5000    -48.6491      7.5108      8.5425    114.2331   -999.2500   -999.2500  
  1330.0000    -48.5716      7.4570      8.4184    115.4904   -999.2500   -999.2500  
  1330.5000    -48.2043      7.3851      8.3270    116.7112   -999.2500   -999.2500  
  1331.0000    -48.7959      7.2862      8.2612    118.0424   -999.2500   -999.2500  
  1331.5000    -48.4608      7.1416      8.1844    119.3736   -999.2500   -999.2500  
  1332.0000    -48.0971      7.0393      8.0976    120.4209   -999.2500   -999.2500  
  1332.5000    -47.3475      6.9449      8.0290    121.1963   -999.2500   -999.2500  
  1333.0000    -46.5382      6.9321      8.0233    121.4663   -999.2500   -999.2500  
  1333.5000    -45.9305      6.9719      8.0551    121.3335   -999.2500   -999.2500  
  1334.0000    -45.1732      7.0552      8.0920    120.8741   -999.2500   -999.2500  
  1334.5000    -44.6112      7.1618      8.0886    120.5000   -999.2500   -999.2500  
  1335.0000    -44.7560      7.2163      8.0999    119.9882   -999.2500   -999.2500  
  1335.5000    -45.0492      7.2412      8.2086    119.4986   -999.2500   -999.2500  
  1336.0000    -45.0733      7.2728      8.1674    119.1424   -999.2500   -999.2500  
  1336.5000    -44.8424      7.3472      8.1706    118.6854   -999.2500   -999.2500  
  1337.0000    -44.5608      7.4075      8.1828    119.0885   -999.2500   -999.2500  
  1337.5000    -44.4200      7.4869      8.1737    119.4813   -999.2500   -999.2500  
  1338.0000    -44.4246      7.6041      8.1633    119.7848   -999.2500   -999.2500  
  1338.5000    -44.7624      7.5770      8.1528    119.8284   -999.2500   -999.2500  
  1339.0000    -45.1558      7.4427      8.1424    119.5424   -999.2500   -999.2500  
  1339.5000    -45.3014      7.3686      8.1319    119.2565   -999.2500   -999.2500  
  1340.0000    -45.5908      7.3825      8.1215    119.1448   -999.2500   -999.2500  
  1340.5000    -46.1579      7.5258      8.1110    119.2781   -999.2500   -999.2500  
  1341.0000    -46.2004      7.6674      8.1006    119.1653   -999.2500   -999.2500  
  1341.5000    -45.9376      7.8144      8.0999    118.7195   -999.2500   -999.2500  
  1342.0000    -45.1278      7.9562      8.1237    118.1140   -999.2500   -999.2500  
  1342.5000    -44.3993      8.0538      8.1475    117.5581   -999.2500   -999.2500  
  1343.0000    -43.2923      8.1770      8.1713    117.0420   -999.2500   -999.2500  
  1343.5000    -42.8638      8.2410      8.1951    116.1807   -999.2500   -999.2500  
  1344.0000    -42.5356      8.2507      8.2190    115.5700   -999.2500   -999.2500  
  1344.5000    -42.2329      8.2353      8.2428    115.2625   -999.2500   -999.2500  
  1345.0000    -42.1252      8.2368      8.2329    115.4203   -999.2500   -999.2500  
  1345.5000    -42.1391      8.2805      8.2656    115.6118   -999.2500   -999.2500  
  1346.0000    -42.4604      8.3262      8.2710    115.4153   -999.2500   -999.2500  
  1346.5000    -42.5387      8.3018      8.2815    115.7045   -999.2500   -999.2500  
  1347.0000    -42.4923      8.2194      8.2832    115.1818   -999.2500   -999.2500  
  1347.5000    -42.9936      8.1893      8.2992    114.3762   -999.2500   -999.2500  
  1348.0000    -42.7567      8.2051      8.3655    113.6529   -999.2500   -999.2500  
  1348.5000    -42.7272      8.2584      8.3932    112.4926   -999.2500   -999.2500  
  1349.0000    -43.3732      8.3292      8.5198    111.2494   -999.2500   -999.2500  
  1349.5000    -43.9638      8.4325      8.5980    110.0062   -999.2500   -999.2500  
  1350.0000    -44.4508      8.6009      8.6907    108.9470   -999.2500   -999.2500  
  1350.5000    -44.8929      8.6874      8.7739    108.0018   -999.2500   -999.2500  
  1351.0000    -45.0964      8.7076      8.7812    107.9000   -999.2500   -999.2500  
  1351.5000    -45.5922      8.6722      8.7771    107.8500   -999.2500   -999.2500  
  1352.0000    -45.4365      8.5769      8.7730    107.8739   -999.2500   -999.2500  
  1352.5000    -45.2848      8.4548      8.7689    108.1647   -999.2500   -999.2500  
  1353.0000    -45.4172      8.3395      8.7648    108.9706   -999.2500   -999.2500  
  1353.5000    -45.1403      8.2650      8.7583    109.5850   -999.2500   -999.2500  
  1354.0000    -45.1557      8.2267      8.7182    110.3048   -999.2500   -999.2500  
  1354.5000    -45.0483      8.1345      8.6781    110.8124   -999.2500   -999.2500  
  1355.0000    -45.2843      8.0530      8.6380    111.0381   -999.2500   -999.2500  
  1355.5000    -45.2138      8.0238      8.5980    111.1451   -999.2500   -999.2500  
  1356.0000    -44.9608      8.1177      8.5579    111.5211   -999.2500   -999.2500  
  1356.5000    -44.2340      8.2392      8.5389    112.0401   -999.2500   -999.2500  
  1357.0000    -43.6105      8.3449      8.5280    112.5807   -999.2500   -999.2500  
  1357.5000    -43.3702      8.3701      8.5171    112.9042   -999.2500   -999.2500  
  1358.0000    -43.3242      8.3315      8.5062    113.4011   -999.2500   -999.2500  
  1358.5000    -43.3961      8.2691      8.4953    113.6724   -999.2500   -999.2500  
  1359.0000    -43.7833      8.2114      8.4844    113.5900   -999.2500   -999.2500  
  1359.5000    -43.8761      8.2257      8.4735    113.2314   -999.2500   -999.2500  
  1360.0000    -44.0263      8.3407      8.4626    112.4438   -999.2500   -999.2500  
  1360.5000    -43.9935      8.4562      8.4704    111.8780   -999.2500   -999.2500  
  1361.0000    -43.9568      8.5509      8.4895    111.4017   -999.2500   -999.2500  
  1361.5000    -44.2070      8.6292      8.5085    110.8125   -999.2500   -999.2500  
  1362.0000    -44.7843      8.6861      8.5275    110.6791   -999.2500   -999.2500  
  1362.5000    -45.1643      8.6986      8.5465    110.5479   -999.2500   -999.2500  
  1363.0000    -45.5564      8.6454      8.5655    110.3318   -999.2500   -999.2500  
  1363.5000    -45.8006      8.5386      8.5845    110.1157   -999.2500   -999.2500  
  1364.0000    -46.0433      8.4236      8.6035    110.0876   -999.2500   -999.2500  
  1364.5000    -46.0536      8.3608      8.6105    110.5062   -999.2500   -999.2500  
  1365.0000    -45.2970      8.3432      8.6086    110.7093   -999.2500   -999.2500  
  1365.5000    -44.1860      8.3918      8.6068    110.9124   -999.2500   -999.2500  
