~VERSION INFORMATION
 VERS.                           2.00:        CWLS LOG ASCII STANDARD - VERSION 2.00
 WRAP.                             NO:        ONE LINE PER DEPTH STEP
~WELL INFORMATION
#MNEM.UNIT                   DATA             INFORMATION
#----------             --------------        ------------------------------
 STRT.F                       25.0000:        START DEPTH
 STOP.F                     4165.0000:        STOP DEPTH
 STEP.F                        0.5000:        STEP VALUE
 NULL.                      -999.2500:        NULL VALUE
 COMP.    USGS/NPR HUSKY OIL OPERATOR:        COMPANY
 LOC .                     21 21N 14W:        LOCATION
 DATE.                         3/3/80:        LOG DATE
 WELL.                 WEST  DEASE #1:        WELL
 UWI .                   500232001400:        UNIQUE WELL ID
 API .                   500232001400:        UNIQUE WELL IDENTIFIER
 FLD .                        WILDCAT:        FIELD
 CNTY.                    NORTH SLOPE:        COUNTY
 STAT.                         ALASKA:        STATE
 CTRY.                            USA:        COUNTRY
 OPER.    USGS/NPR HUSKY OIL OPERATOR:        OPERATOR
 SRVC.                   SCHLUMBERGER:        SERVICE COMPANY
 LAT .                         0.0000:        LATITUDE
 LON .                         0.0000:        LONGITUDE
 DIGS.               CENTER LINE DATA:        DIGITIZING COMPANY
~CURVE INFORMATION      
#MNEM        .UNIT         API CODE           CURVE DESCRIPTION
#-----------------      --------------        ------------------------------
 DEPT        .F                      :        1  DEPTH
 SP          .MV                     :        2  
 LLD         .OHMM                   :        3  
 LLS         .OHMM                   :        4  
 MSFL        .OHMM                   :        5  
 CALI        .IN                     :        6  
 RHOB        .G/C3                   :        7  
 DRHO        .G/C3                   :        8  
 NPHI        .%                      :        9  
 GR          .GAPI                   :        10 
 DT          .US/F                   :        11 
~PARAMETER INFORMATION
#MNEM.UNIT                  VALUE             DESCRIPTION OF MNEMONIC
#---------             ---------------        ------------------------------
 EKB .F                       24.0000:        KELLY BUSHING
 TD  .F                     4173.0000:        TOTAL DEPTH
 BHT .F                       85.0000:        BOTTOM HOLE TEMPERATURE
 BS  .                        12.2500:        BIT SIZE
 FD  .                        10.4000:        FLUID DENSITY
 CSIZ.                        13.3750:        CASING SIZE
 CBD .F                      288.0000:        CASING DRILLER 1
 CBL .F                      292.0000:        CASING LOGGER 1
 DFT .                             99:        TYPE FLUID IN HOLE
 DFV .                        52.0000:        VISCOSITY
 DFPH.                         8.0000:        PH
 DFL .                         7.5000:        FLUID LOSS
 RMS .                         0.1250:        RM
 MST .F                       35.0000:        RM MEAS. TEMP.
 RMF .                         0.1440:        RMF
 MFST.F                       44.0000:        RMF MEAS. TEMP.
 RMC .                         0.2360:        RMC
 MCST.F                       36.0000:        RMC MEAS. TEMP.
~OTHER INFORMATION
~A    DEPTH          SP         LLD         LLS        MSFL        CALI        RHOB        DRHO        NPHI          GR          DT 
# ...
  1824.5000   -141.9305      8.4131      6.8115      1.9862     15.1073      2.2501      0.1645     54.1339     61.2931    100.8599 
  1825.0000   -141.9397      7.9105      6.3250      1.2552     14.9322      2.2209      0.1619     53.7115     60.5977    107.2007 
  1825.5000   -141.9566      7.8296      6.1399      1.0944     14.7908      2.2289      0.1693     52.9764     60.3936    115.7341 
  1826.0000   -142.2975      8.0634      6.2528      1.0709     14.7699      2.2877      0.2013     53.3803     60.2735    111.6776 
  1826.5000   -142.0865      8.2237      6.4482      1.6088     14.7951      2.3414      0.2425     54.1656     60.5077    114.5598 
  1827.0000   -142.0333      8.5491      6.6589      1.9041     14.8676      2.3157      0.2301     54.0281     61.9046    112.2248 
  1827.5000   -142.0148      8.8860      6.7127      1.8124     14.9326      2.3490      0.2375     53.0389     63.7068    110.8771 
  1828.0000   -142.3576      8.6940      6.6857      1.6859     14.9562      2.3558      0.2295     51.9096     64.8561    112.5743 
  1828.5000   -142.4312      8.0714      6.5033      1.2649     14.9576      2.2991      0.1856     54.2782     65.8784    111.1333 
  1829.0000   -142.1661      7.9046      6.2636      0.9309     14.9262      2.2906      0.1853     55.9474     66.6669    111.6698 
  1829.5000   -141.9474      7.8347      6.2227      1.0178     14.7427      2.2829      0.1954     56.2412     67.4885    112.9287 
  1830.0000   -141.9668      7.6230      6.1767      1.1768     14.4882      2.2680      0.1464     55.6449     68.0125    115.8217 
  1830.5000   -141.9862      7.8064      6.1404      1.6219     14.2671      2.2829      0.1069     55.0578     67.9026    118.7366 
  1831.0000   -142.0872      7.8115      6.1496      1.5973     13.9092      2.3174      0.1199     53.7005     66.4687    119.6871 
  1831.5000   -142.3489      7.6868      6.1452      1.7843     13.7859      2.3703      0.1432     52.4618     64.4455    118.5795 
  1832.0000   -142.6085      7.8058      6.1811      2.6411     13.8455      2.4056      0.1478     50.8492     63.1428    109.9256 
  1832.5000   -141.9403      7.9549      6.2139      2.3464     13.9507      2.4154      0.1306     48.4722     64.1825    109.7728 
  1833.0000   -142.0359      7.9242      6.2212      1.6271     14.0978      2.4173      0.1231     47.5961     64.5289    113.2379 
  1833.5000   -142.3352      7.9479      6.2610      1.4780     14.1683      2.4380      0.1445     47.7997     64.8156    118.6373 
  1834.0000   -142.3503      8.2169      6.3218      1.4699     14.2149      2.4324      0.1397     48.3526     64.9066    127.7117 
  1834.5000   -142.4181      8.5332      6.5162      1.7821     14.2584      2.4190      0.1289     48.5315     64.7284    123.6389 
  1835.0000   -142.3988      8.8746      6.7347      2.1118     14.2533      2.4100      0.1227     47.6914     64.0282    117.5126 
  1835.5000   -142.6407      9.3649      6.8342      2.3396     14.1364      2.4012      0.1152     46.4637     63.7236    111.2103 
  1836.0000   -143.0058      9.4276      6.8837      2.4363     14.1167      2.3869      0.1151     45.7439     64.1781    101.8088 
  1836.5000   -142.5961      9.2990      7.0637      2.4888     14.1475      2.3822      0.1234     45.4897     64.7216     99.9705 
  1837.0000   -142.4116      9.5369      7.1712      2.8686     14.1849      2.3490      0.1280     46.8439     64.6323    105.0380 
  1837.5000   -142.6163      9.8824      7.2694      4.2303     14.1816      2.3180      0.1481     48.7811     64.6674    106.9871 
  1838.0000   -142.6222      9.9904      7.3561      3.3027     14.2172      2.3037      0.1197     50.9062     65.2510    107.3131 
  1838.5000   -142.1144     10.0236      7.4865      3.1258     14.7942      2.3043      0.1305     53.3964     66.1082    107.2833 
  1839.0000   -142.3021      9.9816      7.4814      4.0428     14.8234      2.3674      0.1703     53.0375     64.9179    104.2014 
  1839.5000   -142.0648      9.5671      7.0884      4.9032     15.0697      2.3682      0.1779     50.8908     63.7561    105.6146 
  1840.0000   -142.5617      8.8319      6.8891      3.6111     14.7703      2.3602      0.1833     50.7392     62.0955    106.7724 
  1840.5000   -141.9913      8.9769      6.7580      1.8386     14.0910      2.3226      0.1763     51.1110     59.8910    107.8776 
  1841.0000   -141.8189      8.8780      6.5305      1.3426     13.9894      2.2748      0.1429     52.0539     56.8227    105.9309 
  1841.5000   -142.2170      8.5497      6.4306      1.8874     13.8191      2.2727      0.1185     53.5210     55.0573    104.0765 
  1842.0000   -142.6175      9.2850      7.0044      0.9672     13.5877      2.2828      0.1070     53.2640     57.0439    106.1689 
  1842.5000   -142.2885      9.6802      7.2510      1.1099     13.4699      2.2971      0.1054     52.6988     58.7085    108.2217 
  1843.0000   -142.0997      9.7432      7.3483      1.8105     13.4476      2.3163      0.1099     52.6376     59.4045    105.9402 
  1843.5000   -142.2849     10.5937      7.5007      2.0679     13.3803      2.3378      0.1354     52.5318     60.0194    105.4492 
  1844.0000   -142.5599      8.9958      7.2627      2.0605     13.3750      2.3436      0.1506     51.3675     60.6412    102.8154 
  1844.5000   -142.2462      8.6716      6.8848      1.1749     13.4011      2.3772      0.1586     50.3865     61.3881     99.6506 
  1845.0000   -142.2771      8.3069      6.3699      0.7783     13.4834      2.3909      0.1614     49.5184     62.2903    107.0704 
  1845.5000   -142.6775      7.9696      6.0457      0.6682     13.4550      2.3728      0.1239     48.5785     63.0159    109.6235 
  1846.0000   -143.5515      7.8206      5.8137      0.9012     13.0653      2.3687      0.1113     47.0897     63.4295    111.9083 
  1846.5000   -142.3940      8.0836      6.0429      1.1115     12.9019      2.3856      0.1151     46.5809     63.6471    115.1601 
  1847.0000   -142.2117      8.3642      6.2169      1.9748     12.9266      2.4137      0.1485     46.5343     63.9428    115.6513 
  1847.5000   -142.2984      8.5755      6.4529      2.1638     13.6275      2.3947      0.1534     47.3781     64.4314    116.4973 
  1848.0000   -142.5998      8.7922      6.5966      1.9772     13.6916      2.3395      0.1079     50.3505     63.4036    113.5988 
  1848.5000   -142.0406      8.9321      6.8582      1.4779     13.3576      2.3112      0.1047     52.9661     61.7044    111.3597 
  1849.0000   -142.6174      9.0112      7.0644      1.5254     13.0449      2.3270      0.1233     53.6629     60.1185    111.1393 
  1849.5000   -142.0739      9.0647      7.0845      1.7867     12.9951      2.3539      0.1265     52.0939     59.2699    110.7555 
  1850.0000   -142.3527      8.7186      6.7927      1.1040     13.0142      2.3571      0.1225     50.3338     59.2094    108.9798 
  1850.5000   -142.6474      8.2992      6.2626      0.5727     13.0344      2.3633      0.1185     49.4665     59.9515    105.1676 
  1851.0000   -142.2892      7.9308      6.0770      0.7766     13.0470      2.3679      0.1122     49.2900     61.2759    102.8126 
  1851.5000   -142.9044      7.9486      6.1358      0.9381     12.9471      2.3772      0.1106     49.8289     62.7893    104.9709 
  1852.0000   -143.3115      8.1130      6.3123      0.8973     12.8472      2.4004      0.1243     50.2943     64.8420    107.5861 
  1852.5000   -143.8732      8.2227      6.4030      0.9613     12.7732      2.3968      0.1303     48.9541     65.9994    109.1094 
  1853.0000   -143.6820      8.2517      6.5048      1.1611     13.0495      2.3894      0.1299     47.1810     65.9705    111.3469 
  1853.5000   -143.9313      8.1893      6.3738      1.8415     13.5579      2.3858      0.1386     46.7102     64.7428    111.9487 
  1854.0000   -144.1596      8.1105      6.3052      1.9842     14.4641      2.3839      0.1492     46.3599     63.6282    113.9124 
  1854.5000   -144.1815      8.0481      6.2200      1.5809     14.6295      2.3697      0.1553     47.2363     62.8634    114.3724 
