~VERSION INFORMATION
 VERS.                           2.00:        CWLS LOG ASCII STANDARD - VERSION 2.00
 WRAP.                             NO:        ONE LINE PER DEPTH STEP
~WELL INFORMATION
#MNEM.UNIT                   DATA             INFORMATION
#----------             --------------        ------------------------------
 STRT.F                       96.0000:        START DEPTH
 STOP.F                     2280.0000:        STOP DEPTH
 STEP.F                        0.5000:        STEP VALUE
 NULL.                      -999.2500:        NULL VALUE
 COMP.    USGS/NPR HUSKY OIL OPERATOR:        COMPANY  
 LOC .                   23  22N  17W:        LOCATION   
 DATE.                        9/11/80:        LOG DATE 
 WELL.               SOUTH BARROW #15:        WELL     
 UWI .                   500232001600:        UNIQUE WELL ID 
 API .                   500232001600:        UNIQUE WELL IDENTIFIER 
 FLD .                   SOUTH BARROW:        FIELD    
 CNTY.                    NORTH SLOPE:        COUNTY  
 STAT.                         ALASKA:        STATE   
 CTRY.                            USA:        COUNTRY 
 OPER.    USGS/NPR HUSKY OIL OPERATOR:        OPERATOR  
 SRVC.                   SCHLUMBERGER:        SERVICE COMPANY 
 LAT .                         0.0000:        LATITUDE
 LON .                         0.0000:        LONGITUDE
 DIGS.               CENTER LINE DATA:        DIGITIZING COMPANY 
~CURVE INFORMATION      
#MNEM        .UNIT         API CODE           CURVE DESCRIPTION
#-----------------      --------------        ------------------------------
 DEPT        .F                      :        1  DEPTH
 CALI        .IN                     :        2  
 GR          .GAPI                   :        3  
 RHOB        .G/C3                   :        4  
 DRHO        .G/C3                   :        5  
 NPHI        .%                      :        6  
 DT          .US/F                   :        7  
 SP          .MV                     :        8  
 ILD         .OHMM                   :        9  
 ILM         .OHMM                   :        10 
 SFL         .OHMM                   :        11 
 LLD         .OHMM                   :        12 
 LLS         .OHMM                   :        13 
 MSFL        .OHMM                   :        14 
~PARAMETER INFORMATION       
#MNEM.UNIT                  VALUE             DESCRIPTION OF MNEMONIC
#---------             ---------------        ------------------------------
 EKB .F                       30.0000:        KELLY BUSHING
 TD  .F                     2279.0000:        TOTAL DEPTH
 BHT .F                        0.0000:        BOTTOM HOLE TEMPERATURE
 BS  .                         8.5000:        BIT SIZE
 FD  .                        10.3000:        FLUID DENSITY
 CSIZ.                         9.6250:        CASING SIZE
 CBD .F                     1514.0000:        CASING DRILLER 1
 CBL .F                     1520.0000:        CASING LOGGER 1
 DFT .                  Miscellaneous:        TYPE FLUID IN HOLE
 DFV .                        43.0000:        VISCOSITY
 DFPH.                         0.0000:        PH
 DFL .                         0.0000:        FLUID LOSS
 RMS .                         0.1800:        RM
 MST .F                       48.0000:        RM MEAS. TEMP.
 RMF .                         0.1400:        RMF
 MFST.F                       48.0000:        RMF MEAS. TEMP.
 RMC .                         0.0000:        RMC
 MCST.F                        0.0000:        RMC MEAS. TEMP.
~OTHER INFORMATION
~A    DEPTH        CALI          GR        RHOB        DRHO        NPHI          DT          SP         ILD         ILM         SFL         LLD         LLS        MSFL  
# ...
  2160.0000      8.6012     48.9171      2.3862     -0.0126     29.1122     96.0085   -999.2500   -999.2500   -999.2500   -999.2500     12.4882     10.1343      6.4089  
  2160.5000      8.6004     48.9523      2.4392     -0.0129     29.5087     94.9806   -999.2500   -999.2500   -999.2500   -999.2500     12.0201      9.8070      6.2178  
  2161.0000      8.6440     49.0872      2.4631      0.0053     29.3913     94.7179   -999.2500   -999.2500   -999.2500   -999.2500     11.8722      9.4657      5.9131  
  2161.5000      8.6362     49.6870      2.4253     -0.0020     29.0452     94.6299   -999.2500   -999.2500   -999.2500   -999.2500     11.6396      9.1927      5.6949  
  2162.0000      8.6087     49.4961      2.3975     -0.0077     28.3139     95.7211   -999.2500   -999.2500   -999.2500   -999.2500     11.1938      8.9285      5.5033  
  2162.5000      8.5980     49.5217      2.3856     -0.0098     27.4760     97.6400   -999.2500   -999.2500   -999.2500   -999.2500     11.1107      8.9978      5.4041  
  2163.0000      8.6349     50.0386      2.3837     -0.0082     27.2558    100.2421   -999.2500   -999.2500   -999.2500   -999.2500     11.2268      9.0154      5.4465  
  2163.5000      8.5088     50.3027      2.3843     -0.0098     26.8700    106.8441   -999.2500   -999.2500   -999.2500   -999.2500     11.5329      9.1751      5.7517  
  2164.0000      8.6709     51.6395      2.3931     -0.0055     26.2778    103.8302   -999.2500   -999.2500   -999.2500   -999.2500     11.7498      9.3814      6.2560  
  2164.5000      8.5419     53.6501      2.4050     -0.0018     26.3297     97.6384   -999.2500   -999.2500   -999.2500   -999.2500     11.8704      9.4403      6.1435  
  2165.0000      8.5725     55.2115      2.4070     -0.0063     26.9079     94.3126   -999.2500   -999.2500   -999.2500   -999.2500     11.8599      9.3728      5.5451  
  2165.5000      8.6134     55.3257      2.4143     -0.0037     27.6825     93.9360   -999.2500   -999.2500   -999.2500   -999.2500     11.7762      9.2576      5.3820  
  2166.0000      8.6029     53.4787      2.4245     -0.0013     28.5246     90.6173   -999.2500   -999.2500   -999.2500   -999.2500     11.2387      8.9588      5.0621  
  2166.5000      8.5313     51.9347      2.4281      0.0021     29.4070     96.7881   -999.2500   -999.2500   -999.2500   -999.2500     10.4519      8.5420      4.4204  
  2167.0000      8.5609     50.8479      2.4188      0.0006     30.4373     92.7638   -999.2500   -999.2500   -999.2500   -999.2500      9.7202      8.0586      4.3537  
  2167.5000      8.5940     48.7413      2.4100     -0.0023     30.8681     91.4147   -999.2500   -999.2500   -999.2500   -999.2500      9.0691      7.6929      4.1743  
  2168.0000      8.5884     47.3202      2.4037     -0.0009     30.6919     92.8681   -999.2500   -999.2500   -999.2500   -999.2500      8.9364      7.6203      4.1149  
  2168.5000      8.5589     46.7326      2.3754      0.0005     30.3943     93.6015   -999.2500   -999.2500   -999.2500   -999.2500      9.2035      7.5910      4.1284  
  2169.0000      8.5639     47.3218      2.3731      0.0012     30.2556     94.1371   -999.2500   -999.2500   -999.2500   -999.2500      9.7357      7.8181      4.2205  
  2169.5000      8.5977     48.7139      2.3765      0.0017     30.1639     94.8453   -999.2500   -999.2500   -999.2500   -999.2500      9.8656      7.9968      4.6125  
  2170.0000      8.5700     50.3563      2.3852      0.0039     30.0176     93.7803   -999.2500   -999.2500   -999.2500   -999.2500      9.9107      8.1784      5.3258  
  2170.5000      8.5403     52.7234      2.3951      0.0123     29.6445     93.2009   -999.2500   -999.2500   -999.2500   -999.2500     10.2355      8.3192      6.0906  
  2171.0000      8.5713     56.5784      2.4007      0.0059     29.2620     92.8343   -999.2500   -999.2500   -999.2500   -999.2500     10.9617      8.3837      6.9568  
  2171.5000      8.5141     60.9068      2.4158     -0.0054     28.8224     91.9385   -999.2500   -999.2500   -999.2500   -999.2500     11.7519      8.4916      8.1136  
  2172.0000      8.5128     65.0398      2.4480     -0.0049     29.1189     91.7708   -999.2500   -999.2500   -999.2500   -999.2500     11.5621      8.5321      8.1770  
  2172.5000      8.4992     65.7358      2.4851     -0.0142     29.8912     91.8299   -999.2500   -999.2500   -999.2500   -999.2500     10.7374      8.3757      5.9104  
  2173.0000      8.4436     62.3510      2.5244     -0.0246     30.3386     92.0850   -999.2500   -999.2500   -999.2500   -999.2500      9.8865      8.0078      4.8328  
  2173.5000      8.4673     59.1045      2.5277     -0.0130     30.5628     93.0994   -999.2500   -999.2500   -999.2500   -999.2500      9.1815      7.3975      4.4604  
  2174.0000      8.5057     54.7456      2.4752     -0.0033     30.4572     93.1416   -999.2500   -999.2500   -999.2500   -999.2500      8.7669      7.0715      4.5662  
  2174.5000      8.5291     51.7118      2.4114     -0.0101     29.9880     92.9603   -999.2500   -999.2500   -999.2500   -999.2500      8.7519      7.1312      4.5261  
  2175.0000      8.5221     50.1213      2.3993     -0.0075     30.1804     93.3454   -999.2500   -999.2500   -999.2500   -999.2500      8.8525      7.1765      4.3554  
  2175.5000      8.4980     49.9732      2.4059     -0.0034     30.4446     93.1815   -999.2500   -999.2500   -999.2500   -999.2500      8.8169      7.0416      4.1284  
  2176.0000      8.4517     50.8760      2.3976     -0.0081     30.6088     93.1342   -999.2500   -999.2500   -999.2500   -999.2500      8.5048      7.0468      4.2549  
  2176.5000      8.4430     52.1695      2.3843     -0.0166     30.3835     92.2980   -999.2500   -999.2500   -999.2500   -999.2500      8.4417      7.0845      4.6029  
  2177.0000      8.4601     54.0795      2.3847     -0.0058     29.7532     90.6338   -999.2500   -999.2500   -999.2500   -999.2500      8.6108      7.1881      4.8742  
  2177.5000      8.4978     55.0109      2.3873      0.0061     29.3644     87.8183   -999.2500   -999.2500   -999.2500   -999.2500      8.7972      7.3526      4.9486  
  2178.0000      8.5290     54.6295      2.3815     -0.0103     29.4501     89.5402   -999.2500   -999.2500   -999.2500   -999.2500      9.0439      7.4493      4.6983  
  2178.5000      8.5390     53.9546      2.3990     -0.0064     29.6870     92.7615   -999.2500   -999.2500   -999.2500   -999.2500      9.3907      7.5483      4.4836  
  2179.0000      8.4836     54.2501      2.4203     -0.0032     29.9240     96.9531   -999.2500   -999.2500   -999.2500   -999.2500      9.8578      8.0646      4.8166  
  2179.5000      8.4801     56.2877      2.4296      0.0001     30.1609    101.6054   -999.2500   -999.2500   -999.2500   -999.2500     10.5896      8.1841      5.5178  
  2180.0000      8.6169     59.5164      2.4240      0.0068     29.3250    102.5000   -999.2500   -999.2500   -999.2500   -999.2500     11.2577      8.2828      5.5082  
  2180.5000      8.6007     62.2403      2.4268     -0.0014     28.1293    101.7775   -999.2500   -999.2500   -999.2500   -999.2500      9.9343      7.9338      5.1661  
  2181.0000      8.5302     62.4021      2.4373     -0.0043     28.5922    108.1004   -999.2500   -999.2500   -999.2500   -999.2500      8.2718      7.2088      4.0001  
  2181.5000      8.5362     60.2222      2.4436     -0.0084     29.3655    111.7729   -999.2500   -999.2500   -999.2500   -999.2500      7.5884      6.2003      3.2691  
  2182.0000      8.5734     57.7186      2.4381     -0.0133     30.1388    120.8230   -999.2500   -999.2500   -999.2500   -999.2500      7.2865      5.7415      4.0615  
  2182.5000      8.5652     57.9988      2.4217     -0.0158     30.2358    113.9911   -999.2500   -999.2500   -999.2500   -999.2500      7.5962      5.9115      5.3305  
  2183.0000      8.5704     58.9674      2.4074     -0.0132     29.9071    108.6822   -999.2500   -999.2500   -999.2500   -999.2500      8.5300      6.7168      5.6618  
  2183.5000      8.5866     60.1993      2.4037     -0.0092     29.8104    106.5316   -999.2500   -999.2500   -999.2500   -999.2500      8.5485      6.8947      5.1852  
