~VERSION INFORMATION
 VERS.                           2.00:        CWLS LOG ASCII STANDARD - VERSION 2.00
 WRAP.                             NO:        ONE LINE PER DEPTH STEP
~WELL INFORMATION
#MNEM.UNIT                   DATA             INFORMATION
#----------             --------------        ------------------------------
 STRT.F                      999.0000:        START DEPTH
 STOP.F                     2350.0000:        STOP DEPTH
 STEP.F                        0.5000:        STEP VALUE
 NULL.                      -999.2500:        NULL VALUE
 COMP.             UNITED STATES NAVY:        COMPANY  
 LOC .                   14  22N  18W:        LOCATION   
 DATE.                        3/19/68:        LOG DATE 
 WELL.                SOUTH BARROW #7:        WELL     
 UWI .                   500232000100:        UNIQUE WELL ID 
 API .                   500232000100:        UNIQUE WELL IDENTIFIER 
 FLD .                   SOUTH BARROW:        FIELD    
 CNTY.                         NPR #4:        COUNTY  
 STAT.                         ALASKA:        STATE   
 CTRY.                            USA:        COUNTRY 
 OPER.             UNITED STATES NAVY:        OPERATOR  
 SRVC.                   SCHLUMBERGER:        SERVICE COMPANY 
 LAT .                         0.0000:        LATITUDE
 LON .                         0.0000:        LONGITUDE
 DIGS.               CENTER LINE DATA:        DIGITIZING COMPANY 
~CURVE INFORMATION      
#MNEM        .UNIT         API CODE           CURVE DESCRIPTION
#-----------------      --------------        ------------------------------
 DEPT        .F                      :        1  DEPTH
 SP          .MV                     :        2  
 ILD         .OHMM                   :        3  
 ASN         .OHMM                   :        4  
 CILD        .OHMM                   :        5  
 CALI        .IN                     :        6  
 DT          .US/F                   :        7  
~PARAMETER INFORMATION       
#MNEM.UNIT                  VALUE             DESCRIPTION OF MNEMONIC
#---------             ---------------        ------------------------------
 EKB .F                       36.0000:        KELLY BUSHING
 TD  .F                     2351.0000:        TOTAL DEPTH
 BHT .F                        0.0000:        BOTTOM HOLE TEMPERATURE
 BS  .                         9.6250:        BIT SIZE
 FD  .                        76.5000:        FLUID DENSITY
 CSIZ.                        10.7500:        CASING SIZE
 CBD .F                      998.0000:        CASING DRILLER 1
 CBL .F                      999.0000:        CASING LOGGER 1
 DFT .                            Gel:        TYPE FLUID IN HOLE
 DFV .                        45.0000:        VISCOSITY
 DFPH.                         9.5000:        PH
 DFL .                         7.0000:        FLUID LOSS
 RMS .                         5.4300:        RM
 MST .F                       42.0000:        RM MEAS. TEMP.
 RMF .                         5.1700:        RMF
 MFST.F                       59.0000:        RMF MEAS. TEMP.
 RMC .                         5.0900:        RMC
 MCST.F                       56.0000:        RMC MEAS. TEMP.
~OTHER INFORMATION
~A    DEPTH          SP         ILD         ASN        CILD        CALI          DT  
# ...
  1610.0000    -36.0781     10.0689     11.0626    104.2171      9.5887    114.2306  
  1610.5000    -36.0468     10.1104     10.9163    103.2093      9.5603    114.1650  
  1611.0000    -35.9099     10.1518     10.8521    103.1308      9.5319    114.7176  
  1611.5000    -35.4249     10.1932     10.8645    103.7498      9.4920    114.9356  
  1612.0000    -35.2413     10.2347     11.0023    104.2956      9.4770    114.9357  
  1612.5000    -35.0027     10.0873     11.1419    104.1167      9.4759    113.9770  
  1613.0000    -34.5868      9.9579     11.2815    104.6850      9.4725    112.4403  
  1613.5000    -34.0717      9.9600     11.4212    104.7925      9.4736    111.2441  
  1614.0000    -33.5780     10.2101     11.5608    104.1317      9.4730    110.1760  
  1614.5000    -33.2035     10.2567     11.7000    102.1224      9.4768    109.5443  
  1615.0000    -32.8756     10.5040     11.9312    100.3631      9.4758    109.6127  
  1615.5000    -32.8732     10.7320     12.1385     98.6044      9.4764    109.6391  
  1616.0000    -33.0662     10.7136     12.2850     97.8290      9.4803    110.0850  
  1616.5000    -33.2195     10.6140     12.2802     98.6414      9.4858    109.8461  
  1617.0000    -33.6290     10.5288     12.1520     99.5251      9.4912    109.2448  
  1617.5000    -34.3242     10.4718     11.7746    100.0495      9.4966    108.1956  
  1618.0000    -34.9144     10.3673     11.5701    100.5229      9.5020    107.5239  
  1618.5000    -35.4875     10.2627     11.3659    101.2100      9.5074    107.1525  
  1619.0000    -35.5412     10.1582     11.1684    102.3022      9.5128    106.9925  
  1619.5000    -35.1131     10.0537     11.1095    103.4348      9.5182    106.7705  
  1620.0000    -35.2435      9.9492     11.0507    104.9276      9.5236    105.4159  
  1620.5000    -35.6883      9.8446     10.9918    105.0486      9.5290    103.6577  
  1621.0000    -35.8713      9.7935     10.9329    104.2507      9.5344    103.1558  
  1621.5000    -35.5396      9.9435     10.8741    102.7512      9.5398    103.2389  
  1622.0000    -35.4968     10.0934     10.8766    102.0262      9.5452    105.3913  
  1622.5000    -35.8974     10.2612     10.9695    101.1980      9.5666    107.6733  
  1623.0000    -36.7891     10.4938     11.0624    100.2429      9.6247    109.9208  
  1623.5000    -37.1560     10.7265     11.1553     98.6086      9.6378    110.7468  
  1624.0000    -37.6383     10.9591     11.4167     96.9487      9.6509    110.7515  
  1624.5000    -37.9526     11.1917     11.8680     95.3667      9.6437    110.8534  
  1625.0000    -37.5319     11.0787     12.3051     95.2432      9.6174    111.2484  
  1625.5000    -36.9934     10.9312     12.4697     95.9573      9.5910    111.9668  
  1626.0000    -38.0027     10.6757     11.8363     97.0913      9.5647    112.8160  
  1626.5000    -39.5939     10.4201     10.9255     99.0520      9.5384    113.5342  
  1627.0000    -40.1753     10.1645     10.4663    101.0575      9.5405    113.8696  
  1627.5000    -39.8092      9.9089     10.1066    103.0177      9.5580    114.2335  
  1628.0000    -39.2051      9.6534      9.9350    105.0292      9.5754    114.2307  
  1628.5000    -38.4278      9.4904      9.8746    106.5971      9.5929    112.8169  
  1629.0000    -37.1269      9.5438      9.8712    107.4790      9.6124    111.1474  
  1629.5000    -35.9498      9.5972      9.9011    108.0536      9.6601    108.8674  
  1630.0000    -35.5820      9.6506     10.1290    107.7733      9.7077    107.4607  
  1630.5000    -35.6809      9.7039     10.4059    107.0989      9.7554    105.4097  
  1631.0000    -35.8533      9.7720     10.6828    106.1429      9.7842    105.6849  
  1631.5000    -35.9441      9.8593     10.8927    105.5124      9.7893    108.4946  
  1632.0000    -36.0086      9.9467     10.8148    105.0709      9.7889    117.1404  
  1632.5000    -35.9637     10.0341     10.6040    104.1631      9.7783    121.0426  
  1633.0000    -35.8634     10.1214     10.3933    103.6372      9.7564    118.3013  
  1633.5000    -35.8956     10.2088     10.3499    102.8997      9.7341    117.9259  
  1634.0000    -35.8497     10.2962     10.5110    103.2575      9.7049    117.7315  
  1634.5000    -35.5966     10.3836     10.6942    102.1264      9.6754    117.6789  
  1635.0000    -35.4993     10.4709     10.8766    100.6215      9.6415    120.4711  
  1635.5000    -35.4008     10.6229     11.5474     98.3614      9.6295    127.0302  
  1636.0000    -35.2971     10.8365     12.0168     95.8803      9.6389    114.5838  
  1636.5000    -35.5169     11.0502     12.5279     93.8777      9.6464    114.4310  
  1637.0000    -36.3441     11.2638     12.9743     92.1325      9.6489    120.2614  
  1637.5000    -37.8643     11.4775     13.1208     89.8812      9.6585    131.8587  
  1638.0000    -39.3342     11.9744     13.0199     86.7558      9.6817    129.7202  
  1638.5000    -39.9509     12.5349     12.9512     83.5820      9.7380    115.2194  
  1639.0000    -40.4036     13.0955     13.2366     81.6556      9.7587    113.6010  
  1639.5000    -40.1911     13.2682     13.4051     80.3107      9.7486    120.2727  
  1640.0000    -39.5410     13.1949     13.3342     81.0518      9.7125    123.7598  
  1640.5000    -38.7916     12.9087     13.1623     82.6819      9.7027    118.3720  
  1641.0000    -38.1317     12.4438     12.7377     85.1848      9.7035    120.3014  
  1641.5000    -38.0175     11.9376     12.3946     88.3420      9.7030    110.5486  
  1642.0000    -38.0305     11.4314     11.5979     91.1631      9.7024    108.9931  
  1642.5000    -38.0187     10.9252     11.0000     93.0611      9.7019    109.4025  
  1643.0000    -37.7485     10.4190     10.6213     94.4721      9.7014    107.8934  
  1643.5000    -37.3193     10.1698     10.5005     96.2071      9.7009    106.2255  
  1644.0000    -36.7153     10.1568     10.5281     98.4049      9.7003    105.7031  
  1644.5000    -36.2939     10.1438     10.4694    100.7679      9.6948    105.1954  
  1645.0000    -35.9777     10.1303     10.5636    101.9797      9.6866    104.5498  
  1645.5000    -36.5163     10.1129     10.4295    102.2669      9.6784    108.0858  
  1646.0000    -37.3551     10.0956     10.4445    101.9224      9.6702    106.8781  
  1646.5000    -38.6004     10.0782     10.3160    101.5497      9.6621    104.2273  
  1647.0000    -39.5382     10.0608     10.2360    102.0403      9.6539    108.1400  
  1647.5000    -40.1492     10.0434     10.0975    103.1788      9.6457    111.1341  
  1648.0000    -40.0453      9.8875      9.9343    105.5597      9.6375    113.9767  
  1648.5000    -39.8164      9.6571      9.7781    108.7172      9.6267    114.9952  
  1649.0000    -39.0525      9.4267      9.7794    111.0725      9.6045    113.3616  
  1649.5000    -38.4203      9.1963      9.7807    112.2016      9.5824    112.3860  
  1650.0000    -37.3665      9.0836      9.5735    112.7206      9.5603    111.8297  
  1650.5000    -36.7936      9.0417      9.5341    113.2051      9.5381    111.7718  
  1651.0000    -36.2121      9.0373      9.5786    113.9610      9.5160    114.0698  
  1651.5000    -35.7639      9.0652      9.6421    114.7344      9.4939    115.4509  
  1652.0000    -35.3014      9.0147      9.7391    115.6649      9.4930    116.7282  
  1652.5000    -34.9632      8.9585      9.9026    116.1271      9.5149    116.7552  
  1653.0000    -34.8679      9.0887     10.0089    116.0461      9.5344    116.7514  
  1653.5000    -35.0360      9.2356      9.9993    115.5071      9.5393    117.0277  
  1654.0000    -35.3108      9.3825      9.9436    114.1220      9.5421    117.2002  
  1654.5000    -35.5172      9.5294      9.9862    112.4111      9.5448    118.6105  
  1655.0000    -35.4137      9.6763      9.7111    110.3008      9.5475    119.5015  
  1655.5000    -35.3304      9.8232     10.0895    108.4815      9.5450    118.9036  
  1656.0000    -35.5329     10.0620     10.4679    106.7053      9.5261    118.4367  
  1656.5000    -36.1480     10.4896     10.9197    103.4602      9.5073    118.0150  
