~VERSION INFORMATION
 VERS.                           2.00:        CWLS LOG ASCII STANDARD - VERSION 2.00
 WRAP.                             NO:        ONE LINE PER DEPTH STEP
~WELL INFORMATION
#MNEM.UNIT                   DATA             INFORMATION
#----------             --------------        ------------------------------
 STRT.F                     1244.0000:        START DEPTH
 STOP.F                     2340.0000:        STOP DEPTH
 STEP.F                        0.5000:        STEP VALUE
 NULL.                      -999.2500:        NULL VALUE
 COMP.        U.S. NAVY DEPT NP & OSR:        COMPANY  
 LOC .                   14  22N  18W:        LOCATION   
 DATE.                        3/16/73:        LOG DATE 
 WELL.               SOUTH BARROW #10:        WELL     
 UWI .                   500232000400:        UNIQUE WELL ID 
 API .                   500232000400:        UNIQUE WELL IDENTIFIER 
 FLD .                   SOUTH BARROW:        FIELD    
 CNTY.                         NPR #4:        COUNTY  
 STAT.                         ALASKA:        STATE   
 CTRY.                            USA:        COUNTRY 
 OPER.        U.S. NAVY DEPT NP & OSR:        OPERATOR  
 SRVC.                   SCHLUMBERGER:        SERVICE COMPANY 
 LAT .                         0.0000:        LATITUDE
 LON .                         0.0000:        LONGITUDE
 DIGS.               CENTER LINE DATA:        DIGITIZING COMPANY 
~CURVE INFORMATION      
#MNEM        .UNIT         API CODE           CURVE DESCRIPTION
#-----------------      --------------        ------------------------------
 DEPT        .F                      :        1  DEPTH
 SP          .MV                     :        2  
 LL8         .OHMM                   :        3  
 ILD         .OHMM                   :        4  
 CILD        .MMHO                   :        5  
 DT          .US/F                   :        6  
~PARAMETER INFORMATION       
#MNEM.UNIT                  VALUE             DESCRIPTION OF MNEMONIC
#---------             ---------------        ------------------------------
 EKB .F                       38.0000:        KELLY BUSHING
 TD  .F                     2349.0000:        TOTAL DEPTH
 BHT .F                       60.0000:        BOTTOM HOLE TEMPERATURE
 BS  .                         9.6250:        BIT SIZE
 FD  .                        10.6000:        FLUID DENSITY
 CSIZ.                        10.7500:        CASING SIZE
 CBD .F                     1240.0000:        CASING DRILLER 1
 CBL .F                     1244.0000:        CASING LOGGER 1
 DFT .                  Miscellaneous:        TYPE FLUID IN HOLE
 DFV .                        15.0000:        VISCOSITY
 DFPH.                        11.0000:        PH
 DFL .                         1.8000:        FLUID LOSS
 RMS .                         1.1900:        RM
 MST .F                       55.0000:        RM MEAS. TEMP.
 RMF .                         0.8500:        RMF
 MFST.F                       55.0000:        RMF MEAS. TEMP.
 RMC .                         1.2000:        RMC
 MCST.F                       55.0000:        RMC MEAS. TEMP.
~OTHER INFORMATION
~A    DEPTH          SP         LL8         ILD        CILD          DT  
# ...
  1734.5000    -22.2182     13.6819     11.4188     86.7296    106.0431  
  1735.0000    -21.8448     13.5523     11.4409     86.9447    105.5421  
  1735.5000    -20.9929     13.4765     11.4235     87.0866    105.4727  
  1736.0000    -20.1649     13.5168     11.4351     87.0652    106.4018  
  1736.5000    -20.3119     13.5912     11.4462     86.6001    107.0050  
  1737.0000    -21.3159     13.5277     11.4464     86.8027    106.5502  
  1737.5000    -21.7073     13.3975     11.3786     87.6768    106.1596  
  1738.0000    -21.4605     13.1957     11.2381     88.5625    105.1981  
  1738.5000    -21.2792     13.0550     11.0738     89.5198    103.9667  
  1739.0000    -20.8292     13.0719     10.9188     90.1860    103.3906  
  1739.5000    -20.6554     13.2712     10.9546     90.0844    103.4878  
  1740.0000    -20.9876     13.5936     11.1119     88.8959    104.9159  
  1740.5000    -21.2448     13.9894     11.4077     86.9775    106.9114  
  1741.0000    -21.3446     14.6973     11.6612     85.1314    108.5035  
  1741.5000    -21.3860     15.4043     11.9146     83.4200    108.9505  
  1742.0000    -21.5523     15.9421     12.1681     82.3906    107.8916  
  1742.5000    -21.6958     16.0001     12.1838     81.8982    105.0970  
  1743.0000    -21.5317     15.7011     12.1838     81.9484    101.9680  
  1743.5000    -21.2933     15.1363     12.0079     82.3571     99.1852  
  1744.0000    -21.0963     14.2650     11.7584     84.3285     95.8392  
  1744.5000    -20.7979     13.3813     11.3554     87.2845     96.2976  
  1745.0000    -20.5044     12.5716     10.8361     91.3584     99.6149  
  1745.5000    -20.7269     11.9335     10.4082     94.3710    103.4779  
  1746.0000    -21.5460     11.4268      9.9802     98.6666    106.7979  
  1746.5000    -21.8869     11.4206      9.6525    102.7978    110.0554  
  1747.0000    -22.0487     11.4045      9.3679    104.9296    111.9798  
  1747.5000    -21.9370     11.4232      9.2410    106.3694    111.8312  
  1748.0000    -21.8680     11.4797      9.1427    107.0494    110.9540  
  1748.5000    -22.1410     11.4720      9.1093    106.9231    110.3541  
  1749.0000    -22.3842     11.3575      9.0762    107.3573    110.4312  
  1749.5000    -22.3209     11.2921      9.0399    107.5886    110.7546  
  1750.0000    -22.1214     11.2445      8.9730    108.3339    111.8776  
  1750.5000    -21.9364     11.2052      8.9168    108.8237    111.4262  
  1751.0000    -21.8181     11.1892      8.9092    109.0407    112.4149  
  1751.5000    -21.5896     11.2119      8.8798    109.2132    113.5477  
  1752.0000    -21.3171     11.3355      8.9021    108.4838    113.6936  
  1752.5000    -21.2563     11.5131      8.9688    107.7545    113.2761  
  1753.0000    -21.3328     11.6392      9.0137    107.0251    112.1649  
  1753.5000    -21.5561     11.7660      9.0757    106.2958    111.9809  
  1754.0000    -21.7853     11.8719      9.1571    105.5664    111.8624  
  1754.5000    -21.7983     11.9393      9.2533    104.8371    111.3009  
  1755.0000    -21.7563     12.0001      9.3723    104.1077    110.8474  
  1755.5000    -21.6424     12.0058      9.4652    103.8138    110.3938  
  1756.0000    -21.3018     11.8889      9.4848    103.7365    110.3275  
  1756.5000    -21.0287     11.8028      9.5806    103.6592    111.1324  
  1757.0000    -20.8256     11.8157      9.5123    103.5820    111.6097  
  1757.5000    -20.7073     11.8277      9.4892    103.5047    111.0342  
  1758.0000    -20.7589     11.7779      9.4035    103.4274    110.8763  
  1758.5000    -20.9071     11.7936      9.4168    103.3502    110.8643  
  1759.0000    -21.1809     11.8662      9.4863    103.2729    111.0991  
  1759.5000    -20.9060     11.9500      9.4958    102.9888    111.4257  
  1760.0000    -20.5181     12.0403      9.5613    102.3352    111.3542  
  1760.5000    -20.1301     12.1589      9.6001    101.6816    111.2657  
  1761.0000    -19.9159     12.2816      9.6394    101.0280    111.1709  
  1761.5000    -20.0786     12.3361      9.6787    100.3745    110.0094  
  1762.0000    -20.4670     12.4420      9.7181     99.7209    109.6926  
  1762.5000    -20.8503     12.4769      9.7574     99.0673    109.5667  
  1763.0000    -21.1036     12.4812      9.7967     98.3970    108.6108  
  1763.5000    -21.0118     12.4468      9.8361     97.6605    107.6589  
  1764.0000    -20.7177     12.4785      9.8754     96.9240    107.3824  
  1764.5000    -20.5614     12.5070      9.9147     96.2056    107.3400  
  1765.0000    -20.2204     12.5912      9.9540     96.2056    107.7388  
  1765.5000    -19.8408     12.6811      9.9934     96.2056    109.1574  
  1766.0000    -19.8339     12.7004     10.0327     96.2056    109.2756  
  1766.5000    -20.2610     12.7361     10.0720     96.2056    107.5992  
  1767.0000    -20.6636     12.7723     10.0879     97.4978    106.9901  
  1767.5000    -20.1494     12.7912     10.1451     97.0767    106.4085  
  1768.0000    -20.1333     12.7464     10.2176     97.0781    105.7503  
  1768.5000    -20.5740     12.6558     10.2877     96.8723    105.8258  
  1769.0000    -21.2885     12.5628     10.2362     96.7205    105.8362  
  1769.5000    -21.6310     12.5053     10.2762     96.5688    106.1109  
  1770.0000    -21.9002     12.4868     10.2635     96.7609    107.7674  
  1770.5000    -21.9710     12.5000     10.2108     96.8579    107.0995  
  1771.0000    -21.8258     12.5140     10.2788     96.7970    106.4393  
  1771.5000    -21.6993     12.5586     10.2549     96.5888    106.2543  
  1772.0000    -21.6318     12.6700     10.4231     95.8821    106.3770  
  1772.5000    -21.6377     12.8658     10.5394     94.3675    106.4468  
  1773.0000    -21.6466     13.0553     10.6556     92.8805    106.3620  
  1773.5000    -21.6838     13.2668     10.7702     91.7134    106.1816  
  1774.0000    -21.9617     13.3060     10.8842     91.1740    106.2155  
  1774.5000    -22.4709     13.2730     10.9168     90.9940    106.1758  
  1775.0000    -22.6338     13.1349     10.8415     91.7313    105.6125  
  1775.5000    -22.5344     13.0843     10.7457     92.7383    102.9475  
  1776.0000    -22.4255     12.8889     10.6034     93.7638    101.0237  
  1776.5000    -22.3767     12.7272     10.3694     95.3963    101.2490  
  1777.0000    -22.3021     12.5165     10.3257     96.3976    102.9327  
  1777.5000    -22.2133     12.4006     10.1599     96.9176    104.5625  
  1778.0000    -22.1163     12.3857     10.0748     97.3645    106.8671  
  1778.5000    -21.9858     12.5548     10.0141     97.6143    108.0633  
  1779.0000    -21.8988     12.9258     10.0158     97.5927    108.2844  
  1779.5000    -21.7762     13.3916     10.1572     96.3833    108.1686  
  1780.0000    -21.2274     14.1064     10.5163     94.3403    107.6741  
  1780.5000    -20.6467     14.7846     10.9436     90.8244    106.2824  
  1781.0000    -20.3729     15.6032     11.5176     87.3217    105.0320  
  1781.5000    -20.3089     16.7354     12.0917     83.8258    104.1659  
  1782.0000    -20.2686     17.6852     12.6657     80.4807    102.7059  
  1782.5000    -20.2006     18.6350     13.2398     77.1356    100.4365  
  1783.0000    -20.3831     18.9704     13.6888     73.8163     98.4916  
  1783.5000    -20.5310     19.1106     14.1216     71.4130     97.0224  
  1784.0000    -20.1721     18.8851     14.3881     70.1117     95.9461  
  1784.5000    -20.2892     18.2866     14.4881     69.8614     94.6770  
  1785.0000    -20.6924     17.5858     14.2684     70.8663     94.5222  
  1785.5000    -21.4123     16.7756     13.9575     72.1344     94.8895  
  1786.0000    -21.4990     15.8964     13.5132     74.7282     95.0843  
  1786.5000    -21.0409     15.0118     13.0001     77.9260     96.6106  
  1787.0000    -20.5675     14.3709     12.3982     81.1526     98.4397  
  1787.5000    -20.3822     13.7379     11.7963     84.9166     99.7037  
  1788.0000    -20.4917     13.2220     11.1818     88.2980    101.1478  
  1788.5000    -20.5717     12.8886     10.9179     91.1096    103.2262  
