~VERSION INFORMATION
 VERS.                           2.00:        CWLS LOG ASCII STANDARD - VERSION 2.00
 WRAP.                             NO:        ONE LINE PER DEPTH STEP
~WELL INFORMATION
#MNEM.UNIT                   DATA             INFORMATION
#----------             --------------        ------------------------------
 STRT.F                       52.0000:        START DEPTH
 STOP.F                     2296.0000:        STOP DEPTH
 STEP.F                        0.5000:        STEP VALUE
 NULL.                      -999.2500:        NULL VALUE
 COMP.                     USGS/NPR-A:        COMPANY  
 LOC .                   23  22N  17W:        LOCATION   
 DATE.                        4/30/78:        LOG DATE 
 WELL.               SOUTH BARROW #19:        WELL     
 UWI .                   500232001200:        UNIQUE WELL ID 
 API .                   500232001200:        UNIQUE WELL IDENTIFIER 
 FLD .                   SOUTH BARROW:        FIELD    
 CNTY.                    NORTH SLOPE:        COUNTY  
 STAT.                         ALASKA:        STATE   
 CTRY.                            USA:        COUNTRY 
 OPER.                     USGS/NPR-A:        OPERATOR  
 SRVC.                   SCHLUMBERGER:        SERVICE COMPANY 
 LAT .                         0.0000:        LATITUDE
 LON .                         0.0000:        LONGITUDE
 DIGS.               CENTER LINE DATA:        DIGITIZING COMPANY 
~CURVE INFORMATION      
#MNEM        .UNIT         API CODE           CURVE DESCRIPTION
#-----------------      --------------        ------------------------------
 DEPT        .F                      :        1  DEPTH
 GR          .GAPI                   :        2  
 CALI        .IN                     :        3  
 RHOB        .G/C3                   :        4  
 DRHO        .G/C3                   :        5  
 NPHI        .%                      :        6  
 DT          .US/F                   :        7  
 SP          .MV                     :        8  
 ILD         .OHMM                   :        9  
 ILM         .OHMM                   :        10 
 LL8         .OHMM                   :        11 
 LLD         .OHMM                   :        12 
 LLS         .OHMM                   :        13 
 MSFL        .OHMM                   :        14 
~PARAMETER INFORMATION       
#MNEM.UNIT                  VALUE             DESCRIPTION OF MNEMONIC
#---------             ---------------        ------------------------------
 EKB .F                       30.0000:        KELLY BUSHING
 TD  .F                     2300.0000:        TOTAL DEPTH
 BHT .F                      173.0000:        BOTTOM HOLE TEMPERATURE
 BS  .                         8.5000:        BIT SIZE
 FD  .                        11.6000:        FLUID DENSITY
 CSIZ.                         9.6250:        CASING SIZE
 CBD .F                     1491.0000:        CASING DRILLER 1
 CBL .F                     1490.0000:        CASING LOGGER 1
 DFT .                  Miscellaneous:        TYPE FLUID IN HOLE
 DFV .                        46.0000:        VISCOSITY
 DFPH.                         8.5000:        PH
 DFL .                         6.0000:        FLUID LOSS
 RMS .                         0.1090:        RM
 MST .F                       58.0000:        RM MEAS. TEMP.
 RMF .                         0.0720:        RMF
 MFST.F                       61.0000:        RMF MEAS. TEMP.
 RMC .                         0.3000:        RMC
 MCST.F                       70.0000:        RMC MEAS. TEMP.
~OTHER INFORMATION
~A    DEPTH          GR        CALI        RHOB        DRHO        NPHI          DT          SP         ILD         ILM         LL8         LLD         LLS        MSFL  
# ...
  2116.0000     59.1671      8.8054      2.5417      0.0408     28.8825     92.0198    -42.0188   -999.2500   -999.2500   -999.2500     15.3745     15.3665      9.3981  
  2116.5000     60.0634      8.8303      2.5317      0.0256     29.1827     92.0819    -42.0540   -999.2500   -999.2500   -999.2500     15.7201     15.4711      8.2699  
  2117.0000     60.4187      8.7491      2.5374      0.0263     29.2072     92.0799    -41.9429   -999.2500   -999.2500   -999.2500     17.2744     15.8823      7.8090  
  2117.5000     60.4059      8.6825      2.5378      0.0270     29.2262     92.1868    -41.7327   -999.2500   -999.2500   -999.2500     17.8958     16.3043      7.6891  
  2118.0000     60.5092      8.7692      2.5304      0.0281     29.6460     92.7722    -41.8228   -999.2500   -999.2500   -999.2500     17.0959     16.7376      8.5057  
  2118.5000     60.6897      8.7996      2.5221      0.0295     30.0757     93.3919    -42.0986   -999.2500   -999.2500   -999.2500     16.2531     17.0124      8.4293  
  2119.0000     60.5454      8.8086      2.5320      0.0411     30.5055     93.5824    -42.3830   -999.2500   -999.2500   -999.2500     15.3848     16.7861      8.1093  
  2119.5000     59.7520      8.7848      2.5321      0.0490     30.0799     93.7602    -42.2125   -999.2500   -999.2500   -999.2500     18.0026     16.5628      8.9208  
  2120.0000     58.6551      8.8160      2.5470      0.0457     29.5608     93.4728    -42.1957   -999.2500   -999.2500   -999.2500     16.4284     16.3425     10.1312  
  2120.5000     58.2786      8.8808      2.5551      0.0390     29.0417     92.9709    -42.0204   -999.2500   -999.2500   -999.2500     17.0818     16.2382     10.9922  
  2121.0000     59.0401      8.9086      2.5575      0.0339     28.5425     92.8229    -41.9624   -999.2500   -999.2500   -999.2500     16.1387     16.1337     11.5155  
  2121.5000     61.0577      8.8255      2.5536      0.0269     28.1543     92.2855    -42.2854   -999.2500   -999.2500   -999.2500     17.6016     16.0299     11.9035  
  2122.0000     63.3907      8.8038      2.5440      0.0307     27.7661     91.7235    -42.2859   -999.2500   -999.2500   -999.2500     16.4996     15.9268     11.1104  
  2122.5000     64.1195      8.8037      2.5299      0.0276     27.3778     92.2519    -42.2796   -999.2500   -999.2500   -999.2500     15.7548     15.8322      9.8601  
  2123.0000     63.4855      8.7730      2.5228      0.0101     27.2968     92.7987    -42.0960   -999.2500   -999.2500   -999.2500     15.4569     15.7420      8.6205  
  2123.5000     62.9210      8.7441      2.5293      0.0140     27.3638     93.0779    -41.9512   -999.2500   -999.2500   -999.2500     15.0645     15.6885      9.9850  
  2124.0000     62.2506      8.7392      2.5236      0.0177     27.1947     92.8484    -42.0101   -999.2500   -999.2500   -999.2500     14.6821     15.9513     12.0430  
  2124.5000     60.9640      8.7326      2.5154      0.0041     27.4498     92.7607    -42.1246   -999.2500   -999.2500   -999.2500     14.6532     16.5312     11.3999  
  2125.0000     58.3243      8.7233      2.5262      0.0214     27.7680     92.5754    -42.5465   -999.2500   -999.2500   -999.2500     14.9043     17.1010     10.9200  
  2125.5000     56.3561      8.7123      2.5384      0.0388     28.0993     92.7595    -42.8608   -999.2500   -999.2500   -999.2500     15.5358     17.1180     10.4603  
  2126.0000     54.8019      8.7378      2.5473      0.0502     28.5697     92.7064    -42.9666   -999.2500   -999.2500   -999.2500     16.6114     17.1592     10.6602  
  2126.5000     54.1621      8.7728      2.5398      0.0376     28.9612     92.2185    -42.8187   -999.2500   -999.2500   -999.2500     17.4172     17.2006     11.3273  
  2127.0000     54.9369      8.7284      2.5320      0.0290     29.4971     91.6759    -42.5941   -999.2500   -999.2500   -999.2500     16.4701     17.2268     11.9910  
  2127.5000     55.9589      8.6511      2.5314      0.0244     29.1824     90.9410    -42.5395   -999.2500   -999.2500   -999.2500     15.5746     17.2268     11.9426  
  2128.0000     56.1563      8.6593      2.5533      0.0369     29.5793     90.3592    -42.5575   -999.2500   -999.2500   -999.2500     15.3296     17.0461     11.6194  
  2128.5000     56.4896      8.6706      2.5712      0.0471     30.2517     89.3852    -42.5895   -999.2500   -999.2500   -999.2500     15.8637     16.8525     11.4309  
  2129.0000     57.4859      8.6694      2.5800      0.0441     30.9241     87.7535    -42.7839   -999.2500   -999.2500   -999.2500     16.1274     16.6202     11.6834  
  2129.5000     59.3252      8.6577      2.5871      0.0254     30.7300     86.8517    -43.0154   -999.2500   -999.2500   -999.2500     16.1274     17.2225     12.0463  
  2130.0000     60.4133      8.6449      2.5942      0.0306     30.4524     87.5082    -43.6925   -999.2500   -999.2500   -999.2500     15.9551     17.9055     12.5918  
  2130.5000     61.2295      8.6321      2.5865      0.0388     30.1748     90.5117    -44.2224   -999.2500   -999.2500   -999.2500     15.6693     18.5426     13.2240  
  2131.0000     61.6584      8.6394      2.5556      0.0310     30.2187     92.9324    -44.2619   -999.2500   -999.2500   -999.2500     15.3905     18.9484     12.4402  
  2131.5000     61.9935      8.6523      2.5453      0.0233     30.6567     91.4663    -43.9662   -999.2500   -999.2500   -999.2500     15.1262     18.2689     10.7860  
  2132.0000     62.9660      8.6365      2.5370      0.0221     31.0947     91.1724    -43.7256   -999.2500   -999.2500   -999.2500     14.8136     16.9977     11.6681  
  2132.5000     65.4947      8.6141      2.5436      0.0151     31.5326     90.4170    -43.6764   -999.2500   -999.2500   -999.2500     13.4805     16.5511     13.3721  
  2133.0000     68.2668      8.5810      2.5579      0.0114     30.5597     87.7999    -44.3940   -999.2500   -999.2500   -999.2500     12.4431     16.2968     15.4588  
  2133.5000     71.7338      8.5238      2.5766      0.0157     29.5006     84.6217    -46.0342   -999.2500   -999.2500   -999.2500     11.9622     16.8670     17.0746  
  2134.0000     72.9550      8.5179      2.5852      0.0085     29.0742     85.7775    -47.2082   -999.2500   -999.2500   -999.2500     11.5000     17.4571     13.5831  
  2134.5000     69.5432      8.6068      2.5767      0.0104     29.4766     86.6923    -47.6438   -999.2500   -999.2500   -999.2500     12.0786     17.8063     11.8588  
  2135.0000     66.8683      8.6900      2.5417      0.0111     30.1980     89.2857    -48.7861   -999.2500   -999.2500   -999.2500     12.3759     17.5340     12.6536  
  2135.5000     65.6162      8.6980      2.5229      0.0056     30.2025     91.4787    -49.4835   -999.2500   -999.2500   -999.2500     11.3008     17.0934     11.8346  
  2136.0000     64.2439      8.6932      2.5194      0.0000     29.4413     89.8427    -50.2096   -999.2500   -999.2500   -999.2500     13.9028     16.6638     10.7365  
  2136.5000     61.1811      8.6884      2.5154      0.0001     28.2788     88.9124    -50.3524   -999.2500   -999.2500   -999.2500     14.7143     16.3257     10.2993  
  2137.0000     57.4607      8.6938      2.5190      0.0074     27.2127     87.8191    -50.3297   -999.2500   -999.2500   -999.2500     15.2925     16.0524     10.2857  
  2137.5000     55.9987      8.7001      2.5181     -0.0002     27.2242     88.9495    -50.3987   -999.2500   -999.2500   -999.2500     14.1606     15.7837      8.7144  
  2138.0000     55.4548      8.7192      2.5056     -0.0030     27.4554     89.6549    -50.5512   -999.2500   -999.2500   -999.2500     12.1949     15.5195      8.4297  
  2138.5000     56.1851      8.7332      2.5023     -0.0039     27.8128     89.8952    -50.6228   -999.2500   -999.2500   -999.2500     12.1201     15.3913     10.6800  
  2139.0000     58.0478      8.7431      2.4953     -0.0044     28.7593     90.6084    -50.9412   -999.2500   -999.2500   -999.2500     12.1748     16.9362     13.5699  
  2139.5000     59.4338      8.7556      2.4930     -0.0046     29.6574     91.2177    -51.0548   -999.2500   -999.2500   -999.2500     12.4302     17.5285     14.6414  
