~VERSION INFORMATION
 VERS.                           2.00:        CWLS LOG ASCII STANDARD - VERSION 2.00
 WRAP.                             NO:        ONE LINE PER DEPTH STEP
~WELL INFORMATION
#MNEM.UNIT                   DATA             INFORMATION
#----------             --------------        ------------------------------
 STRT.F                      999.0000:        START DEPTH
 STOP.F                     2350.0000:        STOP DEPTH
 STEP.F                        0.5000:        STEP VALUE
 NULL.                      -999.2500:        NULL VALUE
 COMP.             UNITED STATES NAVY:        COMPANY  
 LOC .                   14  22N  18W:        LOCATION   
 DATE.                        3/19/68:        LOG DATE 
 WELL.                SOUTH BARROW #7:        WELL     
 UWI .                   500232000100:        UNIQUE WELL ID 
 API .                   500232000100:        UNIQUE WELL IDENTIFIER 
 FLD .                   SOUTH BARROW:        FIELD    
 CNTY.                         NPR #4:        COUNTY  
 STAT.                         ALASKA:        STATE   
 CTRY.                            USA:        COUNTRY 
 OPER.             UNITED STATES NAVY:        OPERATOR  
 SRVC.                   SCHLUMBERGER:        SERVICE COMPANY 
 LAT .                         0.0000:        LATITUDE
 LON .                         0.0000:        LONGITUDE
 DIGS.               CENTER LINE DATA:        DIGITIZING COMPANY 
~CURVE INFORMATION      
#MNEM        .UNIT         API CODE           CURVE DESCRIPTION
#-----------------      --------------        ------------------------------
 DEPT        .F                      :        1  DEPTH
 SP          .MV                     :        2  
 ILD         .OHMM                   :        3  
 ASN         .OHMM                   :        4  
 CILD        .OHMM                   :        5  
 CALI        .IN                     :        6  
 DT          .US/F                   :        7  
~PARAMETER INFORMATION       
#MNEM.UNIT                  VALUE             DESCRIPTION OF MNEMONIC
#---------             ---------------        ------------------------------
 EKB .F                       36.0000:        KELLY BUSHING
 TD  .F                     2351.0000:        TOTAL DEPTH
 BHT .F                        0.0000:        BOTTOM HOLE TEMPERATURE
 BS  .                         9.6250:        BIT SIZE
 FD  .                        76.5000:        FLUID DENSITY
 CSIZ.                        10.7500:        CASING SIZE
 CBD .F                      998.0000:        CASING DRILLER 1
 CBL .F                      999.0000:        CASING LOGGER 1
 DFT .                            Gel:        TYPE FLUID IN HOLE
 DFV .                        45.0000:        VISCOSITY
 DFPH.                         9.5000:        PH
 DFL .                         7.0000:        FLUID LOSS
 RMS .                         5.4300:        RM
 MST .F                       42.0000:        RM MEAS. TEMP.
 RMF .                         5.1700:        RMF
 MFST.F                       59.0000:        RMF MEAS. TEMP.
 RMC .                         5.0900:        RMC
 MCST.F                       56.0000:        RMC MEAS. TEMP.
~OTHER INFORMATION
~A    DEPTH          SP         ILD         ASN        CILD        CALI          DT  
# ...
  1093.0000    -60.4718      3.5423      7.9597    268.8235     10.6699    126.4706  
  1093.5000    -60.0285      3.4464      8.0236    272.7131     10.6409    125.5213  
  1094.0000    -59.3648      3.4473      7.9481    274.9821     10.5586    125.4226  
  1094.5000    -58.6718      3.4224      7.6012    277.1188     10.5088    128.4028  
  1095.0000    -58.0029      3.3634      7.1283    279.1816     10.4403    129.3988  
  1095.5000    -57.0430      3.3398      6.8129    280.7320     10.3499    131.2442  
  1096.0000    -56.2691      3.3229      6.6302    282.1126     10.2509    133.7199  
  1096.5000    -55.2728      3.3305      6.6070    282.6629     10.1611    134.5574  
  1097.0000    -54.4394      3.3331      6.6712    282.7444     10.0748    133.4164  
  1097.5000    -53.5478      3.3374      6.7196    282.4286     10.0138    133.2839  
  1098.0000    -53.5783      3.3389      6.7073    280.7596      9.9552    134.4920  
  1098.5000    -53.9320      3.3872      6.6383    278.2834      9.8966    135.2179  
  1099.0000    -54.3284      3.4322      6.5619    276.0741      9.8380    135.3062  
  1099.5000    -54.7582      3.4505      6.4970    273.2667      9.7910    132.3179  
  1100.0000    -55.1979      3.4778      6.5167    271.1703      9.7677    127.5458  
  1100.5000    -55.8320      3.5049      6.5593    269.3179      9.7445    126.2253  
  1101.0000    -56.8772      3.5459      6.6524    267.7335      9.7284    125.3726  
  1101.5000    -58.9171      3.5892      6.8003    265.7901      9.7242    123.0406  
  1102.0000    -60.9639      3.5984      7.0173    263.7333      9.7319    122.3549  
  1102.5000    -62.2014      3.6331      7.2470    262.1598      9.7350    123.1739  
  1103.0000    -63.1299      3.6350      7.5642    260.9924      9.7312    124.7372  
  1103.5000    -63.9539      3.6652      7.8129    260.1439      9.7259    125.5183  
  1104.0000    -64.7546      3.6571      7.8706    259.5906      9.7275    126.0157  
  1104.5000    -65.3856      3.7293      7.8513    259.3507      9.7329    125.5851  
  1105.0000    -65.7602      3.6818      7.7925    259.3163      9.7389    125.1558  
  1105.5000    -66.0687      3.6588      7.7649    260.0621      9.7471    124.8766  
  1106.0000    -66.1872      3.6336      7.7678    261.2166      9.7644    124.9499  
  1106.5000    -66.2573      3.6038      7.7747    262.9081      9.7793    125.5439  
  1107.0000    -66.3229      3.6137      7.8099    264.5826      9.7882    126.0386  
  1107.5000    -66.2963      3.5615      7.9122    266.3070      9.7811    126.1581  
  1108.0000    -66.2823      3.5453      8.0737    267.8019      9.7666    126.2905  
  1108.5000    -66.3032      3.5212      8.2682    268.7864      9.7535    126.6585  
  1109.0000    -66.2819      3.5282      8.4875    268.9644      9.7486    126.8604  
  1109.5000    -66.3260      3.5266      8.6748    268.8474      9.7405    126.6337  
  1110.0000    -66.3708      3.5644      8.8672    268.9742      9.7297    126.1408  
  1110.5000    -66.2738      3.5511      8.9907    269.0719      9.7223    125.8592  
  1111.0000    -66.1036      3.5144      9.1132    269.4786      9.7191    125.7778  
  1111.5000    -66.0644      3.5610      9.2014    269.8442      9.7172    125.7083  
  1112.0000    -66.1585      3.4916      9.2278    270.6649      9.7251    125.7088  
  1112.5000    -66.2276      3.4548      9.2266    272.0055      9.7315    125.7093  
  1113.0000    -66.1829      3.4851      9.1833    274.0956      9.7405    125.4703  
  1113.5000    -66.2586      3.4081      9.0657    277.2759      9.7491    125.2056  
  1114.0000    -66.1380      3.3607      8.9269    280.5233      9.7611    124.7168  
  1114.5000    -65.9040      3.3137      8.7452    283.8749      9.7720    124.0000  
  1115.0000    -65.6508      3.2601      8.6730    286.5148      9.7754    123.3643  
  1115.5000    -65.1589      3.2855      8.6493    288.3124      9.7851    122.8865  
  1116.0000    -64.2379      3.2477      8.6223    289.3984      9.7959    122.3837  
  1116.5000    -63.2059      3.2865      8.5726    290.0112      9.8044    122.0130  
  1117.0000    -61.4189      3.2690      8.4485    290.4657      9.8097    122.1177  
  1117.5000    -59.0871      3.2478      8.1053    290.9800      9.8017    122.2062  
  1118.0000    -46.5383      3.2488      7.1785    290.4033      9.7820    122.1300  
  1118.5000    -39.6614      3.2819      5.9600    289.2892      9.7984    122.1814  
  1119.0000    -34.1807      3.2620      4.9795    288.6309      9.8187    121.9885  
  1119.5000    -32.9632      3.5505      4.3721    289.1031      9.8757    120.5829  
  1120.0000    -32.5749      3.4780      4.1697    290.5292      9.9327    119.5163  
  1120.5000    -32.8145      3.4519      4.1261    293.8306      9.9897    119.9084  
  1121.0000    -34.1314      3.4141      4.1143    295.9308     10.0901    120.7545  
  1121.5000    -39.2577      3.4724      4.1291    294.9724     10.2143    122.8416  
  1122.0000    -43.2339      3.4505      4.3351    291.6671     10.3556    122.6481  
  1122.5000    -46.0883      3.3082      5.0161    289.1721     10.4349    121.3429  
  1123.0000    -49.4600      3.3157      5.9579    286.9974     10.2090    120.9520  
  1123.5000    -50.8995      3.3468      7.0660    281.7432     10.0851    119.7287  
  1124.0000    -51.8325      3.4480      7.8534    274.4019      9.9874    119.6010  
  1124.5000    -50.8252      3.5332      8.4584    268.0479      9.8882    121.4294  
  1125.0000    -48.3699      3.5896      8.8972    263.9602      9.7936    123.2979  
  1125.5000    -44.9507      3.6999      8.9588    259.8612      9.7808    123.7156  
  1126.0000    -42.4027      3.7315      8.5109    254.2823      9.7843    123.8276  
  1126.5000    -38.3431      3.7683      7.6140    249.6262      9.7853    123.5753  
  1127.0000    -31.3116      3.8050      6.3140    243.5511      9.7794    123.2157  
  1127.5000    -29.6449      3.8418      5.3851    235.4712      9.7881    122.6574  
  1128.0000    -29.0367      3.8785      5.0197    229.4501      9.7888    122.6577  
  1128.5000    -28.7875      3.9153      4.7840    225.2852      9.7843    123.2518  
  1129.0000    -28.3748      3.9520      4.7257    222.8513      9.8072    125.1050  
  1129.5000    -28.2429      3.9887      4.7733    220.5609      9.9335    129.7772  
  1130.0000    -28.2743      4.0255      4.9059    217.1913     10.0642    133.2770  
  1130.5000    -28.3649      4.0622      4.8446    212.7063     10.1706    136.1413  
  1131.0000    -27.8542      4.0990      4.8183    208.7126     10.1573    136.8411  
  1131.5000    -26.8438      4.1357      4.9304    205.9476     10.1476    135.7584  
  1132.0000    -25.7693      4.1725      5.0050    204.0367     10.1875    133.2872  
  1132.5000    -24.7778      4.2092      5.0409    202.0857     10.2151    131.6972  
  1133.0000    -25.3169      4.2459      4.9758    202.6369     10.2105    131.5705  
  1133.5000    -27.5358      4.3172      4.9945    203.1726     10.2199    132.0605  
  1134.0000    -29.3336      4.3132      5.0784    203.2092     10.2287    132.6717  
  1134.5000    -30.2833      4.4369      5.1249    201.8533     10.2076    132.9846  
  1135.0000    -30.1208      4.4602      5.1045    201.0530     10.1601    132.2538  
  1135.5000    -29.9782      4.4636      5.0572    201.1279     10.1655    130.0436  
  1136.0000    -30.1500      4.4669      5.0390    202.0806     10.1926    128.6714  
  1136.5000    -30.7017      4.4703      5.0817    203.0044     10.2241    127.5968  
  1137.0000    -30.7924      4.4737      5.1526    203.0358     10.2585    127.6387  
  1137.5000    -30.2935      4.4770      5.2015    202.6013     10.3110    127.9853  
  1138.0000    -29.4206      4.4804      5.2220    201.4714     10.3795    128.4655  
  1138.5000    -28.7283      4.4837      5.2820    200.3837     10.4480    129.0721  
  1139.0000    -28.1130      4.4871      5.3623    199.5405     10.5047    129.9476  
  1139.5000    -27.0779      4.4904      5.3794    199.8645     10.7029    130.1208  
