~VERSION INFORMATION
 VERS.                           2.00:        CWLS LOG ASCII STANDARD - VERSION 2.00
 WRAP.                             NO:        ONE LINE PER DEPTH STEP
~WELL INFORMATION
#MNEM.UNIT                   DATA             INFORMATION
#----------             --------------        ------------------------------
 STRT.F                       96.0000:        START DEPTH
 STOP.F                     2280.0000:        STOP DEPTH
 STEP.F                        0.5000:        STEP VALUE
 NULL.                      -999.2500:        NULL VALUE
 COMP.    USGS/NPR HUSKY OIL OPERATOR:        COMPANY  
 LOC .                   23  22N  17W:        LOCATION   
 DATE.                        9/11/80:        LOG DATE 
 WELL.               SOUTH BARROW #15:        WELL     
 UWI .                   500232001600:        UNIQUE WELL ID 
 API .                   500232001600:        UNIQUE WELL IDENTIFIER 
 FLD .                   SOUTH BARROW:        FIELD    
 CNTY.                    NORTH SLOPE:        COUNTY  
 STAT.                         ALASKA:        STATE   
 CTRY.                            USA:        COUNTRY 
 OPER.    USGS/NPR HUSKY OIL OPERATOR:        OPERATOR  
 SRVC.                   SCHLUMBERGER:        SERVICE COMPANY 
 LAT .                         0.0000:        LATITUDE
 LON .                         0.0000:        LONGITUDE
 DIGS.               CENTER LINE DATA:        DIGITIZING COMPANY 
~CURVE INFORMATION      
#MNEM        .UNIT         API CODE           CURVE DESCRIPTION
#-----------------      --------------        ------------------------------
 DEPT        .F                      :        1  DEPTH
 CALI        .IN                     :        2  
 GR          .GAPI                   :        3  
 RHOB        .G/C3                   :        4  
 DRHO        .G/C3                   :        5  
 NPHI        .%                      :        6  
 DT          .US/F                   :        7  
 SP          .MV                     :        8  
 ILD         .OHMM                   :        9  
 ILM         .OHMM                   :        10 
 SFL         .OHMM                   :        11 
 LLD         .OHMM                   :        12 
 LLS         .OHMM                   :        13 
 MSFL        .OHMM                   :        14 
~PARAMETER INFORMATION       
#MNEM.UNIT                  VALUE             DESCRIPTION OF MNEMONIC
#---------             ---------------        ------------------------------
 EKB .F                       30.0000:        KELLY BUSHING
 TD  .F                     2279.0000:        TOTAL DEPTH
 BHT .F                        0.0000:        BOTTOM HOLE TEMPERATURE
 BS  .                         8.5000:        BIT SIZE
 FD  .                        10.3000:        FLUID DENSITY
 CSIZ.                         9.6250:        CASING SIZE
 CBD .F                     1514.0000:        CASING DRILLER 1
 CBL .F                     1520.0000:        CASING LOGGER 1
 DFT .                  Miscellaneous:        TYPE FLUID IN HOLE
 DFV .                        43.0000:        VISCOSITY
 DFPH.                         0.0000:        PH
 DFL .                         0.0000:        FLUID LOSS
 RMS .                         0.1800:        RM
 MST .F                       48.0000:        RM MEAS. TEMP.
 RMF .                         0.1400:        RMF
 MFST.F                       48.0000:        RMF MEAS. TEMP.
 RMC .                         0.0000:        RMC
 MCST.F                        0.0000:        RMC MEAS. TEMP.
~OTHER INFORMATION
~A    DEPTH        CALI          GR        RHOB        DRHO        NPHI          DT          SP         ILD         ILM         SFL         LLD         LLS        MSFL  
# ...
  1848.0000      8.9930     93.3279      2.5032     -0.0095     36.4380     94.7008   -999.2500   -999.2500   -999.2500   -999.2500     16.4903     15.6253     14.1357  
  1848.5000      9.1181     93.7093      2.5248     -0.0055     35.0986     94.8945   -999.2500   -999.2500   -999.2500   -999.2500     16.9294     16.0083     14.6240  
  1849.0000      8.9635     93.7469      2.5382      0.0001     33.7593     94.9943   -999.2500   -999.2500   -999.2500   -999.2500     17.7233     16.4008     15.1665  
  1849.5000      8.5508     93.0029      2.5270      0.0003     32.8530     95.0683   -999.2500   -999.2500   -999.2500   -999.2500     18.5545     16.3787     15.5504  
  1850.0000      8.5330     92.2896      2.5118     -0.0060     32.5330     95.1676   -999.2500   -999.2500   -999.2500   -999.2500     18.0429     16.3370     15.8179  
  1850.5000      9.0040     91.5325      2.5015     -0.0133     32.4757     95.2542   -999.2500   -999.2500   -999.2500   -999.2500     17.0585     16.3376     15.5917  
  1851.0000      8.8613     90.8609      2.5045     -0.0168     32.4452     94.8006   -999.2500   -999.2500   -999.2500   -999.2500     17.4400     16.5315     15.1859  
  1851.5000      8.7197     90.4523      2.5127     -0.0076     32.3944     95.0908   -999.2500   -999.2500   -999.2500   -999.2500     18.6475     16.8330     15.4513  
  1852.0000      8.5145     89.7348      2.5087     -0.0070     31.5119     95.4102   -999.2500   -999.2500   -999.2500   -999.2500     19.2078     17.2394     16.0990  
  1852.5000      8.6951     88.8839      2.5045     -0.0059     30.4405     95.8773   -999.2500   -999.2500   -999.2500   -999.2500     19.7632     17.9761     16.8132  
  1853.0000      8.9917     88.7742      2.5181     -0.0026     30.1516     95.6735   -999.2500   -999.2500   -999.2500   -999.2500     20.2063     18.1339     17.1600  
  1853.5000      8.7590     88.8695      2.5340     -0.0010     30.1374     94.7574   -999.2500   -999.2500   -999.2500   -999.2500     20.5419     18.0219     17.2847  
  1854.0000      8.7992     87.3047      2.5366     -0.0093     30.2696     94.0159   -999.2500   -999.2500   -999.2500   -999.2500     20.8830     17.8190     17.3314  
  1854.5000      8.7772     84.4593      2.5330     -0.0031     30.4718     93.2460   -999.2500   -999.2500   -999.2500   -999.2500     21.2769     17.6205     15.7114  
  1855.0000      8.7240     82.7030      2.5192     -0.0130     30.7576     92.1653   -999.2500   -999.2500   -999.2500   -999.2500     21.2399     17.4784     15.3736  
  1855.5000      8.7960     81.7443      2.5124     -0.0115     30.9623     90.7477   -999.2500   -999.2500   -999.2500   -999.2500     20.9936     17.3928     15.4268  
  1856.0000      8.7585     79.1959      2.5073     -0.0083     30.7059     90.2511   -999.2500   -999.2500   -999.2500   -999.2500     21.8575     17.4305     14.7796  
  1856.5000      8.6959     75.4927      2.5022     -0.0065     29.9832     90.1363   -999.2500   -999.2500   -999.2500   -999.2500     21.3491     17.5012     12.6502  
  1857.0000      8.8888     69.6564      2.4966     -0.0075     28.4771     91.0140   -999.2500   -999.2500   -999.2500   -999.2500     19.9809     17.8352     13.5427  
  1857.5000      8.6500     65.2475      2.4765     -0.0101     27.2296     91.3989   -999.2500   -999.2500   -999.2500   -999.2500     19.5292     18.2497     15.4986  
  1858.0000      8.9415     66.8138      2.4301     -0.0107     27.4368     91.0384   -999.2500   -999.2500   -999.2500   -999.2500     21.8875     18.6275     17.3609  
  1858.5000      8.5580     71.3844      2.3966     -0.0096     28.0025     90.5000   -999.2500   -999.2500   -999.2500   -999.2500     23.0336     18.7562     17.7590  
  1859.0000      8.8313     76.2961      2.4208     -0.0074     29.5675     89.7651   -999.2500   -999.2500   -999.2500   -999.2500     22.6867     18.5910     17.6144  
  1859.5000      8.5659     78.0973      2.4852     -0.0043     30.1410     88.9722   -999.2500   -999.2500   -999.2500   -999.2500     21.7509     18.3792     17.5157  
  1860.0000      8.1874     80.1492      2.5295      0.0010     30.6768     88.8288   -999.2500   -999.2500   -999.2500   -999.2500     20.8148     18.1105     17.4176  
  1860.5000      8.8853     84.9499      2.5367     -0.0004     30.8857     88.5648   -999.2500   -999.2500   -999.2500   -999.2500     19.8117     17.8124     17.2038  
  1861.0000      8.9032     87.7393      2.5307     -0.0016     30.8668     88.7698   -999.2500   -999.2500   -999.2500   -999.2500     18.9922     17.4221     16.6795  
  1861.5000      8.9893     89.0454      2.5231     -0.0071     30.8164     89.4154   -999.2500   -999.2500   -999.2500   -999.2500     18.5595     17.1481     16.1852  
  1862.0000      8.7292     89.8152      2.5177     -0.0120     31.6000     91.1370   -999.2500   -999.2500   -999.2500   -999.2500     18.2221     16.9286     15.7020  
  1862.5000      8.4469     90.4176      2.5188     -0.0118     32.2399     94.6096   -999.2500   -999.2500   -999.2500   -999.2500     18.1618     16.7331     15.5071  
  1863.0000      8.7888     91.6160      2.5224     -0.0059     32.2194     96.9449   -999.2500   -999.2500   -999.2500   -999.2500     18.2117     16.4942     15.5024  
  1863.5000      8.7009     90.9835      2.5252     -0.0041     31.7205     97.2428   -999.2500   -999.2500   -999.2500   -999.2500     18.4808     16.7589     15.7359  
  1864.0000      8.7186     87.1645      2.5238     -0.0077     31.5424     95.7423   -999.2500   -999.2500   -999.2500   -999.2500     18.4465     16.5911     15.2790  
  1864.5000      8.7510     85.3288      2.5226     -0.0106     31.2250     92.5476   -999.2500   -999.2500   -999.2500   -999.2500     18.0893     16.4114     15.0976  
  1865.0000      8.5776     88.2383      2.5214     -0.0084     30.8819     89.0432   -999.2500   -999.2500   -999.2500   -999.2500     17.7337     16.5258     15.3310  
  1865.5000      8.8952     90.6295      2.5152     -0.0098     30.8530     87.9917   -999.2500   -999.2500   -999.2500   -999.2500     17.6706     16.5185     15.4003  
  1866.0000      8.8606     91.1135      2.5189     -0.0059     31.1043     88.1851   -999.2500   -999.2500   -999.2500   -999.2500     17.7964     16.0252     14.9483  
  1866.5000      8.8615     89.4616      2.5282     -0.0005     31.3881     88.4177   -999.2500   -999.2500   -999.2500   -999.2500     18.0857     16.3906     14.8002  
  1867.0000      8.8750     89.4583      2.5314     -0.0005     31.5664     88.5902   -999.2500   -999.2500   -999.2500   -999.2500     18.6151     16.2429     14.6634  
  1867.5000      8.5453     89.9630      2.5303     -0.0092     31.2839     88.8400   -999.2500   -999.2500   -999.2500   -999.2500     19.1276     16.0343     14.3770  
  1868.0000      8.5022     90.8565      2.5241     -0.0108     31.1177     89.3129   -999.2500   -999.2500   -999.2500   -999.2500     18.1746     15.7199     12.6951  
  1868.5000      8.6953     89.5317      2.5217     -0.0103     31.3216     89.7797   -999.2500   -999.2500   -999.2500   -999.2500     16.1558     15.4184     10.0545  
  1869.0000      8.6429     88.2360      2.5234     -0.0082     32.1589     90.1543   -999.2500   -999.2500   -999.2500   -999.2500     16.0791     15.3079     11.2383  
  1869.5000      8.8102     87.8833      2.5243     -0.0062     31.9018     90.1384   -999.2500   -999.2500   -999.2500   -999.2500     16.4303     15.9700     15.1408  
  1870.0000      8.3610     86.0305      2.5164     -0.0065     30.5959     90.0110   -999.2500   -999.2500   -999.2500   -999.2500     17.7399     17.0729     16.8048  
  1870.5000      8.6500     83.0450      2.5074     -0.0107     29.0149     89.9374   -999.2500   -999.2500   -999.2500   -999.2500     19.6319     18.2534     18.8993  
  1871.0000      8.8264     79.7996      2.5013     -0.0160     28.0535     89.8801   -999.2500   -999.2500   -999.2500   -999.2500     21.7257     19.5154     19.9664  
  1871.5000      8.9228     76.4452      2.5024     -0.0181     27.7035     90.3447   -999.2500   -999.2500   -999.2500   -999.2500     24.0429     21.3970     21.2484  
