~VERSION INFORMATION
 VERS.                           2.00:        CWLS LOG ASCII STANDARD - VERSION 2.00
 WRAP.                             NO:        ONE LINE PER DEPTH STEP
~WELL INFORMATION
#MNEM.UNIT                   DATA             INFORMATION
#----------             --------------        ------------------------------
 STRT.F                      101.0000:        START DEPTH
 STOP.F                     3666.0000:        STOP DEPTH
 STEP.F                        0.5000:        STEP VALUE
 NULL.                      -999.2500:        NULL VALUE
 COMP.     USGS/NPR HUSKY OIL COMPANY:        COMPANY
 LOC .                      9 20N 19W:        LOCATION
 DATE.                       12/30/79:        LOG DATE
 WELL.           WALAKPA TEST WELL #1:        WELL
 UWI .                   500232001300:        UNIQUE WELL ID
 API .                   500232001300:        UNIQUE WELL IDENTIFIER
 FLD .                        WILDCAT:        FIELD
 CNTY.                    NORTH SLOPE:        COUNTY
 STAT.                         ALASKA:        STATE
 CTRY.                            USA:        COUNTRY
 OPER.     USGS/NPR HUSKY OIL COMPANY:        OPERATOR
 SRVC.                   SCHLUMBERGER:        SERVICE COMPANY
 LAT .                         0.0000:        LATITUDE
 LON .                         0.0000:        LONGITUDE
 DIGS.               CENTER LINE DATA:        DIGITIZING COMPANY
~CURVE INFORMATION      
#MNEM        .UNIT         API CODE           CURVE DESCRIPTION
#-----------------      --------------        ------------------------------
 DEPT        .F                      :        1  DEPTH
 GR          .GAPI                   :        2  
 CALI        .IN                     :        3  
 RHOB        .G/C3                   :        4  
 DRHO        .G/C3                   :        5  
 NPHI        .%                      :        6  
 DT          .US/F                   :        7  
 SP          .MV                     :        8  
 ILD         .OHMM                   :        9  
 ILM         .OHMM                   :        10 
 LL8         .OHMM                   :        11 
 SFL         .OHMM                   :        12 
~PARAMETER INFORMATION
#MNEM.UNIT                  VALUE             DESCRIPTION OF MNEMONIC
#---------             ---------------        ------------------------------
 EKB .F                       50.0000:        KELLY BUSHING
 TD  .F                     3672.0000:        TOTAL DEPTH
 BHT .F                       80.0000:        BOTTOM HOLE TEMPERATURE
 BS  .                        12.2500:        BIT SIZE
 FD  .                         9.9000:        FLUID DENSITY
 CSIZ.                        13.3750:        CASING SIZE
 CBD .F                      100.0000:        CASING DRILLER 1
 CBL .F                      106.0000:        CASING LOGGER 1
 DFT .                             99:        TYPE FLUID IN HOLE
 DFV .                        45.0000:        VISCOSITY
 DFPH.                         8.0000:        PH
 DFL .                        23.0000:        FLUID LOSS
 RMS .                         5.9200:        RM
 MST .F                       58.0000:        RM MEAS. TEMP.
 RMF .                         6.2200:        RMF
 MFST.F                       57.0000:        RMF MEAS. TEMP.
 RMC .                         7.0500:        RMC
 MCST.F                       57.0000:        RMC MEAS. TEMP.
~OTHER INFORMATION
~A    DEPTH          GR        CALI        RHOB        DRHO        NPHI          DT          SP         ILD         ILM         LL8         SFL 
# ...
  1277.0000     89.3228     12.7490      2.5178      0.1136     33.8108    107.6812    -65.3581     13.2330     10.6736     15.0534   -999.2500 
  1277.5000     89.1305     12.7373      2.5338      0.1627     34.3929    107.4033    -65.1077     13.2011     10.7140     15.1097   -999.2500 
  1278.0000     89.6749     12.7819      2.5193      0.1560     35.0542    107.2558    -65.4620     13.1693     10.7629     15.1513   -999.2500 
  1278.5000     91.0965     12.9140      2.5039      0.1517     35.5836    107.2066    -65.9031     13.1375     10.6505     15.1685   -999.2500 
  1279.0000     93.6861     12.9262      2.4921      0.1588     36.4451    107.5125    -66.3061     13.1059     10.6020     15.1857   -999.2500 
  1279.5000     95.9792     13.1248      2.4867      0.1548     37.4691    107.7677    -66.3009     13.0743     10.6833     15.2029   -999.2500 
  1280.0000     94.2368     12.9408      2.4991      0.1643     37.1689    107.4906    -66.2164     13.0428     10.7744     15.2202   -999.2500 
  1280.5000     92.7415     12.8072      2.5144      0.1632     36.4640    107.2497    -66.1872     13.0113     10.5370     15.1503   -999.2500 
  1281.0000     92.2229     12.9033      2.4942      0.1432     36.0249    107.5071    -67.0030     12.9800     10.4621     14.9677   -999.2500 
  1281.5000     92.6519     12.8511      2.4938      0.1119     35.9555    107.9216    -67.7240     12.9487     10.4702     14.8505   -999.2500 
  1282.0000     92.0036     12.8183      2.4898      0.1220     36.0463    108.4586    -68.1557     12.9175     10.4123     14.7642   -999.2500 
  1282.5000     91.3381     12.6725      2.4878      0.1306     36.0336    108.6918    -67.8821     12.8864     10.2556     14.6783   -999.2500 
  1283.0000     91.6431     12.9009      2.5202      0.1754     35.1650    108.4340    -67.3660     12.8553     10.2291     14.5923   -999.2500 
  1283.5000     91.0427     13.1732      2.4958      0.1430     35.1851    108.2347    -67.0614     12.8243     10.2325     14.5126   -999.2500 
  1284.0000     89.9412     13.0447      2.4872      0.1204     35.4327    108.0719    -66.7574     12.7934     10.2460     14.6043   -999.2500 
  1284.5000     90.1027     12.9823      2.4957      0.1371     35.6372    107.9465    -66.8006     12.7626     10.2479     14.6966   -999.2500 
  1285.0000     91.0572     12.8882      2.4826      0.1197     35.7628    107.9778    -67.1090     12.7318     10.2378     14.7895   -999.2500 
  1285.5000     93.0711     12.9789      2.4969      0.1407     35.8225    108.2951    -67.4529     12.7011     10.2650     14.8829   -999.2500 
  1286.0000     94.3616     13.0994      2.5263      0.1477     36.1030    108.5103    -68.1709     12.6705     10.3004     14.9770   -999.2500 
  1286.5000     94.8951     12.9899      2.5183      0.1556     36.4306    108.6466    -69.0150     12.6400     10.2995     15.0095   -999.2500 
  1287.0000     95.1904     12.9619      2.5171      0.1500     36.5533    108.8500    -69.2282     12.6095     10.1678     14.9563   -999.2500 
  1287.5000     94.7346     12.9669      2.4970      0.1246     36.2493    108.9658    -69.2133     12.5791     10.2298     14.8733   -999.2500 
  1288.0000     93.0277     12.9403      2.4658      0.0893     36.1895    108.6043    -69.1901     12.4627     10.1817     14.7345   -999.2500 
  1288.5000     90.1430     12.9502      2.4325      0.0444     36.1297    108.4059    -69.2262     12.3143     10.1185     14.5970   -999.2500 
  1289.0000     87.4161     12.9523      2.4300      0.0363     35.9754    108.6865    -69.4384     12.1677     10.0290     14.4891   -999.2500 
  1289.5000     84.9682     12.9173      2.4471      0.0416     35.6972    109.2421    -69.6157     12.0228      9.9414     14.3127   -999.2500 
  1290.0000     86.0122     12.8191      2.4570      0.0682     36.1551    109.9623    -70.0014     11.8927      9.8546     14.0337   -999.2500 
  1290.5000     88.4594     12.6896      2.4599      0.0933     36.6085    110.5850    -70.2195     11.7823      9.7685     13.7862   -999.2500 
  1291.0000     89.1606     12.8335      2.4441      0.0580     36.6170    110.9452    -70.5567     11.6730      9.6909     13.5588   -999.2500 
  1291.5000     89.6161     12.7124      2.4413      0.0349     35.3864    111.3470    -71.1671     11.5647      9.6815     13.3549   -999.2500 
  1292.0000     90.4866     12.8203      2.4593      0.0430     34.3184    111.7233    -71.3709     11.4573      9.6721     13.2992   -999.2500 
  1292.5000     92.9475     12.6308      2.4695      0.0591     33.3633    111.7010    -71.0637     11.3767      9.6628     13.8280   -999.2500 
  1293.0000     94.4340     12.6449      2.4773      0.0708     33.0193    111.6589    -71.1844     11.3090      9.6535     13.7004   -999.2500 
  1293.5000     94.8604     12.6515      2.4596      0.0559     34.3936    111.8508    -71.0785     11.3318      9.6441     13.7202   -999.2500 
  1294.0000     94.6805     12.7198      2.4569      0.0656     35.1012    111.7069    -70.8996     11.3286      9.6348     13.8640   -999.2500 
  1294.5000     94.7096     12.8580      2.4826      0.0823     35.7268    111.5824    -70.7507     11.2923      9.6255     14.0168   -999.2500 
  1295.0000     95.6816     12.9188      2.4878      0.0717     36.3155    111.9003    -70.7363     11.3942      9.6551     13.7204   -999.2500 
  1295.5000     95.7207     12.8484      2.4792      0.0567     36.9370    112.3442    -70.7150     11.5345      9.6923     13.2629   -999.2500 
  1296.0000     94.8783     12.7549      2.4711      0.0381     36.6848    112.7617    -70.8804     11.6382      9.7297     13.3203   -999.2500 
  1296.5000     93.1168     12.6302      2.4768      0.0382     36.4327    112.8023    -71.0579     11.7480      9.7672     13.9682   -999.2500 
  1297.0000     91.8358     12.6782      2.4704      0.0368     36.1805    111.8900    -70.9570     11.9227      9.8049     14.5236   -999.2500 
  1297.5000     92.0059     12.7173      2.4640      0.0383     35.7667    110.7631    -70.4831     12.1016      9.9414     14.7616   -999.2500 
  1298.0000     93.2084     12.6695      2.4625      0.0545     35.3641    109.7028    -69.9263     12.2831     10.0674     14.9981   -999.2500 
  1298.5000     93.3122     12.6677      2.4624      0.0566     34.8962    108.8635    -69.4314     12.4674     10.1266     15.4850   -999.2500 
  1299.0000     92.3403     12.7365      2.4641      0.0616     34.3869    108.0129    -69.5533     12.5038     10.1390     15.4728   -999.2500 
  1299.5000     92.3634     12.8561      2.4821      0.0964     34.4710    107.0268    -69.7991     12.4505     10.1341     14.7885   -999.2500 
  1300.0000     92.5467     12.7505      2.4822      0.0806     35.6314    107.1884    -70.6087     12.3802      9.8793     14.2410   -999.2500 
  1300.5000     93.0677     12.7471      2.4705      0.0741     36.9703    108.2121    -70.4021     12.3104      9.9181     14.2675   -999.2500 
  1301.0000     94.9002     12.8807      2.4880      0.0907     37.7749    109.3148    -70.5098     12.0670      9.9081     14.3983   -999.2500 
  1301.5000     97.7192     12.8677      2.5007      0.1175     37.1020    110.1371    -71.0119     11.6682      9.5505     14.3923   -999.2500 
  1302.0000    103.2186     12.8191      2.4952      0.1289     36.6270    110.4160    -72.3509     11.3060      9.2025     13.9017   -999.2500 
  1302.5000    105.7097     12.8444      2.4843      0.1219     36.9139    110.6774    -73.4280     10.9551      9.0008     13.3087   -999.2500 
  1303.0000    106.2819     12.8408      2.4519      0.0765     37.4546    112.1391    -74.5116     10.6151      8.8534     12.6565   -999.2500 
  1303.5000    106.1020     12.8098      2.4254      0.0403     38.3209    113.9490    -75.2394     10.2925      8.7263     12.6467   -999.2500 
  1304.0000    105.1526     12.9917      2.4592      0.0500     39.7982    114.8016    -75.5861     10.1604      8.6141     12.6878   -999.2500 
  1304.5000    103.5841     13.1126      2.4542      0.0611     41.3418    115.5135    -75.9695     10.0299      8.4388     13.2293   -999.2500 
