~VERSION INFORMATION
 VERS.                           2.00:        CWLS LOG ASCII STANDARD - VERSION 2.00
 WRAP.                             NO:        ONE LINE PER DEPTH STEP
~WELL INFORMATION
#MNEM.UNIT                   DATA             INFORMATION
#----------             --------------        ------------------------------
 STRT.F                       75.0000:        START DEPTH
 STOP.F                     2534.0000:        STOP DEPTH
 STEP.F                        0.5000:        STEP VALUE
 NULL.                      -999.2500:        NULL VALUE
 COMP.                      HUSKY OIL:        COMPANY  
 LOC .                   14  22N  18W:        LOCATION   
 DATE.                       12/20/76:        LOG DATE 
 WELL.               SOUTH BARROW #13:        WELL     
 UWI .                   500232000800:        UNIQUE WELL ID 
 API .                   500232000800:        UNIQUE WELL IDENTIFIER 
 FLD .                   SOUTH BARROW:        FIELD    
 CNTY.                    NORTH SLOPE:        COUNTY  
 STAT.                         ALASKA:        STATE   
 CTRY.                            USA:        COUNTRY 
 OPER.                      HUSKY OIL:        OPERATOR  
 SRVC.                   SCHLUMBERGER:        SERVICE COMPANY 
 LAT .                         0.0000:        LATITUDE
 LON .                         0.0000:        LONGITUDE
 DIGS.               CENTER LINE DATA:        DIGITIZING COMPANY 
~CURVE INFORMATION      
#MNEM        .UNIT         API CODE           CURVE DESCRIPTION
#-----------------      --------------        ------------------------------
 DEPT        .F                      :        1  DEPTH
 SP          .MV                     :        2  
 ILD         .OHMM                   :        3  
 LL8         .OHMM                   :        4  
 CILD        .MMHO                   :        5  
 ILM         .OHMM                   :        6  
 GR          .GAPI                   :        7  
 CALI        .IN                     :        8  
 DRHO        .G/C3                   :        9  
 RHOB        .G/C3                   :        10 
 NPHI        .%                      :        11 
 DPHI        .%                      :        12 
 DT          .US/F                   :        13 
~PARAMETER INFORMATION       
#MNEM.UNIT                  VALUE             DESCRIPTION OF MNEMONIC
#---------             ---------------        ------------------------------
 EKB .F                       40.0000:        KELLY BUSHING
 TD  .F                     1139.0000:        TOTAL DEPTH
 BHT .F                        0.0000:        BOTTOM HOLE TEMPERATURE
 BS  .                        14.7500:        BIT SIZE
 FD  .                        10.3000:        FLUID DENSITY
 CSIZ.                        20.0000:        CASING SIZE
 CBD .F                       65.0000:        CASING DRILLER 1
 CBL .F                       75.0000:        CASING LOGGER 1
 DFT .                  Miscellaneous:        TYPE FLUID IN HOLE
 DFV .                        34.0000:        VISCOSITY
 DFPH.                         8.5000:        PH
 DFL .                        10.2000:        FLUID LOSS
 RMS .                         5.3200:        RM
 MST .F                       55.0000:        RM MEAS. TEMP.
 RMF .                         3.8000:        RMF
 MFST.F                       55.0000:        RMF MEAS. TEMP.
 RMC .                         6.0000:        RMC
 MCST.F                       55.0000:        RMC MEAS. TEMP.
~OTHER INFORMATION
~A    DEPTH          SP         ILD         LL8        CILD         ILM          GR        CALI        DRHO        RHOB        NPHI        DPHI          DT  
# ...
  1860.0000    -28.5031      8.2122     11.3129   -999.2500      8.4848     46.9346     10.9562      0.0006      2.4398     37.6916     13.8249    117.0973  
  1860.5000    -28.5739      8.1614     11.6463   -999.2500      8.3854     47.3019     10.9618      0.0177      2.4411     37.9452     13.2255    117.5366  
  1861.0000    -28.3984      8.0824     10.5679   -999.2500      8.2871     47.8368     10.9809      0.0212      2.4342     38.2807     12.2263    116.5459  
  1861.5000    -28.8376      8.0370      9.8002   -999.2500      8.1900     48.5360     10.9999      0.0454      2.4456     38.6602     12.5522    114.7393  
  1862.0000    -29.3665      8.0514      9.3944   -999.2500      8.1928     49.2351     11.0189      0.0461      2.4532     38.4971     12.5353    112.9437  
  1862.5000    -29.9396      8.1484      9.9277   -999.2500      8.3047     49.7300     11.0380      0.0412      2.4490     38.0018     12.2543    111.3585  
  1863.0000    -30.2787      8.2129     10.5169   -999.2500      8.4181     49.5197     11.0114      0.0414      2.4538     38.0094     11.9426    111.0681  
  1863.5000    -28.9987      8.2370     11.1687   -999.2500      8.5330     49.3094     10.9749      0.0426      2.4587     38.0648     11.1541    111.6080  
  1864.0000    -28.2045      8.2612     11.1867   -999.2500      8.6495     49.3961     10.9384      0.0488      2.4670     38.1307     11.8823    112.1939  
  1864.5000    -27.9416      8.2854     10.6509   -999.2500      8.7026     49.6827     10.9555      0.0571      2.4712     37.8069     12.2601    112.2372  
  1865.0000    -28.5891      8.3097     10.3163   -999.2500      8.7551     49.9708     10.9854      0.0443      2.4623     37.5074     12.5183    112.0273  
  1865.5000    -29.1378      8.3341     10.2860   -999.2500      8.8078     50.3053     11.0153      0.0462      2.4479     37.5383     11.5520    111.2559  
  1866.0000    -29.7931      8.3585     10.6530   -999.2500      8.8609     50.4178     11.0451      0.0550      2.4605     37.3417     11.6078    110.3726  
  1866.5000    -31.1603      8.3830     11.1551   -999.2500      8.9143     50.4214     11.0750      0.0652      2.4682     36.8537     12.5444    110.0577  
  1867.0000    -32.4553      8.4076     11.1150   -999.2500      8.9681     50.0779     11.1011      0.0540      2.4643     36.2119     12.9981    110.4298  
  1867.5000    -32.6830      8.4322     11.2432   -999.2500      8.9304     49.5565     11.0541      0.0440      2.4513     36.2274     12.8049    111.5213  
  1868.0000    -32.0465      8.4350     11.4777   -999.2500      8.8635     49.4944     11.0070      0.0455      2.4482     37.0350     13.3619    112.8237  
  1868.5000    -31.0560      8.3751     10.9773   -999.2500      8.7970     49.9117     10.9600      0.0443      2.4500     37.7856     13.2702    113.8164  
  1869.0000    -30.8636      8.3156     10.3945   -999.2500      8.7311     50.4019     10.9831      0.0365      2.4372     38.4414     12.1922    114.0350  
  1869.5000    -31.0820      8.2565      9.9798   -999.2500      8.6656     50.7000     11.0248      0.0358      2.4429     38.9522     11.8905    113.4605  
  1870.0000    -30.7508      8.2325      9.7601   -999.2500      8.6006     50.3685     11.0666      0.0440      2.4605     39.1624     11.6247    112.5666  
  1870.5000    -29.4180      8.2231     10.3926   -999.2500      8.5361     50.1807     11.0484      0.0522      2.4666     38.8735     11.4058    111.5327  
  1871.0000    -28.4723      8.2169     10.8088   -999.2500      8.4721     49.8252     11.0062      0.0551      2.4701     38.3059     11.5304    110.9256  
  1871.5000    -26.9949      8.1732     10.8969   -999.2500      8.4584     49.5193     10.9640      0.0564      2.4717     37.5051     12.0611    111.0920  
  1872.0000    -26.9041      8.1393     10.8054   -999.2500      8.4657     49.2134     10.9217      0.0468      2.4654     37.0430     12.5755    111.5232  
  1872.5000    -26.6540      8.1473     10.6667   -999.2500      8.4731     48.9075     10.8795      0.0355      2.4565     37.4594     13.4550    112.1312  
  1873.0000    -26.7386      8.1715     10.5102   -999.2500      8.4805     48.3509     10.8372      0.0234      2.4487     37.8707     13.5454    112.7682  
  1873.5000    -27.4865      8.2987     10.4774   -999.2500      8.5357     47.6679     10.8287      0.0163      2.4413     37.3226     13.2056    113.0666  
  1874.0000    -28.2264      8.7636     10.3090   -999.2500      8.5933     46.1336     10.8565      0.0329      2.4405     36.1213     12.9230    112.9276  
  1874.5000    -29.0505      9.3915      9.9662   -999.2500      8.8521     44.5529     10.8842      0.0330      2.4455     34.9200     11.9929    112.3046  
  1875.0000    -29.7984     10.0016      9.9128   -999.2500      9.4595     42.8383     10.9120      0.0324      2.4496     32.9523     12.9318    111.7296  
  1875.5000    -30.5083     10.6512     13.0897   -999.2500     10.1087     40.7683     10.9397      0.0324      2.4539     29.8928     13.9910    111.0784  
  1876.0000    -31.4126     10.9602     20.3287   -999.2500     10.6702     38.6712     10.9260      0.0215      2.4424     28.8912     14.6187    110.9850  
  1876.5000    -31.8420     10.4761     26.8777   -999.2500     10.4255     38.2574     10.9128      0.0112      2.4266     30.7611     13.1667    111.9898  
  1877.0000    -31.5473     10.0134     17.1185   -999.2500     10.1865     39.2113     10.9275      0.0126      2.4231     34.7352     11.1917    113.0039  
  1877.5000    -30.3465      9.5711     11.1686   -999.2500      9.9529     42.6592     10.9424      0.0422      2.4445     37.9031     12.2326    113.5869  
  1878.0000    -28.7652      9.4290     10.2179   -999.2500      9.7246     46.6161     10.9572      0.0689      2.4753     39.0327     13.8224    113.8577  
  1878.5000    -30.1016      9.3017     10.0569   -999.2500      9.5016     47.7472     10.9721      0.0561      2.4499     38.7979     14.4301    114.0069  
  1879.0000    -30.6956      9.1762     11.0244   -999.2500      9.2837     48.1742     10.9870      0.0379      2.4280     38.8086     14.7424    114.0898  
  1879.5000    -30.2327      9.0524     11.5560   -999.2500      9.0709     48.2504     11.0018      0.0244      2.4226     39.4907     14.5496    114.1613  
  1880.0000    -28.7834      8.9302     11.3181   -999.2500      8.8628     48.1275     11.0142      0.0113      2.4206     40.0539     14.4932    114.0242  
  1880.5000    -27.9924      8.8195     10.7383   -999.2500      8.6989     48.4268     10.9950      0.0242      2.4205     39.7504     15.1826    113.5356  
  1881.0000    -27.8701      8.7501     10.6362   -999.2500      8.6833     48.6561     10.9757      0.0326      2.4161     39.0361     14.6578    112.5997  
  1881.5000    -27.5853      8.6495     10.8062   -999.2500      8.6678     48.5464     10.9564      0.0288      2.4148     38.5228     13.4293    111.9145  
  1882.0000    -26.8270      8.6738     11.2100   -999.2500      8.6524     47.6886     10.9372      0.0438      2.4242     38.1484     12.9999    111.0761  
  1882.5000    -25.4795      8.6981     11.1128   -999.2500      8.6369     47.2564     10.9179      0.0533      2.4414     38.2186     12.9512    110.8014  
  1883.0000    -26.0141      8.7261     10.8852   -999.2500      8.6215     47.2761     10.8987      0.0583      2.4451     38.5567     11.3248    110.7939  
  1883.5000    -26.7315      8.7575     11.0128   -999.2500      8.7404     47.4994     10.8794      0.0723      2.4561     38.0077     10.3954    110.7679  
  1884.0000    -28.2158      8.7889     11.2274   -999.2500      8.8737     47.5760     10.8601      0.0819      2.4851     37.2347     11.7071    110.6281  
  1884.5000    -29.1046      8.8205     10.8883   -999.2500      9.0090     47.5123     10.8409      0.0681      2.4738     36.4617     12.4136    110.5610  
  1885.0000    -28.3639      8.8707     10.7032   -999.2500      9.1464     47.1406     10.8322      0.0532      2.4602     35.5924     13.3019    110.4668  
