~VERSION INFORMATION
 VERS.                      2.00:        CWLS LOG ASCII STANDARD - VERSION 2.00
 WRAP.                        NO:        ONE LINE PER DEPTH STEP
~WELL INFORMATION
#MNEM.UNIT               DATA            INFORMATION
#----------          ------------        ------------------------------
 STRT.F                 438.0000:        START DEPTH
 STOP.F               11532.0000:        STOP DEPTH
 STEP.F                   0.5000:        STEP VALUE
 NULL.                 -999.2500:        NULL VALUE
 COMP.      HUSKY-NPR OPERATIONS:        COMPANY  
 WELL.          ATIGARU POINT #1:        WELL     
 FLD .                   WILDCAT:        FIELD    
 LOC .              19  14N   2E:        LOCATION   
 CNTY.               NORTH SLOPE:        COUNTY  
 STAT.                     ALSKA:        STATE   
 CTRY.                       USA:        COUNTRY 
 DATE.                    1/ /77:        LOG DATE 
 API .              501032000800:        UNIQUE WELL IDENTIFIER 
 OPER.      HUSKY-NPR OPERATIONS:        OPERATOR  
 SRVC.              Schlumberger:        SERVICE COMPANY 
 UWI .              501032000800:        UNIQUE WELL ID 
 LAT .                    0.0000:        LATITUDE
 LON .                    0.0000:        LONGITUDE
 DIGS.          Center Line Data:        DIGITIZING COMPANY 
~CURVE INFORMATION      
#MNEM.UNIT            API CODE           CURVE DESCRIPTION
#---------          -------------        ------------------------------
 DEPT.F                         :        1  DEPTH
 SP  .MV                        :        2
 ILD .OHMM                      :        3
 ILM .OHMM                      :        4
 LL8 .OHMM                      :        5
 CALI.IN                        :        6
 GR  .GAPI                      :        7
 DRHO.G/C3                      :        8
 RHOB.G/C3                      :        9
 NPHI.%                         :       10
 DT  .US/F                      :       11
~PARAMETER INFORMATION       
#MNEM.UNIT              VALUE            DESCRIPTION OF MNEMONIC
#---------          -------------        ------------------------------
 EKB .F                  25.0000:        KELLY BUSHING
 TD  .F               11534.0000:        TOTAL DEPTH
 BHT .F                   0.0000:        BOTTOM HOLE TEMPERATURE
 BS  .                   17.5000:        BIT SIZE
 FD  .                    9.3000:        FLUID DENSITY
 CSIZ.                   20.0000:        CASING SIZE
 CBD .F                 447.0000:        CASING DRILLER 1
 CBL .F                 443.0000:        CASING LOGGER 1
 DFT .                       Gel:        TYPE FLUID IN HOLE
 DFV .                   47.0000:        VISCOSITY
 DFPH.                   14.6000:        PH
 DFL .                    8.0000:        FLUID LOSS
 RMS .                    1.9300:        RM
 MST .F                  63.0000:        RM MEAS. TEMP.
 RMF .                    1.6900:        RMF
 MFST.F                  52.0000:        RMF MEAS. TEMP.
 RMC .                    1.6500:        RMC
 MCST.F                  60.0000:        RMC MEAS. TEMP.
 UWI .              501032000800:        UNIQUE WELL ID
~OTHER INFORMATION
~A    DEPTH          SP         ILD         ILM         LL8        CALI          GR        DRHO        RHOB        NPHI          DT  
# ...
  5598.0000    -47.4788      4.5270      4.1404      4.3969     12.5827     69.2352      0.0630      2.5192     35.7155     91.1778  
  5598.5000    -47.4749      4.4857      4.1242      4.3178     12.5743     69.4586      0.0495      2.4961     35.3791     92.9429  
  5599.0000    -47.4170      4.4447      4.1080      4.2893     12.5492     69.9052      0.0372      2.4873     35.4207     94.2865  
  5599.5000    -47.2329      4.4042      4.0919      4.3420     12.4801     70.3519      0.0380      2.4840     34.9366     94.9536  
  5600.0000    -47.0104      4.3640      4.0758      4.3300     12.5125     70.3026      0.0635      2.4995     34.8246     95.7683  
  5600.5000    -47.3269      4.3590      4.0598      4.3143     12.5655     69.9057      0.0503      2.4973     35.1791     96.9690  
  5601.0000    -47.9588      4.3732      4.0439      4.2876     12.5531     69.5784      0.0429      2.4782     36.0378     94.0198  
  5601.5000    -48.5907      4.3875      4.0303      4.2271     12.6193     69.3601      0.0478      2.4795     36.9805     93.1677  
  5602.0000    -48.1167      4.3867      4.0222      4.1915     12.6729     69.6834      0.0527      2.4952     37.2411     82.9670  
  5602.5000    -47.5990      4.3445      4.0141      4.1834     12.6052     70.7453      0.0494      2.4735     36.8082     81.3556  
  5603.0000    -47.0876      4.3027      4.0060      4.1905     12.5379     71.4060      0.0338      2.4497     35.9485     80.9092  
  5603.5000    -47.0308      4.2613      3.9980      4.1734     12.4772     71.5839      0.0301      2.4508     34.8165     94.8160  
  5604.0000    -47.2614      4.2203      3.9900      4.1744     12.4791     70.7944      0.0475      2.4595     33.9757     96.5667  
  5604.5000    -47.4427      4.2561      3.9819      4.2052     12.5612     69.6822      0.0708      2.4687     34.3941     97.1712  
  5605.0000    -47.8013      4.3657      4.0196      4.2703     12.6433     69.2622      0.0799      2.4742     35.7351     96.9118  
  5605.5000    -47.8511      4.4781      4.0773      4.4041     12.6482     69.1474      0.0506      2.4692     36.8698     95.3865  
  5606.0000    -47.5651      4.5933      4.1344      4.6525     12.5167     69.2602      0.0632      2.4793     37.9562     95.6343  
  5606.5000    -47.2790      4.7116      4.0947      4.8067     12.5274     69.6548      0.0806      2.4959     39.5191     96.4013  
  5607.0000    -47.1323      4.6051      4.0554      4.5365     12.5511     70.1236      0.0911      2.5096     40.5705     96.8616  
  5607.5000    -47.0012      4.4944      4.0165      4.2815     12.4946     70.4960      0.0830      2.5014     40.5110     96.7634  
  5608.0000    -46.7788      4.3864      4.0180      4.1937     12.4541     70.7056      0.0618      2.4805     39.4467     95.0585  
  5608.5000    -46.5222      4.3798      4.1047      4.3465     12.4570     70.4742      0.0432      2.4842     37.1197     92.8431  
  5609.0000    -46.3660      4.5137      4.1933      4.4979     12.4600     70.0160      0.0270      2.4698     36.0504     92.9936  
  5609.5000    -46.4562      4.6517      4.2838      4.5387     12.4707     70.6110      0.0612      2.4882     35.5235     93.1049  
  5610.0000    -46.7446      4.7940      4.3763      4.5799     12.5123     72.2770      0.0867      2.5055     35.0706     94.9118  
  5610.5000    -46.9501      4.8383      4.3597      4.6216     12.5538     73.5359      0.0858      2.4958     35.2309     96.7702  
  5611.0000    -47.1116      4.8450      4.3368      4.6635     12.5934     73.3151      0.0897      2.4936     35.5679     96.9215  
  5611.5000    -47.2583      4.8516      4.3140      4.6822     12.5970     71.4323      0.1020      2.4887     35.8660     95.1713  
  5612.0000    -47.1454      4.8583      4.2914      4.7007     12.5926     69.7758      0.0957      2.4783     35.6950     93.6078  
  5612.5000    -46.9952      4.8650      4.2688      4.7193     12.5882     68.1828      0.1056      2.5020     35.4757     92.9483  
  5613.0000    -46.9097      4.8717      4.2464      4.7145     12.5482     68.2592      0.1074      2.5056     35.3566     93.4488  
  5613.5000    -46.7673      4.8784      4.2241      4.6877     12.5071     69.7868      0.1075      2.5141     35.7519     94.7856  
  5614.0000    -46.5820      4.8487      4.2019      4.6610     12.4908     71.1556      0.1005      2.4969     36.6023     95.2493  
  5614.5000    -46.3642      4.7526      4.1798      4.6344     12.4812     71.1607      0.0476      2.4648     37.4439     95.0964  
  5615.0000    -46.1536      4.6584      4.1601      4.6080     12.4687     71.0657      0.0387      2.4575     38.4743     92.6261  
  5615.5000    -46.1382      4.5662      4.1495      4.5818     12.3260     71.5705      0.0418      2.4672     37.7345     92.7780  
  5616.0000    -46.1372      4.4757      4.1390      4.5108     12.3488     71.9029      0.0583      2.4581     36.3735     94.1935  
  5616.5000    -46.0264      4.3870      4.1285      4.4138     12.3813     71.6030      0.0563      2.4476     35.1787     94.2218  
  5617.0000    -45.9509      4.3001      4.1181      4.3189     12.4168     71.1458      0.0661      2.4624     35.5895     94.2026  
  5617.5000    -46.0147      4.2316      4.1076      4.3077     12.4651     70.7288      0.0850      2.4965     36.2330     93.5123  
  5618.0000    -46.0062      4.3168      4.0972      4.2967     12.5159     71.1578      0.1119      2.5065     37.2044     94.5043  
  5618.5000    -46.0421      4.4037      4.0876      4.2815     12.5666     72.5268      0.0861      2.5009     37.7869     95.9722  
  5619.0000    -45.9099      4.3739      4.0808      4.2482     12.5423     73.3388      0.0518      2.4766     38.1690     96.8496  
  5619.5000    -45.8590      4.3357      4.0739      4.2183     12.5067     72.5741      0.0701      2.4883     37.3441     95.2197  
  5620.0000    -45.8843      4.2979      4.0671      4.2192     12.5309     71.0809      0.0767      2.5032     37.1397     94.1907  
  5620.5000    -45.9494      4.2626      4.0679      4.2452     12.5156     70.5456      0.0810      2.5114     37.1476     93.2088  
  5621.0000    -46.1794      4.3115      4.0729      4.2762     12.4649     70.3533      0.0880      2.5267     37.0655     94.0920  
  5621.5000    -46.4363      4.3610      4.0779      4.3150     12.4355     71.1154      0.0794      2.5137     36.4909     96.1056  
  5622.0000    -46.5217      4.4111      4.0828      4.3378     12.4385     72.2181      0.0709      2.4973     35.4779     95.9994  
  5622.5000    -46.4788      4.4548      4.0878      4.3348     12.4415     73.1601      0.0652      2.4848     35.3099     95.6012  
  5623.0000    -46.3876      4.4639      4.0928      4.3193     12.4742     73.3036      0.0584      2.4715     35.9265     95.0764  
  5623.5000    -46.4732      4.4730      4.0978      4.3047     12.5232     73.0039      0.0674      2.4881     36.8441     93.4120  
  5624.0000    -46.5019      4.4818      4.1028      4.3181     12.4925     72.2903      0.0714      2.5008     37.0364     93.9046  
  5624.5000    -46.4639      4.4448      4.1078      4.3103     12.4344     71.7893      0.0959      2.5143     36.8114     94.4602  
  5625.0000    -46.6275      4.4081      4.1059      4.2773     12.4335     72.0396      0.1174      2.5219     36.4346     95.2575  
  5625.5000    -46.7735      4.3718      4.1021      4.2533     12.4785     73.2917      0.1217      2.5193     36.1922     94.9922  
  5626.0000    -46.8206      4.3357      4.0098      4.2074     12.5755     75.6876      0.1025      2.4935     36.0929     94.7269  
  5626.5000    -46.8728      4.3000      3.8758      4.1857     12.5416     74.9509      0.0746      2.4638     36.4691     94.4616  
  5627.0000    -46.8268      4.2645      3.8902      4.2559     12.5068     73.6806      0.0757      2.4704     36.7907     94.1963  
  5627.5000    -46.7377      4.2847      3.9279      4.3341     12.5121     73.3456      0.0831      2.4710     36.5828     93.9310  
