~VERSION INFORMATION
 VERS.                           2.00:        CWLS LOG ASCII STANDARD - VERSION 2.00
 WRAP.                             NO:        ONE LINE PER DEPTH STEP
~WELL INFORMATION
#MNEM.UNIT                   DATA             INFORMATION
#----------             --------------        ------------------------------
 STRT.F                      116.0000:        START DEPTH
 STOP.F                     8861.0000:        STOP DEPTH
 STEP.F                        0.5000:        STEP VALUE
 NULL.                      -999.2500:        NULL VALUE
 COMP.                     U.S. NAAVY:        COMPANY
 LOC .                 [33^13 17N 2W:        LOCATION
 DATE.                        3/30/77:        LOG DATE
 WELL.                    WT FORAN #1:        WELL
 UWI .                   501032001000:        UNIQUE WELL ID
 API .                   501032001000:        UNIQUE WELL IDENTIFIER
 FLD .                        WILDCAT:        FIELD
 CNTY.                    NORTH SLOPE:        COUNTY
 STAT.                         ALASKA:        STATE
 CTRY.                            USA:        COUNTRY
 OPER.                     U.S. NAAVY:        OPERATOR
 SRVC.                   SCHLUMBERGER:        SERVICE COMPANY
 LAT .                         0.0000:        LATITUDE
 LON .                         0.0000:        LONGITUDE
 DIGS.               CENTER LINE DATA:        DIGITIZING COMPANY
~CURVE INFORMATION      
#MNEM        .UNIT         API CODE           CURVE DESCRIPTION
#-----------------      --------------        ------------------------------
 DEPT        .F                      :        1  DEPTH
 CALI        .IN                     :        2  
 GR          .GAPI                   :        3  
 DRHO        .G/C3                   :        4  
 RHOB        .G/C3                   :        5  
 NPHI        .%                      :        6  
 DT          .US/F                   :        7  
 SP          .MV                     :        8  
 ILD         .OHMM                   :        9  
 ILM         .OHMM                   :        10 
 LL8         .OHMM                   :        11 
~PARAMETER INFORMATION
#MNEM.UNIT                  VALUE             DESCRIPTION OF MNEMONIC
#---------             ---------------        ------------------------------
 EKB .F                       39.0000:        KELLY BUSHING
 TD  .F                     8864.0000:        TOTAL DEPTH
 BHT .F                      152.0000:        BOTTOM HOLE TEMPERATURE
 BS  .                        14.2500:        BIT SIZE
 FD  .                        10.2000:        FLUID DENSITY
 CSIZ.                        16.0000:        CASING SIZE
 CBD .F                     1458.0000:        CASING DRILLER 1
 CBL .F                        0.0000:        CASING LOGGER 1
 DFT .                  MISCELLANEOUS:        TYPE FLUID IN HOLE
 DFV .                        45.0000:        VISCOSITY
 DFPH.                        10.5000:        PH
 DFL .                         5.5000:        FLUID LOSS
 RMS .                         2.4000:        RM
 MST .F                       54.0000:        RM MEAS. TEMP.
 RMF .                         2.3000:        RMF
 MFST.F                       56.0000:        RMF MEAS. TEMP.
 RMC .                         2.7000:        RMC
 MCST.F                       54.0000:        RMC MEAS. TEMP.
~OTHER INFORMATION
~A    DEPTH        CALI          GR        DRHO        RHOB        NPHI          DT          SP         ILD         ILM         LL8 
# ...
  8839.0000      8.3035   -999.2500      0.0323      2.7152     22.3534     65.1487    -29.3984     32.9644     36.8317     68.8572 
  8839.5000      8.3100   -999.2500      0.0264      2.7076     21.9924     63.5509    -29.3789     33.1463     35.9624     71.0643 
  8840.0000      8.3164   -999.2500      0.0218      2.6893     21.6797     61.7436    -29.7837     33.3292     35.1137     75.2994 
  8840.5000      8.3151   -999.2500      0.0153      2.6705     21.7013     60.3204    -30.0015     33.9439     35.3765     71.5143 
  8841.0000      8.3075   -999.2500      0.0177      2.6682     21.5525     56.3647    -30.1970     34.6481     35.8425     68.6258 
  8841.5000      8.2922   -999.2500      0.0411      2.6591     21.2236     54.5419    -30.4396     35.3670     36.4930     68.8457 
  8842.0000      8.2358   -999.2500      0.0719      2.6686     19.7282     55.6935    -30.9858     35.1621     37.2722     73.7558 
  8842.5000      8.1856   -999.2500      0.0527      2.6388     17.7089     56.2184    -31.6998     36.7507     37.9502     80.4890 
  8843.0000      8.1411   -999.2500      0.0335      2.6205     12.0539     57.7475    -32.1917     38.3069     38.5343     79.4988 
  8843.5000      8.1367   -999.2500      0.0978      2.6924      6.6013     57.6857    -32.6073     40.3192     39.5653     80.0087 
  8844.0000      8.1399   -999.2500      0.0796      2.7201     -0.0722     56.2375    -33.0663     41.9519     40.9123     84.2113 
  8844.5000      8.1516   -999.2500      0.0596      2.7020   -999.2500     56.3489    -33.5630     43.6506     42.5483     82.0855 
  8845.0000      8.1547   -999.2500      0.0404      2.6606   -999.2500     56.9979    -34.0092     45.4182     45.3796    110.1131 
  8845.5000      8.1414   -999.2500      0.0379      2.6471   -999.2500     59.6425    -34.3371     47.4916     51.3998    425.5834 
  8846.0000      8.1333   -999.2500      0.0463      2.6386   -999.2500     62.6969    -34.5412     49.9135     64.4918   1711.7831 
  8846.5000      8.1471   -999.2500      0.0386      2.6216   -999.2500     62.9778    -34.9444     51.8799     72.1515   1638.7783 
  8847.0000      8.1589   -999.2500      0.0485      2.6202   -999.2500     61.1443    -35.3444     53.5091     82.0251   1509.1938 
  8847.5000      8.1562   -999.2500      0.0557      2.6472   -999.2500     59.1735    -35.5442     57.8391     90.0518   1160.2767 
  8848.0000      8.1533   -999.2500      0.0776      2.6778   -999.2500     57.4489    -35.6161     60.1194     94.0336    673.1516 
  8848.5000      8.1322   -999.2500      0.1001      2.7191   -999.2500     58.2714    -35.5892     59.5225     90.0559    425.3034 
  8849.0000      8.0522   -999.2500      0.0826      2.7141   -999.2500     59.5980    -35.5764     56.2246     84.5499    595.6482 
  8849.5000      8.0674   -999.2500      0.0675      2.7056   -999.2500     58.8811    -35.5636     52.3310     81.1345   1402.2788 
  8850.0000      8.0829   -999.2500      0.0843      2.7150   -999.2500     57.6120    -35.3832     50.8868     76.6996    870.8040 
  8850.5000      8.1006   -999.2500      0.0563      2.7168   -999.2500     59.4284    -35.0402     49.8326     72.3695    303.0855 
  8851.0000      8.1250   -999.2500      0.0669      2.7198   -999.2500     59.3869    -34.5118     48.8002     68.2838    125.8541 
  8851.5000      8.1363   -999.2500      0.1181      2.7403   -999.2500     60.4516    -33.8536     47.9235     66.2797    111.9522 
  8852.0000      8.1269   -999.2500      0.1540      2.7623   -999.2500     64.7606    -33.1724     48.0686     66.3321    301.9826 
  8852.5000      8.1164   -999.2500      0.1212      2.7233   -999.2500     67.5231    -32.6707     48.2142     68.9557    817.0674 
  8853.0000      8.1040   -999.2500      0.0820      2.6675   -999.2500     67.3677    -31.9341     48.3601     71.4150    565.2675 
  8853.5000      8.0664   -999.2500      0.1122      2.7133   -999.2500     67.1582    -31.2044     48.5066     72.0521    372.9872 
  8854.0000      8.0257   -999.2500      0.1210      2.7170   -999.2500     67.1771    -30.7891     48.6534     70.2346    345.3445 
  8854.5000      7.9850   -999.2500      0.1298      2.7174   -999.2500   -999.2500    -30.6410     48.7687     68.1471    296.7089 
  8855.0000      7.9562   -999.2500      0.1389      2.7208   -999.2500   -999.2500    -30.7612     48.7793     65.5977    226.6460 
  8855.5000      7.9686   -999.2500      0.1190      2.6963   -999.2500   -999.2500    -30.5640     48.7900     63.1438    186.3436 
  8856.0000      8.0039   -999.2500      0.0947      2.6681   -999.2500   -999.2500    -29.6904     48.8007     61.9422    174.5997 
  8856.5000      8.0452   -999.2500      0.1075      2.6624   -999.2500   -999.2500   -999.2500   -999.2500   -999.2500   -999.2500 
  8857.0000      8.0659   -999.2500      0.1287      2.6586   -999.2500   -999.2500   -999.2500   -999.2500   -999.2500   -999.2500 
  8857.5000      8.0740   -999.2500      0.1400      2.6681   -999.2500   -999.2500   -999.2500   -999.2500   -999.2500   -999.2500 
  8858.0000      8.0821   -999.2500      0.1493      2.6841   -999.2500   -999.2500   -999.2500   -999.2500   -999.2500   -999.2500 
  8858.5000      8.0539   -999.2500      0.1412      2.6968   -999.2500   -999.2500   -999.2500   -999.2500   -999.2500   -999.2500 
  8859.0000      8.0259   -999.2500      0.1100      2.6906   -999.2500   -999.2500   -999.2500   -999.2500   -999.2500   -999.2500 
  8859.5000      7.9680   -999.2500      0.0867      2.6804   -999.2500   -999.2500   -999.2500   -999.2500   -999.2500   -999.2500 
  8860.0000      7.8921   -999.2500      0.1178      2.6997   -999.2500   -999.2500   -999.2500   -999.2500   -999.2500   -999.2500 
  8860.5000      7.8161   -999.2500      0.1469      2.7224   -999.2500   -999.2500   -999.2500   -999.2500   -999.2500   -999.2500 
  8861.0000      7.8123   -999.2500      0.1718      2.7412   -999.2500   -999.2500   -999.2500   -999.2500   -999.2500   -999.2500 
