~VERSION INFORMATION
 VERS.                           2.00:        CWLS LOG ASCII STANDARD - VERSION 2.00
 WRAP.                             NO:        ONE LINE PER DEPTH STEP
~WELL INFORMATION
#MNEM.UNIT                   DATA             INFORMATION
#----------             --------------        ------------------------------
 STRT.F                       94.0000:        START DEPTH
 STOP.F                    11429.0000:        STOP DEPTH
 STEP.F                        0.5000:        STEP VALUE
 NULL.                      -999.2500:        NULL VALUE
 COMP. U.S. NAVY (HUSKY OIL CO.-OPER.:        COMPANY
 LOC .                      11 11N 1W:        LOCATION
 DATE.                        2/17/77:        LOG DATE
 WELL.             WEST FISH CREEK #1:        WELL
 UWI .                   500232001400:        UNIQUE WELL ID
 API .                   500232001400:        UNIQUE WELL IDENTIFIER
 FLD .                        WILDCAT:        FIELD
 CNTY.                    NORTH SLOPE:        COUNTY
 STAT.                         ALASKA:        STATE
 CTRY.                            USA:        COUNTRY
 OPER. U.S. NAVY (HUSKY OIL CO.-OPER.:        OPERATOR
 SRVC.                   SCHLUMBERGER:        SERVICE COMPANY
 LAT .                         0.0000:        LATITUDE
 LON .                         0.0000:        LONGITUDE
 DIGS.               CENTER LINE DATA:        DIGITIZING COMPANY
~CURVE INFORMATION      
#MNEM        .UNIT         API CODE           CURVE DESCRIPTION
#-----------------      --------------        ------------------------------
 DEPT        .F                      :        1  DEPTH
 SP          .MV                     :        2  
 ILD         .OHMM                   :        3  
 ILM         .OHMM                   :        4  
 LL8         .OHMM                   :        5  
 CALI        .IN                     :        6  
 RHOB        .G/C3                   :        7  
 DRHO        .G/C3                   :        8  
 NPHI        .%                      :        9  
 GR          .GAPI                   :        10 
 DT          .US/F                   :        11 
~PARAMETER INFORMATION
#MNEM.UNIT                  VALUE             DESCRIPTION OF MNEMONIC
#---------             ---------------        ------------------------------
 EKB .F                      113.0000:        KELLY BUSHING
 TD  .F                    11429.0000:        TOTAL DEPTH
~OTHER INFORMATION
~A    DEPTH          SP         ILD         ILM         LL8        CALI        RHOB        DRHO        NPHI          GR          DT 
# ...
   124.5000   -171.4810     30.5680     12.9688     37.6530   -999.2500   -999.2500   -999.2500   -999.2500     67.0406    150.0075 
   125.0000   -173.3996     30.6846     13.0976     36.9337   -999.2500   -999.2500   -999.2500   -999.2500     67.3243    150.0054 
   125.5000   -180.2051     30.8016     13.2337     36.1347   -999.2500   -999.2500   -999.2500   -999.2500     66.1824    150.0034 
   126.0000   -188.5750     30.8899     13.3844     35.3530   -999.2500   -999.2500   -999.2500   -999.2500     64.3170    150.0013 
   126.5000   -196.9450     31.5063     14.0274     34.5883   -999.2500   -999.2500   -999.2500   -999.2500     60.8639    149.9992 
   127.0000   -199.3326     33.0844     14.6560     33.8400   -999.2500   -999.2500   -999.2500   -999.2500     58.7543    149.9971 
   127.5000   -199.3473     35.0217     15.6672     33.1873   -999.2500   -999.2500   -999.2500   -999.2500     57.9424    149.9950 
   128.0000   -199.3619     37.4372     16.5057     32.4044   -999.2500   -999.2500   -999.2500   -999.2500     57.6386    149.9930 
   128.5000   -199.3766     39.6649     17.2938     31.7455   -999.2500   -999.2500   -999.2500   -999.2500     56.7193    149.9909 
   129.0000   -199.3913     40.1555     17.5096     31.8625   -999.2500   -999.2500   -999.2500   -999.2500     54.1845    149.9888 
   129.5000   -199.4059     40.0338     17.1124     32.5111   -999.2500   -999.2500   -999.2500   -999.2500     52.6157    149.9867 
   130.0000   -199.4206     39.8266     16.3246     31.1971   -999.2500   -999.2500   -999.2500   -999.2500     50.9181    149.9846 
   130.5000   -199.4353     39.9095     15.8695     29.1260   -999.2500   -999.2500   -999.2500   -999.2500     49.8138    169.5426 
   131.0000   -199.4499     39.8571     15.6373     27.2276   -999.2500   -999.2500   -999.2500   -999.2500     48.4673    179.5552 
   131.5000   -199.4646     38.5684     15.4483     27.0076   -999.2500   -999.2500   -999.2500   -999.2500     47.3906    197.1685 
   132.0000   -199.4792     36.6164     15.2894     26.6254   -999.2500   -999.2500   -999.2500   -999.2500     47.0586    194.9040 
   132.5000   -199.4939     34.2628     15.0479     26.1835   -999.2500   -999.2500   -999.2500   -999.2500     48.0216    188.1434 
   133.0000   -199.5086     32.7705     14.7741     25.8670   -999.2500   -999.2500   -999.2500   -999.2500     49.4901    181.1069 
   133.5000   -199.5233     31.4921     14.4306     25.6141   -999.2500   -999.2500   -999.2500   -999.2500     50.4188    168.4384 
   134.0000   -199.5379     30.3079     13.8469     25.5561   -999.2500   -999.2500   -999.2500   -999.2500     50.2456    155.7698 
   134.5000   -199.5526     29.1683     13.1816     25.4121   -999.2500   -999.2500   -999.2500   -999.2500     48.9866    150.1205 
   135.0000   -199.5672     27.8915     12.5330     25.3036   -999.2500   -999.2500   -999.2500   -999.2500     48.3048    150.1155 
   135.5000   -199.5819     26.5276     11.9946     24.9037   -999.2500   -999.2500   -999.2500   -999.2500     48.6543    150.1105 
   136.0000   -199.5966     25.9707     11.6763     24.2359   -999.2500   -999.2500   -999.2500   -999.2500     50.0231    196.1813 
   136.5000   -199.6112     25.4255     11.4024     23.5444   -999.2500   -999.2500   -999.2500   -999.2500     51.7828    200.5427 
   137.0000   -199.6259     24.8918     11.2395     23.2030   -999.2500   -999.2500   -999.2500   -999.2500     53.8826    200.1568 
   137.5000   -199.6406     24.3893     11.1284     23.7331   -999.2500   -999.2500   -999.2500   -999.2500     54.3352    200.8065 
   138.0000   -199.6552     24.6171     11.1639     24.1503   -999.2500   -999.2500   -999.2500   -999.2500     54.2254    205.9593 
   138.5000   -199.6699     24.9431     11.2568     24.5323   -999.2500   -999.2500   -999.2500   -999.2500     55.1386    150.1590 
   139.0000   -199.6845     25.2733     11.4460     24.8198   -999.2500   -999.2500   -999.2500   -999.2500     57.8535    150.1540 
   139.5000   -199.6992     26.2470     11.7038     25.1178   -999.2500   -999.2500   -999.2500   -999.2500     60.7927    150.1490 
   140.0000   -199.4763     28.6215     11.9877     25.4381   -999.2500   -999.2500   -999.2500   -999.2500     63.0955    150.1440 
   140.5000   -198.8981     29.8355     12.2788     25.7625   -999.2500   -999.2500   -999.2500   -999.2500     65.5615    150.1390 
   141.0000   -200.2481     31.0510     12.5693     25.6207   -999.2500   -999.2500   -999.2500   -999.2500     66.9385    150.1340 
   141.5000   -202.3329     33.0979     13.0023     25.6267   -999.2500   -999.2500   -999.2500   -999.2500     67.2503    150.1290 
   142.0000   -202.5673     35.7214     13.1290     25.6899   -999.2500   -999.2500   -999.2500   -999.2500     67.4274    150.1240 
   142.5000   -202.5613     38.3300     13.4064     25.6027   -999.2500   -999.2500   -999.2500   -999.2500     67.1138    150.1190 
   143.0000   -202.5553     40.0553     13.5072     25.4165   -999.2500   -999.2500   -999.2500   -999.2500     65.2902    150.1140 
   143.5000   -202.5493     40.5033     13.2635     25.0941   -999.2500   -999.2500   -999.2500   -999.2500     63.3832    150.1091 
   144.0000   -202.5433     39.7977     12.7437     24.5885   -999.2500   -999.2500   -999.2500   -999.2500     61.6134    150.1041 
   144.5000   -202.5374     38.4177     12.2110     23.9429   -999.2500   -999.2500   -999.2500   -999.2500     60.4957    150.0991 
   145.0000   -202.5314     36.0433     11.7072     23.0946   -999.2500   -999.2500   -999.2500   -999.2500     60.0966    150.0941 
   145.5000   -202.5254     34.5251     11.2506     22.5284   -999.2500   -999.2500   -999.2500   -999.2500     59.3126    150.0891 
   146.0000   -202.5194     33.0708     11.0831     22.3066   -999.2500   -999.2500   -999.2500   -999.2500     58.3543    150.0841 
   146.5000   -202.5134     31.6778     11.1060     21.8862   -999.2500   -999.2500   -999.2500   -999.2500     57.9688    150.0791 
   147.0000   -202.5074     30.8068     11.3750     21.0554   -999.2500   -999.2500   -999.2500   -999.2500     57.7396    150.0741 
   147.5000   -202.5014     30.4943     11.7922     20.8660   -999.2500   -999.2500   -999.2500   -999.2500     56.6225    150.0691 
   148.0000   -202.4955     30.2418     12.1652     20.8016   -999.2500   -999.2500   -999.2500   -999.2500     56.3577    150.0641 
   148.5000   -202.3797     30.0391     12.5254     20.9017   -999.2500   -999.2500   -999.2500   -999.2500     57.8723    150.0591 
   149.0000   -201.7646     31.3278     13.0772     21.1856   -999.2500   -999.2500   -999.2500   -999.2500     59.0896    150.0541 
   149.5000   -200.9786     33.4208     13.4295     21.6128   -999.2500   -999.2500   -999.2500   -999.2500     59.0319    150.0491 
   150.0000   -199.2996     35.6718     13.5442     22.1123   -999.2500   -999.2500   -999.2500   -999.2500     59.2845    150.0441 
   150.5000   -197.7254     38.0745     13.6599     22.6233   -999.2500   -999.2500   -999.2500   -999.2500     59.7603    150.0391 
   151.0000   -196.6320     40.1023     13.7766     23.0692   -999.2500   -999.2500   -999.2500   -999.2500     60.6710    150.0341 
   151.5000   -195.1554     41.0772     14.0174     23.2014   -999.2500   -999.2500   -999.2500   -999.2500     61.8868    150.0291 
   152.0000   -193.6500     41.7285     14.2000     23.2543   -999.2500   -999.2500   -999.2500   -999.2500     63.1292    178.6883 
   152.5000   -192.8469     42.3724     14.3407     23.4739   -999.2500   -999.2500   -999.2500   -999.2500     64.0222    168.3878 
   153.0000   -192.2696     42.5070     14.3468     23.7972   -999.2500   -999.2500   -999.2500   -999.2500     64.3660    170.8198 
   153.5000   -191.5239     40.9596     14.0902     24.3770   -999.2500   -999.2500   -999.2500   -999.2500     63.7752    181.1694 
   154.0000   -191.2434     39.4684     13.7959     25.2162   -999.2500   -999.2500   -999.2500   -999.2500     61.7299    184.9943 
   154.5000   -191.9678     38.0316     13.4424     25.9661   -999.2500   -999.2500   -999.2500   -999.2500     60.5739    181.1440 
