~VERSION INFORMATION
 VERS.                           2.00:        CWLS LOG ASCII STANDARD - VERSION 2.00
 WRAP.                             NO:        ONE LINE PER DEPTH STEP
~WELL INFORMATION
#MNEM.UNIT                   DATA             INFORMATION
#----------             --------------        ------------------------------
 STRT.F                      116.0000:        START DEPTH
 STOP.F                     8861.0000:        STOP DEPTH
 STEP.F                        0.5000:        STEP VALUE
 NULL.                      -999.2500:        NULL VALUE
 COMP.                     U.S. NAAVY:        COMPANY
 LOC .                 [33^13 17N 2W:        LOCATION
 DATE.                        3/30/77:        LOG DATE
 WELL.                    WT FORAN #1:        WELL
 UWI .                   501032001000:        UNIQUE WELL ID
 API .                   501032001000:        UNIQUE WELL IDENTIFIER
 FLD .                        WILDCAT:        FIELD
 CNTY.                    NORTH SLOPE:        COUNTY
 STAT.                         ALASKA:        STATE
 CTRY.                            USA:        COUNTRY
 OPER.                     U.S. NAAVY:        OPERATOR
 SRVC.                   SCHLUMBERGER:        SERVICE COMPANY
 LAT .                         0.0000:        LATITUDE
 LON .                         0.0000:        LONGITUDE
 DIGS.               CENTER LINE DATA:        DIGITIZING COMPANY
~CURVE INFORMATION      
#MNEM        .UNIT         API CODE           CURVE DESCRIPTION
#-----------------      --------------        ------------------------------
 DEPT        .F                      :        1  DEPTH
 CALI        .IN                     :        2  
 GR          .GAPI                   :        3  
 DRHO        .G/C3                   :        4  
 RHOB        .G/C3                   :        5  
 NPHI        .%                      :        6  
 DT          .US/F                   :        7  
 SP          .MV                     :        8  
 ILD         .OHMM                   :        9  
 ILM         .OHMM                   :        10 
 LL8         .OHMM                   :        11 
~PARAMETER INFORMATION
#MNEM.UNIT                  VALUE             DESCRIPTION OF MNEMONIC
#---------             ---------------        ------------------------------
 EKB .F                       39.0000:        KELLY BUSHING
 TD  .F                     8864.0000:        TOTAL DEPTH
 BHT .F                      152.0000:        BOTTOM HOLE TEMPERATURE
 BS  .                        14.2500:        BIT SIZE
 FD  .                        10.2000:        FLUID DENSITY
 CSIZ.                        16.0000:        CASING SIZE
 CBD .F                     1458.0000:        CASING DRILLER 1
 CBL .F                        0.0000:        CASING LOGGER 1
 DFT .                  MISCELLANEOUS:        TYPE FLUID IN HOLE
 DFV .                        45.0000:        VISCOSITY
 DFPH.                        10.5000:        PH
 DFL .                         5.5000:        FLUID LOSS
 RMS .                         2.4000:        RM
 MST .F                       54.0000:        RM MEAS. TEMP.
 RMF .                         2.3000:        RMF
 MFST.F                       56.0000:        RMF MEAS. TEMP.
 RMC .                         2.7000:        RMC
 MCST.F                       54.0000:        RMC MEAS. TEMP.
~OTHER INFORMATION
~A    DEPTH        CALI          GR        DRHO        RHOB        NPHI          DT          SP         ILD         ILM         LL8 
# ...
  7253.0000     16.8953    119.4042      0.0559      2.5242     43.8139     94.1033    -13.9973      3.1406      3.0295      3.9773 
  7253.5000     16.8331    124.0950      0.0739      2.5303     44.9120     96.8406    -14.0084      3.1244      3.0203      4.0308 
  7254.0000     16.6203    126.2600      0.0829      2.5163     44.1349     99.2091    -14.0829      3.1276      3.0225      4.1626 
  7254.5000     16.5309    125.9839      0.0991      2.5214     43.2099    101.4484    -14.2140      3.1473      3.0416      4.2318 
  7255.0000     16.5970    123.2554      0.0856      2.5156     42.2763    102.3846    -14.3283      3.1672      3.0607      4.2055 
  7255.5000     16.6631    121.0179      0.0611      2.5106     41.5681    101.8112    -14.4015      3.1872      3.0801      4.2297 
  7256.0000     16.7101    119.5696      0.0666      2.5132     40.9001    101.2090    -14.1992      3.2073      3.0995      4.3357 
  7256.5000     16.5706    118.1213      0.0510      2.5065     40.2321    100.6055    -13.8347      3.2275      3.1191      4.4135 
  7257.0000     16.5839    115.9419      0.0390      2.4968     39.7547    100.1169    -13.8154      3.2401      3.1322      4.4212 
  7257.5000     16.6695    113.5031      0.0379      2.4923     39.4790     98.5197    -13.9550      3.2431      3.1351      4.3751 
  7258.0000     16.9924    111.4982      0.0527      2.5015     38.6410     97.7117    -14.0291      3.2461      3.1380      4.3469 
  7258.5000     16.9244    109.7179      0.0500      2.5081     36.8968     98.3686    -14.0276      3.2492      3.1409      4.3667 
  7259.0000     16.8590    109.0555      0.0678      2.5233     35.4012     96.7630    -14.1570      3.2522      3.1438      4.3879 
  7259.5000     16.8121    109.6806      0.0511      2.5432     34.9192     95.1676    -14.2175      3.2552      3.1468      4.3051 
  7260.0000     16.8547    109.1637      0.0384      2.5223     35.4910     96.1353    -14.4100      3.2582      3.1497      4.2880 
  7260.5000     17.0181    107.8362      0.0599      2.5472     36.0629     95.9697    -14.6644      3.2612      3.1526      4.2710 
  7261.0000     17.3600    106.8084      0.0606      2.5195     36.6347     96.2494    -14.8931      3.2626      3.1539      4.2651 
  7261.5000     17.3776    106.1320      0.0636      2.5117     35.4677     97.4737    -14.9580      3.2626      3.1539      4.3284 
  7262.0000     17.3885    105.9445      0.0544      2.5257     34.1774     95.9880    -14.8077      3.2626      3.1539      4.4559 
  7262.5000     17.3985    107.0400      0.0273      2.5166     33.7388     94.4700    -14.6721      3.2626      3.1539      4.5380 
  7263.0000     17.2173    109.2880      0.0098      2.5130     34.8940     92.9220    -14.7737      3.2337      3.1184      4.3304 
  7263.5000     17.1212    111.6691      0.0056      2.5022     36.5055     94.1203    -14.8423      3.1782      3.0649      4.2325 
  7264.0000     17.2243    114.4622      0.0245      2.5316     38.1171     94.9939    -14.7349      3.1329      3.0256      4.2067 
  7264.5000     16.7048    115.2867      0.0385      2.5236     38.9786     96.3126    -14.5501      3.0954      2.9858      4.1683 
  7265.0000     16.8513    115.3383      0.0228      2.5063     39.2163     99.0197    -14.5582      3.0212      2.9064      4.2009 
  7265.5000     16.9320    114.9343      0.0329      2.4970     39.3901     98.1458    -14.7181      2.9506      2.8406      4.1130 
  7266.0000     16.7613    114.5046      0.0396      2.4861     38.8201     97.6675    -14.6930      2.9104      2.8133      3.9772 
  7266.5000     16.9222    114.2045      0.0190      2.4894     37.5641     98.4772    -14.4493      2.9032      2.8063      3.8052 
  7267.0000     16.8498    113.8582      0.0407      2.5026     36.6889     99.1030    -14.5367      2.8956      2.7983      3.7167 
  7267.5000     16.7237    113.5605      0.0545      2.5054     36.3260    100.2051    -14.6469      2.8791      2.7824      3.7714 
  7268.0000     16.5127    112.3974      0.0469      2.4961     36.4175    101.1332    -14.5516      2.9026      2.7980      3.8935 
  7268.5000     16.4682    111.0063      0.0334      2.4811     36.5184    100.1115    -14.3454      2.9769      2.8639      4.0287 
  7269.0000     16.5543    109.8295      0.0444      2.4933     36.4263     98.6907    -14.4223      3.0475      2.9306      4.1873 
  7269.5000     16.7673    109.2980      0.0299      2.4942     36.2415     97.5081    -14.6140      3.1306      3.0103      4.4155 
  7270.0000     16.4209    108.5363      0.0402      2.5042     35.9390     95.6425    -15.5489      3.1887      3.0743      4.5636 
  7270.5000     16.4023    107.5512      0.0601      2.5366     35.0002     93.0569    -15.3278      3.2479      3.1313      4.6141 
  7271.0000     16.5478    106.5513      0.0500      2.5528     34.0353     92.4696    -15.4938      3.3222      3.1975      4.5115 
  7271.5000     16.5674    105.4790      0.0692      2.5667     33.5883     92.1014    -15.5448      3.3378      3.2261      4.4245 
  7272.0000     16.5974    103.4283      0.0681      2.5486     33.8615     91.4462    -15.5791      3.3477      3.2361      4.3570 
  7272.5000     16.6457    101.4774      0.0537      2.5296     35.0657     92.8918    -15.7921      3.3589      3.2443      4.3156 
  7273.0000     16.8149    100.3519      0.0694      2.5306     36.2897     92.6880    -15.6726      3.3697      3.2573      4.3051 
  7273.5000     16.6606     99.4460      0.0529      2.5269     37.5415     92.4825    -15.4618      3.3748      3.2618      4.3998 
  7274.0000     16.7735     98.9416      0.0443      2.5182     37.7726     92.6747    -15.4939      3.3859      3.2703      4.4482 
  7274.5000     16.7434     98.9014      0.0352      2.5116     37.5115     92.9491    -15.5393      3.4373      3.3165      4.4439 
  7275.0000     16.6334     99.4910      0.0533      2.5073     36.9426     92.7852    -15.2424      3.4895      3.3669      4.3873 
  7275.5000     16.6259    100.6274      0.0379      2.4987     36.4387     93.3596    -15.0052      3.5425      3.4180      4.3344 
  7276.0000     16.6660    102.0538      0.0249      2.5235     35.0437     94.3834    -14.9656      3.5817      3.4619      4.4612 
  7276.5000     16.6302    102.8848      0.0680      2.5420     32.9897     93.7094    -14.9211      3.5937      3.4735      4.6905 
  7277.0000     16.3694    103.4130      0.0547      2.5278     32.1011     93.0905    -14.8649      3.5716      3.4421      4.9804 
  7277.5000     16.1011    103.7757      0.0584      2.5294     32.9942     91.6644    -14.7817      3.5016      3.3747      4.8519 
  7278.0000     16.2304    104.9233      0.0652      2.5479     34.4897     90.5971    -14.9071      3.4329      3.3085      4.5892 
  7278.5000     16.3554    106.2075      0.0608      2.5416     36.3818     90.3220    -15.2185      3.3653      3.2427      4.3892 
  7279.0000     16.4076    107.5325      0.0643      2.5311     37.5958     91.6668    -15.5146      3.2369      3.0752      4.2873 
  7279.5000     16.5681    109.1914      0.0568      2.5210     38.6171     92.9609    -15.6803      3.1152      3.0043      4.0868 
  7280.0000     16.5349    110.7208      0.0537      2.5090     39.8863     94.1650    -15.8680      3.0239      2.8941      3.8812 
  7280.5000     16.5985    112.7608      0.0590      2.5075     40.7972     96.9879    -16.0072      2.9212      2.8123      3.6720 
  7281.0000     16.6884    113.6757      0.0670      2.5059     41.3355     99.1160    -16.0237      2.8526      2.7435      3.6023 
  7281.5000     16.6624    113.9899      0.0684      2.5064     40.7358    101.0781    -16.0784      2.7796      2.6732      3.6559 
  7282.0000     16.6245    114.4491      0.0598      2.5139     40.2589    101.2753    -16.0785      2.7445      2.6521      3.7496 
  7282.5000     16.6010    114.6262      0.0593      2.5202     40.5745    100.4437    -15.9550      2.7276      2.6362      3.8203 
  7283.0000     16.8091    113.6809      0.0723      2.5235     40.8260    100.0447    -15.9159      2.7195      2.6229      3.8226 
