~VERSION INFORMATION
 VERS.                           2.00:        CWLS LOG ASCII STANDARD - VERSION 2.00
 WRAP.                             NO:        ONE LINE PER DEPTH STEP
~WELL INFORMATION
#MNEM.UNIT                   DATA             INFORMATION
#----------             --------------        ------------------------------
 STRT.F                      112.0000:        START DEPTH
 STOP.F                    10176.0000:        STOP DEPTH
 STEP.F                        0.5000:        STEP VALUE
 NULL.                      -999.2500:        NULL VALUE
 COMP.                      HUSKY OIL:        COMPANY  
 LOC .                   36  11N   4W:        LOCATION   
 DATE.                        2/16/81:        LOG DATE 
 WELL.            NORTH INIGOK TEST 1:        WELL     
 UWI .                   501032001700:        UNIQUE WELL ID 
 API .                   501032001700:        UNIQUE WELL IDENTIFIER 
 FLD .                        WILDCAT:        FIELD    
 CNTY.                    NORTH SLOPE:        COUNTY  
 STAT.                         ALASKA:        STATE   
 CTRY.                            USA:        COUNTRY 
 OPER.                      HUSKY OIL:        OPERATOR  
 SRVC.                            440:        SERVICE COMPANY 
 LAT .                         0.0000:        LATITUDE
 LON .                         0.0000:        LONGITUDE
 DIGS.                             65:        DIGITIZING COMPANY 
~CURVE INFORMATION      
#MNEM.UNIT                 API CODE           CURVE DESCRIPTION
#---------              --------------        ------------------------------
 DEPT.F                              :        1  DEPTH
 SP  .MV                             :        2
 SFL .OHMM                           :        3
 ILD .OHMM                           :        4
 ILM .OHMM                           :        5
 NPHI.%                              :        6
 CALI.IN                             :        7
 GR  .GAPI                           :        8
 RHOB.G/C3                           :        9
 DRHO.G/C3                           :       10
 DT  .US/F                           :       11
~PARAMETER INFORMATION       
#MNEM.UNIT                  VALUE             DESCRIPTION OF MNEMONIC
#---------             ---------------        ------------------------------
 EKB .F                      166.0000:        KELLY BUSHING
 TD  .F                    10167.0000:        TOTAL DEPTH
~OTHER INFORMATION
~A    DEPTH          SP         SFL         ILD         ILM        NPHI        CALI          GR        RHOB        DRHO          DT  
# ...
  8122.0000    -43.8672      2.2741      1.7551      1.7979     44.9638     12.7430    100.0819      2.4297      0.0901    100.6192  
  8122.5000    -43.7623      2.3233      1.7656      1.8087     45.1843     12.7364    102.2879      2.4344      0.0835    101.1343  
  8123.0000    -43.5148      2.3988      1.7726      1.8159     45.6389     12.6866    100.9938      2.4314      0.0648    101.8046  
  8123.5000    -43.1976      2.4355      1.7797      1.8231     44.6238     12.6868     99.9555      2.4266      0.0447    102.2017  
  8124.0000    -42.8252      2.4238      1.7868      1.8304     43.3161     12.7201    101.4398      2.4251      0.0424    101.4728  
  8124.5000    -42.4341      2.4001      1.7939      1.8377     42.2149     12.7427    103.8184      2.4392      0.0562    100.3982  
  8125.0000    -42.0452      2.3811      1.8010      1.8450     42.1711     12.7332    104.7835      2.4508      0.0639     99.6330  
  8125.5000    -41.8103      2.3413      1.8061      1.8500     42.8178     12.7381    104.9817      2.4411      0.0551     99.0485  
  8126.0000    -41.7670      2.3042      1.8106      1.8547     43.2127     12.7291    103.4975      2.4306      0.0465     99.5024  
  8126.5000    -41.7179      2.3139      1.8151      1.8593     43.2097     12.7092    101.4068      2.4320      0.0398     99.5861  
  8127.0000    -41.6689      2.3773      1.8196      1.8639     42.6164     12.7092     99.9641      2.4379      0.0373     98.8284  
  8127.5000    -41.7373      2.4311      1.8241      1.8685     42.0094     12.7284     98.5235      2.4127      0.0157     98.3031  
  8128.0000    -41.7319      2.4560      1.8287      1.8732     42.2269     12.7480     98.3440      2.4075      0.0137     97.6096  
  8128.5000    -41.7374      2.4746      1.8332      1.8779     41.8330     12.7672    100.0742      2.4066      0.0201     97.0485  
  8129.0000    -41.7176      2.4786      1.8382      1.8830     40.8469     12.7894    100.1808      2.4223      0.0409     96.7634  
  8129.5000    -41.6882      2.4937      1.8451      1.8901     39.6302     12.8187    101.0115      2.4393      0.0580     95.9118  
  8130.0000    -41.8725      2.4171      1.8497      1.8948     39.4318     12.8178    101.0967      2.4404      0.0591     95.8576  
  8130.5000    -41.5920      2.3236      1.8426      1.8876     39.9998     12.8105    100.2786      2.4286      0.0608     97.3429  
  8131.0000    -41.4429      2.2970      1.8356      1.8804     40.3102     12.7703     98.7264      2.4540      0.0736     97.5075  
  8131.5000    -41.4540      2.3135      1.8286      1.8732     41.4213     12.7419     96.4030      2.4638      0.0515     97.6040  
  8132.0000    -41.8130      2.2596      1.8091      1.8549     42.7517     12.6375     94.1010      2.4844      0.0106     97.1826  
  8132.5000    -42.5429      2.1972      1.7850      1.8303     43.1130     12.5244     97.2421      2.5208      0.0269     96.0353  
  8133.0000    -43.3772      2.3127      1.7613      1.8060     42.0939     12.6130    100.5760      2.5683      0.0723     93.5178  
  8133.5000    -44.0932      2.7447      1.7471      1.7901     40.9898     12.6522    104.5683      2.5020      0.0884     90.1480  
  8134.0000    -44.8726      3.0509      1.7363      1.7789     40.7401     12.6307    107.0684      2.4236      0.0818     89.0613  
  8134.5000    -45.2599      2.6936      1.7444      1.7870     41.0571     12.6272    105.5598      2.4083      0.0655     89.0887  
  8135.0000    -45.2963      2.2639      1.7671      1.8125     41.1223     12.6532    102.8412      2.4405      0.0752     94.7348  
  8135.5000    -45.1439      2.1107      1.7946      1.8407     40.1480     12.5916    100.5094      2.4684      0.0886     98.4793  
  8136.0000    -45.0297      2.0393      1.8225      1.8704     39.4593     12.4893    100.4324      2.5006      0.0752     98.4031  
  8136.5000    -44.9997      2.0718      1.8584      1.9076     40.4156     12.5065     99.8961      2.5156      0.0484     97.8609  
  8137.0000    -44.9782      2.2034      1.8954      1.9456     40.4306     12.5082     98.1987      2.5365      0.0224     95.5670  
  8137.5000    -44.8638      2.4745      1.9331      1.9843     39.3132     12.5667     99.2396      2.5795      0.0381     92.8046  
  8138.0000    -44.7753      2.8403      1.9706      2.0219     39.1257     12.6343    100.4294      2.5475      0.1020     88.2457  
  8138.5000    -44.7415      3.6053      2.0009      2.0503     39.5343     12.7288    102.5717      2.4626      0.0755     85.5067  
  8139.0000    -44.7655      3.4874      2.0132      2.0623     40.1764     12.7538    103.0674      2.4518      0.0720     85.5451  
  8139.5000    -44.5675      2.8848      2.0080      2.0570     40.4138     12.7608    104.5265      2.4324      0.0411     87.9582  
  8140.0000    -44.1692      2.3568      2.0029      2.0517     39.7270     12.7637    106.2160      2.4191      0.0435     94.3327  
  8140.5000    -43.6204      2.3142      1.9852      2.0367     40.1158     12.8769    105.9398      2.4234      0.0581     96.4844  
  8141.0000    -43.1919      2.4237      1.9514      2.0020     41.3149     12.8951    104.7740      2.4288      0.0810     95.9102  
  8141.5000    -42.7040      2.4820      1.9054      1.9558     41.8995     12.7528    101.9636      2.4392      0.0992     94.7577  
  8142.0000    -42.4598      2.4045      1.9345      1.9835     41.2925     12.6672     97.6547      2.4384      0.1004     94.8754  
  8142.5000    -42.3753      2.3205      1.9735      2.0429     39.7166     12.6031     91.4783      2.4256      0.0715     96.1278  
  8143.0000    -42.3243      2.2686      2.0995      2.1898     38.6909     12.4847     87.1689      2.4373      0.0649     95.7461  
  8143.5000    -42.5528      2.3250      2.2443      2.3409     37.9366     12.4801     82.3670      2.4854      0.0368     94.8560  
  8144.0000    -43.1659      2.5612      2.3990      2.5000     36.0896     12.5027     80.6021      2.5030      0.0141     92.3950  
  8144.5000    -43.7881      2.9232      2.4660      2.5277     34.8500     12.5204     83.5537      2.5285      0.0177     88.3441  
  8145.0000    -44.0933      4.1040      2.4934      2.5556     34.6948     12.7048     88.2526      2.5712      0.0828     83.6783  
  8145.5000    -44.0128      5.8209      2.5240      2.5875     35.3460     12.8958     91.1032      2.5022      0.0938     79.2909  
  8146.0000    -43.6476      4.5655      2.5382      2.6008     36.7285     12.8936     87.7444      2.4405      0.0814     78.7560  
  8146.5000    -43.0994      3.1329      2.5153      2.5815     37.9299     12.8821     89.6722      2.4342      0.0767     81.4055  
  8147.0000    -42.7276      2.4738      2.3845      2.4854     37.5420     12.9074     88.7267      2.4358      0.0771     86.1294  
  8147.5000    -42.2459      2.3561      2.2401      2.3193     38.3360     12.9443     87.9999      2.4553      0.0933     89.1380  
  8148.0000    -41.8839      2.3130      2.1531      2.2105     39.4707     12.7969     87.2751      2.4397      0.0804     88.4920  
  8148.5000    -41.7277      2.2709      2.1210      2.1726     38.9913     12.6164     86.6641      2.4137      0.0462     88.4003  
  8149.0000    -41.7887      2.3327      2.1166      2.1687     37.0994     12.5616     87.1001      2.4449      0.0186     88.2523  
  8149.5000    -41.9687      2.4973      2.1466      2.2014     34.4427     12.5162     87.1156      2.4772      0.0486     87.9923  
  8150.0000    -42.2582      2.9198      2.1790      2.2346     34.3820     12.5303     87.1311      2.4915      0.0709     86.7016  
  8150.5000    -42.5712      3.0921      2.2104      2.2659     34.8013     12.5918     87.0980      2.4710      0.0593     84.5917  
  8151.0000    -42.6863      2.9599      2.2377      2.2940     34.6228     12.6091     87.0922      2.4896      0.0816     84.1665  
  8151.5000    -42.7565      2.7536      2.2654      2.3224     34.3710     12.6007     87.4014      2.4625      0.0627     84.2398  
