~VERSION INFORMATION
 VERS.                           2.00:        CWLS LOG ASCII STANDARD - VERSION 2.00
 WRAP.                             NO:        ONE LINE PER DEPTH STEP
~WELL INFORMATION
#MNEM.UNIT                   DATA             INFORMATION
#----------             --------------        ------------------------------
 STRT.F                      116.0000:        START DEPTH
 STOP.F                     8861.0000:        STOP DEPTH
 STEP.F                        0.5000:        STEP VALUE
 NULL.                      -999.2500:        NULL VALUE
 COMP.                     U.S. NAAVY:        COMPANY
 LOC .                 [33^13 17N 2W:        LOCATION
 DATE.                        3/30/77:        LOG DATE
 WELL.                    WT FORAN #1:        WELL
 UWI .                   501032001000:        UNIQUE WELL ID
 API .                   501032001000:        UNIQUE WELL IDENTIFIER
 FLD .                        WILDCAT:        FIELD
 CNTY.                    NORTH SLOPE:        COUNTY
 STAT.                         ALASKA:        STATE
 CTRY.                            USA:        COUNTRY
 OPER.                     U.S. NAAVY:        OPERATOR
 SRVC.                   SCHLUMBERGER:        SERVICE COMPANY
 LAT .                         0.0000:        LATITUDE
 LON .                         0.0000:        LONGITUDE
 DIGS.               CENTER LINE DATA:        DIGITIZING COMPANY
~CURVE INFORMATION      
#MNEM        .UNIT         API CODE           CURVE DESCRIPTION
#-----------------      --------------        ------------------------------
 DEPT        .F                      :        1  DEPTH
 CALI        .IN                     :        2  
 GR          .GAPI                   :        3  
 DRHO        .G/C3                   :        4  
 RHOB        .G/C3                   :        5  
 NPHI        .%                      :        6  
 DT          .US/F                   :        7  
 SP          .MV                     :        8  
 ILD         .OHMM                   :        9  
 ILM         .OHMM                   :        10 
 LL8         .OHMM                   :        11 
~PARAMETER INFORMATION
#MNEM.UNIT                  VALUE             DESCRIPTION OF MNEMONIC
#---------             ---------------        ------------------------------
 EKB .F                       39.0000:        KELLY BUSHING
 TD  .F                     8864.0000:        TOTAL DEPTH
 BHT .F                      152.0000:        BOTTOM HOLE TEMPERATURE
 BS  .                        14.2500:        BIT SIZE
 FD  .                        10.2000:        FLUID DENSITY
 CSIZ.                        16.0000:        CASING SIZE
 CBD .F                     1458.0000:        CASING DRILLER 1
 CBL .F                        0.0000:        CASING LOGGER 1
 DFT .                  MISCELLANEOUS:        TYPE FLUID IN HOLE
 DFV .                        45.0000:        VISCOSITY
 DFPH.                        10.5000:        PH
 DFL .                         5.5000:        FLUID LOSS
 RMS .                         2.4000:        RM
 MST .F                       54.0000:        RM MEAS. TEMP.
 RMF .                         2.3000:        RMF
 MFST.F                       56.0000:        RMF MEAS. TEMP.
 RMC .                         2.7000:        RMC
 MCST.F                       54.0000:        RMC MEAS. TEMP.
~OTHER INFORMATION
~A    DEPTH        CALI          GR        DRHO        RHOB        NPHI          DT          SP         ILD         ILM         LL8 
# ...
  1061.5000   -999.2500    164.0779   -999.2500   -999.2500   -999.2500    137.6714    -66.3630      8.4806      6.3943      7.6682 
  1062.0000   -999.2500    164.3459   -999.2500   -999.2500   -999.2500    141.1504    -65.3437      7.3578      5.5467      7.0468 
  1062.5000   -999.2500    164.4459   -999.2500   -999.2500   -999.2500    145.5813    -64.0606      6.3836      4.8130      6.2530 
  1063.0000   -999.2500    164.5618   -999.2500   -999.2500   -999.2500    149.9286    -63.1561      5.8343      4.2942      5.7191 
  1063.5000   -999.2500    164.9444   -999.2500   -999.2500   -999.2500    179.8505    -62.7665      5.3459      3.9377      5.2549 
  1064.0000   -999.2500    164.6717   -999.2500   -999.2500   -999.2500    157.3031    -63.0838      5.1230      3.8035      4.9420 
  1064.5000   -999.2500    164.4451   -999.2500   -999.2500   -999.2500   -999.2500    -63.8066      5.0471      3.8027      4.9593 
  1065.0000   -999.2500    164.4565   -999.2500   -999.2500   -999.2500   -999.2500    -64.1692      5.0264      3.8524      5.0059 
  1065.5000   -999.2500    163.3896   -999.2500   -999.2500   -999.2500   -999.2500    -64.0536      5.0991      3.9152      5.0456 
  1066.0000   -999.2500    163.3576   -999.2500   -999.2500   -999.2500   -999.2500    -63.7426      5.1925      3.8956      5.0424 
  1066.5000   -999.2500    163.4050   -999.2500   -999.2500   -999.2500   -999.2500    -63.5382      5.2757      3.9604      5.0192 
  1067.0000   -999.2500    163.6206   -999.2500   -999.2500   -999.2500   -999.2500    -63.6359      5.3602      4.0262      4.9855 
  1067.5000   -999.2500    163.7875   -999.2500   -999.2500   -999.2500    199.2599    -63.7573      5.4461      4.0435      4.9521 
  1068.0000   -999.2500    164.0296   -999.2500   -999.2500   -999.2500    199.2136    -63.8556      5.3224      3.9843      4.9366 
  1068.5000   -999.2500    164.2668   -999.2500   -999.2500   -999.2500    199.2042    -63.9718      5.1749      3.9166      4.9342 
  1069.0000   -999.2500    163.5321   -999.2500   -999.2500   -999.2500    199.6990    -63.8731      4.9850      3.8500      4.7607 
  1069.5000   -999.2500    151.0478   -999.2500   -999.2500   -999.2500    200.8987    -63.6980      4.7078      3.6777      4.5437 
  1070.0000   -999.2500     84.0593   -999.2500   -999.2500   -999.2500    201.7592    -63.2376      4.4461      3.4753      4.3171 
  1070.5000   -999.2500     58.5183   -999.2500   -999.2500   -999.2500    199.0589    -62.8021      4.1556      3.2742      4.1089 
  1071.0000   -999.2500     57.5220   -999.2500   -999.2500   -999.2500    168.6352    -62.4490      3.7753      3.0681      3.9261 
  1071.5000   -999.2500     57.3602   -999.2500   -999.2500   -999.2500    197.9600    -62.0290      3.4297      2.8453      3.7514 
  1072.0000   -999.2500     57.6274   -999.2500   -999.2500   -999.2500    198.3725    -61.4863      3.1270      2.6386      3.5845 
  1072.5000   -999.2500     58.1201   -999.2500   -999.2500   -999.2500    199.6078    -61.1887      2.7666      2.4480      3.4274 
  1073.0000   -999.2500     58.2612   -999.2500   -999.2500   -999.2500    200.7302    -61.1396      2.5337      2.2780      3.3024 
  1073.5000   -999.2500     58.1204   -999.2500   -999.2500   -999.2500    201.3491    -61.3024      2.4000      2.1127      3.2025 
  1074.0000   -999.2500     57.8675   -999.2500   -999.2500   -999.2500    196.2993    -61.7032      2.2910      2.0060      3.1119 
  1074.5000   -999.2500     57.1210   -999.2500   -999.2500   -999.2500    195.6414    -62.3094      2.2076      1.9071      3.0239 
  1075.0000   -999.2500     55.6696   -999.2500   -999.2500   -999.2500    193.9130    -62.6774      2.2066      1.8662      2.9661 
  1075.5000   -999.2500     53.7653   -999.2500   -999.2500   -999.2500    190.6366    -62.9728      2.2458      1.8927      2.9626 
  1076.0000   -999.2500     51.8657   -999.2500   -999.2500   -999.2500    187.9538    -63.9215      2.3750      1.9909      3.0353 
  1076.5000   -999.2500     50.3818   -999.2500   -999.2500   -999.2500    186.6013    -65.6660      2.5641      2.1505      3.1098 
  1077.0000   -999.2500     50.2915   -999.2500   -999.2500   -999.2500    186.7640    -67.0785      2.7428      2.3566      3.2946 
  1077.5000   -999.2500     49.8697   -999.2500   -999.2500   -999.2500    188.2953    -67.7776      3.0264      2.6045      3.6589 
  1078.0000   -999.2500     48.8053   -999.2500   -999.2500   -999.2500    189.7906    -67.6918      3.3078      2.7663      3.8828 
  1078.5000   -999.2500     48.6383   -999.2500   -999.2500   -999.2500    190.7030    -66.6001      3.5505      2.9092      4.0836 
  1079.0000   -999.2500     49.0315   -999.2500   -999.2500   -999.2500    191.0435    -64.8990      3.7585      3.0594      4.1330 
  1079.5000   -999.2500     50.3067   -999.2500   -999.2500   -999.2500    190.0273    -63.1956      3.9635      3.1420      4.1311 
  1080.0000   -999.2500     51.9526   -999.2500   -999.2500   -999.2500    188.3833    -64.0965      4.1797      3.2203      4.2651 
  1080.5000   -999.2500     53.4328   -999.2500   -999.2500   -999.2500    188.3941    -65.6962      4.4077      3.2928      4.4147 
  1081.0000   -999.2500     54.5567   -999.2500   -999.2500   -999.2500    193.9658    -67.0534      4.6625      3.4369      4.6489 
  1081.5000   -999.2500     54.7734   -999.2500   -999.2500   -999.2500    191.6242    -67.8689      4.9921      3.6451      4.9111 
  1082.0000   -999.2500     54.3557   -999.2500   -999.2500   -999.2500    190.6198    -68.6705      5.4581      3.8959      5.2101 
  1082.5000   -999.2500     53.9059   -999.2500   -999.2500   -999.2500    189.8323    -69.1161      5.9785      4.3737      5.6834 
  1083.0000   -999.2500     52.9611   -999.2500   -999.2500   -999.2500    189.8405    -69.7477      6.5168      4.8035      6.0441 
  1083.5000   -999.2500     50.5335   -999.2500   -999.2500   -999.2500    192.0092    -70.2573      7.0390      5.2196      6.1298 
  1084.0000   -999.2500     49.4861   -999.2500   -999.2500   -999.2500    148.9828    -70.6028      7.5445      5.4580      6.1774 
  1084.5000   -999.2500     48.6583   -999.2500   -999.2500   -999.2500    146.6498    -70.7439      8.0116      5.6194      6.2193 
  1085.0000   -999.2500     48.7600   -999.2500   -999.2500   -999.2500    145.0371    -70.9784      8.0697      5.6448      6.2246 
  1085.5000   -999.2500     48.9781   -999.2500   -999.2500   -999.2500    146.0372    -71.2232      8.0280      5.6214      6.2254 
  1086.0000   -999.2500     48.4495   -999.2500   -999.2500   -999.2500    146.4344    -71.5742      7.7616      5.5560      6.1859 
  1086.5000   -999.2500     47.3526   -999.2500   -999.2500   -999.2500    149.5998    -71.6601      7.7870      5.4513      6.0932 
  1087.0000   -999.2500     46.3306   -999.2500   -999.2500   -999.2500   -999.2500    -71.7746      7.6764      5.3748      5.9914 
  1087.5000   -999.2500     45.8848   -999.2500   -999.2500   -999.2500   -999.2500    -71.7355      7.5625      5.3247      5.8618 
  1088.0000   -999.2500     46.9913   -999.2500   -999.2500   -999.2500   -999.2500    -71.4611      7.4218      5.2722      5.7349 
  1088.5000   -999.2500     48.5977   -999.2500   -999.2500   -999.2500   -999.2500    -71.0021      7.2337      5.1913      5.6109 
  1089.0000   -999.2500     48.6554   -999.2500   -999.2500   -999.2500   -999.2500    -70.5397      6.9065      5.1153      5.3663 
  1089.5000   -999.2500     47.4626   -999.2500   -999.2500   -999.2500   -999.2500    -69.6284      6.5829      5.0404      5.1632 
  1090.0000   -999.2500     45.6833   -999.2500   -999.2500   -999.2500   -999.2500    -68.2342      6.4076      4.8861      4.9868 
  1090.5000   -999.2500     45.8200   -999.2500   -999.2500   -999.2500   -999.2500    -66.5846      6.0577      4.7333      4.8242 
  1091.0000   -999.2500     45.9049   -999.2500   -999.2500   -999.2500   -999.2500    -64.9310      5.6210      4.4674      4.6343 
  1091.5000   -999.2500     46.2602   -999.2500   -999.2500   -999.2500   -999.2500    -63.3409      5.0324      4.2041      4.4106 
