~VERSION INFORMATION
 VERS.                      2.00:        CWLS LOG ASCII STANDARD - VERSION 2.00
 WRAP.                        NO:        ONE LINE PER DEPTH STEP
~WELL INFORMATION
#MNEM.UNIT               DATA            INFORMATION
#----------          ------------        ------------------------------
 STRT.F                 438.0000:        START DEPTH
 STOP.F               11532.0000:        STOP DEPTH
 STEP.F                   0.5000:        STEP VALUE
 NULL.                 -999.2500:        NULL VALUE
 COMP.      HUSKY-NPR OPERATIONS:        COMPANY  
 WELL.          ATIGARU POINT #1:        WELL     
 FLD .                   WILDCAT:        FIELD    
 LOC .              19  14N   2E:        LOCATION   
 CNTY.               NORTH SLOPE:        COUNTY  
 STAT.                     ALSKA:        STATE   
 CTRY.                       USA:        COUNTRY 
 DATE.                    1/ /77:        LOG DATE 
 API .              501032000800:        UNIQUE WELL IDENTIFIER 
 OPER.      HUSKY-NPR OPERATIONS:        OPERATOR  
 SRVC.              Schlumberger:        SERVICE COMPANY 
 UWI .              501032000800:        UNIQUE WELL ID 
 LAT .                    0.0000:        LATITUDE
 LON .                    0.0000:        LONGITUDE
 DIGS.          Center Line Data:        DIGITIZING COMPANY 
~CURVE INFORMATION      
#MNEM.UNIT            API CODE           CURVE DESCRIPTION
#---------          -------------        ------------------------------
 DEPT.F                         :        1  DEPTH
 SP  .MV                        :        2
 ILD .OHMM                      :        3
 ILM .OHMM                      :        4
 LL8 .OHMM                      :        5
 CALI.IN                        :        6
 GR  .GAPI                      :        7
 DRHO.G/C3                      :        8
 RHOB.G/C3                      :        9
 NPHI.%                         :       10
 DT  .US/F                      :       11
~PARAMETER INFORMATION       
#MNEM.UNIT              VALUE            DESCRIPTION OF MNEMONIC
#---------          -------------        ------------------------------
 EKB .F                  25.0000:        KELLY BUSHING
 TD  .F               11534.0000:        TOTAL DEPTH
 BHT .F                   0.0000:        BOTTOM HOLE TEMPERATURE
 BS  .                   17.5000:        BIT SIZE
 FD  .                    9.3000:        FLUID DENSITY
 CSIZ.                   20.0000:        CASING SIZE
 CBD .F                 447.0000:        CASING DRILLER 1
 CBL .F                 443.0000:        CASING LOGGER 1
 DFT .                       Gel:        TYPE FLUID IN HOLE
 DFV .                   47.0000:        VISCOSITY
 DFPH.                   14.6000:        PH
 DFL .                    8.0000:        FLUID LOSS
 RMS .                    1.9300:        RM
 MST .F                  63.0000:        RM MEAS. TEMP.
 RMF .                    1.6900:        RMF
 MFST.F                  52.0000:        RMF MEAS. TEMP.
 RMC .                    1.6500:        RMC
 MCST.F                  60.0000:        RMC MEAS. TEMP.
 UWI .              501032000800:        UNIQUE WELL ID
~OTHER INFORMATION
~A    DEPTH          SP         ILD         ILM         LL8        CALI          GR        DRHO        RHOB        NPHI          DT  
# ...
  2658.0000    -27.2772      2.1368      1.9021      1.8993     14.5439     71.3465      0.0457      2.2178     47.4790    141.5013  
  2658.5000    -27.3689      2.1938      1.9218      1.9208     14.4882     71.8145      0.0386      2.2029     48.0956    139.8920  
  2659.0000    -27.7534      2.2524      1.9417      1.9424     14.6177     71.5307      0.0363      2.1912     48.7620    135.5660  
  2659.5000    -28.0111      2.3125      1.9618      1.9644     14.7259     70.7439      0.0452      2.1926     48.0754    132.6804  
  2660.0000    -28.0299      2.3389      1.9821      1.9865     14.4347     69.6617      0.0467      2.1953     47.7191    132.1537  
  2660.5000    -28.0487      2.3398      2.0027      2.0090     14.2015     68.8286      0.0363      2.1928     47.9005    137.2874  
  2661.0000    -27.7865      2.3407      2.0234      2.0239     14.5989     68.4406      0.0496      2.2061     48.0819    141.8865  
  2661.5000    -27.3305      2.3416      2.0334      2.0339     15.0097     67.6334      0.0679      2.2255     47.8687    142.7304  
  2662.0000    -27.8624      2.3425      2.0338      2.0439     14.6261     65.9874      0.0629      2.2168     47.4618    140.5597  
  2662.5000    -29.5512      2.3435      2.0341      2.0540     14.3300     64.3723      0.0584      2.2100     48.4444    134.7949  
  2663.0000    -33.2011      2.3444      2.0344      2.0641     14.2489     63.7627      0.0608      2.2007     49.3196    129.5714  
  2663.5000    -34.4870      2.3453      2.0347      2.0743     14.1752     64.6934      0.0540      2.1854     50.1298    130.3558  
  2664.0000    -35.1516      2.3462      2.0284      2.0846     14.1585     68.1062      0.0539      2.1853     50.0883    132.7591  
  2664.5000    -35.7962      2.3464      2.0123      2.0780     14.2158     69.9228      0.0712      2.1978     48.4779    133.8982  
  2665.0000    -36.1143      2.3277      1.9964      2.0542     14.1750     69.6045      0.0796      2.2050     47.0445    131.1611  
  2665.5000    -36.0106      2.3092      1.9805      2.0306     14.4599     68.9644      0.0702      2.2122     47.0423    129.6129  
  2666.0000    -35.6106      2.2908      1.9648      2.0073     14.7948     69.1812      0.0530      2.2225     48.0744    127.9538  
  2666.5000    -35.5427      2.2725      1.9492      1.9843     14.9446     69.7482      0.0563      2.2342     48.9654    128.7501  
  2667.0000    -35.8088      2.2544      1.9337      1.9616     14.9024     70.3777      0.0548      2.2343     48.8561    130.3347  
  2667.5000    -35.9994      2.2365      1.9184      1.9601     14.7140     70.7062      0.0599      2.2299     48.0654    132.2057  
  2668.0000    -35.7767      2.2187      1.9031      1.9630     14.5005     69.8868      0.0540      2.2131     47.8342    132.0586  
  2668.5000    -35.5500      2.2010      1.8882      1.9658     14.4422     68.9935      0.0659      2.2093     48.0203    128.3990  
  2669.0000    -35.3503      2.1835      1.8911      1.9687     14.7388     68.7127      0.0499      2.1898     48.3342    127.1459  
  2669.5000    -35.3513      2.1756      1.8940      1.9715     14.8487     68.2819      0.0388      2.1865     48.7417    127.6412  
  2670.0000    -35.1739      2.1811      1.8968      1.9744     14.6111     68.0261      0.0291      2.1918     47.8954    126.2149  
  2670.5000    -35.0772      2.1867      1.8997      1.9772     14.4131     68.0174      0.0137      2.1751     47.0255    130.1508  
  2671.0000    -34.9649      2.1923      1.9026      1.9801     14.3776     68.0662      0.0086      2.1699     46.3353    130.3571  
  2671.5000    -34.9068      2.1978      1.9055      1.9830     14.3960     67.7541      0.0136      2.1746     46.9731    127.9489  
  2672.0000    -34.7179      2.2034      1.9084      1.9858     14.5186     67.4211      0.0290      2.1906     47.9086    129.8131  
  2672.5000    -34.4631      2.2090      1.9112      1.9867     14.6267     67.0091      0.0431      2.2018     48.6977    129.0397  
  2673.0000    -34.5134      2.2147      1.9141      1.9872     14.6929     66.8775      0.0473      2.2091     48.9078    129.3689  
  2673.5000    -34.7252      2.2203      1.9170      1.9877     14.9619     67.1248      0.0370      2.2067     48.0716    132.1430  
  2674.0000    -34.7753      2.2259      1.9199      1.9882     14.8417     67.4439      0.0274      2.2043     46.9874    130.9100  
  2674.5000    -34.5995      2.2316      1.9229      1.9887     14.7463     67.5348      0.0403      2.2136     46.8753    130.0043  
  2675.0000    -34.3529      2.2373      1.9258      1.9892     14.9876     66.5825      0.0500      2.2265     47.5884    130.5221  
  2675.5000    -34.1795      2.2430      1.9287      1.9898     14.7823     65.7409      0.0480      2.2183     48.4877    129.7079  
  2676.0000    -34.3068      2.2487      1.9316      1.9903     14.7987     66.3261      0.0520      2.2183     49.3310    131.0517  
  2676.5000    -34.6990      2.2544      1.9345      1.9908     14.7499     67.3090      0.0462      2.2128     49.2004    132.9462  
  2677.0000    -35.3095      2.2601      1.9375      1.9913     14.8771     67.7277      0.0385      2.2054     48.7204    131.3575  
  2677.5000    -36.0073      2.2659      1.9404      1.9918     14.9440     67.8205      0.0316      2.1952     48.8674    128.6122  
  2678.0000    -36.5084      2.2716      1.9469      1.9923     14.8454     67.9806      0.0226      2.1711     50.3557    130.2487  
  2678.5000    -36.7123      2.2779      1.9714      1.9929     15.1042     67.6113      0.0224      2.1771     51.3575    130.4717  
  2679.0000    -36.5114      2.2926      1.9963      2.0135     14.9923     67.3812      0.0281      2.1870     50.2540    129.5581  
  2679.5000    -36.2843      2.3074      2.0214      2.0393     14.8756     67.7655      0.0457      2.1941     48.9786    130.6767  
  2680.0000    -36.1034      2.3223      2.0469      2.0655     14.7223     67.8743      0.0729      2.2060     47.8030    127.0245  
  2680.5000    -36.0406      2.3373      2.0727      2.0919     14.8224     67.9621      0.0552      2.1991     46.9811    124.0204  
  2681.0000    -36.0843      2.3523      2.0776      2.1188     14.8616     68.3457      0.0325      2.1984     47.1060    127.8343  
  2681.5000    -36.0202      2.3675      2.0709      2.1459     14.6617     69.2631      0.0156      2.1946     47.2310    131.5743  
  2682.0000    -35.9136      2.4067      2.0642      2.1692     14.5804     71.4210      0.0113      2.1852     46.5508    127.1130  
  2682.5000    -35.7858      2.4595      2.0575      2.1611     14.5557     73.3187      0.0178      2.1780     46.2631    124.0831  
  2683.0000    -35.5727      2.5135      2.0509      2.1529     14.3940     74.6808      0.0375      2.1888     46.2777    124.5653  
  2683.5000    -35.1821      2.4883      2.0442      2.1448     14.5437     75.6144      0.0550      2.1989     45.7413    122.8951  
  2684.0000    -34.8237      2.4529      2.0376      2.1368     14.8294     75.7791      0.0675      2.2085     46.4920    125.1954  
  2684.5000    -34.4361      2.4179      2.0310      2.1287     14.7029     75.5923      0.0744      2.2156     47.3950    128.5731  
  2685.0000    -34.2868      2.3835      2.0245      2.1207     14.7314     74.8352      0.0853      2.2193     48.0187    127.4024  
  2685.5000    -34.1153      2.3495      2.0179      2.1127     14.9813     74.6551      0.0606      2.2048     47.4016    127.7440  
  2686.0000    -34.0183      2.3386      2.0114      2.1048     14.8306     74.8550      0.0500      2.2088     47.1420    124.2696  
  2686.5000    -34.0424      2.3710      2.0049      2.0976     15.0711     74.7013      0.0437      2.2158     46.8244    119.7899  
  2687.0000    -34.0319      2.4038      1.9984      2.0918     15.3213     75.0134      0.0471      2.2283     46.3154    117.0199  
  2687.5000    -34.0804      2.3939      1.9919      2.0860     14.9697     76.4646      0.0448      2.2218     46.4859    117.7679  
