~VERSION INFORMATION
 VERS.                           2.00:        CWLS LOG ASCII STANDARD - VERSION 2.00
 WRAP.                             NO:        ONE LINE PER DEPTH STEP
~WELL INFORMATION
#MNEM.UNIT                   DATA             INFORMATION
#----------             --------------        ------------------------------
 STRT.F                       66.0000:        START DEPTH
 STOP.F                    11266.0000:        STOP DEPTH
 STEP.F                        0.5000:        STEP VALUE
 NULL.                      -999.2500:        NULL VALUE
 COMP.              HUSKY OIL COMPANY:        COMPANY
 LOC .                       6 12N 2E:        LOCATION
 DATE.                       12/24/76:        LOG DATE
 WELL.          SOUTH HARRISON BAY #1:        WELL
 UWI .                   501032000700:        UNIQUE WELL ID
 API .                   501032000700:        UNIQUE WELL IDENTIFIER
 FLD .                        WILDCAT:        FIELD
 CNTY.                    NORTH SLOPE:        COUNTY
 STAT.                         ALASKA:        STATE
 CTRY.                            USA:        COUNTRY
 OPER.              HUSKY OIL COMPANY:        OPERATOR
 SRVC.                   SCHLUMBERGER:        SERVICE COMPANY
 LAT .                         0.0000:        LATITUDE
 LON .                         0.0000:        LONGITUDE
 DIGS.               CENTER LINE DATA:        DIGITIZING COMPANY
~CURVE INFORMATION      
#MNEM        .UNIT         API CODE           CURVE DESCRIPTION
#-----------------      --------------        ------------------------------
 DEPT        .F                      :        1  DEPTH
 GR          .GAPI                   :        2  
 CALI        .IN                     :        3  
 DRHO        .G/C3                   :        4  
 RHOB        .G/C3                   :        5  
 NPHI        .%                      :        6  
 DT          .US/F                   :        7  
 SP          .MV                     :        8  
 ILD         .OHMM                   :        9  
 ILM         .OHMM                   :        10 
 LL8         .OHMM                   :        11 
~PARAMETER INFORMATION
#MNEM.UNIT                  VALUE             DESCRIPTION OF MNEMONIC
#---------             ---------------        ------------------------------
 EKB .F                       45.0000:        KELLY BUSHING
 TD  .F                    11290.0000:        TOTAL DEPTH
 BHT .F                      174.0000:        BOTTOM HOLE TEMPERATURE
 BS  .                        12.2500:        BIT SIZE
 FD  .                        10.7000:        FLUID DENSITY
 CSIZ.                        13.3750:        CASING SIZE
 CBD .F                     2600.0000:        CASING DRILLER 1
 CBL .F                     2600.0000:        CASING LOGGER 1
 DFT .                  MISCELLANEOUS:        TYPE FLUID IN HOLE
 DFV .                        52.0000:        VISCOSITY
 DFPH.                         8.2000:        PH
 DFL .                         6.0000:        FLUID LOSS
 RMS .                         1.3900:        RM
 MST .F                       60.0000:        RM MEAS. TEMP.
 RMF .                         1.0200:        RMF
 MFST.F                       60.0000:        RMF MEAS. TEMP.
 RMC .                         1.3800:        RMC
 MCST.F                       60.0000:        RMC MEAS. TEMP.
~OTHER INFORMATION
~A    DEPTH          GR        CALI        DRHO        RHOB        NPHI          DT          SP         ILD         ILM         LL8 
# ...
  9002.5000    137.7400      8.7500     -0.0109      2.6591     22.6194     71.1820    -60.2414     17.4026     17.0474     27.6101 
  9003.0000    137.3984      8.7512     -0.0163      2.6449     22.2216     72.7707    -60.2182     18.5192     17.3238     31.8146 
  9003.5000    136.8457      8.7524     -0.0144      2.6533     21.9422     73.9304    -60.1949     19.7074     18.3063     35.1086 
  9004.0000    136.2815      8.7539     -0.0135      2.6550     21.8025     74.7443    -60.1377     20.9719     19.7151     34.1127 
  9004.5000    134.6102      8.7554     -0.0141      2.6667     21.6483     72.3924    -59.9933     22.3175     22.1623     34.5439 
  9005.0000    133.3773      8.7568     -0.0147      2.6807     21.0430     68.1380    -59.9124     23.5911     23.4516     44.9398 
  9005.5000    134.4373      8.7550     -0.0116      2.6827     19.1934     64.2562    -59.7968     23.9531     23.8648     64.0388 
  9006.0000    137.4522      8.7537     -0.0020      2.6842     17.5805     63.6704    -59.5380     24.0153     23.6423     61.9800 
  9006.5000    140.3106      8.7525      0.0027      2.6850     17.2190     66.6427    -59.4119     24.1019     22.2716     46.2731 
  9007.0000    139.5299      8.7545      0.0008      2.6740     18.4743     68.8806    -59.3725     23.8889     20.9803     36.3370 
  9007.5000    139.5679      8.7490      0.0067      2.6619     20.4479     71.3863    -59.3800     23.6367     20.4784     34.4437 
  9008.0000    141.1169      8.7462      0.0056      2.6561     21.6152     72.7433    -59.3787     22.6402     20.1624     34.0877 
  9008.5000    142.6660      8.7545      0.0071      2.6519     22.5181     74.0284    -59.3201     21.6858     19.7404     33.7097 
  9009.0000    145.0580      8.7639      0.0204      2.6538     23.8280     77.0520    -59.2925     20.7716     19.3272     34.0733 
  9009.5000    150.4289      8.7649      0.0197      2.6696     24.9073     77.4038    -59.2650     19.8959     18.9227     34.3705 
  9010.0000    156.4534      8.7660      0.0111      2.6987     25.5149     76.5002    -59.4852     19.8466     18.5267     33.9365 
  9010.5000    160.7899      8.7671      0.0044      2.7121     25.3027     74.1624    -59.6946     19.8022     18.6077     33.9123 
  9011.0000    163.7036      8.7652     -0.0005      2.7154     24.0733     71.6420    -60.0082     20.1101     19.2926     35.5959 
  9011.5000    162.2495      8.7626     -0.0001      2.7038     22.5768     70.1078    -60.3642     21.1327     20.0027     40.9654 
  9012.0000    159.3094      8.7672     -0.0036      2.6916     21.0636     68.0323    -61.2392     22.9108     22.0560     42.5119 
  9012.5000    158.6908      8.7723     -0.0033      2.6853     19.5505     65.3634    -61.8819     25.2419     24.5426     42.6255 
  9013.0000    160.0048      8.7723      0.0007      2.6839     17.8042     64.0195    -62.2526     30.0001     27.3096     53.2809 
  9013.5000    159.7246      8.7723      0.0013      2.6770     15.8703     63.6004    -62.5412     35.1528     30.5898     79.7782 
  9014.0000    150.5234      8.7725      0.0026      2.6686     14.6505     63.9461    -62.7612     42.0565     34.2654    101.3524 
  9014.5000    132.7432      8.7751      0.0051      2.6688     14.0825     63.8445    -62.8366     48.8325     38.9876    113.0029 
  9015.0000    117.2271      8.7776      0.0028      2.6801     13.4816     62.6586    -62.8489     76.4075     45.9463    157.7098 
  9015.5000    108.7677      8.7767      0.0005      2.6888     11.9991     59.9455    -62.8706     91.5388     57.5048    242.7867 
  9016.0000    102.7782      8.7729     -0.0069      2.6949     10.1703     58.0920    -63.3065    113.5856     63.4205    326.5378 
  9016.5000     95.3896      8.7688     -0.0104      2.6860      8.4471     58.0793    -63.9575    145.0754     71.1044    294.9242 
  9017.0000     88.1068      8.7663     -0.0072      2.6734      7.8810     57.5183    -64.4818    187.6497     79.8578    301.7277 
  9017.5000     88.7997      8.7669      0.0059      2.6834      7.2596     56.6794    -65.0060    203.9889     81.8073    381.9560 
  9018.0000     95.2386      8.7705      0.0001      2.6993      6.7364     55.7249    -65.5742    218.5839     83.8974    460.3833 
  9018.5000    104.2691      8.7730     -0.0040      2.6883      6.2880     55.5357    -66.1863    214.7965     84.6845    536.4025 
  9019.0000    114.1261      8.7703     -0.0120      2.6800      6.3200     55.9215    -66.6408    214.0726     82.7057    471.4418 
  9019.5000    122.7182      8.7713     -0.0076      2.6806      6.7578     56.9078    -66.8021    209.8583     80.8430    355.9852 
  9020.0000    130.7516      8.7745     -0.0040      2.6813      7.3534     58.0448    -66.8163    203.8146     78.0034    242.7483 
  9020.5000    137.0899      8.7849     -0.0007      2.6820      8.2070     57.5122    -66.8142    197.9449     74.9497    264.2958 
  9021.0000    149.2679      8.7866      0.0037      2.6905      8.8165     57.4990    -66.7833    192.2443     74.5467    349.7315 
  9021.5000    171.4672      8.7873      0.0089      2.7049      9.2101     58.1647    -66.6389    184.6976     74.1459    396.5712 
  9022.0000    187.5117      8.7924      0.0120      2.7069      9.5254     59.3284    -66.2983    178.8666     72.1811    300.3674 
  9022.5000    188.7921      8.7965      0.0022      2.6971     10.5102     60.1428    -65.8353    171.6682     70.4806    225.0914 
  9023.0000    177.3452      8.7939      0.0090      2.6830     11.4014     60.2940    -65.5150    158.0552     71.0087    228.2583 
  9023.5000    170.1698      8.7857      0.0242      2.6896     11.9294     60.2037    -65.0955    141.7266     70.7998    275.9244 
  9024.0000    165.3917      8.7693      0.0188      2.6946     11.4747     60.1384    -64.8313    127.0849     68.9476    259.2313 
  9024.5000    154.2693      8.7544      0.0081      2.6909     11.3652     60.2069    -64.4262    112.5179     63.3258    181.6827 
  9025.0000    140.2328      8.7409      0.0146      2.6886     11.6044     60.3505    -63.7701    101.2308     59.6093    143.1629 
  9025.5000    132.5317      8.7497      0.0082      2.6892     11.9862     60.2248    -62.7518     91.8300     56.2126    146.5719 
  9026.0000    133.1737      8.7450      0.0054      2.6850     12.1287     60.4963    -62.1416     82.8305     52.8430    152.0264 
  9026.5000    134.0859      8.7349      0.0012      2.6907     12.3435     61.8236    -61.9078     75.5684     48.3978    127.0104 
  9027.0000    132.4639      8.7303     -0.0035      2.6912     12.7858     63.6973    -61.9032     70.4253     45.3388     99.7214 
  9027.5000    125.8145      8.7295      0.0040      2.6886     13.4823     64.1238    -62.0123     68.8539     43.6454     87.7934 
  9028.0000    112.4656      8.7317      0.0107      2.6891     13.8841     63.2259    -62.1915     62.4226     42.7014     87.1316 
  9028.5000    104.2243      8.7319      0.0127      2.6909     13.7979     61.9750    -62.3925     54.0465     41.8053    104.1897 
  9029.0000    107.7918      8.7234      0.0064      2.6858     12.8100     61.4016    -62.3328     49.5940     38.9037    128.8672 
  9029.5000    116.1396      8.7281      0.0109      2.6952     11.8503     62.2959    -61.7943     46.9031     35.0316    102.7342 
  9030.0000    119.9372      8.7323      0.0047      2.7023     11.6936     63.2983    -61.2502     49.0653     32.0804     62.6250 
  9030.5000    119.3034      8.7225     -0.0007      2.7079     12.4899     64.3817    -60.9386     51.3271     32.7398     54.1573 
  9031.0000    114.0713      8.7172     -0.0073      2.6968     12.8314     62.8047    -60.9246     53.6931     35.7519     55.1408 
  9031.5000    101.3713      8.7119     -0.0106      2.6925     12.1417     60.3714    -61.2245     56.1683     40.5402     78.5566 
  9032.0000     89.3620      8.7158     -0.0016      2.6800     10.5886     58.5680    -61.8182     57.4849     46.5053    138.6999 
  9032.5000     82.4055      8.7208     -0.0025      2.6656      9.4554     57.3642    -62.6068     57.9574     47.7479    214.3271 
