~VERSION INFORMATION
 VERS.                           2.00:        CWLS LOG ASCII STANDARD - VERSION 2.00
 WRAP.                             NO:        ONE LINE PER DEPTH STEP
~WELL INFORMATION
#MNEM.UNIT                   DATA             INFORMATION
#----------             --------------        ------------------------------
 STRT.F                       94.0000:        START DEPTH
 STOP.F                    11429.0000:        STOP DEPTH
 STEP.F                        0.5000:        STEP VALUE
 NULL.                      -999.2500:        NULL VALUE
 COMP. U.S. NAVY (HUSKY OIL CO.-OPER.:        COMPANY
 LOC .                      11 11N 1W:        LOCATION
 DATE.                        2/17/77:        LOG DATE
 WELL.             WEST FISH CREEK #1:        WELL
 UWI .                   500232001400:        UNIQUE WELL ID
 API .                   500232001400:        UNIQUE WELL IDENTIFIER
 FLD .                        WILDCAT:        FIELD
 CNTY.                    NORTH SLOPE:        COUNTY
 STAT.                         ALASKA:        STATE
 CTRY.                            USA:        COUNTRY
 OPER. U.S. NAVY (HUSKY OIL CO.-OPER.:        OPERATOR
 SRVC.                   SCHLUMBERGER:        SERVICE COMPANY
 LAT .                         0.0000:        LATITUDE
 LON .                         0.0000:        LONGITUDE
 DIGS.               CENTER LINE DATA:        DIGITIZING COMPANY
~CURVE INFORMATION      
#MNEM        .UNIT         API CODE           CURVE DESCRIPTION
#-----------------      --------------        ------------------------------
 DEPT        .F                      :        1  DEPTH
 SP          .MV                     :        2  
 ILD         .OHMM                   :        3  
 ILM         .OHMM                   :        4  
 LL8         .OHMM                   :        5  
 CALI        .IN                     :        6  
 RHOB        .G/C3                   :        7  
 DRHO        .G/C3                   :        8  
 NPHI        .%                      :        9  
 GR          .GAPI                   :        10 
 DT          .US/F                   :        11 
~PARAMETER INFORMATION
#MNEM.UNIT                  VALUE             DESCRIPTION OF MNEMONIC
#---------             ---------------        ------------------------------
 EKB .F                      113.0000:        KELLY BUSHING
 TD  .F                    11429.0000:        TOTAL DEPTH
~OTHER INFORMATION
~A    DEPTH          SP         ILD         ILM         LL8        CALI        RHOB        DRHO        NPHI          GR          DT 
# ...
  6407.5000    -15.7437      6.3823      5.6694      6.1374     15.5358      2.5848      0.0593     31.9495     48.0281     81.1173 
  6408.0000    -16.0125      6.3889      5.8086      6.1429     15.5424      2.5656      0.0482     31.2312     47.5352     80.4373 
  6408.5000    -16.1238      6.3954      5.7659      6.1484     15.5494      2.5569      0.0481     30.7099     46.5123     82.3012 
  6409.0000    -16.2545      6.4020      5.7235      6.1614     15.5626      2.5507      0.0577     30.7761     46.0109     82.1423 
  6409.5000    -16.2644      6.4086      5.6815      6.1782     15.5759      2.5472      0.0543     30.3301     46.1934     81.8263 
  6410.0000    -16.1543      6.4152      5.6463      6.1783     15.5891      2.5280      0.0443     29.8842     47.3119     81.8516 
  6410.5000    -16.0806      6.4218      5.6286      6.1783     15.6024      2.5459      0.0420     29.6277     48.0020     81.9354 
  6411.0000    -15.9974      6.4284      5.6109      6.1783     15.6156      2.5530      0.0365     29.9163     48.3670     82.0868 
  6411.5000    -15.9143      6.4350      5.5932      6.1783     15.6289      2.5578      0.0269     30.3288     48.1302     82.3644 
  6412.0000    -15.8972      6.4416      5.5878      6.1783     15.6421      2.5650      0.0350     30.5971     47.2049     81.5713 
  6412.5000    -15.9406      6.4204      5.5878      6.1669     15.6554      2.5802      0.0527     30.3274     45.7993     80.6366 
  6413.0000    -15.8650      6.3957      5.5864      6.1545     15.6517      2.5730      0.0723     30.3303     45.2988     81.9939 
  6413.5000    -15.8232      6.3710      5.5839      6.1421     15.6459      2.5630      0.0501     30.3871     45.0009     82.0374 
  6414.0000    -15.7507      6.3465      5.5815      6.1359     15.6400      2.5802      0.0473     29.5181     45.1249     82.1331 
  6414.5000    -15.7345      6.3221      5.5790      6.1359     15.6342      2.5908      0.0649     28.9097     45.3568     82.3630 
  6415.0000    -15.7202      6.2917      5.5765      6.1359     15.6283      2.5881      0.0822     29.2726     45.3742     82.0893 
  6415.5000    -15.6443      6.2596      5.5741      6.1359     15.6225      2.5731      0.0701     29.8586     45.1199     81.7515 
  6416.0000    -15.8577      6.2490      5.5701      6.1368     15.5853      2.5756      0.0497     30.4446     45.6776     82.0557 
  6416.5000    -15.9296      6.2556      5.5594      6.1525     15.5293      2.5981      0.0632     31.0327     46.3491     82.2230 
  6417.0000    -15.9655      6.2621      5.5488      6.1682     15.4734      2.6099      0.0708     31.2690     45.5643     82.6505 
  6417.5000    -16.0044      6.3126      5.5519      6.2065     15.4174      2.6209      0.0658     30.7722     44.3909     82.7121 
  6418.0000    -16.0671      6.3709      5.5988      6.2728     15.3639      2.6131      0.0663     30.5068     44.1315     81.9788 
  6418.5000    -16.1162      6.4261      5.6460      6.3492     15.3168      2.6247      0.0751     30.9541     44.6223     81.5095 
  6419.0000    -16.1745      6.4811      5.6937      6.3989     15.2698      2.6341      0.0699     30.5581     45.6202     81.5584 
  6419.5000    -16.1593      6.5255      5.7418      6.4102     15.2405      2.6093      0.0607     30.1068     46.5952     81.6083 
  6420.0000    -16.0536      6.5701      5.7903      6.4216     15.2125      2.5923      0.0461     30.5920     46.0404     81.4987 
  6420.5000    -15.9198      6.6151      5.8392      6.4329     15.1844      2.5798      0.0331     30.6774     44.3323     81.3635 
  6421.0000    -15.8017      6.6582      5.8074      6.4473     15.1564      2.5870      0.0403     30.0056     44.4064     81.2453 
  6421.5000    -15.7049      6.7009      5.7631      6.4648     15.1311      2.5881      0.0341     29.1161     45.7035     80.9740 
  6422.0000    -15.6736      6.7233      5.7191      6.4823     15.1216      2.5786      0.0263     28.6374     47.2019     80.8319 
  6422.5000    -15.6898      6.7277      5.7873      6.4998     15.1122      2.5959      0.0480     28.4586     48.1400     80.7531 
  6423.0000    -15.7137      6.7321      5.8667      6.5175     15.1020      2.6090      0.0798     29.0492     48.2023     80.8619 
  6423.5000    -15.7723      6.7366      5.9473      6.5480     15.0908      2.5986      0.0679     29.1539     47.8802     81.0933 
  6424.0000    -15.7598      6.7399      5.9584      6.5948     15.0796      2.5978      0.0462     28.5081     46.9130     81.4828 
  6424.5000    -15.6952      6.7399      5.9239      6.6106     15.0684      2.6088      0.0565     27.1628     46.4950     81.5281 
  6425.0000    -15.7204      6.7383      5.8473      6.5901     15.0571      2.5872      0.0512     27.2237     46.9959     81.6591 
  6425.5000    -15.8413      6.7291      5.7709      6.5653     15.0459      2.5729      0.0447     28.2395     47.0184     81.9168 
  6426.0000    -16.0294      6.7176      5.8195      6.4964     15.0382      2.5968      0.0580     29.3566     46.7886     80.9604 
  6426.5000    -16.2421      6.6871      5.8686      6.4282     15.0350      2.6277      0.0900     30.4337     46.5555     80.3009 
  6427.0000    -16.3480      6.6567      5.9180      6.3606     15.0319      2.6109      0.0846     30.1671     46.3391     80.5035 
  6427.5000    -16.3992      6.6265      5.9321      6.3205     15.0288      2.5945      0.0752     30.1881     46.5034     80.7697 
  6428.0000    -16.4305      6.5964      5.8422      6.2868     15.0250      2.5649      0.0783     30.5560     48.0152     81.0029 
  6428.5000    -16.4730      6.5665      5.7537      6.2532     15.0206      2.5582      0.0585     30.9239     47.2630     81.1330 
  6429.0000    -16.5488      6.5380      5.6665      6.2199     15.0162      2.5797      0.0389     30.6899     45.7620     82.7663 
  6429.5000    -16.6544      6.5227      5.5806      6.1867     15.0117      2.5937      0.0522     30.0343     44.5956     83.7658 
  6430.0000    -16.7190      6.5074      5.4960      6.1682     14.9975      2.6025      0.0649     29.3908     44.2104     84.2135 
  6430.5000    -16.7192      6.4922      5.4820      6.1764     14.9674      2.5948      0.0759     30.2540     43.9514     82.9792 
  6431.0000    -16.4670      6.4770      5.5281      6.1846     14.9373      2.5752      0.0460     30.6749     43.3939     79.9289 
  6431.5000    -16.3536      6.4619      5.5745      6.1928     14.8954      2.5530      0.0254     31.0958     42.7722     79.0177 
  6432.0000    -16.2178      6.4597      5.6213      6.2010     14.8428      2.5763      0.0662     31.4700     42.8720     80.6212 
  6432.5000    -16.1281      6.4634      5.6685      6.2092     14.7899      2.5962      0.0896     31.5200     43.3475     81.9228 
  6433.0000    -16.0831      6.4729      5.7161      6.2174     14.7369      2.5583      0.0482     31.2902     44.3549     82.5966 
  6433.5000    -15.9587      6.4824      5.7161      6.2257     14.6840      2.5835      0.0586     30.8139     45.3696     83.4990 
  6434.0000    -15.9118      6.4920      5.6614      6.2474     14.6310      2.6034      0.0747     29.5143     46.3613     82.9664 
  6434.5000    -15.9323      6.5015      5.6073      6.2705     14.5780      2.5771      0.0383     28.6729     46.7127     82.7894 
  6435.0000    -15.9601      6.5129      5.6381      6.2457     14.5251      2.5613      0.0217     28.9387     45.5116     82.3164 
  6435.5000    -15.9290      6.5268      5.7368      6.2210     14.4766      2.5757      0.0296     28.4768     43.0648     80.4590 
  6436.0000    -16.0181      6.5406      5.8372      6.1964     14.4417      2.5620      0.0504     27.8921     41.5919     81.3169 
  6436.5000    -16.1814      6.5545      5.9393      6.1929     14.5521      2.5774      0.0891     27.2209     42.9490     80.7855 
  6437.0000    -16.3329      6.5684      5.9803      6.2034     14.6626      2.5921      0.0970     27.9402     44.3788     80.3560 
  6437.5000    -16.4959      6.5808      5.9904      6.2139     14.7334      2.5528      0.0719     28.8570     44.9836     79.3985 
