~VERSION INFORMATION
 VERS.                           2.00:        CWLS LOG ASCII STANDARD - VERSION 2.00
 WRAP.                             NO:        ONE LINE PER DEPTH STEP
~WELL INFORMATION
#MNEM.UNIT                   DATA             INFORMATION
#----------             --------------        ------------------------------
 STRT.F                      116.0000:        START DEPTH
 STOP.F                     8861.0000:        STOP DEPTH
 STEP.F                        0.5000:        STEP VALUE
 NULL.                      -999.2500:        NULL VALUE
 COMP.                     U.S. NAAVY:        COMPANY
 LOC .                 [33^13 17N 2W:        LOCATION
 DATE.                        3/30/77:        LOG DATE
 WELL.                    WT FORAN #1:        WELL
 UWI .                   501032001000:        UNIQUE WELL ID
 API .                   501032001000:        UNIQUE WELL IDENTIFIER
 FLD .                        WILDCAT:        FIELD
 CNTY.                    NORTH SLOPE:        COUNTY
 STAT.                         ALASKA:        STATE
 CTRY.                            USA:        COUNTRY
 OPER.                     U.S. NAAVY:        OPERATOR
 SRVC.                   SCHLUMBERGER:        SERVICE COMPANY
 LAT .                         0.0000:        LATITUDE
 LON .                         0.0000:        LONGITUDE
 DIGS.               CENTER LINE DATA:        DIGITIZING COMPANY
~CURVE INFORMATION      
#MNEM        .UNIT         API CODE           CURVE DESCRIPTION
#-----------------      --------------        ------------------------------
 DEPT        .F                      :        1  DEPTH
 CALI        .IN                     :        2  
 GR          .GAPI                   :        3  
 DRHO        .G/C3                   :        4  
 RHOB        .G/C3                   :        5  
 NPHI        .%                      :        6  
 DT          .US/F                   :        7  
 SP          .MV                     :        8  
 ILD         .OHMM                   :        9  
 ILM         .OHMM                   :        10 
 LL8         .OHMM                   :        11 
~PARAMETER INFORMATION
#MNEM.UNIT                  VALUE             DESCRIPTION OF MNEMONIC
#---------             ---------------        ------------------------------
 EKB .F                       39.0000:        KELLY BUSHING
 TD  .F                     8864.0000:        TOTAL DEPTH
 BHT .F                      152.0000:        BOTTOM HOLE TEMPERATURE
 BS  .                        14.2500:        BIT SIZE
 FD  .                        10.2000:        FLUID DENSITY
 CSIZ.                        16.0000:        CASING SIZE
 CBD .F                     1458.0000:        CASING DRILLER 1
 CBL .F                        0.0000:        CASING LOGGER 1
 DFT .                  MISCELLANEOUS:        TYPE FLUID IN HOLE
 DFV .                        45.0000:        VISCOSITY
 DFPH.                        10.5000:        PH
 DFL .                         5.5000:        FLUID LOSS
 RMS .                         2.4000:        RM
 MST .F                       54.0000:        RM MEAS. TEMP.
 RMF .                         2.3000:        RMF
 MFST.F                       56.0000:        RMF MEAS. TEMP.
 RMC .                         2.7000:        RMC
 MCST.F                       54.0000:        RMC MEAS. TEMP.
~OTHER INFORMATION
~A    DEPTH        CALI          GR        DRHO        RHOB        NPHI          DT          SP         ILD         ILM         LL8 
# ...
  5697.5000     15.6799     79.5140      0.1098      2.4564     37.7762     98.6274    -18.7964      4.9942      4.8201      7.5688 
  5698.0000     15.7513     76.6295      0.0851      2.4657     36.9808     97.6480    -18.7313      5.0670      4.8904      6.8639 
  5698.5000     15.6585     73.6423      0.0795      2.4494     35.4381     94.7018    -18.6797      5.0668      4.8888      6.1292 
  5699.0000     15.4721     71.2653      0.0761      2.4455     32.7337     91.3106    -18.2039      4.9897      4.8144      5.7029 
  5699.5000     15.3316     70.3992      0.0393      2.4175     31.2261     86.9871    -17.8005      4.9138      4.7412      5.5049 
  5700.0000     15.1803     71.3530      0.0206      2.4428     32.0863     88.7213    -17.4688      4.8161      4.6367      5.3467 
  5700.5000     14.9856     73.6680      0.0290      2.4746     33.6341     90.4554    -16.9259      4.7066      4.5313      5.1931 
  5701.0000     15.0449     75.7952      0.0606      2.4992     35.2313     94.5762    -16.7136      4.5995      4.4282      5.1677 
  5701.5000     15.2787     77.8408      0.0785      2.5035     35.8742     96.3731    -16.6037      4.4949      4.3275      5.2188 
  5702.0000     15.3726     79.6282      0.0990      2.5038     36.1928     94.9698    -16.5719      4.4706      4.3216      5.2607 
  5702.5000     15.5327     80.3454      0.0892      2.4986     36.3828     96.1989    -16.5968      4.4660      4.3172      5.2876 
  5703.0000     15.7682     79.0591      0.0705      2.4809     36.3048     94.8068    -16.6457      4.4614      4.3127      4.9339 
  5703.5000     15.8255     78.2491      0.0734      2.4683     36.4915     93.8336    -16.6946      4.4567      4.3083      4.6338 
  5704.0000     15.8252     78.9441      0.0537      2.4505     37.0088     96.4507    -16.9125      4.4521      4.3038      5.3885 
  5704.5000     15.8204     80.2908      0.0619      2.4403     37.4832     96.9631    -17.1657      4.4476      4.2994      5.6151 
  5705.0000     15.8002     81.3909      0.0922      2.4691     37.7845     96.3274    -17.0462      4.4430      4.2949      5.6492 
  5705.5000     15.7987     81.4976      0.1002      2.4816     36.5995     96.3682    -16.5895      4.4416      4.2937      5.2069 
  5706.0000     15.9097     81.8653      0.0808      2.4467     35.3591     94.2622    -15.8413      4.4416      4.2937      4.7342 
  5706.5000     15.7485     82.3200      0.0617      2.4613     35.4140     92.8515    -15.5304      4.4416      4.2937      4.6599 
  5707.0000     15.6295     82.4904      0.0762      2.4655     36.1511     95.6775    -15.8436      4.4416      4.2937      5.0552 
  5707.5000     15.8530     82.6207      0.0713      2.4668     36.9298     96.5204    -16.3031      4.4416      4.2937      5.5508 
  5708.0000     16.0591     83.4069      0.0838      2.4689     36.3290     97.8077    -16.9855      4.4249      4.2755      6.3358 
  5708.5000     16.2652     83.3352      0.0709      2.4615     35.6667     96.6817    -17.7278      4.3918      4.2435      6.6299 
  5709.0000     15.9793     82.3154      0.0668      2.4243     34.9483     92.7445    -17.8825      4.3590      4.2118      5.6656 
  5709.5000     15.7206     80.2985      0.0852      2.4145     34.1779     92.0271    -17.2581      4.3691      4.2205      4.8095 
  5710.0000     15.3399     78.1492      0.0766      2.3996     33.7303     91.7413    -16.6419      4.4113      4.2612      4.7914 
  5710.5000     15.0874     78.6782      0.0498      2.4000     36.1345     94.7676    -16.3609      4.4539      4.3024      5.0518 
  5711.0000     15.2337     79.5714      0.0767      2.4477     39.0601     97.7367    -16.4301      4.4969      4.3439      5.2383 
  5711.5000     15.5514     79.9662      0.0946      2.4813     41.2834     98.3672    -16.4830      4.5403      4.3859      5.2790 
  5712.0000     15.7657     80.0678      0.0736      2.4726     42.6793     97.1488    -16.8116      4.5718      4.4194      5.2899 
  5712.5000     15.8872     80.4782      0.0512      2.4498     41.9935     95.4743    -17.1627      4.5638      4.4116      5.3497 
  5713.0000     15.9378     81.7608      0.0675      2.4615     41.0368     96.0757    -17.5399      4.5558      4.4039      5.6157 
  5713.5000     15.9316     81.9356      0.0585      2.4513     39.2847     94.7704    -17.9732      4.5478      4.3962      6.0621 
  5714.0000     15.9008     80.4008      0.0792      2.4409     37.3381     95.2051    -18.1565      4.5403      4.3891      6.3702 
  5714.5000     15.8079     78.6802      0.0745      2.4522     35.6771     93.6099    -18.0222      4.5403      4.3891      5.8699 
  5715.0000     15.5452     76.7361      0.0719      2.4398     34.2418     91.1151    -17.4964      4.5403      4.3891      5.2598 
  5715.5000     15.3115     76.7944      0.0787      2.4480     33.1716     91.7551    -17.2000      4.5460      4.3931      5.2249 
  5716.0000     15.1328     76.8990      0.0702      2.4415     32.5454     92.2441    -17.1186      4.5723      4.4193      5.5033 
  5716.5000     15.1685     77.0298      0.0861      2.4688     32.8562     93.7334    -17.0233      4.5532      4.4009      5.8218 
  5717.0000     15.2610     77.8153      0.1019      2.4894     32.8159     95.1472    -17.1183      4.5308      4.3783      5.9073 
  5717.5000     15.3900     78.4999      0.0969      2.4828     32.5491     94.9418    -17.0226      4.5012      4.3497      5.8308 
  5718.0000     15.4700     78.5802      0.0813      2.4631     32.8742     93.7753    -16.8961      4.4717      4.3212      5.6105 
  5718.5000     15.4589     78.3248      0.0757      2.4722     33.5606     92.9273    -16.7667      4.4425      4.2935      5.4086 
  5719.0000     15.3989     78.0029      0.0688      2.4827     34.2451     93.2285    -16.6139      4.4475      4.2993      5.3230 
  5719.5000     15.4149     78.4992      0.0606      2.4676     35.1447     93.7780    -16.3787      4.4535      4.3051      5.2494 
  5720.0000     15.5458     80.1841      0.0805      2.4856     36.2362     93.6311    -15.8766      4.4595      4.3109      5.1768 
  5720.5000     15.6726     81.2742      0.0929      2.4949     37.3040     95.4788    -15.6412      4.4655      4.3167      5.1106 
  5721.0000     15.7592     81.2809      0.0926      2.4867     38.1185     94.4928    -15.9784      4.4715      4.3226      5.1158 
  5721.5000     16.0148     80.5701      0.1129      2.5002     37.8294     94.6295    -16.4475      4.4743      4.3253      5.1996 
  5722.0000     16.2778     79.5277      0.1162      2.4860     37.8323     95.6939    -16.5397      4.4743      4.3253      5.2848 
  5722.5000     15.9990     79.2161      0.0990      2.4762     38.1390     97.3786    -16.2509      4.4743      4.3253      5.3576 
  5723.0000     15.8646     79.5881      0.1123      2.4957     37.0190     95.9698    -16.0252      4.4898      4.3388      5.3868 
  5723.5000     15.8030     79.2662      0.1037      2.4892     35.4542     96.3887    -15.9316      4.5199      4.3679      5.3868 
  5724.0000     15.9853     79.3715      0.0814      2.4634     33.1464     95.2735    -15.8807      4.5503      4.3972      5.3083 
  5724.5000     16.0387     79.2225      0.0680      2.4431     32.6809     92.5191    -15.9468      4.5809      4.4268      5.2150 
  5725.0000     15.9779     78.9845      0.0806      2.4580     34.0191     94.6117    -16.1270      4.6116      4.4565      5.3721 
  5725.5000     15.9136     79.6534      0.0832      2.4672     35.1333     95.2507    -16.2574      4.6426      4.4865      5.7183 
  5726.0000     15.8490     80.6262      0.1027      2.4869     36.0417     95.7486    -16.2318      4.6738      4.5166      5.8749 
  5726.5000     15.8822     81.1361      0.1205      2.5050     35.7208     95.6309    -16.1800      4.7052      4.5469      5.7924 
  5727.0000     15.8028     81.3692      0.1195      2.4997     35.4713     94.8641    -16.2514      4.7096      4.5528      5.6015 
  5727.5000     15.7658     81.4828      0.0789      2.4662     35.8219     93.2514    -16.2917      4.7231      4.5642      5.1435 
