~VERSION INFORMATION
 VERS.                      2.00:        CWLS LOG ASCII STANDARD - VERSION 2.00
 WRAP.                        NO:        ONE LINE PER DEPTH STEP
~WELL INFORMATION
#MNEM.UNIT               DATA            INFORMATION
#----------          ------------        ------------------------------
 STRT.F                 438.0000:        START DEPTH
 STOP.F               11532.0000:        STOP DEPTH
 STEP.F                   0.5000:        STEP VALUE
 NULL.                 -999.2500:        NULL VALUE
 COMP.      HUSKY-NPR OPERATIONS:        COMPANY  
 WELL.          ATIGARU POINT #1:        WELL     
 FLD .                   WILDCAT:        FIELD    
 LOC .              19  14N   2E:        LOCATION   
 CNTY.               NORTH SLOPE:        COUNTY  
 STAT.                     ALSKA:        STATE   
 CTRY.                       USA:        COUNTRY 
 DATE.                    1/ /77:        LOG DATE 
 API .              501032000800:        UNIQUE WELL IDENTIFIER 
 OPER.      HUSKY-NPR OPERATIONS:        OPERATOR  
 SRVC.              Schlumberger:        SERVICE COMPANY 
 UWI .              501032000800:        UNIQUE WELL ID 
 LAT .                    0.0000:        LATITUDE
 LON .                    0.0000:        LONGITUDE
 DIGS.          Center Line Data:        DIGITIZING COMPANY 
~CURVE INFORMATION      
#MNEM.UNIT            API CODE           CURVE DESCRIPTION
#---------          -------------        ------------------------------
 DEPT.F                         :        1  DEPTH
 SP  .MV                        :        2
 ILD .OHMM                      :        3
 ILM .OHMM                      :        4
 LL8 .OHMM                      :        5
 CALI.IN                        :        6
 GR  .GAPI                      :        7
 DRHO.G/C3                      :        8
 RHOB.G/C3                      :        9
 NPHI.%                         :       10
 DT  .US/F                      :       11
~PARAMETER INFORMATION       
#MNEM.UNIT              VALUE            DESCRIPTION OF MNEMONIC
#---------          -------------        ------------------------------
 EKB .F                  25.0000:        KELLY BUSHING
 TD  .F               11534.0000:        TOTAL DEPTH
 BHT .F                   0.0000:        BOTTOM HOLE TEMPERATURE
 BS  .                   17.5000:        BIT SIZE
 FD  .                    9.3000:        FLUID DENSITY
 CSIZ.                   20.0000:        CASING SIZE
 CBD .F                 447.0000:        CASING DRILLER 1
 CBL .F                 443.0000:        CASING LOGGER 1
 DFT .                       Gel:        TYPE FLUID IN HOLE
 DFV .                   47.0000:        VISCOSITY
 DFPH.                   14.6000:        PH
 DFL .                    8.0000:        FLUID LOSS
 RMS .                    1.9300:        RM
 MST .F                  63.0000:        RM MEAS. TEMP.
 RMF .                    1.6900:        RMF
 MFST.F                  52.0000:        RMF MEAS. TEMP.
 RMC .                    1.6500:        RMC
 MCST.F                  60.0000:        RMC MEAS. TEMP.
 UWI .              501032000800:        UNIQUE WELL ID
~OTHER INFORMATION
~A    DEPTH          SP         ILD         ILM         LL8        CALI          GR        DRHO        RHOB        NPHI          DT  
# ...
 11508.0000   -160.8308     46.7883     49.1419     40.4381     10.1421     62.6884      0.0874      2.7236     14.1675     60.7192  
 11508.5000   -161.4043     46.1698     49.4021     42.4940     10.1657     64.2407      0.0971      2.7384     13.9021     60.7239  
 11509.0000   -161.9779     46.2281     49.6623     42.8178     10.2031     65.2906      0.1054      2.7403     13.4097     60.7896  
 11509.5000   -162.5515     46.9987     49.2156     36.5551     10.2274     65.9734      0.0865      2.7052     12.7936     61.2034  
 11510.0000   -163.1251     47.7822     48.7729     31.2084     10.2221     65.6088      0.0854      2.6844     12.9910     62.1319  
 11510.5000   -163.6986     48.5787     47.8341     30.8447     10.2722     64.9259      0.0992      2.6673     13.7915     63.3362  
 11511.0000   -163.1770     49.3885     46.5264     31.0950     10.3896     64.2378      0.1144      2.6864     14.6523     63.3884  
 11511.5000   -161.7549     50.2118     45.2544     31.4341     10.4405     63.0062      0.1909      2.7038     15.2984     63.1253  
 11512.0000   -160.3328     51.0488     44.0172     33.5331     10.2186     60.8897      0.2419      2.7181     15.1220     62.6235  
 11512.5000   -158.9108     51.0385     43.2868     35.7723      9.9962     61.7207      0.2657      2.7230     14.9457     61.8276  
 11513.0000   -157.7887     50.2071     44.3204     38.1610      9.7738     62.1203      0.2666      2.7548     15.0843     60.7375  
 11513.5000   -156.0042     49.3893     45.3787     40.7092      9.5514     62.3551      0.2674      2.7525     15.2736     60.6699  
 11514.0000   -154.4265     48.5848     46.4622     39.4818      9.5058     62.5933      0.2683      2.6987     15.0697     60.9080  
 11514.5000   -152.9521     47.7934     47.2345     37.9917      9.4832     62.9173      0.1997      2.6450     14.7631     61.2142  
 11515.0000   -151.4778     47.0149     46.2870     36.5580      9.4607     63.4172      0.2195      2.6759     14.3022     61.3621  
 11515.5000   -150.0034     46.2490     45.3584     35.1783      9.4381     63.5862      0.2212      2.6978     14.3151     61.5419  
 11516.0000   -148.5291     45.4957     44.4485     35.6973      9.5284     64.1904      0.2431      2.7346     14.7423     62.0448  
 11516.5000   -147.0547     44.8289     43.5568     37.0690      9.6763     65.2493      0.2480      2.7041     14.6447     61.9927  
 11517.0000   -145.5804     44.8543     43.4948     38.2002      9.7077     65.8968      0.2300      2.6792     15.0510     61.6100  
 11517.5000   -999.2500   -999.2500   -999.2500   -999.2500      9.6289     65.9872      0.2057      2.7167     14.8155     61.1307  
 11518.0000   -999.2500   -999.2500   -999.2500   -999.2500      9.7994     64.7114      0.1761      2.6801     14.9375     60.8283  
 11518.5000   -999.2500   -999.2500   -999.2500   -999.2500      9.9975     63.0595      0.1350      2.6504     15.4664   -999.2500  
 11519.0000   -999.2500   -999.2500   -999.2500   -999.2500     10.0920     62.0706      0.1582      2.6453     15.8277   -999.2500  
 11519.5000   -999.2500   -999.2500   -999.2500   -999.2500     10.1097     62.5747      0.1903      2.6526     15.2249   -999.2500  
 11520.0000   -999.2500   -999.2500   -999.2500   -999.2500      9.8331     63.0787      0.1911      2.6710     15.4025   -999.2500  
 11520.5000   -999.2500   -999.2500   -999.2500   -999.2500      9.3790     63.5003      0.1484      2.6803     14.9252   -999.2500  
 11521.0000   -999.2500   -999.2500   -999.2500   -999.2500      9.1114     63.6808      0.1602      2.6684     15.0962   -999.2500  
 11521.5000   -999.2500   -999.2500   -999.2500   -999.2500      9.0991     63.2411      0.1689      2.6723     14.9455   -999.2500  
 11522.0000   -999.2500   -999.2500   -999.2500   -999.2500      9.1301     62.2536      0.1803      2.6758     14.3355   -999.2500  
 11522.5000   -999.2500   -999.2500   -999.2500   -999.2500      9.1610     61.2185      0.1803      2.7076     14.7393   -999.2500  
 11523.0000   -999.2500   -999.2500   -999.2500   -999.2500      9.1919     60.8147      0.1362      2.6675     14.7159   -999.2500  
 11523.5000   -999.2500   -999.2500   -999.2500   -999.2500      9.2229     61.2794      0.0912      2.6321     14.7397   -999.2500  
 11524.0000   -999.2500   -999.2500   -999.2500   -999.2500      9.2204     61.7922      0.0977      2.6531     15.2335   -999.2500  
 11524.5000   -999.2500   -999.2500   -999.2500   -999.2500      9.1416     61.7010      0.1342      2.6710     15.1973   -999.2500  
 11525.0000   -999.2500   -999.2500   -999.2500   -999.2500      9.0628     61.5281      0.1325      2.6530     15.8028   -999.2500  
 11525.5000   -999.2500   -999.2500   -999.2500   -999.2500      8.9765     60.9654      0.0974      2.6121     16.0019   -999.2500  
 11526.0000   -999.2500   -999.2500   -999.2500   -999.2500      8.8594     59.6045      0.0793      2.6077     16.2766   -999.2500  
 11526.5000   -999.2500   -999.2500   -999.2500   -999.2500      8.7443     57.9209      0.1066      2.6866     16.2466   -999.2500  
 11527.0000   -999.2500   -999.2500   -999.2500   -999.2500      8.7579     53.9098      0.1335      2.7375     15.9774   -999.2500  
 11527.5000   -999.2500   -999.2500   -999.2500   -999.2500      8.7715     47.8291      0.1482      2.7553     15.2972   -999.2500  
 11528.0000   -999.2500   -999.2500   -999.2500   -999.2500      8.7851     40.7269      0.1415      2.7250     16.1404   -999.2500  
 11528.5000   -999.2500   -999.2500   -999.2500   -999.2500      8.7973     34.6005      0.1322      2.7073     16.5304   -999.2500  
 11529.0000   -999.2500   -999.2500   -999.2500   -999.2500      8.8088     44.7261      0.1463      2.7142     16.5123   -999.2500  
 11529.5000   -999.2500   -999.2500   -999.2500   -999.2500      8.8202     54.8518      0.1043      2.7164     16.6201   -999.2500  
 11530.0000   -999.2500   -999.2500   -999.2500   -999.2500      8.8301     57.9461      0.0958      2.7115     16.3564   -999.2500  
 11530.5000   -999.2500   -999.2500   -999.2500   -999.2500      8.8291   -999.2500      0.1083      2.7192     16.3066   -999.2500  
 11531.0000   -999.2500   -999.2500   -999.2500   -999.2500      8.7875   -999.2500      0.0780      2.7172     16.1199   -999.2500  
 11531.5000   -999.2500   -999.2500   -999.2500   -999.2500      8.7107   -999.2500      0.0638      2.7304     15.8536   -999.2500  
 11532.0000   -999.2500   -999.2500   -999.2500   -999.2500      8.5565   -999.2500      0.0590      2.7239     16.0724   -999.2500  
