~VERSION INFORMATION
 VERS.                      2.00:        CWLS LOG ASCII STANDARD - VERSION 2.00
 WRAP.                        NO:        ONE LINE PER DEPTH STEP
~WELL INFORMATION
#MNEM.UNIT               DATA            INFORMATION
#----------          ------------        ------------------------------
 STRT.F                 490.0000:        START DEPTH
 STOP.F               10659.0000:        STOP DEPTH
 STEP.F                   0.5000:        STEP VALUE
 NULL.                 -999.2500:        NULL VALUE
 COMP. HUSKY OIL NPR OPERATIONS,:        COMPANY  
 WELL.         EAST TESHEKPUK #1:        WELL     
 FLD .   U.S. NAVY NPR-4 WILDCAT:        FIELD    
 LOC .              16  14N   4W:        LOCATION   
 CNTY.                  N. SLOPE:        COUNTY  
 STAT.                    ALASKA:        STATE   
 CTRY.                       USA:        COUNTRY 
 DATE.                   4/11/76:        LOG DATE 
 API .              502790000000:        UNIQUE WELL IDENTIFIER 
 OPER. HUSKY OIL NPR OPERATIONS,:        OPERATOR  
 SRVC.              Schlumberger:        SERVICE COMPANY 
 UWI .              502790000000:        UNIQUE WELL ID 
 LAT .                    0.0000:        LATITUDE
 LON .                    0.0000:        LONGITUDE
 DIGS.          Center Line Data:        DIGITIZING COMPANY 
~CURVE INFORMATION      
#MNEM.UNIT            API CODE           CURVE DESCRIPTION
#---------          -------------        ------------------------------
 DEPT.F                         :        1  DEPTH
 SP  .MV                        :        2
 LL8 .OHMM                      :        3
 ILM .OHMM                      :        4
 ILD .OHMM                      :        5
 CALI.IN                        :        6
 GR  .GAPI                      :        7
 RHOB.G/C3                      :        8
 DRHO.G/C3                      :        9
 NPHI.%                         :       10
 DT  .US/F                      :       11
~PARAMETER INFORMATION       
#MNEM.UNIT              VALUE            DESCRIPTION OF MNEMONIC
#---------          -------------        ------------------------------
 EKB .F                  27.6000:        KELLY BUSHING
 TD  .F               10664.0000:        TOTAL DEPTH
 BHT .F                 172.0000:        BOTTOM HOLE TEMPERATURE
 BS  .                   13.5000:        BIT SIZE
 FD  .                   10.2000:        FLUID DENSITY
 CSIZ.                   16.0000:        CASING SIZE
 CBD .F                2578.0000:        CASING DRILLER 1
 CBL .F                2572.0000:        CASING LOGGER 1
 DFT . Salt Water-Lignosulfonate:        TYPE FLUID IN HOLE
 DFV .                   51.0000:        VISCOSITY
 DFPH.                   10.6000:        PH
 DFL .                    3.5000:        FLUID LOSS
 RMS .                    2.2600:        RM
 MST .F                  64.0000:        RM MEAS. TEMP.
 RMF .                    1.8900:        RMF
 MFST.F                  58.0000:        RMF MEAS. TEMP.
 RMC .                    2.5400:        RMC
 MCST.F                  58.0000:        RMC MEAS. TEMP.
 UWI .              502790000000:        UNIQUE WELL ID
~OTHER INFORMATION
~A    DEPTH          SP         LL8         ILM         ILD        CALI          GR        RHOB        DRHO        NPHI          DT  
# ...
  9550.0000    -46.6122      7.1751      5.6522      5.7815     11.3075    102.7880      2.5728      0.0735     27.0704     75.9308  
  9550.5000    -46.4951      6.8835      5.6058      5.7710     11.3045    102.7536      2.5828      0.0511     27.0863     76.2959  
  9551.0000    -46.3276      6.9179      5.5808      5.7606     11.3015    102.7306      2.6029      0.0690     27.8766     77.4236  
  9551.5000    -46.1601      6.9660      5.5560      5.7502     11.2984    103.7548      2.6228      0.0963     28.7524     78.2562  
  9552.0000    -46.0457      7.0695      5.5312      5.7313     11.2950    106.3511      2.5955      0.1126     29.4521     78.3240  
  9552.5000    -45.9258      7.1426      5.5066      5.7141     11.2897    106.7059      2.6108      0.1105     29.5837     78.2686  
  9553.0000    -45.8777      7.2203      5.4821      5.7156     11.2844    105.6740      2.6089      0.0970     29.0097     76.9999  
  9553.5000    -45.8504      7.2030      5.4577      5.7170     11.2791    104.7255      2.5972      0.0707     28.9958     75.8827  
  9554.0000    -45.8618      7.1127      5.4334      5.7185     11.2739    103.0305      2.5839      0.0442     29.2446     76.3774  
  9554.5000    -45.9434      7.0410      5.4092      5.7199     11.2686    100.4833      2.6461      0.0857     29.3367     76.9034  
  9555.0000    -46.0444      7.0853      5.4024      5.7172     11.2633     99.3308      2.6967      0.1044     28.8369     78.1366  
  9555.5000    -46.0606      7.1488      5.3976      5.6682     11.2580     99.1411      2.6545      0.0725     28.4993     78.3656  
  9556.0000    -46.0074      7.1242      5.3929      5.6196     11.2527    101.5102      2.6245      0.0474     28.8534     78.1486  
  9556.5000    -45.9547      6.9742      5.3881      5.5715     11.2602    104.3494      2.6240      0.0756     29.4955     77.4968  
  9557.0000    -45.9477      6.8273      5.3834      5.5504     11.2825    105.5726      2.6432      0.0970     29.9448     76.8783  
  9557.5000    -46.0075      6.6835      5.4640      5.5435     11.3048    106.1990      2.6321      0.0983     30.3454     77.2935  
  9558.0000    -46.1283      6.5427      5.5929      5.6852     11.3245    107.0752      2.6151      0.1207     30.5903     78.3574  
  9558.5000    -46.2007      6.4148      5.7249      5.8058     11.3188    107.9513      2.6181      0.1321     30.6481     79.2572  
  9559.0000    -46.1462      6.9846      5.8600      5.9290     11.3130    108.6142      2.6257      0.1133     30.5643     79.2961  
  9559.5000    -46.0231      7.4299      5.9983      6.0547     11.3073    109.1219      2.6350      0.1202     30.9979     79.1223  
  9560.0000    -45.8911      7.9035      6.0356      6.1832     11.3531    110.3453      2.6412      0.1082     31.3114     78.5976  
  9560.5000    -45.7354      8.4073      5.8080      6.3144     11.4188    111.4162      2.6267      0.1011     30.3054     77.7100  
  9561.0000    -45.5297      8.9432      5.5889      6.3040     11.2708    111.5713      2.6067      0.0541     28.9772     77.3549  
  9561.5000    -45.3347      8.3270      5.3782      6.2221     11.2356    110.8456      2.5816      0.0245     27.5619     75.8964  
  9562.0000    -45.2883      7.3071      5.2227      6.1412     11.2267    108.7032      2.5850      0.0026     26.5116     75.7048  
  9562.5000    -45.2231      6.5206      5.2543      6.0610     11.2178    106.1917      2.5968      0.0078     26.1543     75.6803  
  9563.0000    -45.1548      5.9433      5.2860      5.9760     11.2089    105.6488      2.6204      0.0341     26.4722     76.3051  
  9563.5000    -45.1197      6.2850      5.3105      5.8921     11.2244    106.2929      2.6396      0.0541     27.2897     78.0746  
  9564.0000    -45.0769      6.3579      5.3228      5.6501     11.2471    107.8376      2.6614      0.0898     29.1743     78.7560  
  9564.5000    -45.0152      6.6909      5.3351      5.3890     11.2737    106.8289      2.6685      0.1305     31.0808     79.0397  
  9565.0000    -45.0780      6.9113      5.3474      5.3635     11.3522    104.0185      2.6556      0.1534     31.6971     78.1060  
  9565.5000    -45.1436      6.8776      5.3394      5.4398     11.4678    102.2500      2.6409      0.1615     32.1558     78.6188  
  9566.0000    -45.0385      6.7028      5.4244      5.5172     11.6282    103.5853      2.6218      0.1703     31.8055     78.9639  
  9566.5000    -44.9280      6.7382      5.5073      5.5957     11.5305    104.9698      2.5998      0.1549     31.2451     79.1365  
  9567.0000    -44.8587      6.9053      5.5298      5.6753     11.3836    106.3053      2.5958      0.1104     30.9090     78.9849  
  9567.5000    -44.7893      7.0588      5.4887      5.7236     11.2955    108.2760      2.5946      0.1063     30.8613     78.4848  
  9568.0000    -44.7132      7.1762      5.4640      5.7150     11.3465    110.3140      2.6349      0.1371     30.6106     78.7883  
  9568.5000    -44.6585      7.2179      5.4393      5.7064     11.3827    111.5331      2.6505      0.1537     30.6172     78.7531  
  9569.0000    -44.6059      7.2056      5.4148      5.6978     11.3252    110.6055      2.6476      0.1215     30.8927     78.1514  
  9569.5000    -44.5036      7.1928      5.3904      5.6892     11.2664    109.0684      2.6445      0.1061     30.7484     78.0763  
  9570.0000    -44.3077      7.1907      5.3660      5.6884     11.2375    107.6105      2.6518      0.0866     29.8143     77.7010  
  9570.5000    -44.1626      6.8821      5.3418      5.6882     11.2628    108.0052      2.6595      0.1246     29.9049     76.8535  
  9571.0000    -44.1562      6.4730      5.3177      5.6858     11.2983    108.3904      2.6470      0.0991     30.1799     77.0039  
  9571.5000    -44.2062      6.2440      5.3096      5.6575     11.3338    109.3127      2.6379      0.1380     30.0896     78.2120  
  9572.0000    -44.5614      6.2975      5.3275      5.6293     11.3693    110.3345      2.6287      0.1672     30.5924     79.1030  
  9572.5000    -44.3560      6.7409      5.3455      5.6013     11.4048    109.3664      2.6083      0.1454     30.9598     79.5338  
  9573.0000    -44.3988      7.1743      5.3636      5.5734     11.4425    107.8931      2.6174      0.1308     31.5510     79.4063  
  9573.5000    -44.4451      7.5424      5.3817      5.5456     11.4821    107.8873      2.6319      0.1331     31.9720     79.0290  
  9574.0000    -44.6087      7.3133      5.3999      5.5180     11.4879    108.5255      2.6176      0.1554     31.4449     79.3666  
  9574.5000    -44.8052      6.8862      5.4539      5.5372     11.4371    108.6898      2.6013      0.1228     30.6998     78.8791  
  9575.0000    -44.9499      6.8128      5.5303      5.5507     11.3863    108.6040      2.5695      0.0821     29.4931     77.7845  
  9575.5000    -45.0212      7.0349      5.6078      5.5924     11.3355    107.7233      2.5911      0.0764     28.7887     78.2104  
  9576.0000    -44.9132      7.3709      5.6863      5.8235     11.3203    108.8441      2.6024      0.0960     29.1514     78.8201  
  9576.5000    -44.7234      7.3890      5.7660      5.8609     11.3591    112.1470      2.6083      0.1193     29.9768     78.8486  
  9577.0000    -44.6413      7.3389      5.8308      5.9033     11.3980    109.3811      2.5992      0.1038     30.7226     78.6746  
  9577.5000    -44.6703      7.5726      5.8309      5.9298     11.4343    106.8438      2.5680      0.0763     30.5232     77.8408  
  9578.0000    -44.6022      7.7692      5.8310      5.8703     11.4631    103.1311      2.6093      0.1004     29.9684     76.8862  
  9578.5000    -44.4934      7.5432      5.8311      5.8340     11.4919    101.7328      2.6621      0.1405     29.3423     76.4853  
  9579.0000    -44.3252      7.4390      5.8313      5.8367     11.4778    103.1713      2.6544      0.1514     28.4853     76.2454  
  9579.5000    -44.1993      7.3250      5.8314      5.8397     11.4185    103.3596      2.6246      0.1302     27.6502     76.7027  
