~VERSION INFORMATION
 VERS.                           2.00:        CWLS LOG ASCII STANDARD - VERSION 2.00
 WRAP.                             NO:        ONE LINE PER DEPTH STEP
~WELL INFORMATION
#MNEM.UNIT                   DATA             INFORMATION
#----------             --------------        ------------------------------
 STRT.F                       94.0000:        START DEPTH
 STOP.F                    11429.0000:        STOP DEPTH
 STEP.F                        0.5000:        STEP VALUE
 NULL.                      -999.2500:        NULL VALUE
 COMP. U.S. NAVY (HUSKY OIL CO.-OPER.:        COMPANY
 LOC .                      11 11N 1W:        LOCATION
 DATE.                        2/17/77:        LOG DATE
 WELL.             WEST FISH CREEK #1:        WELL
 UWI .                   500232001400:        UNIQUE WELL ID
 API .                   500232001400:        UNIQUE WELL IDENTIFIER
 FLD .                        WILDCAT:        FIELD
 CNTY.                    NORTH SLOPE:        COUNTY
 STAT.                         ALASKA:        STATE
 CTRY.                            USA:        COUNTRY
 OPER. U.S. NAVY (HUSKY OIL CO.-OPER.:        OPERATOR
 SRVC.                   SCHLUMBERGER:        SERVICE COMPANY
 LAT .                         0.0000:        LATITUDE
 LON .                         0.0000:        LONGITUDE
 DIGS.               CENTER LINE DATA:        DIGITIZING COMPANY
~CURVE INFORMATION      
#MNEM        .UNIT         API CODE           CURVE DESCRIPTION
#-----------------      --------------        ------------------------------
 DEPT        .F                      :        1  DEPTH
 SP          .MV                     :        2  
 ILD         .OHMM                   :        3  
 ILM         .OHMM                   :        4  
 LL8         .OHMM                   :        5  
 CALI        .IN                     :        6  
 RHOB        .G/C3                   :        7  
 DRHO        .G/C3                   :        8  
 NPHI        .%                      :        9  
 GR          .GAPI                   :        10 
 DT          .US/F                   :        11 
~PARAMETER INFORMATION
#MNEM.UNIT                  VALUE             DESCRIPTION OF MNEMONIC
#---------             ---------------        ------------------------------
 EKB .F                      113.0000:        KELLY BUSHING
 TD  .F                    11429.0000:        TOTAL DEPTH
~OTHER INFORMATION
~A    DEPTH          SP         ILD         ILM         LL8        CALI        RHOB        DRHO        NPHI          GR          DT 
# ...
  2930.5000    -31.2789      2.4362      2.6950      3.5662     12.2215      2.3224      0.0313     38.6290     41.9167    105.2340 
  2931.0000    -30.6487      2.3795      2.7231      3.8745     12.2295      2.3095      0.0345     39.0038     44.4596    106.3925 
  2931.5000    -30.0400      2.3364      2.7430      4.0308     12.2561      2.2894      0.0277     40.4033     44.9635    106.4425 
  2932.0000    -29.2233      2.2840      2.7236      3.5647     12.2826      2.2693      0.0161     41.8499     43.0728    106.5097 
  2932.5000    -28.7188      2.2289      2.6632      3.1149     12.3091      2.2492      0.0115     41.3217     40.2654    106.5887 
  2933.0000    -28.6205      2.1468      2.5711      2.8809     12.3360      2.2462      0.0250     40.6733     38.6954    105.9760 
  2933.5000    -28.7872      1.9887      2.4551      2.8463     12.3651      2.2489      0.0208     40.4491     38.6527    105.9940 
  2934.0000    -28.6624      1.8272      2.2776      2.9762     12.3941      2.2863      0.0195     40.0252     39.5161    106.0948 
  2934.5000    -29.2831      1.6789      2.1084      2.9020     12.4237      2.3215      0.0240     39.0736     40.6068    105.6984 
  2935.0000    -29.7882      1.6251      1.9519      2.7475     12.4654      2.3340      0.0317     38.7897     41.9441    104.8773 
  2935.5000    -30.0742      1.7247      1.9413      3.0032     12.5071      2.3444      0.0393     39.4111     42.2263    104.3341 
  2936.0000    -30.0652      1.9052      2.0369      3.5613     12.5487      2.3597      0.0468     39.0682     41.6916    104.6129 
  2936.5000    -29.8492      2.2411      2.3182      4.1501     12.5904      2.3772      0.0459     38.1888     40.6901    104.6146 
  2937.0000    -29.2004      2.6711      2.6543      4.3818     12.6321      2.4053      0.0466     36.9504     39.9826    104.0677 
  2937.5000    -28.4538      3.1613      3.0390      4.5310     12.6758      2.3732      0.0493     36.0624     39.2790    102.8105 
  2938.0000    -27.5657      3.5625      3.4079      4.7381     12.7464      2.3404      0.0464     37.4309     38.2293    102.0979 
  2938.5000    -26.7288      4.0146      3.8123      4.8867     12.8169      2.3357      0.0349     37.7780     37.8556    100.4066 
  2939.0000    -26.2510      4.4439      4.2647      5.0399     12.8875      2.3418      0.0452     37.6297     38.4132     99.7957 
  2939.5000    -25.8098      4.8817      4.7708      5.1980     12.9581      2.3479      0.0565     38.9066     39.9081    100.1649 
  2940.0000    -25.1452      5.3589      4.8989      5.3187     13.0287      2.3484      0.0746     40.3429     40.9644    101.1833 
  2940.5000    -24.4866      5.6384      4.9478      5.2982     13.0993      2.3355      0.1065     42.4949     41.0270    102.8499 
  2941.0000    -23.8387      5.7114      4.9610      5.2298     13.1680      2.3121      0.0968     42.9733     41.9956    102.8616 
  2941.5000    -23.2739      5.6301      4.8880      5.1230     13.2991      2.3118      0.0717     44.2758     43.2801    103.0873 
  2942.0000    -22.4894      5.5120      4.8161      5.0171     13.4339      2.3047      0.0847     45.0692     44.3389    104.4007 
  2942.5000    -21.6298      5.3817      4.7210      4.8601     13.5457      2.2835      0.0703     45.5896     44.4506    107.1152 
  2943.0000    -20.7344      5.1900      4.5706      4.7080     13.6353      2.2760      0.0765     45.5896     43.3509    108.3906 
  2943.5000    -19.8087      4.9927      4.4382      4.5607     13.5879      2.2794      0.0722     46.3408     41.7015    109.1657 
  2944.0000    -18.8657      4.8918      4.3096      4.4179     13.4065      2.2932      0.0555     44.9123     40.6795    113.3594 
  2944.5000    -17.9226      4.8630      4.2248      4.2896     13.2251      2.3079      0.0669     43.0321     41.2838    115.1470 
  2945.0000    -17.4763      4.8344      4.1656      4.2401     13.1165      2.3226      0.0830     41.3631     41.3142    114.4497 
  2945.5000    -17.4775      4.8060      4.1813      4.2684     13.0843      2.3178      0.0480     39.7256     41.2461    113.1282 
  2946.0000    -17.9289      4.8109      4.3105      4.4003     13.0390      2.2951      0.0243     38.7703     41.5200    109.6224 
  2946.5000    -18.7638      4.8545      4.4438      4.5363     13.0051      2.2836      0.0327     38.1006     42.0646    105.8416 
  2947.0000    -19.8578      4.8985      4.5557      4.6682     12.9971      2.2806      0.0333     37.3935     42.2384    105.6239 
  2947.5000    -20.9130      4.9429      4.6537      4.7669     13.0038      2.2906      0.0312     37.7241     41.3887    105.6936 
  2948.0000    -21.8654      5.0175      4.7539      4.8676     13.0256      2.3107      0.0306     38.0707     39.8634    104.0592 
  2948.5000    -22.7162      5.1397      4.8255      4.9705     13.0569      2.3309      0.0366     38.1081     39.2157    102.6832 
  2949.0000    -23.3063      5.2649      4.8491      5.0755     13.0933      2.3297      0.0525     37.9193     39.3612    102.2389 
  2949.5000    -23.7948      5.3932      4.8710      5.1310     13.1417      2.3103      0.0894     37.7946     39.8610    101.9850 
  2950.0000    -24.0196      5.3912      4.8372      5.0907     13.1969      2.2871      0.1006     40.6692     40.7817    101.7833 
  2950.5000    -23.3066      5.3351      4.7832      5.0506     13.2539      2.2674      0.0960     43.5437     42.4397    101.5353 
  2951.0000    -22.3849      5.1969      4.6911      4.8822     13.3110      2.2629      0.1042     46.0564     45.1520    102.3380 
  2951.5000    -21.0712      4.9973      4.5336      4.6970     13.3638      2.2606      0.1155     48.1533     47.3745    107.0079 
  2952.0000    -19.2948      4.7930      4.2349      4.4729     13.4125      2.2584      0.1088     50.0655     48.8657    112.7073 
  2952.5000    -17.2311      4.5970      3.8542      4.1813     13.4611      2.2609      0.1119     49.9255     48.6241    118.8947 
  2953.0000    -16.0785      4.4091      3.7486      3.9651     13.5098      2.2657      0.1224     46.7149     48.4379    122.3102 
  2953.5000    -14.9512      4.2930      3.6460      3.8506     13.5584      2.2779      0.1329     44.1279     48.6013    122.6955 
  2954.0000    -14.0975      4.1918      3.5461      3.7395     13.6071      2.2904      0.1413     43.0526     49.2497    123.0570 
  2954.5000    -13.6939      4.1214      3.4890      3.6315     13.6121      2.2989      0.1453     41.9387     48.0484    123.6450 
  2955.0000    -13.4608      4.0916      3.4814      3.6001     13.5681      2.3134      0.1259     41.4714     47.6881    122.7302 
  2955.5000    -13.4154      4.0620      3.5023      3.6501     13.3903      2.3366      0.1115     40.8943     47.1576    119.5486 
  2956.0000    -13.5834      4.0325      3.6088      3.7056     13.2050      2.3476      0.0899     39.8204     45.6115    112.6473 
  2956.5000    -13.8782      4.2152      3.8059      3.9506     13.0407      2.3433      0.0701     38.2146     43.2052    107.4707 
  2957.0000    -14.4584      4.5005      4.0415      4.2117     13.0354      2.3409      0.0527     36.8762     41.5103    102.2320 
  2957.5000    -15.4554      4.8041      4.3734      4.5256     13.0301      2.3610      0.0537     35.2385     40.0108     99.9620 
  2958.0000    -16.8007      5.1163      4.6965      4.8512     13.0249      2.3759      0.0831     35.5819     38.9693     99.5792 
  2958.5000    -17.9773      5.3345      5.0879      5.2654     13.0312      2.3689      0.0894     36.0876     39.2860     99.2248 
  2959.0000    -18.8858      5.5620      5.2629      5.3542     13.0440      2.3563      0.0768     37.7421     40.1210     99.5642 
  2959.5000    -19.5898      5.7085      5.1855      5.2899     13.0567      2.3494      0.0670     39.0750     40.5454    100.8619 
  2960.0000    -20.3166      5.4172      4.9513      5.0859     13.0695      2.3380      0.0706     40.0627     40.8276    101.2416 
  2960.5000    -20.6907      5.1749      4.6881      4.8707     13.0822      2.3242      0.0515     38.9986     41.0131    101.6252 
