~VERSION INFORMATION
 VERS.                           2.00:        CWLS LOG ASCII STANDARD - VERSION 2.00
 WRAP.                             NO:        ONE LINE PER DEPTH STEP
~WELL INFORMATION
#MNEM.UNIT                   DATA             INFORMATION
#----------             --------------        ------------------------------
 STRT.F                      116.0000:        START DEPTH
 STOP.F                     8861.0000:        STOP DEPTH
 STEP.F                        0.5000:        STEP VALUE
 NULL.                      -999.2500:        NULL VALUE
 COMP.                     U.S. NAAVY:        COMPANY
 LOC .                 [33^13 17N 2W:        LOCATION
 DATE.                        3/30/77:        LOG DATE
 WELL.                    WT FORAN #1:        WELL
 UWI .                   501032001000:        UNIQUE WELL ID
 API .                   501032001000:        UNIQUE WELL IDENTIFIER
 FLD .                        WILDCAT:        FIELD
 CNTY.                    NORTH SLOPE:        COUNTY
 STAT.                         ALASKA:        STATE
 CTRY.                            USA:        COUNTRY
 OPER.                     U.S. NAAVY:        OPERATOR
 SRVC.                   SCHLUMBERGER:        SERVICE COMPANY
 LAT .                         0.0000:        LATITUDE
 LON .                         0.0000:        LONGITUDE
 DIGS.               CENTER LINE DATA:        DIGITIZING COMPANY
~CURVE INFORMATION      
#MNEM        .UNIT         API CODE           CURVE DESCRIPTION
#-----------------      --------------        ------------------------------
 DEPT        .F                      :        1  DEPTH
 CALI        .IN                     :        2  
 GR          .GAPI                   :        3  
 DRHO        .G/C3                   :        4  
 RHOB        .G/C3                   :        5  
 NPHI        .%                      :        6  
 DT          .US/F                   :        7  
 SP          .MV                     :        8  
 ILD         .OHMM                   :        9  
 ILM         .OHMM                   :        10 
 LL8         .OHMM                   :        11 
~PARAMETER INFORMATION
#MNEM.UNIT                  VALUE             DESCRIPTION OF MNEMONIC
#---------             ---------------        ------------------------------
 EKB .F                       39.0000:        KELLY BUSHING
 TD  .F                     8864.0000:        TOTAL DEPTH
 BHT .F                      152.0000:        BOTTOM HOLE TEMPERATURE
 BS  .                        14.2500:        BIT SIZE
 FD  .                        10.2000:        FLUID DENSITY
 CSIZ.                        16.0000:        CASING SIZE
 CBD .F                     1458.0000:        CASING DRILLER 1
 CBL .F                        0.0000:        CASING LOGGER 1
 DFT .                  MISCELLANEOUS:        TYPE FLUID IN HOLE
 DFV .                        45.0000:        VISCOSITY
 DFPH.                        10.5000:        PH
 DFL .                         5.5000:        FLUID LOSS
 RMS .                         2.4000:        RM
 MST .F                       54.0000:        RM MEAS. TEMP.
 RMF .                         2.3000:        RMF
 MFST.F                       56.0000:        RMF MEAS. TEMP.
 RMC .                         2.7000:        RMC
 MCST.F                       54.0000:        RMC MEAS. TEMP.
~OTHER INFORMATION
~A    DEPTH        CALI          GR        DRHO        RHOB        NPHI          DT          SP         ILD         ILM         LL8 
# ...
  2617.0000     17.9981     71.8052      0.0802      2.0476   -999.2500    131.7287    -29.0539      2.0833      1.7894      2.0961 
  2617.5000     17.9981     72.1342      0.0724      2.0476   -999.2500    129.8830    -28.3686      2.0865      1.8119      2.1224 
  2618.0000     17.9980     72.0136      0.0592      2.0499   -999.2500    127.3865    -27.9485      2.0833      1.8346      2.1490 
  2618.5000     17.9980     71.5275      0.0430      2.0523   -999.2500    126.4377    -27.9603      2.0801      1.8576      2.1760 
  2619.0000     17.9980     71.0607      0.0334      2.0581   -999.2500    127.1076    -28.3532      2.0769      1.8810      2.1807 
  2619.5000     17.9979     71.7445      0.0447      2.0656   -999.2500    126.8918    -28.5827      2.0737      1.8887      2.1807 
  2620.0000     17.9979     72.2167      0.0655      2.0731   -999.2500    126.1874    -28.6242      2.0554      1.8949      2.1808 
  2620.5000     17.9978     72.4677      0.0880      2.0743   -999.2500    127.0302    -28.6657      2.0371      1.8885      2.1770 
  2621.0000     17.9978     71.6741      0.0979      2.0681   -999.2500    127.0815    -28.7073      2.0279      1.8786      2.1725 
  2621.5000     17.9977     71.0293      0.0751      2.0618   -999.2500    126.1407    -29.8929      2.0247      1.8509      2.1679 
  2622.0000     17.9977     71.1011      0.0825      2.0703   -999.2500    129.1771    -30.5040      2.0214      1.8271      2.1449 
  2622.5000     17.9977     72.4843      0.0819      2.0769   -999.2500    133.3324    -30.8738      2.0182      1.8139      2.1212 
  2623.0000     17.9976     74.2367      0.0727      2.0695   -999.2500    132.2229    -30.9819      2.0150      1.8007      2.1037 
  2623.5000     17.9976     74.3356      0.0605      2.0546   -999.2500    134.0581    -30.8825      2.0118      1.7877      2.0951 
  2624.0000     17.9975     73.3518      0.0700      2.0521   -999.2500    132.3544    -30.6839      2.0086      1.7982      2.0866 
  2624.5000     17.9975     72.2121      0.0631      2.0669   -999.2500    129.5883    -30.0670      2.0054      1.7883      2.0781 
  2625.0000     17.9974     70.2636      0.0750      2.0920   -999.2500    129.2755    -29.0411      2.0021      1.7838      2.0678 
  2625.5000     17.9974     67.3454      0.0604      2.0991   -999.2500    128.7785    -27.9342      1.9987      1.7733      2.0530 
  2626.0000     17.9974     65.0227      0.0791      2.1186   -999.2500    128.5317    -26.9720      1.9953      1.7550      2.0447 
  2626.5000     17.9973     65.1484      0.0967      2.1355   -999.2500    129.2418    -26.3348      1.9919      1.7363      2.0404 
  2627.0000     17.9973     66.0693      0.0969      2.1476   -999.2500    130.1187    -26.0906      1.9882      1.7223      2.0174 
  2627.5000     17.9972     68.7398      0.0668      2.1156   -999.2500    130.8501    -26.3042      1.9831      1.7136      2.0054 
  2628.0000     17.9972     69.4632      0.0802      2.1252   -999.2500    130.8745    -26.4890      1.9781      1.7106      1.9934 
  2628.5000     17.9971     68.8811      0.0940      2.1365   -999.2500    131.2395    -26.7589      1.9730      1.7104      1.9863 
  2629.0000     17.9971     68.0375      0.0774      2.1203   -999.2500    132.0813    -27.0574      1.9680      1.7054      2.0017 
  2629.5000     17.9970     68.0561      0.0759      2.1149   -999.2500    133.6061    -27.2719      1.9630      1.6756      2.0021 
  2630.0000     17.9970     68.1270      0.0949      2.1315   -999.2500    136.8473    -27.2218      1.9629      1.6563      1.9870 
  2630.5000     17.9970     68.2347      0.0837      2.1165   -999.2500    139.2280    -27.1841      1.9698      1.6456      1.9559 
  2631.0000     17.9969     69.4803      0.0578      2.0873   -999.2500    139.4664    -27.3069      1.9767      1.6549      1.9562 
  2631.5000     17.9969     71.1827      0.0376      2.0672   -999.2500    137.5743    -27.5447      1.9836      1.6776      1.9939 
  2632.0000     17.9968     71.8923      0.0293      2.0518   -999.2500    134.6286    -27.5854      1.9906      1.6913      2.0129 
  2632.5000     17.9968     71.8587      0.0478      2.0604   -999.2500    133.3308    -27.5471      1.9975      1.6990      2.0267 
  2633.0000     17.9967     70.6190      0.0613      2.0735   -999.2500    132.4081    -27.6137      2.0045      1.7071      2.0402 
  2633.5000     17.9967     69.4046      0.0723      2.0755   -999.2500    132.0264    -27.6237      2.0150      1.7240      2.0449 
  2634.0000     17.9967     68.4775      0.0671      2.0705   -999.2500    132.6692    -27.5747      2.0256      1.7373      2.0528 
  2634.5000     17.9966     67.6055      0.0644      2.0664   -999.2500    133.9624    -27.5569      2.0363      1.7580      2.0690 
  2635.0000     17.9966     67.4361      0.0702      2.0659   -999.2500    134.2695    -27.6140      2.0470      1.7441      2.0750 
  2635.5000     17.9965     67.2667      0.0777      2.0715   -999.2500    134.4902    -27.5760      2.0577      1.7479      2.0549 
  2636.0000     17.9965     67.4228      0.0903      2.0800   -999.2500    134.0502    -27.5102      2.0685      1.7416      2.0579 
  2636.5000     17.9964     68.6664      0.1011      2.0884   -999.2500    132.1952    -27.5826      2.0794      1.7291      2.0720 
  2637.0000     17.9964     70.1128      0.0817      2.0878   -999.2500    133.2509    -27.5824      2.0799      1.7053      2.0683 
  2637.5000     17.9964     71.0049      0.0837      2.0983   -999.2500    134.8172    -27.3674      2.0598      1.6776      2.0570 
  2638.0000     17.9963     71.5106      0.0977      2.1095   -999.2500    135.0802    -27.0483      2.0398      1.6555      2.0457 
  2638.5000     17.9963     71.7791      0.0981      2.0961   -999.2500    135.2026    -26.7065      2.0201      1.6404      2.0344 
  2639.0000     17.9962     71.7284      0.0807      2.0918   -999.2500    135.5879    -26.4455      2.0005      1.6246      2.0232 
  2639.5000     17.9962     71.4683      0.0685      2.0834   -999.2500    134.1019    -26.2846      1.9811      1.6186      2.0121 
  2640.0000     17.9961     71.2879      0.0563      2.0709   -999.2500    134.7681    -26.5007      1.9619      1.6200      2.0010 
  2640.5000     17.9961     70.9512      0.0653      2.0631   -999.2500    137.0824    -26.8886      1.9429      1.6192      1.9900 
  2641.0000     17.9961     70.0659      0.0628      2.0560   -999.2500    137.6827    -27.2188      1.9255      1.6164      1.9929 
  2641.5000     17.9960     68.9042      0.0581      2.0484   -999.2500    139.1512    -27.5652      1.9108      1.6159      2.0021 
  2642.0000     17.9960     68.1807      0.0585      2.0493   -999.2500    139.2840    -28.2478      1.8963      1.6202      2.0113 
  2642.5000     17.9959     68.7420      0.0694      2.0595   -999.2500    136.8664    -28.5731      1.8810      1.6233      2.0198 
  2643.0000     17.9959     69.5083      0.0628      2.0613   -999.2500    135.4891    -28.2004      1.8648      1.6159      2.0275 
  2643.5000     17.9958     70.1006      0.0446      2.0493   -999.2500    136.8786    -27.8084      1.8489      1.5953      2.0353 
  2644.0000     17.9958     70.9671      0.0347      2.0389   -999.2500    138.6648    -27.3537      1.8019      1.5777      2.0431 
  2644.5000     17.9958     72.0344      0.0386      2.0314   -999.2500    142.5977    -27.1571      1.7539      1.5447      2.0331 
  2645.0000     17.9957     72.8309      0.0530      2.0401   -999.2500    147.3547    -27.3883      1.7166      1.5095      2.0122 
  2645.5000     17.9957     72.6526      0.0782      2.0526   -999.2500    148.6153    -27.8234      1.7137      1.4679      1.9594 
  2646.0000     17.9956     72.3955      0.0734      2.0480   -999.2500    149.3371    -28.2198      1.7108      1.4666      1.8726 
  2646.5000     17.9956     72.4470      0.0675      2.0413   -999.2500    147.1593    -28.4470      1.7079      1.4666      1.8302 
  2647.0000     17.9955     72.3972      0.0696      2.0539   -999.2500    145.4455    -28.5583      1.7050      1.4935      1.9534 
