~VERSION INFORMATION
 VERS.                           2.00:        CWLS LOG ASCII STANDARD - VERSION 2.00
 WRAP.                             NO:        ONE LINE PER DEPTH STEP
~WELL INFORMATION
#MNEM.UNIT                   DATA             INFORMATION
#----------             --------------        ------------------------------
 STRT.F                      112.0000:        START DEPTH
 STOP.F                    10176.0000:        STOP DEPTH
 STEP.F                        0.5000:        STEP VALUE
 NULL.                      -999.2500:        NULL VALUE
 COMP.                      HUSKY OIL:        COMPANY  
 LOC .                   36  11N   4W:        LOCATION   
 DATE.                        2/16/81:        LOG DATE 
 WELL.            NORTH INIGOK TEST 1:        WELL     
 UWI .                   501032001700:        UNIQUE WELL ID 
 API .                   501032001700:        UNIQUE WELL IDENTIFIER 
 FLD .                        WILDCAT:        FIELD    
 CNTY.                    NORTH SLOPE:        COUNTY  
 STAT.                         ALASKA:        STATE   
 CTRY.                            USA:        COUNTRY 
 OPER.                      HUSKY OIL:        OPERATOR  
 SRVC.                            440:        SERVICE COMPANY 
 LAT .                         0.0000:        LATITUDE
 LON .                         0.0000:        LONGITUDE
 DIGS.                             65:        DIGITIZING COMPANY 
~CURVE INFORMATION      
#MNEM.UNIT                 API CODE           CURVE DESCRIPTION
#---------              --------------        ------------------------------
 DEPT.F                              :        1  DEPTH
 SP  .MV                             :        2
 SFL .OHMM                           :        3
 ILD .OHMM                           :        4
 ILM .OHMM                           :        5
 NPHI.%                              :        6
 CALI.IN                             :        7
 GR  .GAPI                           :        8
 RHOB.G/C3                           :        9
 DRHO.G/C3                           :       10
 DT  .US/F                           :       11
~PARAMETER INFORMATION       
#MNEM.UNIT                  VALUE             DESCRIPTION OF MNEMONIC
#---------             ---------------        ------------------------------
 EKB .F                      166.0000:        KELLY BUSHING
 TD  .F                    10167.0000:        TOTAL DEPTH
~OTHER INFORMATION
~A    DEPTH          SP         SFL         ILD         ILM        NPHI        CALI          GR        RHOB        DRHO          DT  
# ...
  2122.0000    -46.9190      6.7535      6.8136      6.9980     50.7329     18.8944     57.0510      2.3528      0.1123    113.9428  
  2122.5000    -46.9554      6.7386      6.7960      7.0315     50.6739     18.8443     56.8675      2.3384      0.0968    114.5767  
  2123.0000    -46.6692      6.6424      6.7565      7.0683     50.1258     18.8452     56.7630      2.3179      0.0906    116.8352  
  2123.5000    -46.1335      6.5103      6.7098      7.0030     48.6895     18.8320     55.7000      2.3396      0.1172    117.8394  
  2124.0000    -45.7599      6.3232      6.6633      6.9291     48.4596     18.7942     55.0395      2.3338      0.1168    118.7529  
  2124.5000    -45.5294      6.1455      6.6172      6.8559     48.9350     18.7747     54.9192      2.3199      0.0968    119.6454  
  2125.0000    -45.2527      6.0815      6.5714      6.7834     49.0496     18.7665     55.9516      2.3307      0.0981    119.8337  
  2125.5000    -45.0635      6.0362      6.5259      6.7118     50.1849     18.8131     57.7736      2.3454      0.1092    119.5586  
  2126.0000    -45.2190      5.9167      6.4807      6.6409     51.3755     18.8490     59.4348      2.3357      0.0996    117.4569  
  2126.5000    -45.6101      5.8679      6.4544      6.5777     52.1758     18.8905     61.1385      2.3182      0.0952    116.9205  
  2127.0000    -46.0144      5.9885      6.4328      6.5334     52.1824     18.9190     62.3172      2.3135      0.1026    117.2146  
  2127.5000    -46.6377      5.9641      6.4112      6.4895     50.7137     18.8893     63.5057      2.2998      0.1019    118.4557  
  2128.0000    -47.9573      5.7999      6.3898      6.4984     49.2968     18.8269     64.0294      2.2723      0.0816    121.2107  
  2128.5000    -50.0358      5.5291      6.3419      6.6158     47.9164     18.7687     62.4559      2.2781      0.0822    120.0273  
  2129.0000    -53.1757      5.4409      6.2745      6.7453     47.7590     18.8173     60.3805      2.2753      0.0807    116.9989  
  2129.5000    -54.0999      5.7799      6.2027      6.8223     48.3746     18.8295     58.8522      2.2686      0.0889    113.7839  
  2130.0000    -54.5216      6.5505      6.0219      6.7653     48.4154     18.7560     59.2046      2.2697      0.0971    110.2990  
  2130.5000    -52.1933      7.4239      5.8659      6.6373     48.3424     18.6209     60.1620      2.2649      0.0946    109.8182  
  2131.0000    -49.6895      7.8315      5.7140      6.4847     48.3862     18.4543     61.1827      2.2686      0.0914    112.1812  
  2131.5000    -47.7281      7.0987      5.6734      6.2130     48.1121     18.4052     62.1242      2.2976      0.1010    112.8124  
  2132.0000    -46.1673      5.8286      5.6497      5.9302     48.2657     18.4692     63.1378      2.3198      0.1126    113.3470  
  2132.5000    -46.1399      5.0321      5.7063      5.9058     48.4516     18.5601     65.1840      2.3144      0.1100    114.1404  
  2133.0000    -46.4756      5.3818      5.7635      5.9135     50.2112     18.6872     64.6905      2.3312      0.1298    113.7960  
  2133.5000    -46.3796      5.8628      5.8212      6.0564     52.0542     18.7016     63.0159      2.3146      0.1195    112.7043  
  2134.0000    -46.4052      6.3868      5.8965      6.1666     51.9283     18.7043     63.1748      2.3238      0.1126    111.8954  
  2134.5000    -46.5749      6.5430      5.9830      6.2789     51.2148     18.8040     64.6234      2.3202      0.1222    113.7028  
  2135.0000    -46.9134      6.4644      6.0709      6.3931     51.8439     18.8617     65.1376      2.3086      0.1084    114.5659  
  2135.5000    -47.4340      6.1784      6.1600      6.5095     52.2383     18.8828     63.4056      2.3064      0.1034    116.8598  
  2136.0000    -48.3403      5.9051      6.2504      6.6279     52.5840     18.9080     62.3628      2.3023      0.1160    116.0941  
  2136.5000    -49.3618      6.0853      6.3233      6.7461     52.7947     18.9031     62.3105      2.2911      0.1169    112.4608  
  2137.0000    -49.9082      6.5976      6.3611      6.8663     53.5067     18.9128     62.2506      2.2955      0.1013    110.8743  
  2137.5000    -49.8444      7.1531      6.3916      6.8555     52.3845     18.9142     61.6410      2.2968      0.1045    111.0467  
  2138.0000    -48.7811      7.3193      6.3930      6.8257     51.1240     18.7521     61.0969      2.2864      0.0924    113.7447  
  2138.5000    -49.0450      7.0562      6.3725      6.7808     50.8333     18.6270     60.9044      2.2975      0.0943    117.0829  
  2139.0000    -49.7283      6.5271      6.2741      6.7385     51.9873     18.6879     61.2625      2.3131      0.1083    119.3925  
  2139.5000    -50.6621      5.9938      6.1773      6.6965     53.0121     18.7239     61.3419      2.3085      0.1023    117.7469  
  2140.0000    -51.5634      5.5935      6.0819      6.6510     53.0604     18.7512     61.6988      2.2900      0.1008    115.0545  
  2140.5000    -51.8442      6.0042      5.9880      6.5302     52.8738     18.7707     62.4924      2.2937      0.1028    112.2514  
  2141.0000    -51.1589      6.8834      5.8956      6.4089     52.8921     18.7216     63.6168      2.3004      0.1038    109.6521  
  2141.5000    -50.3132      7.9347      5.7302      6.1996     52.7412     18.6323     63.7641      2.3019      0.1022    113.0080  
  2142.0000    -49.5366      7.4856      5.5697      5.9673     52.5146     18.5940     63.9551      2.3048      0.0970    116.6266  
  2142.5000    -48.8941      6.5902      5.4670      5.7437     52.7244     18.6606     64.7079      2.2978      0.0913    119.6590  
  2143.0000    -48.3834      5.8655      5.3682      5.6280     51.9334     18.7856     65.4955      2.2932      0.0927    121.3172  
  2143.5000    -47.6515      5.7774      5.2764      5.5226     51.5316     18.8733     66.8034      2.3109      0.1024    122.0883  
  2144.0000    -46.8452      5.6942      5.1618      5.4204     53.5028     18.9332     67.3361      2.3163      0.1091    122.4453  
  2144.5000    -46.4803      5.5803      5.0351      5.3202     55.2132     18.9551     67.2990      2.3187      0.1148    123.1387  
  2145.0000    -46.2974      5.3893      4.8625      5.2188     55.5573     19.0260     69.3083      2.3274      0.1212    124.3208  
  2145.5000    -46.1291      5.0879      4.7055      5.0234     55.0495     19.1004     70.8411      2.3153      0.1043    125.8700  
  2146.0000    -46.1192      4.7717      4.5898      4.8726     53.9535     19.0757     71.5331      2.3075      0.0984    126.9494  
  2146.5000    -46.2636      4.3542      4.5294      4.7803     54.1054     19.0358     70.5749      2.3276      0.1111    127.6104  
  2147.0000    -46.4774      3.8293      4.5487      4.7011     55.1312     18.9988     69.9000      2.3262      0.1090    128.2904  
  2147.5000    -46.5663      4.0733      4.5855      4.7226     55.2901     19.0016     69.5329      2.3236      0.1099    128.0096  
  2148.0000    -46.4946      4.4849      4.6709      4.7838     54.4100     19.1319     70.8500      2.3227      0.1057    127.6533  
  2148.5000    -46.4263      4.6956      4.7729      4.8946     53.4445     19.1998     72.1679      2.3184      0.0893    126.9951  
  2149.0000    -46.4488      4.8485      4.9016      5.0741     52.9519     19.1301     70.6127      2.2964      0.0823    126.4248  
  2149.5000    -46.5230      4.9814      5.0628      5.2602     53.2485     19.0436     69.6242      2.3038      0.0982    126.0381  
  2150.0000    -46.6198      5.1180      5.2782      5.4531     52.5540     18.9987     69.0572      2.3044      0.0921    125.9299  
  2150.5000    -46.6920      5.2583      5.4503      5.6321     51.9322     18.9977     68.9299      2.3371      0.1067    125.9119  
  2151.0000    -46.8358      5.3788      5.5631      5.7347     51.8247     18.9967     68.4727      2.3674      0.1313    125.9574  
  2151.5000    -47.1030      5.4695      5.6595      5.8393     51.2498     19.0075     67.9169      2.3550      0.1331    125.9859  
