~VERSION INFORMATION
 VERS.                           2.00:        CWLS LOG ASCII STANDARD - VERSION 2.00
 WRAP.                             NO:        ONE LINE PER DEPTH STEP
~WELL INFORMATION
#MNEM.UNIT                   DATA             INFORMATION
#----------             --------------        ------------------------------
 STRT.F                      112.0000:        START DEPTH
 STOP.F                    10176.0000:        STOP DEPTH
 STEP.F                        0.5000:        STEP VALUE
 NULL.                      -999.2500:        NULL VALUE
 COMP.                      HUSKY OIL:        COMPANY  
 LOC .                   36  11N   4W:        LOCATION   
 DATE.                        2/16/81:        LOG DATE 
 WELL.            NORTH INIGOK TEST 1:        WELL     
 UWI .                   501032001700:        UNIQUE WELL ID 
 API .                   501032001700:        UNIQUE WELL IDENTIFIER 
 FLD .                        WILDCAT:        FIELD    
 CNTY.                    NORTH SLOPE:        COUNTY  
 STAT.                         ALASKA:        STATE   
 CTRY.                            USA:        COUNTRY 
 OPER.                      HUSKY OIL:        OPERATOR  
 SRVC.                            440:        SERVICE COMPANY 
 LAT .                         0.0000:        LATITUDE
 LON .                         0.0000:        LONGITUDE
 DIGS.                             65:        DIGITIZING COMPANY 
~CURVE INFORMATION      
#MNEM.UNIT                 API CODE           CURVE DESCRIPTION
#---------              --------------        ------------------------------
 DEPT.F                              :        1  DEPTH
 SP  .MV                             :        2
 SFL .OHMM                           :        3
 ILD .OHMM                           :        4
 ILM .OHMM                           :        5
 NPHI.%                              :        6
 CALI.IN                             :        7
 GR  .GAPI                           :        8
 RHOB.G/C3                           :        9
 DRHO.G/C3                           :       10
 DT  .US/F                           :       11
~PARAMETER INFORMATION       
#MNEM.UNIT                  VALUE             DESCRIPTION OF MNEMONIC
#---------             ---------------        ------------------------------
 EKB .F                      166.0000:        KELLY BUSHING
 TD  .F                    10167.0000:        TOTAL DEPTH
~OTHER INFORMATION
~A    DEPTH          SP         SFL         ILD         ILM        NPHI        CALI          GR        RHOB        DRHO          DT  
   112.0000   -118.1297      0.8043    406.6515      0.7651   -999.2500     21.1569     25.5558   -999.2500      0.0010   -999.2500  
   112.5000   -120.3341      1.3966     74.3908      0.8165   -999.2500     21.8070     26.7949   -999.2500      0.0312   -999.2500  
   113.0000   -120.9530      2.3938     13.6087      0.9450   -999.2500     21.8202     27.2334      1.4869      0.0642   -999.2500  
   113.5000   -121.2776      4.0720      4.3450      1.7969   -999.2500     21.8160     27.5125      1.4931      0.0719   -999.2500  
   114.0000   -123.7890      5.1618      3.7070      2.3606   -999.2500     21.8118     27.6378      1.4983      0.0755   -999.2500  
   114.5000   -123.9553      5.8326      3.7178      3.4013   -999.2500     21.8077     26.6630      1.5001      0.0806   -999.2500  
   115.0000   -124.1202      6.3818      6.4784      5.8841   -999.2500     21.8031     25.3421      1.4863      0.0706   -999.2500  
   115.5000   -124.1790      6.7901     12.7767      6.5490   -999.2500     21.8006     24.5624      1.4841      0.0641   -999.2500  
   116.0000   -124.0611      8.4982    656.1023      6.5287   -999.2500     21.8022     25.3719      1.4867      0.0675   -999.2500  
   116.5000   -124.4493     11.4496   2380.9185      6.6937   -999.2500     21.8031     26.6900      1.4989      0.0778   -999.2500  
   117.0000   -125.1646     12.9048     86.7582      8.0778   -999.2500     21.8041     27.5044      1.5032      0.0822   -999.2500  
   117.5000   -124.7250     12.9393     14.5617      8.0813   -999.2500     21.8004     26.7197      1.4938      0.0701   -999.2500  
   118.0000   -124.0166     11.9735     12.4152      7.0414   -999.2500     21.8014     23.2299      1.4772      0.0524   -999.2500  
   118.5000   -124.6733     11.0628     12.5510      6.1234   -999.2500     21.8045     21.1738      1.4680      0.0497   -999.2500  
   119.0000   -123.7456     10.6320     13.3254      6.0304   -999.2500     21.7978     19.7212      1.4593      0.0359   -999.2500  
   119.5000   -122.5601     10.5072     14.7520      8.0643   -999.2500     21.8057     19.7642      1.4591      0.0381   -999.2500  
   120.0000   -124.4165     10.4235     18.9781     11.4734   -999.2500     21.8023     20.9038      1.4613      0.0434   -999.2500  
   120.5000   -124.4896     10.3809     19.7240     10.3211   -999.2500     21.8011     23.5562      1.4769      0.0547   -999.2500  
   121.0000   -124.8926     10.4612     19.0451      9.3682   -999.2500     21.8035     26.1427      1.4879      0.0673   -999.2500  
   121.5000   -126.4663     10.5430     19.0991      9.6810   -999.2500     21.8116     29.0303      1.5010      0.0780   -999.2500  
   122.0000   -126.5094     10.6307     18.9458     10.1190   -999.2500     21.8071     30.0130      1.5064      0.0885   -999.2500  
   122.5000   -126.6899     10.7192     18.2322     10.2945   -999.2500     21.7999     30.9469      1.5117      0.0918   -999.2500  
   123.0000   -127.3451     10.6317     19.0576     10.3780   -999.2500     21.8003     31.6388      1.5145      0.0927   -999.2500  
   123.5000   -127.9098     10.4164     18.6474     10.4183   -999.2500     21.8013     30.3965      1.5121      0.0866   -999.2500  
   124.0000   -128.6742     10.1626     17.3684     10.2708   -999.2500     21.7995     27.6086      1.4988      0.0799   -999.2500  
   124.5000   -129.2519      9.9150     15.9873      9.6956   -999.2500     21.7975     25.7518      1.4930      0.0760   -999.2500  
   125.0000   -129.6668      9.6303     14.1998      8.8943   -999.2500     21.7996     23.6325      1.4810      0.0657   -999.2500  
   125.5000   -129.7367      9.3496     13.0890      8.1068   -999.2500     21.7970     25.7076      1.4816      0.0585   -999.2500  
   126.0000   -129.6315      9.0770     11.9200      7.3817   -999.2500     21.7964     27.4542      1.4914      0.0709   -999.2500  
   126.5000   -129.3371      8.8125     11.1371      6.9096   -999.2500     21.7957     27.8116      1.4854      0.0683   -999.2500  
   127.0000   -129.0842      8.6917     10.5231      6.7697   -999.2500     21.7995     27.3174      1.4800      0.0590   -999.2500  
   127.5000   -128.8922      8.6261      9.9971      6.6080   -999.2500     21.8213     27.2976      1.4802      0.0587   -999.2500  
   128.0000   -128.8178      8.6487     10.0334      6.5788   -999.2500     21.8341     26.7830      1.4896      0.0709   -999.2500  
   128.5000   -129.0843      8.7440     10.2292      6.6071   -999.2500     21.8412     23.4279      1.4771      0.0572   -999.2500  
   129.0000   -129.2133      8.7928     10.6555      6.6251   -999.2500     21.8184     21.9033      1.4683      0.0474   -999.2500  
   129.5000   -129.2502      8.7386     11.1186      6.8313   -999.2500     21.8120     22.6269      1.4725      0.0502   -999.2500  
   130.0000   -129.1631      8.6356     11.6017      7.0852   -999.2500     21.8862     23.8355      1.4721      0.0568   -999.2500  
   130.5000   -129.1624      8.7161     12.0620      7.3486   -999.2500     21.8569     25.3568      1.4858      0.0644   -999.2500  
   131.0000   -129.1481      8.8598     12.2489      7.5002   -999.2500     21.7886     26.4182      1.4859      0.0667   -999.2500  
   131.5000   -129.0485      9.1377     12.4417      7.5610   -999.2500     21.7941     27.4795      1.4929      0.0695   -999.2500  
   132.0000   -128.8571      9.4812     12.6465      7.6223   -999.2500     21.8001     28.5409      1.4980      0.0770   -999.2500  
   132.5000   -128.6095      9.5520     12.7385      7.5566   -999.2500     21.8008     28.0872      1.4977      0.0776   -999.2500  
   133.0000   -128.4121      9.5202     12.7364      7.4487   -999.2500     21.8017     26.6585      1.4918      0.0716   -999.2500  
   133.5000   -128.3460      9.3431     12.5716      7.3397   -999.2500     21.7998     23.7642      1.4765      0.0585   -999.2500  
   134.0000   -128.2012      9.2698     12.4442      7.3002   -999.2500     21.7936     21.0664      1.4647      0.0456   -999.2500  
   134.5000   -128.0690      9.4262     12.3180      7.2964   -999.2500     21.7932     19.9936      1.4588      0.0371   -999.2500  
   135.0000   -128.0050      9.7901     12.1606      7.2995   -999.2500     21.7985     21.4662      1.4668      0.0476   -999.2500  
   135.5000   -127.9124     10.0527     12.0692      7.3824   -999.2500     21.8012     24.8690      1.4828      0.0646   -999.2500  
   136.0000   -127.9056     10.2893     12.0589      7.4095   -999.2500     21.8025     23.7415      1.4776      0.0527   -999.2500  
   136.5000   -127.9682     10.5301     12.0701      7.3900   -999.2500     21.8029     23.4333      1.4762      0.0565   -999.2500  
   137.0000   -127.8971     10.6945     12.0814      7.3279   -999.2500     21.7998     24.2444      1.4802      0.0601   -999.2500  
   137.5000   -128.0332     10.7488     12.0927      7.3195   -999.2500     21.7956     25.8399      1.4831      0.0612   -999.2500  
   138.0000   -128.0455     10.8124     12.3890      7.3578   -999.2500     21.7981     27.1073      1.4876      0.0654   -999.2500  
   138.5000   -128.2796     10.9755     12.6442      7.4871   -999.2500     21.8019     28.2873      1.4912      0.0728   -999.2500  
   139.0000   -128.7745     11.3563     12.8215      7.4534   -999.2500     21.8002     29.1948      1.4876      0.0659   -999.2500  
   139.5000   -128.8519     11.7607     13.2721      7.7908   -999.2500     21.7977     29.7370      1.4881      0.0670   -999.2500  
   140.0000   -128.8656     12.4704     14.2174      8.0407   -999.2500     21.7956     29.9249      1.4946      0.0743   -999.2500  
   140.5000   -128.9715     13.2144     15.0695      8.4596   -999.2500     21.7967     30.4432      1.5004      0.0791   -999.2500  
   141.0000   -128.9522     14.0486     16.4860      8.8294   -999.2500     21.7909     31.1727      1.5000      0.0809   -999.2500  
   141.5000   -128.8654     14.9885     17.9272      9.2154   -999.2500     21.7947     31.3875      1.4918      0.0725   -999.2500  
