~VERSION INFORMATION
 VERS.                      2.00:        CWLS LOG ASCII STANDARD - VERSION 2.00
 WRAP.                        NO:        ONE LINE PER DEPTH STEP
~WELL INFORMATION
#MNEM.UNIT               DATA            INFORMATION
#----------          ------------        ------------------------------
 STRT.F                 490.0000:        START DEPTH
 STOP.F               10659.0000:        STOP DEPTH
 STEP.F                   0.5000:        STEP VALUE
 NULL.                 -999.2500:        NULL VALUE
 COMP. HUSKY OIL NPR OPERATIONS,:        COMPANY  
 WELL.         EAST TESHEKPUK #1:        WELL     
 FLD .   U.S. NAVY NPR-4 WILDCAT:        FIELD    
 LOC .              16  14N   4W:        LOCATION   
 CNTY.                  N. SLOPE:        COUNTY  
 STAT.                    ALASKA:        STATE   
 CTRY.                       USA:        COUNTRY 
 DATE.                   4/11/76:        LOG DATE 
 API .              502790000000:        UNIQUE WELL IDENTIFIER 
 OPER. HUSKY OIL NPR OPERATIONS,:        OPERATOR  
 SRVC.              Schlumberger:        SERVICE COMPANY 
 UWI .              502790000000:        UNIQUE WELL ID 
 LAT .                    0.0000:        LATITUDE
 LON .                    0.0000:        LONGITUDE
 DIGS.          Center Line Data:        DIGITIZING COMPANY 
~CURVE INFORMATION      
#MNEM.UNIT            API CODE           CURVE DESCRIPTION
#---------          -------------        ------------------------------
 DEPT.F                         :        1  DEPTH
 SP  .MV                        :        2
 LL8 .OHMM                      :        3
 ILM .OHMM                      :        4
 ILD .OHMM                      :        5
 CALI.IN                        :        6
 GR  .GAPI                      :        7
 RHOB.G/C3                      :        8
 DRHO.G/C3                      :        9
 NPHI.%                         :       10
 DT  .US/F                      :       11
~PARAMETER INFORMATION       
#MNEM.UNIT              VALUE            DESCRIPTION OF MNEMONIC
#---------          -------------        ------------------------------
 EKB .F                  27.6000:        KELLY BUSHING
 TD  .F               10664.0000:        TOTAL DEPTH
 BHT .F                 172.0000:        BOTTOM HOLE TEMPERATURE
 BS  .                   13.5000:        BIT SIZE
 FD  .                   10.2000:        FLUID DENSITY
 CSIZ.                   16.0000:        CASING SIZE
 CBD .F                2578.0000:        CASING DRILLER 1
 CBL .F                2572.0000:        CASING LOGGER 1
 DFT . Salt Water-Lignosulfonate:        TYPE FLUID IN HOLE
 DFV .                   51.0000:        VISCOSITY
 DFPH.                   10.6000:        PH
 DFL .                    3.5000:        FLUID LOSS
 RMS .                    2.2600:        RM
 MST .F                  64.0000:        RM MEAS. TEMP.
 RMF .                    1.8900:        RMF
 MFST.F                  58.0000:        RMF MEAS. TEMP.
 RMC .                    2.5400:        RMC
 MCST.F                  58.0000:        RMC MEAS. TEMP.
 UWI .              502790000000:        UNIQUE WELL ID
~OTHER INFORMATION
~A    DEPTH          SP         LL8         ILM         ILD        CALI          GR        RHOB        DRHO        NPHI          DT  
# ...
  8500.0000    -28.1089      4.3695      2.9388      3.0472     12.5220     91.2580      2.4937      0.1253     34.1931    100.5279  
  8500.5000    -28.1621      4.2923      2.9320      3.0525     12.6632     91.8660      2.5091      0.1468     34.8069    101.5508  
  8501.0000    -28.3034      4.1818      2.9672      3.0579     12.7827     91.6112      2.4638      0.1094     34.2469    101.5746  
  8501.5000    -28.5082      4.0769      3.1138      3.0633     12.8377     91.1081      2.4184      0.0768     33.0994    101.2727  
  8502.0000    -28.6223      3.9859      3.3255      3.1296     12.7165     91.5812      2.4385      0.1022     31.9257    100.7382  
  8502.5000    -28.9190      4.0774      3.7183      3.2266     12.5953     92.5729      2.4404      0.1239     31.6245    100.1236  
  8503.0000    -29.3089      4.2197      4.0561      3.4148     12.9246     93.7184      2.4331      0.1449     31.1554     98.9669  
  8503.5000    -29.8156      5.3163      4.3271      3.6141     12.7514     93.0327      2.4532      0.1553     30.9144     97.0057  
  8504.0000    -30.5238      7.1489      4.6163      3.8249     12.4488     90.0433      2.4809      0.1783     28.8434     93.6321  
  8504.5000    -30.8735      8.0749      4.8636      4.1691     12.4476     87.4659      2.4582      0.1687     25.9932     89.8828  
  8505.0000    -30.9658      7.9364      4.9706      4.6150     12.0673     86.0467      2.4168      0.1286     21.2800     84.6530  
  8505.5000    -31.0582      7.4659      5.0800      5.1086     11.6870     84.4640      2.4383      0.0483     19.5959     81.0730  
  8506.0000    -31.2911      6.9317      5.3558      5.7222     11.3066     81.9250      2.5271      0.0144     19.2784     79.2885  
  8506.5000    -31.5753      6.6744      5.7894      6.2181     11.3460     80.2214      2.5686      0.0345     19.8088     79.4544  
  8507.0000    -31.9627      7.3273      6.2580      6.6743     11.3990     79.8606      2.5502      0.0293     20.4722     81.4941  
  8507.5000    -32.1171      8.7865      6.7647      6.9941     11.2668     78.0669      2.5352      0.0357     21.0516     83.4735  
  8508.0000    -32.2163     10.7330      7.3123      7.3292     11.4315     74.8972      2.5336      0.0787     20.7317     82.9860  
  8508.5000    -32.3510     12.3013      7.9042      7.6804     11.5629     70.0963      2.5668      0.0927     17.5431     81.0991  
  8509.0000    -32.4062     13.2035      8.0215      7.8528     11.2128     66.4273      2.5361      0.0163     14.6323     77.2223  
  8509.5000    -32.3994     12.9419      8.0935      7.9682     11.0323     62.5266      2.5788      0.0163     12.4559     72.3352  
  8510.0000    -32.4556     10.8952      7.8797      8.0795     11.0213     59.6686      2.6183      0.0128     11.8701     68.8402  
  8510.5000    -32.5531      8.9782      7.5103      8.0304     11.0548     58.0832      2.6461      0.0008     11.8917     68.1684  
  8511.0000    -32.5679      9.2355      7.1581      7.9816     11.0861     58.8826      2.6171     -0.0059     13.0947     69.3463  
  8511.5000    -32.4980      9.5002      6.8435      7.4364     11.0657     61.0599      2.5927      0.0006     14.9019     71.5763  
  8512.0000    -32.4355      9.7014      6.5799      6.9223     11.0452     64.0700      2.6098      0.0167     16.1151     73.3921  
  8512.5000    -32.4413      9.1968      6.3265      6.5220     11.0382     67.1004      2.6270      0.0181     16.4556     74.6909  
  8513.0000    -32.2549      8.3235      6.0828      6.4587     11.0461     67.3379      2.6224      0.0153     16.7407     75.1133  
  8513.5000    -32.0806      7.5896      6.0541      6.3960     11.0542     67.8541      2.6044      0.0087     17.1946     75.9646  
  8514.0000    -31.9218      7.1113      6.0848      6.3484     11.0614     72.0717      2.5747      0.0044     18.6925     77.7837  
  8514.5000    -31.8069      7.0437      6.1156      6.3204     11.0131     79.1607      2.5483      0.0000     20.0546     80.6207  
  8515.0000    -31.8036      7.6989      6.1466      6.2925     10.9782     83.6250      2.5464      0.0079     21.1059     83.8944  
  8515.5000    -31.8456      8.2183      6.1777      6.3787     11.0544     85.7524      2.5570      0.0315     21.7956     85.3245  
  8516.0000    -31.9219      8.8872      6.2090      6.5799     11.0622     84.5541      2.5568      0.0546     21.2971     85.5364  
  8516.5000    -32.0057      8.0991      6.3867      6.7875     10.9699     81.3263      2.5304      0.0248     20.4443     84.9455  
  8517.0000    -32.1153      7.6107      6.6203      7.0016     10.8775     77.6419      2.5045      0.0118     19.6697     83.2331  
  8517.5000    -32.2478      7.9442      6.8624      7.2189     10.7852     76.2710      2.5233      0.0142     20.0871     82.7048  
  8518.0000    -32.3164      8.8785      7.1135      7.3555     10.7622     77.3427      2.5477      0.0313     20.9474     83.7769  
  8518.5000    -32.3448     10.2252      7.3737      7.4477     10.7514     78.3670      2.5652      0.0494     21.5708     84.8105  
  8519.0000    -32.3593     10.9949      7.5188      7.5411     10.7407     77.7146      2.5583      0.0253     20.4839     84.0053  
  8519.5000    -32.3357     10.9660      7.5717      7.6356     10.7300     76.1066      2.5340      0.0068     19.0932     81.0989  
  8520.0000    -32.2242     10.0886      7.6251      7.7393     10.7193     73.1678      2.5507      0.0168     17.2914     78.0168  
  8520.5000    -32.1801      9.2593      7.6787      7.8989     10.7096     70.9246      2.5672      0.0080     16.5660     77.1793  
  8521.0000    -32.1019      8.8208      7.9046      8.0619     10.7091     72.4203      2.5500     -0.0009     16.7628     77.4923  
  8521.5000    -31.9952      8.6434      8.3208      8.2282     10.7086     73.7765      2.5327      0.0052     17.9774     79.2457  
  8522.0000    -31.9101      8.8716      8.7588      8.3979     10.7081     75.1327      2.5518      0.0098     18.8044     81.3657  
  8522.5000    -31.9354     10.0648      9.2200      8.6574     10.7079     76.4889      2.5414      0.0122     19.0117     82.4440  
  8523.0000    -31.9281     12.3586      9.7054      9.1975     10.7119     73.2264      2.5310      0.0047     18.4984     82.7827  
  8523.5000    -31.8486     14.1170     10.2163      9.7712     10.7158     69.5658      2.5206     -0.0002     17.6516     81.3480  
  8524.0000    -31.7836     14.5323     10.7542     10.3478     10.7118     64.2161      2.5245     -0.0009     16.1014     78.3633  
  8524.5000    -31.7392     14.8239     11.2796     10.6947     10.7050     61.0711      2.5306     -0.0007     14.2768     75.0711  
  8525.0000    -31.8290     15.2316     11.3954     11.0532     10.6981     59.6841      2.5535      0.0086     13.1153     72.5629  
  8525.5000    -31.9306     14.9919     11.5123     11.4237     10.6912     58.2768      2.5748      0.0176     12.3526     70.8858  
  8526.0000    -31.9909     13.4555     11.6305     11.5926     10.6844     57.4786      2.6019      0.0258     11.9723     69.5369  
  8526.5000    -32.0312     12.7065     11.4843     11.3602     10.6775     58.2092      2.6181      0.0268     12.0799     68.9683  
  8527.0000    -32.0129     13.3180     11.0452     11.1324     10.6706     58.8539      2.6342      0.0112     12.6164     69.3525  
  8527.5000    -31.9445     13.9367     10.6230     10.9092     10.6570     59.5963      2.5915     -0.0009     13.2606     70.3949  
  8528.0000    -31.8230     13.3470     10.2169     10.6485     10.6691     62.4820      2.5694      0.0024     13.8851     71.6589  
  8528.5000    -31.8278     11.9587      9.8263     10.1852     10.6879     64.4147      2.5589      0.0093     14.9136     72.6028  
  8529.0000    -31.8608     11.2677      9.3408      9.7420     10.6902     65.2181      2.5487      0.0111     15.8114     73.9922  
  8529.5000    -31.8467     11.1398      8.8673      9.3182     10.6887     66.4010      2.5444      0.0058     16.4782     76.1579  
