~VERSION INFORMATION
 VERS.                           2.00:        CWLS LOG ASCII STANDARD - VERSION 2.00
 WRAP.                             NO:        ONE LINE PER DEPTH STEP
~WELL INFORMATION
#MNEM.UNIT                   DATA             INFORMATION
#----------             --------------        ------------------------------
 STRT.F                       66.0000:        START DEPTH
 STOP.F                    11266.0000:        STOP DEPTH
 STEP.F                        0.5000:        STEP VALUE
 NULL.                      -999.2500:        NULL VALUE
 COMP.              HUSKY OIL COMPANY:        COMPANY
 LOC .                       6 12N 2E:        LOCATION
 DATE.                       12/24/76:        LOG DATE
 WELL.          SOUTH HARRISON BAY #1:        WELL
 UWI .                   501032000700:        UNIQUE WELL ID
 API .                   501032000700:        UNIQUE WELL IDENTIFIER
 FLD .                        WILDCAT:        FIELD
 CNTY.                    NORTH SLOPE:        COUNTY
 STAT.                         ALASKA:        STATE
 CTRY.                            USA:        COUNTRY
 OPER.              HUSKY OIL COMPANY:        OPERATOR
 SRVC.                   SCHLUMBERGER:        SERVICE COMPANY
 LAT .                         0.0000:        LATITUDE
 LON .                         0.0000:        LONGITUDE
 DIGS.               CENTER LINE DATA:        DIGITIZING COMPANY
~CURVE INFORMATION      
#MNEM        .UNIT         API CODE           CURVE DESCRIPTION
#-----------------      --------------        ------------------------------
 DEPT        .F                      :        1  DEPTH
 GR          .GAPI                   :        2  
 CALI        .IN                     :        3  
 DRHO        .G/C3                   :        4  
 RHOB        .G/C3                   :        5  
 NPHI        .%                      :        6  
 DT          .US/F                   :        7  
 SP          .MV                     :        8  
 ILD         .OHMM                   :        9  
 ILM         .OHMM                   :        10 
 LL8         .OHMM                   :        11 
~PARAMETER INFORMATION
#MNEM.UNIT                  VALUE             DESCRIPTION OF MNEMONIC
#---------             ---------------        ------------------------------
 EKB .F                       45.0000:        KELLY BUSHING
 TD  .F                    11290.0000:        TOTAL DEPTH
 BHT .F                      174.0000:        BOTTOM HOLE TEMPERATURE
 BS  .                        12.2500:        BIT SIZE
 FD  .                        10.7000:        FLUID DENSITY
 CSIZ.                        13.3750:        CASING SIZE
 CBD .F                     2600.0000:        CASING DRILLER 1
 CBL .F                     2600.0000:        CASING LOGGER 1
 DFT .                  MISCELLANEOUS:        TYPE FLUID IN HOLE
 DFV .                        52.0000:        VISCOSITY
 DFPH.                         8.2000:        PH
 DFL .                         6.0000:        FLUID LOSS
 RMS .                         1.3900:        RM
 MST .F                       60.0000:        RM MEAS. TEMP.
 RMF .                         1.0200:        RMF
 MFST.F                       60.0000:        RMF MEAS. TEMP.
 RMC .                         1.3800:        RMC
 MCST.F                       60.0000:        RMC MEAS. TEMP.
~OTHER INFORMATION
~A    DEPTH          GR        CALI        DRHO        RHOB        NPHI          DT          SP         ILD         ILM         LL8 
# ...
  1591.0000    110.7512     12.5863   -999.2500   -999.2500   -999.2500    154.0198    -26.7101      3.0353      3.0513      3.9586 
  1591.5000    108.7528     12.5751   -999.2500   -999.2500   -999.2500    154.6199    -26.7576      3.0640      3.0921      3.9624 
  1592.0000    107.7729     12.5804   -999.2500   -999.2500   -999.2500    153.3359    -28.4298      3.0918      3.1335      4.0120 
  1592.5000    107.5638     12.5882   -999.2500   -999.2500   -999.2500    151.5536    -30.5974      3.1190      3.1755      4.2187 
  1593.0000    106.9867     12.5907   -999.2500   -999.2500   -999.2500    151.6417    -31.2336      3.1464      3.2180      4.2415 
  1593.5000    106.2557     12.5925   -999.2500   -999.2500   -999.2500    151.9970    -31.3771      3.2017      3.2611      4.2180 
  1594.0000    105.6308     12.5918   -999.2500   -999.2500   -999.2500    152.3993    -29.9980      3.2595      3.3048      4.2393 
  1594.5000    105.4417     12.5905   -999.2500   -999.2500   -999.2500    151.8564    -28.5021      3.2383      3.2987      4.2591 
  1595.0000    105.3851     12.5970   -999.2500   -999.2500   -999.2500    151.9138    -26.8127      3.2014      3.2759      4.3418 
  1595.5000    104.1452     12.5934   -999.2500   -999.2500   -999.2500    152.5997    -26.4417      3.1555      3.2046      4.3270 
  1596.0000    102.7429     12.5962   -999.2500   -999.2500   -999.2500    152.4617    -25.7070      3.1065      3.1348      4.2058 
  1596.5000    105.2070     12.5924   -999.2500   -999.2500   -999.2500    150.8911    -24.0992      3.0728      3.0666      4.0838 
  1597.0000    106.8304     12.6000   -999.2500   -999.2500   -999.2500    150.3680    -21.5531      3.0282      3.0733      3.9810 
  1597.5000    108.5034     12.5933   -999.2500   -999.2500   -999.2500    150.6710    -21.2267      3.0319      3.0802      3.9539 
  1598.0000    108.9407     12.5972   -999.2500   -999.2500   -999.2500    149.5248    -23.2258      3.0319      3.0870      4.0396 
  1598.5000    107.2532     12.5901   -999.2500   -999.2500   -999.2500    148.9082    -26.5671      3.0392      3.0939      4.1236 
  1599.0000    103.1175     12.5927   -999.2500   -999.2500   -999.2500    148.2917    -28.0923      3.0376      3.1008      4.1735 
  1599.5000    101.8614     12.5995   -999.2500   -999.2500   -999.2500    149.0916    -30.4207      3.0445      3.1077      4.2055 
  1600.0000    103.9488     12.5947   -999.2500   -999.2500   -999.2500    150.2452    -32.4011      3.0569      3.1059      4.2717 
  1600.5000    106.8738     12.5963   -999.2500   -999.2500   -999.2500    151.5025    -31.3978      3.0678      3.0995      4.1870 
  1601.0000    109.2385     12.5935   -999.2500   -999.2500   -999.2500    152.4072    -29.3105      3.0596      3.0930      4.0771 
  1601.5000    105.4780     12.5937   -999.2500   -999.2500   -999.2500    152.7028    -27.3132      3.0455      3.0866      4.0159 
  1602.0000    102.8793     12.5814   -999.2500   -999.2500   -999.2500    153.6763    -26.6307      3.0159      3.0575      3.9780 
  1602.5000    105.0366     12.5811   -999.2500   -999.2500   -999.2500    154.3420    -26.9118      2.9778      3.0138      4.0402 
  1603.0000    107.6304     12.5990   -999.2500   -999.2500   -999.2500    153.8387    -26.6611      2.9497      2.9707      4.0460 
  1603.5000    109.0269     12.5955   -999.2500   -999.2500   -999.2500    153.3252    -26.5621      2.8884      2.9282      4.0637 
  1604.0000    107.7619     12.5889   -999.2500   -999.2500   -999.2500    153.4865    -26.8215      2.8284      2.8760      4.1766 
  1604.5000    107.0891     12.5895   -999.2500   -999.2500   -999.2500    154.1280    -26.8457      2.7696      2.8011      4.0808 
  1605.0000    106.8522     12.5831   -999.2500   -999.2500   -999.2500    152.9953    -25.4399      2.7635      2.7561      3.8262 
  1605.5000    106.3524     12.5839   -999.2500   -999.2500   -999.2500    153.2901    -24.6862      2.7952      2.7236      3.6111 
  1606.0000    104.8170     12.5792   -999.2500   -999.2500   -999.2500    155.0153    -26.9567      2.8272      2.7206      3.7745 
  1606.5000    107.4995     12.5761   -999.2500   -999.2500   -999.2500    156.1331    -31.6767      2.8596      2.7601      4.0350 
  1607.0000    110.4980     12.5691   -999.2500   -999.2500   -999.2500    155.2740    -36.2463      2.8923      2.8002      4.1814 
  1607.5000    115.5330     12.5795   -999.2500   -999.2500   -999.2500    153.9602    -37.3042      2.9255      2.8408      4.2475 
  1608.0000    118.5364     12.5826   -999.2500   -999.2500   -999.2500    153.5582    -38.2033      2.9590      2.8821      4.2137 
  1608.5000    121.2069     12.5834   -999.2500   -999.2500   -999.2500    153.9687    -38.9022      2.9999      2.9239      4.1633 
  1609.0000    119.1485     12.5813   -999.2500   -999.2500   -999.2500    153.7224    -39.2523      3.0360      2.9614      4.1313 
  1609.5000    117.1576     12.5811   -999.2500   -999.2500   -999.2500    153.6362    -39.4251      3.0556      2.9729      4.0967 
  1610.0000    115.3970     12.5846   -999.2500   -999.2500   -999.2500    153.7209    -39.3795      3.0472      2.9845      4.0869 
  1610.5000    113.7408     12.5841   -999.2500   -999.2500   -999.2500    153.9386    -39.6553      3.0345      2.9962      4.1084 
  1611.0000    114.6317     12.5834   -999.2500   -999.2500   -999.2500    154.3078    -39.6749      3.0409      3.0116      4.1181 
  1611.5000    115.7219     12.5841   -999.2500   -999.2500   -999.2500    154.3961    -40.3758      3.0522      3.0338      4.1254 
  1612.0000    114.1553     12.5840   -999.2500   -999.2500   -999.2500    154.2993    -40.6609      3.0620      3.0562      4.1250 
  1612.5000    110.5628     12.5884   -999.2500   -999.2500   -999.2500    154.3357    -40.6735      3.0861      3.0787      4.1378 
  1613.0000    108.9380     12.5876   -999.2500   -999.2500   -999.2500    154.5089    -40.4539      3.1088      3.1014      4.1491 
  1613.5000    105.6270     12.5782   -999.2500   -999.2500   -999.2500    154.5818    -40.0764      3.1314      3.1243      4.1648 
  1614.0000    104.1046     12.5876   -999.2500   -999.2500   -999.2500    154.1576    -39.5853      3.1541      3.1474      4.1877 
  1614.5000    104.4715     12.5952   -999.2500   -999.2500   -999.2500    153.7559    -39.0942      3.1769      3.1586      4.2036 
  1615.0000    105.3060     12.5894   -999.2500   -999.2500   -999.2500    153.4741    -38.1818      3.2000      3.1610      4.1876 
  1615.5000    106.4132     12.5960   -999.2500   -999.2500   -999.2500    153.1044    -37.2165      3.2232      3.1635      4.1482 
  1616.0000    107.9588     12.5873   -999.2500   -999.2500   -999.2500    153.0519    -36.8776      3.2465      3.1659      4.1488 
  1616.5000    110.4488     12.5900   -999.2500   -999.2500   -999.2500    153.1127    -38.5946      3.2701      3.1684      4.1759 
  1617.0000    112.6302     12.5954   -999.2500   -999.2500   -999.2500    153.0519    -40.2815      3.2735      3.1708      4.1976 
  1617.5000    114.0928     12.5932   -999.2500   -999.2500   -999.2500    152.9727    -41.0663      3.2229      3.1527      4.1867 
  1618.0000    111.2716     12.5873   -999.2500   -999.2500   -999.2500    152.7891    -41.1565      3.1732      3.1093      4.1492 
  1618.5000    107.7334     12.5872   -999.2500   -999.2500   -999.2500    152.7678    -41.2084      3.1242      3.0666      4.1161 
  1619.0000    111.6840     12.5951   -999.2500   -999.2500   -999.2500    153.0569    -41.6051      3.0759      3.0244      4.0903 
  1619.5000    114.0877     12.6014   -999.2500   -999.2500   -999.2500    153.4821    -42.0214      3.0284      2.9827      4.0700 
  1620.0000    111.8061     12.6061   -999.2500   -999.2500   -999.2500    153.8586    -42.4273      3.0061      2.9417      4.0650 
  1620.5000    110.6902     12.6052   -999.2500   -999.2500   -999.2500    153.8818    -42.5843      2.9568      2.9012      4.0643 
  1621.0000    109.6049     12.6010   -999.2500   -999.2500   -999.2500    153.8644    -41.7768      2.9077      2.8613      4.0406 
