~VERSION INFORMATION
 VERS.                      2.00:        CWLS LOG ASCII STANDARD - VERSION 2.00
 WRAP.                        NO:        ONE LINE PER DEPTH STEP
~WELL INFORMATION
#MNEM.UNIT               DATA            INFORMATION
#----------          ------------        ------------------------------
 STRT.F                 490.0000:        START DEPTH
 STOP.F               10659.0000:        STOP DEPTH
 STEP.F                   0.5000:        STEP VALUE
 NULL.                 -999.2500:        NULL VALUE
 COMP. HUSKY OIL NPR OPERATIONS,:        COMPANY  
 WELL.         EAST TESHEKPUK #1:        WELL     
 FLD .   U.S. NAVY NPR-4 WILDCAT:        FIELD    
 LOC .              16  14N   4W:        LOCATION   
 CNTY.                  N. SLOPE:        COUNTY  
 STAT.                    ALASKA:        STATE   
 CTRY.                       USA:        COUNTRY 
 DATE.                   4/11/76:        LOG DATE 
 API .              502790000000:        UNIQUE WELL IDENTIFIER 
 OPER. HUSKY OIL NPR OPERATIONS,:        OPERATOR  
 SRVC.              Schlumberger:        SERVICE COMPANY 
 UWI .              502790000000:        UNIQUE WELL ID 
 LAT .                    0.0000:        LATITUDE
 LON .                    0.0000:        LONGITUDE
 DIGS.          Center Line Data:        DIGITIZING COMPANY 
~CURVE INFORMATION      
#MNEM.UNIT            API CODE           CURVE DESCRIPTION
#---------          -------------        ------------------------------
 DEPT.F                         :        1  DEPTH
 SP  .MV                        :        2
 LL8 .OHMM                      :        3
 ILM .OHMM                      :        4
 ILD .OHMM                      :        5
 CALI.IN                        :        6
 GR  .GAPI                      :        7
 RHOB.G/C3                      :        8
 DRHO.G/C3                      :        9
 NPHI.%                         :       10
 DT  .US/F                      :       11
~PARAMETER INFORMATION       
#MNEM.UNIT              VALUE            DESCRIPTION OF MNEMONIC
#---------          -------------        ------------------------------
 EKB .F                  27.6000:        KELLY BUSHING
 TD  .F               10664.0000:        TOTAL DEPTH
 BHT .F                 172.0000:        BOTTOM HOLE TEMPERATURE
 BS  .                   13.5000:        BIT SIZE
 FD  .                   10.2000:        FLUID DENSITY
 CSIZ.                   16.0000:        CASING SIZE
 CBD .F                2578.0000:        CASING DRILLER 1
 CBL .F                2572.0000:        CASING LOGGER 1
 DFT . Salt Water-Lignosulfonate:        TYPE FLUID IN HOLE
 DFV .                   51.0000:        VISCOSITY
 DFPH.                   10.6000:        PH
 DFL .                    3.5000:        FLUID LOSS
 RMS .                    2.2600:        RM
 MST .F                  64.0000:        RM MEAS. TEMP.
 RMF .                    1.8900:        RMF
 MFST.F                  58.0000:        RMF MEAS. TEMP.
 RMC .                    2.5400:        RMC
 MCST.F                  58.0000:        RMC MEAS. TEMP.
 UWI .              502790000000:        UNIQUE WELL ID
~OTHER INFORMATION
~A    DEPTH          SP         LL8         ILM         ILD        CALI          GR        RHOB        DRHO        NPHI          DT  
# ...
  3100.0000    -62.4110      6.1497      5.3723      5.9136     14.5439     84.7597      2.3509      0.0364     36.9042     98.0523  
  3100.5000    -62.8585      5.7957      5.4264      5.9186     14.2712     86.1934      2.3860      0.0331     36.5317     99.9159  
  3101.0000    -62.7173      5.7467      5.4811      5.9086     14.2418     86.7827      2.4264      0.0579     36.2645    101.9876  
  3101.5000    -62.6946      5.6816      5.5984      5.8987     14.2793     86.0981      2.4524      0.0856     36.8990    102.0724  
  3102.0000    -63.0679      5.9964      5.7405      5.9087     14.3169     85.3499      2.4471      0.0906     36.1978    100.7484  
  3102.5000    -63.5502      6.5290      5.7465      5.9010     14.0693     83.5394      2.4217      0.0805     34.5642     98.7612  
  3103.0000    -63.9390      7.0063      5.6622      5.8363     13.9880     79.8760      2.4145      0.0777     33.6013     97.7790  
  3103.5000    -64.0250      6.2364      5.4574      5.7109     13.9952     78.9119      2.4232      0.0954     33.9220    101.4481  
  3104.0000    -63.4643      5.4979      5.2662      5.5734     14.1052     80.9383      2.4345      0.1360     35.9912    104.5757  
  3104.5000    -62.5960      5.2452      5.0817      5.4391     14.2033     83.3790      2.4581      0.1838     37.7758    108.6853  
  3105.0000    -61.9713      5.1124      4.9578      5.2997     14.2227     85.3712      2.4622      0.1793     38.5014    110.4801  
  3105.5000    -62.0714      5.0228      4.9282      5.1635     14.2002     87.0038      2.4575      0.1663     38.9327    110.3848  
  3106.0000    -62.1547      4.8752      4.8987      5.0883     14.3408     89.0595      2.4566      0.1462     38.9463    111.1970  
  3106.5000    -62.3832      5.0589      4.8726      5.0475     14.6253     91.0034      2.4432      0.1317     37.5282    109.4446  
  3107.0000    -62.8551      5.4084      4.8474      5.0070     14.9573     91.0285      2.4242      0.0908     36.1627    105.1368  
  3107.5000    -63.1764      5.6745      4.8223      4.9867     14.5840     90.6627      2.4378      0.0944     35.9504    104.8473  
  3108.0000    -63.2187      5.4856      4.8112      5.0050     14.5645     90.4640      2.4498      0.0947     36.7935    107.8335  
  3108.5000    -63.0662      5.3314      4.8023      5.0355     14.5515     91.3849      2.4643      0.1119     37.4976    109.7115  
  3109.0000    -62.8938      5.1999      4.8420      5.1107     14.5738     92.5269      2.4699      0.1250     38.2925    110.8888  
  3109.5000    -62.8228      5.2630      4.9966      5.2149     14.5660     92.6534      2.4677      0.1292     38.5921    110.0549  
  3110.0000    -63.1787      5.4966      5.1915      5.3134     14.5331     92.2282      2.4821      0.1322     37.6767    104.4844  
  3110.5000    -63.7348      5.9134      5.3437      5.4086     14.6424     89.7950      2.4775      0.1172     36.7326    101.2739  
  3111.0000    -64.1110      6.8069      5.3561      5.4339     14.5943     88.0284      2.4481      0.1006     35.7066     99.7115  
  3111.5000    -64.0415      6.8222      5.2146      5.3931     14.5231     86.0985      2.4229      0.0933     35.5149    100.5835  
  3112.0000    -63.3274      5.8337      4.9439      5.3263     14.4989     85.3317      2.4346      0.1069     36.4603    106.4325  
  3112.5000    -62.3335      5.0068      4.7243      5.0918     14.6062     86.6312      2.4544      0.1301     39.1238    113.4694  
  3113.0000    -61.3794      4.7687      4.5259      5.0129     14.6628     87.1834      2.4716      0.1548     40.7662    115.8887  
  3113.5000    -60.7258      4.6907      4.5083      4.9352     14.7193     88.9303      2.4470      0.1311     41.1370    114.1662  
  3114.0000    -60.3835      4.6699      4.4991      4.8587     14.7298     90.7470      2.4556      0.1207     40.1261    112.8777  
  3114.5000    -59.9599      4.6850      4.4592      4.8307     14.7895     92.3863      2.4521      0.1210     38.8296    111.5366  
  3115.0000    -59.5734      4.7002      4.4196      4.8192     14.8492     92.7557      2.4739      0.1334     38.5901    111.0158  
  3115.5000    -59.2724      4.7464      4.4470      4.8452     14.9629     93.2568      2.4507      0.1182     37.9867    110.6632  
  3116.0000    -59.1911      4.8289      4.5147      4.8899     15.2672     94.2271      2.4171      0.0966     37.7902    109.7624  
  3116.5000    -59.4238      4.9314      4.6716      4.9422     15.1568     93.3319      2.4184      0.0844     38.1018    110.0458  
  3117.0000    -59.4856      5.0787      4.8383      5.0504     14.8805     90.2076      2.4084      0.0682     38.8333    109.2829  
  3117.5000    -59.4263      5.2837      4.9966      5.2293     14.8512     86.5327      2.3993      0.0703     38.7793    106.2644  
  3118.0000    -59.1720      5.5162      5.2165      5.4560     14.7564     83.6762      2.4232      0.0843     37.9692    101.8995  
  3118.5000    -59.2831      5.7789      5.4462      5.6555     14.7215     82.0055      2.4311      0.0885     36.6872     96.2669  
  3119.0000    -59.6091      6.0854      5.5926      5.6933     14.6867     81.9526      2.4286      0.0894     34.5722     96.0359  
  3119.5000    -60.0687      6.1353      5.5610      5.6365     14.5940     83.5211      2.4113      0.0623     33.0176     98.1897  
  3120.0000    -61.1182      5.8559      5.4516      5.5446     14.4818     85.7747      2.3739      0.0387     35.1100    102.6729  
  3120.5000    -61.3450      5.5154      5.1585      5.3908     14.3696     89.0953      2.3929      0.0600     37.9403    108.2637  
  3121.0000    -60.8821      5.1947      4.8585      5.1882     14.3802     93.8985      2.4187      0.0993     40.8834    111.6906  
  3121.5000    -60.2859      4.8926      4.5759      4.9605     14.4586     96.2548      2.4387      0.1335     42.0290    114.5816  
  3122.0000    -59.4749      4.6081      4.3425      4.7192     14.5370     97.5916      2.4256      0.1242     42.4019    116.6421  
  3122.5000    -59.0390      4.4794      4.1251      4.5415     14.6153     98.6792      2.4148      0.1114     42.5579    115.1204  
  3123.0000    -58.9862      4.4496      4.1001      4.4850     14.8115     97.1289      2.4245      0.1094     42.7719    116.6700  
  3123.5000    -59.0387      4.4240      4.1125      4.4842     14.7558     95.3798      2.4120      0.0940     42.6510    114.4681  
  3124.0000    -58.8640      4.4898      4.1289      4.5375     14.8831     93.4578      2.4034      0.0921     42.0657    112.2885  
  3124.5000    -58.6123      4.5567      4.1453      4.5914     14.9946     91.9816      2.3940      0.0777     42.4129    113.9588  
  3125.0000    -58.2053      4.5917      4.1353      4.6396     15.0434     93.0228      2.3896      0.0628     44.4421    112.5613  
  3125.5000    -57.9976      4.5938      4.1167      4.6537     15.1646     95.4692      2.4110      0.0931     45.2574    112.1239  
  3126.0000    -57.7164      4.5959      4.0986      4.6679     15.3390     96.9846      2.4313      0.1076     44.5300    112.8316  
  3126.5000    -57.2778      4.5980      4.0805      4.6821     15.2648     97.3814      2.4207      0.0937     43.8082    110.1774  
  3127.0000    -56.7531      4.5434      4.0625      4.6612     15.0767     96.9966      2.4353      0.1022     43.1580    111.7024  
  3127.5000    -56.3896      4.4877      4.0158      4.6355     15.2138     97.7628      2.4180      0.0991     42.8037    114.6577  
  3128.0000    -56.3703      4.4327      3.9684      4.6099     15.2107     98.1250      2.3846      0.0924     42.8303    114.8902  
  3128.5000    -56.4493      4.3784      3.9216      4.5827     15.1794     98.0006      2.3741      0.0890     43.1621    113.5595  
  3129.0000    -56.5194      4.3247      3.8752      4.5410     15.2087     95.7500      2.4004      0.1087     43.4736    113.3630  
  3129.5000    -56.6129      4.2674      3.8295      4.4998     15.2957     92.9884      2.4264      0.1057     43.4867    113.5106  
