~VERSION INFORMATION
 VERS.                      2.00:        CWLS LOG ASCII STANDARD - VERSION 2.00
 WRAP.                        NO:        ONE LINE PER DEPTH STEP
~WELL INFORMATION
#MNEM.UNIT               DATA            INFORMATION
#----------          ------------        ------------------------------
 STRT.F                 438.0000:        START DEPTH
 STOP.F               11532.0000:        STOP DEPTH
 STEP.F                   0.5000:        STEP VALUE
 NULL.                 -999.2500:        NULL VALUE
 COMP.      HUSKY-NPR OPERATIONS:        COMPANY  
 WELL.          ATIGARU POINT #1:        WELL     
 FLD .                   WILDCAT:        FIELD    
 LOC .              19  14N   2E:        LOCATION   
 CNTY.               NORTH SLOPE:        COUNTY  
 STAT.                     ALSKA:        STATE   
 CTRY.                       USA:        COUNTRY 
 DATE.                    1/ /77:        LOG DATE 
 API .              501032000800:        UNIQUE WELL IDENTIFIER 
 OPER.      HUSKY-NPR OPERATIONS:        OPERATOR  
 SRVC.              Schlumberger:        SERVICE COMPANY 
 UWI .              501032000800:        UNIQUE WELL ID 
 LAT .                    0.0000:        LATITUDE
 LON .                    0.0000:        LONGITUDE
 DIGS.          Center Line Data:        DIGITIZING COMPANY 
~CURVE INFORMATION      
#MNEM.UNIT            API CODE           CURVE DESCRIPTION
#---------          -------------        ------------------------------
 DEPT.F                         :        1  DEPTH
 SP  .MV                        :        2
 ILD .OHMM                      :        3
 ILM .OHMM                      :        4
 LL8 .OHMM                      :        5
 CALI.IN                        :        6
 GR  .GAPI                      :        7
 DRHO.G/C3                      :        8
 RHOB.G/C3                      :        9
 NPHI.%                         :       10
 DT  .US/F                      :       11
~PARAMETER INFORMATION       
#MNEM.UNIT              VALUE            DESCRIPTION OF MNEMONIC
#---------          -------------        ------------------------------
 EKB .F                  25.0000:        KELLY BUSHING
 TD  .F               11534.0000:        TOTAL DEPTH
 BHT .F                   0.0000:        BOTTOM HOLE TEMPERATURE
 BS  .                   17.5000:        BIT SIZE
 FD  .                    9.3000:        FLUID DENSITY
 CSIZ.                   20.0000:        CASING SIZE
 CBD .F                 447.0000:        CASING DRILLER 1
 CBL .F                 443.0000:        CASING LOGGER 1
 DFT .                       Gel:        TYPE FLUID IN HOLE
 DFV .                   47.0000:        VISCOSITY
 DFPH.                   14.6000:        PH
 DFL .                    8.0000:        FLUID LOSS
 RMS .                    1.9300:        RM
 MST .F                  63.0000:        RM MEAS. TEMP.
 RMF .                    1.6900:        RMF
 MFST.F                  52.0000:        RMF MEAS. TEMP.
 RMC .                    1.6500:        RMC
 MCST.F                  60.0000:        RMC MEAS. TEMP.
 UWI .              501032000800:        UNIQUE WELL ID
~OTHER INFORMATION
~A    DEPTH          SP         ILD         ILM         LL8        CALI          GR        DRHO        RHOB        NPHI          DT  
# ...
  3378.0000    -20.8490      2.5048      2.3273      2.4530     14.4805     61.2790      0.0288      2.2670     38.5951    115.3790  
  3378.5000    -20.4396      2.4507      2.2859      2.4145     14.4826     60.9987      0.0447      2.2544     38.6023    122.5469  
  3379.0000    -20.2190      2.4425      2.2987      2.3928     14.5977     61.2229      0.0641      2.2633     39.0123    127.1357  
  3379.5000    -20.4005      2.4343      2.3248      2.4358     14.8454     61.3387      0.0680      2.2721     40.5528    127.9922  
  3380.0000    -20.6875      2.4261      2.3512      2.4305     14.9712     61.5446      0.0562      2.2592     41.4961    125.2917  
  3380.5000    -20.8679      2.4180      2.3166      2.4057     15.2438     61.8130      0.0528      2.2396     41.5312    119.5669  
  3381.0000    -21.0031      2.4099      2.2729      2.4024     15.1720     62.5618      0.0692      2.2628     41.1953    115.8286  
  3381.5000    -21.4204      2.4018      2.2301      2.3736     14.9827     64.0612      0.0739      2.2682     41.3192    118.9457  
  3382.0000    -21.7832      2.3938      2.1880      2.3485     14.8812     66.4347      0.0762      2.2707     42.1761    117.6643  
  3382.5000    -21.7166      2.3858      2.1467      2.3263     15.1822     67.8736      0.0664      2.2696     42.7770    115.0265  
  3383.0000    -21.8570      2.3778      2.1096      2.3129     15.1218     67.0628      0.0464      2.2457     42.7738    113.5782  
  3383.5000    -22.1235      2.3786      2.1543      2.3219     14.9657     65.7501      0.0409      2.2323     42.8568    110.8000  
  3384.0000    -21.9539      2.4108      2.2001      2.3483     15.2022     64.9127      0.0517      2.2424     42.2311    112.4755  
  3384.5000    -21.5710      2.4435      2.2468      2.3745     15.0558     65.3545      0.0701      2.2525     40.9984    119.3365  
  3385.0000    -21.6237      2.4766      2.2945      2.3975     15.3250     66.8135      0.0837      2.2399     40.5100    125.2550  
  3385.5000    -21.9266      2.5102      2.3063      2.3986     15.9947     67.5521      0.0784      2.2297     40.5907    127.3642  
  3386.0000    -21.7679      2.5442      2.3043      2.4717     15.9978     67.5663      0.0666      2.2357     41.3013    127.4604  
  3386.5000    -21.5536      2.5787      2.3024      2.5450     16.0010     67.6734      0.0635      2.2462     42.0782    124.3606  
  3387.0000    -21.5777      2.6137      2.3267      2.5320     16.0042     67.5705      0.0641      2.2651     41.6236    116.3588  
  3387.5000    -21.4168      2.6491      2.3944      2.5583     15.5188     67.4005      0.0681      2.2865     40.1017    114.8233  
  3388.0000    -20.9237      2.6851      2.4299      2.6050     15.5783     67.2120      0.0755      2.2744     37.9653    114.7420  
  3388.5000    -20.5705      2.7406      2.4576      2.6526     15.7729     66.7887      0.0711      2.2639     38.1294    115.2309  
  3389.0000    -20.0264      2.7987      2.4915      2.6924     15.4739     66.4697      0.0747      2.2632     38.4310    117.9492  
  3389.5000    -19.5018      2.8581      2.5208      2.7425     15.2991     66.1873      0.0752      2.2727     38.6788    114.8829  
  3390.0000    -19.0722      2.9187      2.5259      2.7960     15.3274     65.8185      0.0697      2.2825     38.6565    114.3929  
  3390.5000    -18.6328      2.9806      2.6362      2.8506     15.3217     65.7945      0.0636      2.2850     38.2236    113.9721  
  3391.0000    -18.0946      3.0438      2.7657      2.9278     15.2437     66.0766      0.0653      2.2771     38.0354    112.3722  
  3391.5000    -17.2181      3.1084      2.9015      3.0735     15.2018     66.2559      0.0730      2.2713     38.3170    116.8789  
  3392.0000    -17.3138      3.1743      3.0441      3.1390     15.1515     66.7182      0.0686      2.2688     37.5093    118.0940  
  3392.5000    -17.4744      3.2416      3.0222      3.0987     15.0535     67.4349      0.0699      2.2859     36.6421    116.6013  
  3393.0000    -17.6692      3.1650      2.7646      2.8781     14.9211     67.4311      0.0782      2.3152     36.5656    112.2871  
  3393.5000    -17.8099      3.0466      2.5250      2.6407     14.7910     66.7884      0.0832      2.3318     35.8682    106.1136  
  3394.0000    -18.0060      2.9327      2.3062      2.4230     14.9093     66.9715      0.0872      2.3481     34.6010     95.3523  
  3394.5000    -18.1903      2.8230      2.1064      2.2232     15.0438     67.4023      0.0657      2.3684     33.7078     90.9643  
  3395.0000    -18.3466      2.6654      2.0891      2.0969     14.8531     67.1171      0.0552      2.3716     32.6806     89.6467  
  3395.5000    -18.0672      2.4921      2.1365      2.1428     14.7976     66.4973      0.0816      2.3757     31.8923     90.4374  
  3396.0000    -17.8969      2.3301      2.1254      2.1897     14.6648     65.7486      0.0945      2.3456     33.3063     94.9495  
  3396.5000    -18.0237      2.1786      2.0728      2.2136     15.0143     65.1472      0.0743      2.2849     35.3789    109.2897  
  3397.0000    -17.9707      2.1787      2.0525      2.1667     14.6118     65.8649      0.0715      2.2622     39.0345    123.1046  
  3397.5000    -17.7826      2.1923      2.0729      2.1534     15.6803     67.2991      0.0615      2.2514     41.3411    123.5639  
  3398.0000    -17.5176      2.2059      2.0462      2.1690     15.9680     68.4535      0.0497      2.2450     43.7156    126.8819  
  3398.5000    -17.3819      2.2196      2.0278      2.1337     15.9547     68.9522      0.0691      2.2539     42.7270    120.3925  
  3399.0000    -17.3131      2.1987      2.0446      2.0618     15.0129     68.7373      0.0849      2.2627     41.7502    118.6011  
  3399.5000    -17.2102      2.1697      2.0136      2.0326     14.4292     68.5560      0.1014      2.2632     41.3224    120.3910  
  3400.0000    -17.0105      2.1411      1.9641      2.0596     14.2513     67.7152      0.1098      2.2451     40.8945    120.4571  
  3400.5000    -16.7899      2.1130      1.9159      2.0439     14.3512     66.7546      0.1043      2.2332     40.4667    123.1617  
  3401.0000    -16.5959      2.0851      1.8688      2.0083     14.6433     66.1977      0.1157      2.2445     40.0678    122.4006  
  3401.5000    -16.7663      2.0577      1.8520      1.9731     15.0629     67.2751      0.1322      2.2559     40.1255    117.0308  
  3402.0000    -17.2435      2.0306      1.8448      1.9384     15.4542     69.7462      0.0960      2.2501     42.5348    115.3526  
  3402.5000    -17.5774      2.0039      1.8377      1.9044     14.9547     72.1003      0.0601      2.2406     43.8037    116.0171  
  3403.0000    -17.5539      1.9811      1.8306      1.8710     14.6418     73.2104      0.0836      2.2554     44.4774    115.8477  
  3403.5000    -17.2008      2.0232      1.8235      1.9022     14.4845     73.8898      0.0865      2.2486     43.1089    119.1537  
  3404.0000    -17.0787      2.0662      1.8413      1.9545     14.3908     74.8312      0.0808      2.2379     42.4452    121.0007  
  3404.5000    -17.5573      2.1101      1.9320      2.0083     14.2827     76.0501      0.0749      2.2370     42.1641    113.6257  
  3405.0000    -17.7420      2.1549      2.0272      2.0680     14.2376     77.6602      0.0606      2.2595     42.1778    111.3250  
  3405.5000    -17.6146      2.2007      2.0527      2.1328     14.2020     78.8217      0.0879      2.2864     42.1748    113.6779  
  3406.0000    -17.2229      2.2475      2.0390      2.1996     14.1851     78.7301      0.0937      2.2734     42.0372    116.1352  
  3406.5000    -16.9690      2.2952      2.0254      2.2685     14.1681     77.4821      0.0649      2.2613     41.6978    117.3989  
  3407.0000    -17.3257      2.3440      2.0119      2.2907     14.1968     73.9923      0.0662      2.2566     41.8457    114.1740  
  3407.5000    -17.9014      2.3938      2.0818      2.2974     14.3813     70.4642      0.0580      2.2486     42.0490    114.1309  
