~VERSION INFORMATION
 VERS.                           2.00:        CWLS LOG ASCII STANDARD - VERSION 2.00
 WRAP.                             NO:        ONE LINE PER DEPTH STEP
~WELL INFORMATION
#MNEM.UNIT                   DATA             INFORMATION
#----------             --------------        ------------------------------
 STRT.F                      116.0000:        START DEPTH
 STOP.F                     8861.0000:        STOP DEPTH
 STEP.F                        0.5000:        STEP VALUE
 NULL.                      -999.2500:        NULL VALUE
 COMP.                     U.S. NAAVY:        COMPANY
 LOC .                 [33^13 17N 2W:        LOCATION
 DATE.                        3/30/77:        LOG DATE
 WELL.                    WT FORAN #1:        WELL
 UWI .                   501032001000:        UNIQUE WELL ID
 API .                   501032001000:        UNIQUE WELL IDENTIFIER
 FLD .                        WILDCAT:        FIELD
 CNTY.                    NORTH SLOPE:        COUNTY
 STAT.                         ALASKA:        STATE
 CTRY.                            USA:        COUNTRY
 OPER.                     U.S. NAAVY:        OPERATOR
 SRVC.                   SCHLUMBERGER:        SERVICE COMPANY
 LAT .                         0.0000:        LATITUDE
 LON .                         0.0000:        LONGITUDE
 DIGS.               CENTER LINE DATA:        DIGITIZING COMPANY
~CURVE INFORMATION      
#MNEM        .UNIT         API CODE           CURVE DESCRIPTION
#-----------------      --------------        ------------------------------
 DEPT        .F                      :        1  DEPTH
 CALI        .IN                     :        2  
 GR          .GAPI                   :        3  
 DRHO        .G/C3                   :        4  
 RHOB        .G/C3                   :        5  
 NPHI        .%                      :        6  
 DT          .US/F                   :        7  
 SP          .MV                     :        8  
 ILD         .OHMM                   :        9  
 ILM         .OHMM                   :        10 
 LL8         .OHMM                   :        11 
~PARAMETER INFORMATION
#MNEM.UNIT                  VALUE             DESCRIPTION OF MNEMONIC
#---------             ---------------        ------------------------------
 EKB .F                       39.0000:        KELLY BUSHING
 TD  .F                     8864.0000:        TOTAL DEPTH
 BHT .F                      152.0000:        BOTTOM HOLE TEMPERATURE
 BS  .                        14.2500:        BIT SIZE
 FD  .                        10.2000:        FLUID DENSITY
 CSIZ.                        16.0000:        CASING SIZE
 CBD .F                     1458.0000:        CASING DRILLER 1
 CBL .F                        0.0000:        CASING LOGGER 1
 DFT .                  MISCELLANEOUS:        TYPE FLUID IN HOLE
 DFV .                        45.0000:        VISCOSITY
 DFPH.                        10.5000:        PH
 DFL .                         5.5000:        FLUID LOSS
 RMS .                         2.4000:        RM
 MST .F                       54.0000:        RM MEAS. TEMP.
 RMF .                         2.3000:        RMF
 MFST.F                       56.0000:        RMF MEAS. TEMP.
 RMC .                         2.7000:        RMC
 MCST.F                       54.0000:        RMC MEAS. TEMP.
~OTHER INFORMATION
~A    DEPTH        CALI          GR        DRHO        RHOB        NPHI          DT          SP         ILD         ILM         LL8 
# ...
  8320.5000      8.7556     29.5219      0.0066      2.5957      3.6618     59.4985    -23.1009     19.8046     26.0706     28.5469 
  8321.0000      8.7743     31.8895      0.0125      2.5840      3.3850     61.2967    -23.9062     19.8730     30.8862     46.6815 
  8321.5000      8.7931     36.9559      0.0051      2.5673      3.5104     64.0651    -24.5426     19.9335     33.7994     91.0038 
  8322.0000      8.8119     39.5675      0.0067      2.5805      4.1832     62.9359    -24.6479     20.3195     31.6207    130.4858 
  8322.5000      8.8268     41.7195      0.0173      2.5781      4.5499     63.2479    -24.4538     21.5072     29.6519    101.9353 
  8323.0000      8.8210     42.7696      0.0197      2.5911      5.3102     65.4282    -24.1483     23.5495     31.3930     61.6919 
  8323.5000      8.8152     43.4200      0.0159      2.5706      6.1102     66.9463    -24.2443     25.0487     34.5831     80.1150 
  8324.0000      8.8095     45.5816      0.0122      2.5496      6.9116     70.2040    -24.2102     25.3404     38.8604    210.9608 
  8324.5000      8.8037     49.2810      0.0180      2.5461      8.0609     71.2281    -24.0776     25.3248     41.2853    654.9518 
  8325.0000      8.7980     49.8689      0.0379      2.5536      9.2101     68.4037    -23.8684     24.8833     40.9955   1191.1884 
  8325.5000      8.7922     47.7752      0.0557      2.5407     10.3594     65.0452    -23.3819     24.1595     35.5363    975.5006 
  8326.0000      8.7864     45.3535      0.0731      2.5471     10.9616     63.4557    -22.9655     22.8899     30.9475    182.9579 
  8326.5000      8.7966     45.7868      0.0601      2.5664     10.0099     65.6891    -22.9914     21.4235     26.8228     60.2345 
  8327.0000      8.8178     46.2986      0.0465      2.5732      7.7927     68.2310    -23.1856     20.0510     25.4197     43.8801 
  8327.5000      8.8142     48.6014      0.0317      2.5873      8.1617     69.2526    -23.2823     18.6149     23.7579     51.1169 
  8328.0000      8.8083     52.4842      0.0179      2.6085      8.5307     68.2626    -23.2132     16.6346     18.5884     68.5932 
  8328.5000      8.8048     55.1827      0.0199      2.6007      8.9866     65.4137    -23.0690     16.1573     16.1721     44.1573 
  8329.0000      8.8013     51.8165      0.0213      2.5841      9.5293     61.8980    -22.8005     15.6937     15.7038     24.8267 
  8329.5000      8.7978     48.8291      0.0287      2.5838      9.4648     63.8640    -22.1919     15.2434     15.6241     24.5184 
  8330.0000      8.7944     47.1922      0.0344      2.5993      7.7086     58.8389    -20.8866     14.8059     16.4730     30.4132 
  8330.5000      8.7909     45.7920      0.0368      2.5914      6.0113     56.0805    -20.1070     13.8935     16.4204     40.4680 
  8331.0000      8.7874     44.1783      0.0166      2.5963      5.1993     55.3198    -19.2009     13.4922     15.2256     52.7314 
  8331.5000      8.7839     42.5645     -0.0024      2.6267      4.3873     55.7874    -18.4599     13.1024     14.1089     47.0401 
  8332.0000      8.7805     45.8046      0.0413      2.6561      3.5753     58.2035    -17.9155     12.9474     13.2819     26.8716 
  8332.5000      8.7770     52.1827      0.0268      2.5971      4.2478     67.5116    -17.6276     13.3679     13.8534     18.9207 
  8333.0000      8.7735     58.5609      0.0453      2.5542      5.0517     75.4666    -17.4776     14.4241     14.5304     20.1845 
  8333.5000      8.7713     64.9390      0.0829      2.5306      8.8774     79.1535    -17.4390     15.3204     15.7448     29.0402 
  8334.0000      8.7461     71.3172      0.1579      2.5394     11.5813     77.6055    -17.5018     16.4826     17.7481     37.2206 
  8334.5000      8.6862     56.9639      0.2353      2.5501     14.2853     69.4457    -17.5542     19.0808     22.6493     58.4000 
  8335.0000      8.6263     50.0583      0.1896      2.5475     16.9989     61.6449    -17.5098     20.6460     28.7378    149.8871 
  8335.5000      8.5664     49.9869      0.1029      2.5368     18.6168     59.8167    -17.3585     20.6070     34.5800    539.4782 
  8336.0000      8.5065     46.1919      0.0122      2.6168     15.6796     59.4715    -17.0485     18.4573     31.2400   1025.2830 
  8336.5000      8.4894     43.8249      0.0502      2.6715      9.7760     59.8191    -16.5282     15.7285     26.3470    613.3229 
  8337.0000      8.4759     46.9634      0.0812      2.6987      7.9622     62.2467    -16.1226     13.4311     19.1937    146.7648 
  8337.5000      8.4624     51.3524      0.0515      2.6769      6.5303     64.8367    -15.6839     10.4404     14.4566     46.9419 
  8338.0000      8.4528     55.8377      0.0242      2.6709      6.9594     67.3421    -15.2422      8.8072     10.8886     17.2307 
  8338.5000      8.4493     60.5583      0.0052      2.6825      7.3631     67.6666    -14.9999      7.5716      8.2012      8.4001 
  8339.0000      8.4458     61.9645      0.0173      2.6818      8.0010     62.8603    -15.0030      7.3694      8.3147      7.7283 
  8339.5000      8.4423     59.5157      0.0203      2.6497      8.1102     55.5220    -15.1680      7.5622      8.8340     13.0201 
  8340.0000      8.4388     47.2127      0.0292      2.6563      7.2345     53.2768    -15.3712      7.8013      9.4089     39.3161 
  8340.5000      8.4352     38.5331      0.0342      2.6729      5.5799     52.1029    -15.5664      8.2973     10.0212     53.8598 
  8341.0000      8.4317     32.9588      0.0117      2.6611      4.0922     52.9455    -15.7359      9.1436     10.3303     33.4056 
  8341.5000      8.4282     31.3715      0.0231      2.6625      3.3448     54.1486    -15.8678     10.2213     10.4750     25.4099 
  8342.0000      8.4254     31.6607      0.0371      2.6776      2.6884     52.7417    -15.9813     10.0800     10.6038     23.9939 
  8342.5000      8.4225     30.9628      0.0572      2.6885      2.6464     52.3872    -16.1997      9.6787     10.8439     18.1943 
  8343.0000      8.4196     29.6234      0.0535      2.6990      2.5511     52.9935    -16.7553      9.5991     11.2267     11.3273 
  8343.5000      8.4167     27.9508      0.0785      2.7115      2.4575     53.6108    -17.6481     11.1270     11.9643     11.8642 
  8344.0000      8.4138     26.3936      0.0490      2.6587      2.5552     54.3023    -19.1219     13.0412     13.1944     19.4961 
  8344.5000      8.4109     25.8138      0.0362      2.6468      2.6703     54.8517    -20.4161     15.6808     14.9589     36.8055 
  8345.0000      8.4080     24.5621      0.0514      2.6437      2.8461     55.6244    -22.0830     21.3916     17.0612    167.9399 
  8345.5000      8.4108     22.5271      0.0659      2.6411      3.0450     57.4845    -23.2936     30.2343     21.7051   1115.1743 
  8346.0000      8.4237     20.4974      0.0766      2.6272      3.4900     60.0386    -24.5379     42.7322     31.9621   1518.5552 
  8346.5000      8.4367     19.7659      0.0724      2.6245      3.9349     64.9749    -25.4831     51.6933     78.7916   1496.9626 
  8347.0000      8.4496     19.9562      0.0663      2.6267      4.3799     63.0110    -26.3708     61.0610    121.0665   1484.1150 
  8347.5000      8.4626     19.9690      0.0777      2.5904      4.8248     61.2630    -27.3807     72.1263    192.1380   1484.3064 
  8348.0000      8.4755     20.1770      0.0577      2.5815      5.4955     60.0513    -28.5526     82.0917    253.5972   1492.5421 
  8348.5000      8.4885     20.5057      0.0505      2.5764      6.1924     59.1399    -29.7336     76.3991    314.6670   1494.2457 
  8349.0000      8.5014     20.5831      0.0419      2.5725      5.3021     60.5883    -30.7260     69.5620    242.5840   1484.5542 
  8349.5000      8.5144     20.9122      0.0290      2.5691      4.4020     59.8551    -32.4194     67.3388    198.8489   1462.7286 
  8350.0000      8.5267     22.9811      0.0147      2.5575      3.6017     57.9731    -34.2824     65.3025    170.6393   1508.7051 
  8350.5000      8.5276     26.5504      0.0389      2.5354      3.2379     56.8595    -36.3269     62.5352    152.0110   1357.7622 
