~VERSION INFORMATION
 VERS.                           2.00:        CWLS LOG ASCII STANDARD - VERSION 2.00
 WRAP.                             NO:        ONE LINE PER DEPTH STEP
~WELL INFORMATION
#MNEM.UNIT                   DATA             INFORMATION
#----------             --------------        ------------------------------
 STRT.F                      116.0000:        START DEPTH
 STOP.F                     8861.0000:        STOP DEPTH
 STEP.F                        0.5000:        STEP VALUE
 NULL.                      -999.2500:        NULL VALUE
 COMP.                     U.S. NAAVY:        COMPANY
 LOC .                 [33^13 17N 2W:        LOCATION
 DATE.                        3/30/77:        LOG DATE
 WELL.                    WT FORAN #1:        WELL
 UWI .                   501032001000:        UNIQUE WELL ID
 API .                   501032001000:        UNIQUE WELL IDENTIFIER
 FLD .                        WILDCAT:        FIELD
 CNTY.                    NORTH SLOPE:        COUNTY
 STAT.                         ALASKA:        STATE
 CTRY.                            USA:        COUNTRY
 OPER.                     U.S. NAAVY:        OPERATOR
 SRVC.                   SCHLUMBERGER:        SERVICE COMPANY
 LAT .                         0.0000:        LATITUDE
 LON .                         0.0000:        LONGITUDE
 DIGS.               CENTER LINE DATA:        DIGITIZING COMPANY
~CURVE INFORMATION      
#MNEM        .UNIT         API CODE           CURVE DESCRIPTION
#-----------------      --------------        ------------------------------
 DEPT        .F                      :        1  DEPTH
 CALI        .IN                     :        2  
 GR          .GAPI                   :        3  
 DRHO        .G/C3                   :        4  
 RHOB        .G/C3                   :        5  
 NPHI        .%                      :        6  
 DT          .US/F                   :        7  
 SP          .MV                     :        8  
 ILD         .OHMM                   :        9  
 ILM         .OHMM                   :        10 
 LL8         .OHMM                   :        11 
~PARAMETER INFORMATION
#MNEM.UNIT                  VALUE             DESCRIPTION OF MNEMONIC
#---------             ---------------        ------------------------------
 EKB .F                       39.0000:        KELLY BUSHING
 TD  .F                     8864.0000:        TOTAL DEPTH
 BHT .F                      152.0000:        BOTTOM HOLE TEMPERATURE
 BS  .                        14.2500:        BIT SIZE
 FD  .                        10.2000:        FLUID DENSITY
 CSIZ.                        16.0000:        CASING SIZE
 CBD .F                     1458.0000:        CASING DRILLER 1
 CBL .F                        0.0000:        CASING LOGGER 1
 DFT .                  MISCELLANEOUS:        TYPE FLUID IN HOLE
 DFV .                        45.0000:        VISCOSITY
 DFPH.                        10.5000:        PH
 DFL .                         5.5000:        FLUID LOSS
 RMS .                         2.4000:        RM
 MST .F                       54.0000:        RM MEAS. TEMP.
 RMF .                         2.3000:        RMF
 MFST.F                       56.0000:        RMF MEAS. TEMP.
 RMC .                         2.7000:        RMC
 MCST.F                       54.0000:        RMC MEAS. TEMP.
~OTHER INFORMATION
~A    DEPTH        CALI          GR        DRHO        RHOB        NPHI          DT          SP         ILD         ILM         LL8 
# ...
  3135.5000     16.8929    104.3005      0.0720      2.1910     45.0279    122.9807    -26.1647      2.6062      2.4112      3.1923 
  3136.0000     16.8820    106.8140      0.0688      2.1946     45.0392    122.2517    -26.0956      2.5922      2.3914      3.0229 
  3136.5000     16.9111    109.2590      0.0627      2.1927     44.9390    121.7606    -25.9722      2.5759      2.3717      2.8821 
  3137.0000     16.9035    110.7160      0.0547      2.1849     44.8687    122.3163    -25.6905      2.5598      2.3504      2.8571 
  3137.5000     16.8780    112.0854      0.0499      2.1824     45.1931    121.6908    -25.3187      2.5438      2.3155      2.9100 
  3138.0000     16.8291    113.7204      0.0510      2.1802     45.1367    121.6554    -25.1306      2.5187      2.2856      2.8773 
  3138.5000     16.8038    114.4469      0.0584      2.1827     44.5908    121.6992    -25.0412      2.4678      2.2548      2.7932 
  3139.0000     16.7837    115.6897      0.0635      2.1885     44.2549    122.0344    -25.1010      2.4128      2.1906      2.7186 
  3139.5000     16.7930    117.3814      0.0703      2.1932     44.0523    122.1999    -25.1608      2.3608      2.1165      2.7384 
  3140.0000     16.7894    118.0936      0.0839      2.1996     44.0680    122.1352    -25.0338      2.3190      2.0450      2.6376 
  3140.5000     16.7741    117.3740      0.0782      2.2036     44.0768    125.1204    -24.7819      2.2779      1.9758      2.4610 
  3141.0000     16.7600    115.7723      0.0706      2.1940     44.1588    129.7672    -24.2758      2.2544      1.9483      2.2962 
  3141.5000     16.7574    113.3362      0.0746      2.1837     44.7034    132.8850    -24.2174      2.2611      1.9734      2.2403 
  3142.0000     16.7548    111.0984      0.0798      2.1802     45.0244    132.8291    -24.5812      2.2677      2.0086      2.3722 
  3142.5000     16.7628    109.0382      0.0801      2.1780     45.0209    129.0692    -25.0733      2.2744      2.0436      2.6156 
  3143.0000     16.8177    106.8434      0.0730      2.1589     45.0174    122.7383    -25.5844      2.2811      2.0671      2.7423 
  3143.5000     16.8911    104.6740      0.0828      2.1493     45.0139    117.3313    -26.0508      2.2942      2.0783      2.7657 
  3144.0000     16.9698    101.7288      0.0876      2.1385     45.0105    120.1978    -26.3028      2.3182      2.0895      2.6677 
  3144.5000     17.0716     98.7785      0.0867      2.1263     45.0070    125.3930    -26.2559      2.3425      2.0846      2.6042 
  3145.0000     17.0688     99.2179      0.0966      2.1353     45.0035    130.5011    -25.7902      2.3670      2.0750      2.5421 
  3145.5000     17.0051    100.4982      0.1050      2.1575     45.0000    133.0357    -25.3763      2.3705      2.0654      2.5017 
  3146.0000     16.9212    102.5824      0.1089      2.1743     44.9965    130.8232    -24.9411      2.3705      2.0559      2.4956 
  3146.5000     16.9337    102.8045      0.0970      2.1744     44.9931    129.8966    -24.4698      2.3705      2.0560      2.4896 
  3147.0000     16.9548    102.6513      0.0784      2.1696     44.9896    124.6982    -24.0016      2.3705      2.0499      2.4848 
  3147.5000     17.1601    103.2973      0.0579      2.1655     44.9861    121.7494    -23.6728      2.3614      2.0590      2.4822 
  3148.0000     17.4254    103.6133      0.0818      2.1602     44.4345    122.5023    -23.5773      2.3510      2.0682      2.4796 
  3148.5000     17.6455    103.6013      0.0840      2.1462     43.9189    123.2980    -23.6547      2.3406      2.0613      2.4771 
  3149.0000     17.7087    103.3656      0.0633      2.1316     44.3963    122.6087    -23.8158      2.3303      2.0963      2.4745 
  3149.5000     17.7267    102.4491      0.0692      2.1309     44.8737    124.6981    -23.7315      2.3200      2.0631      2.4720 
  3150.0000     17.6873    101.6681      0.0693      2.1332     45.3512    125.2103    -23.6569      2.3097      2.0619      2.4694 
  3150.5000     17.6480    101.6735      0.0698      2.1365     45.3511    126.6976    -23.6056      2.3101      2.0712      2.4773 
  3151.0000     17.6246    101.2963      0.0724      2.1416     45.3451    126.5005    -23.4731      2.3330      2.0830      2.4961 
  3151.5000     17.6165    100.0866      0.0752      2.1470     45.3391    123.4869    -23.3440      2.3561      2.0767      2.5152 
  3152.0000     17.6072     98.5223      0.0847      2.1624     45.3179    123.1033    -23.6014      2.3794      2.0907      2.5343 
  3152.5000     17.7004     98.0973      0.0959      2.1853     45.2660    124.5317    -23.9044      2.4029      2.0922      2.5438 
  3153.0000     17.7615     98.1645      0.1014      2.1975     44.7952    123.0482    -23.8022      2.4267      2.0936      2.5372 
  3153.5000     17.7958     97.6253      0.0977      2.1840     44.4835    122.6431    -23.5772      2.4461      2.0951      2.5307 
  3154.0000     17.7775     98.2714      0.0815      2.1616     44.7939    121.7829    -23.3261      2.4394      2.0966      2.5000 
  3154.5000     17.5765     98.7930      0.0656      2.1358     45.1060    121.1199    -23.2139      2.4328      2.0950      2.4594 
  3155.0000     17.5117     98.4882      0.0657      2.1451     45.4212    124.0276    -23.2677      2.4185      2.0923      2.4200 
  3155.5000     17.4532     99.3322      0.0684      2.1509     45.1338    122.8200    -23.2855      2.3955      2.0897      2.4294 
  3156.0000     17.3949    100.4317      0.0835      2.1637     44.7880    123.7642    -23.0913      2.3727      2.0871      2.4388 
  3156.5000     17.3024    100.4460      0.0841      2.1567     44.4422    125.2699    -22.8112      2.3502      2.0845      2.4483 
  3157.0000     17.2132    100.2390      0.0702      2.1523     44.3575    124.8739    -22.3613      2.3279      2.0819      2.4556 
  3157.5000     17.2062    100.4923      0.0816      2.1617     44.5750    125.5180    -22.0908      2.3054      2.0718      2.4556 
  3158.0000     17.3182    100.2267      0.0990      2.1908     44.4985    125.0840    -21.9906      2.2799      2.0522      2.4556 
  3158.5000     17.5330     98.6942      0.0861      2.1686     44.1901    123.1114    -22.0196      2.2547      2.0238      2.4487 
  3159.0000     17.6416     97.7489      0.0729      2.1528     44.9844    122.6997    -21.9383      2.2297      1.9958      2.4179 
  3159.5000     17.6475     96.8722      0.0501      2.1401     45.0324    124.6153    -21.7369      2.2043      1.9681      2.3768 
  3160.0000     17.6842     96.6748      0.0640      2.1470     45.0318    125.4479    -21.3709      2.1742      1.9409      2.3254 
  3160.5000     17.7130     96.7144      0.0801      2.1541     45.0312    127.2217    -20.9914      2.1445      1.8968      2.2752 
  3161.0000     17.7323     96.6770      0.0690      2.1524     45.0306    127.3201    -20.7509      2.1153      1.8484      2.2131 
  3161.5000     17.6793     96.1500      0.0607      2.1521     45.0299    126.3278    -20.6758      2.0864      1.8013      2.1498 
  3162.0000     17.5822     95.1157      0.0646      2.1548     45.0293    127.5266    -20.6832      2.0507      1.8088      2.0998 
  3162.5000     17.4776     94.2309      0.0720      2.1582     45.0287    129.3445    -20.6587      2.0144      1.8208      2.0899 
  3163.0000     17.3130     93.2460      0.0813      2.1610     45.0281    127.6069    -20.7486      2.0295      1.8556      2.1482 
  3163.5000     17.1305     91.5654      0.0876      2.1596     45.0274    127.1494    -21.0397      2.0569      1.9008      2.3099 
  3164.0000     17.0748     90.8914      0.0733      2.1533     45.0268    125.1617    -22.0604      2.0846      1.9471      2.4495 
  3164.5000     17.1953     90.4612      0.0829      2.1507     45.0262    122.4957    -22.6838      2.1126      1.9805      2.4500 
  3165.0000     17.3221     90.1724      0.0775      2.1440     45.0256    125.2766    -23.0090      2.1542      1.9887      2.3831 
  3165.5000     17.3060     90.4361      0.0731      2.1198     45.0250    127.9712    -22.8886      2.1648      1.9866      2.3649 
