~VERSION INFORMATION
 VERS.                      2.00:        CWLS LOG ASCII STANDARD - VERSION 2.00
 WRAP.                        NO:        ONE LINE PER DEPTH STEP
~WELL INFORMATION
#MNEM.UNIT               DATA            INFORMATION
#----------          ------------        ------------------------------
 STRT.F                 438.0000:        START DEPTH
 STOP.F               11532.0000:        STOP DEPTH
 STEP.F                   0.5000:        STEP VALUE
 NULL.                 -999.2500:        NULL VALUE
 COMP.      HUSKY-NPR OPERATIONS:        COMPANY  
 WELL.          ATIGARU POINT #1:        WELL     
 FLD .                   WILDCAT:        FIELD    
 LOC .              19  14N   2E:        LOCATION   
 CNTY.               NORTH SLOPE:        COUNTY  
 STAT.                     ALSKA:        STATE   
 CTRY.                       USA:        COUNTRY 
 DATE.                    1/ /77:        LOG DATE 
 API .              501032000800:        UNIQUE WELL IDENTIFIER 
 OPER.      HUSKY-NPR OPERATIONS:        OPERATOR  
 SRVC.              Schlumberger:        SERVICE COMPANY 
 UWI .              501032000800:        UNIQUE WELL ID 
 LAT .                    0.0000:        LATITUDE
 LON .                    0.0000:        LONGITUDE
 DIGS.          Center Line Data:        DIGITIZING COMPANY 
~CURVE INFORMATION      
#MNEM.UNIT            API CODE           CURVE DESCRIPTION
#---------          -------------        ------------------------------
 DEPT.F                         :        1  DEPTH
 SP  .MV                        :        2
 ILD .OHMM                      :        3
 ILM .OHMM                      :        4
 LL8 .OHMM                      :        5
 CALI.IN                        :        6
 GR  .GAPI                      :        7
 DRHO.G/C3                      :        8
 RHOB.G/C3                      :        9
 NPHI.%                         :       10
 DT  .US/F                      :       11
~PARAMETER INFORMATION       
#MNEM.UNIT              VALUE            DESCRIPTION OF MNEMONIC
#---------          -------------        ------------------------------
 EKB .F                  25.0000:        KELLY BUSHING
 TD  .F               11534.0000:        TOTAL DEPTH
 BHT .F                   0.0000:        BOTTOM HOLE TEMPERATURE
 BS  .                   17.5000:        BIT SIZE
 FD  .                    9.3000:        FLUID DENSITY
 CSIZ.                   20.0000:        CASING SIZE
 CBD .F                 447.0000:        CASING DRILLER 1
 CBL .F                 443.0000:        CASING LOGGER 1
 DFT .                       Gel:        TYPE FLUID IN HOLE
 DFV .                   47.0000:        VISCOSITY
 DFPH.                   14.6000:        PH
 DFL .                    8.0000:        FLUID LOSS
 RMS .                    1.9300:        RM
 MST .F                  63.0000:        RM MEAS. TEMP.
 RMF .                    1.6900:        RMF
 MFST.F                  52.0000:        RMF MEAS. TEMP.
 RMC .                    1.6500:        RMC
 MCST.F                  60.0000:        RMC MEAS. TEMP.
 UWI .              501032000800:        UNIQUE WELL ID
~OTHER INFORMATION
~A    DEPTH          SP         ILD         ILM         LL8        CALI          GR        DRHO        RHOB        NPHI          DT  
# ...
  4878.0000    -18.6434      4.1846      3.7610      3.9847     13.2985     71.4801      0.0403      2.3958     40.5807    100.1364  
  4878.5000    -18.5612      4.1301      3.7012      3.8890     13.3884     70.5767      0.0443      2.3859     40.9483    103.5411  
  4879.0000    -18.3979      4.0763      3.6422      3.8054     13.2979     70.0712      0.0556      2.3948     40.9509    104.9012  
  4879.5000    -18.1025      4.0232      3.6331      3.8478     13.3473     69.5004      0.0755      2.4065     40.5712    105.1037  
  4880.0000    -17.7873      3.9707      3.6481      3.8148     13.4134     69.8614      0.0880      2.4380     40.0855    101.7202  
  4880.5000    -17.8470      3.9190      3.6631      3.8106     13.3516     70.6060      0.0773      2.4390     39.4334     95.4045  
  4881.0000    -18.1443      3.9222      3.6782      3.9059     13.3306     69.9232      0.0700      2.4339     38.8358     96.0171  
  4881.5000    -18.2819      3.9562      3.6934      3.9452     13.4397     68.1974      0.0658      2.4209     38.6776     97.8724  
  4882.0000    -18.2679      3.9905      3.7086      3.9342     13.5231     67.5147      0.0638      2.4141     39.3872     98.6982  
  4882.5000    -18.3412      4.0251      3.7239      3.9506     13.4893     68.7921      0.0724      2.4216     40.0809     97.6725  
  4883.0000    -18.4319      4.0600      3.7392      3.9686     13.4262     69.1582      0.0787      2.4425     40.6047     95.5435  
  4883.5000    -18.4192      4.0951      3.7516      3.9524     13.5673     69.2288      0.0897      2.4451     40.3117     97.8908  
  4884.0000    -18.3325      4.1306      3.7538      3.9292     13.4665     69.5391      0.1007      2.4474     39.5615     98.4153  
  4884.5000    -18.5207      4.1481      3.7561      3.9732     13.2779     70.7415      0.0946      2.4463     39.2455     98.9697  
  4885.0000    -18.6801      4.1413      3.7584      4.0120     13.3223     72.6545      0.0866      2.4500     38.9241    102.1491  
  4885.5000    -18.8027      4.1345      3.7606      4.0511     13.3777     74.2871      0.0935      2.4495     38.6079    101.1843  
  4886.0000    -18.5291      4.1278      3.7629      4.0906     13.4175     75.8856      0.0949      2.4512     38.6022    100.7605  
  4886.5000    -18.5720      4.1210      3.7651      4.1305     13.4083     76.2528      0.0936      2.4448     38.7389    100.2020  
  4887.0000    -18.4629      4.1143      3.7811      4.1534     13.3991     74.2387      0.0919      2.4511     38.6941     98.2152  
  4887.5000    -18.3539      4.1076      3.8002      4.1118     13.3899     72.7243      0.0866      2.4561     39.1075     98.5455  
  4888.0000    -18.3919      4.1172      3.8194      4.0706     13.3808     71.3869      0.0887      2.4667     39.8460    102.4680  
  4888.5000    -18.5718      4.1430      3.8387      4.0285     13.3831     72.7315      0.0863      2.4444     40.5544    105.7402  
  4889.0000    -18.5919      4.1690      3.8581      4.0277     13.3889     72.9983      0.0942      2.4446     41.0930    104.1656  
  4889.5000    -18.6120      4.1950      3.8775      4.1234     13.4009     72.8417      0.1024      2.4492     41.6817    102.9696  
  4890.0000    -18.6320      4.2213      3.8971      4.1298     13.5010     72.6915      0.0949      2.4638     41.5010    101.5834  
  4890.5000    -18.6521      4.2477      3.9069      4.0985     13.6010     71.6781      0.0749      2.4505     41.1325     99.2408  
  4891.0000    -18.6722      4.2743      3.9120      4.1072     13.6555     70.5654      0.0675      2.4475     40.6625     98.4380  
  4891.5000    -18.6922      4.2952      3.9296      4.1594     13.7581     69.9346      0.0688      2.4430     39.9773     96.4305  
  4892.0000    -18.7123      4.3109      3.9472      4.1780     13.7767     69.9175      0.0488      2.4299     38.4730     93.9991  
  4892.5000    -18.8706      4.3267      3.9645      4.2116     13.7525     68.1855      0.0455      2.4372     37.4291     91.3971  
  4893.0000    -19.1227      4.3179      3.9385      4.2105     13.4579     67.9367      0.0645      2.4650     37.4695     97.6856  
  4893.5000    -19.0081      4.2817      3.9127      4.1178     13.5420     68.4037      0.0502      2.4462     38.8985    101.8558  
  4894.0000    -18.9009      4.2458      3.8870      4.0916     13.5727     67.8618      0.0449      2.4361     39.1747    101.0060  
  4894.5000    -19.0327      4.2102      3.8614      4.0896     13.5917     67.2301      0.0505      2.4550     38.5046     99.4693  
  4895.0000    -19.1730      4.1748      3.8361      4.0524     13.6142     67.5007      0.0541      2.4605     37.2747     98.9309  
  4895.5000    -19.3239      4.1433      3.8109      3.9828     13.7030     68.6978      0.0542      2.4578     36.5953     98.8872  
  4896.0000    -19.1549      4.1679      3.9463      4.0129     13.7311     69.6902      0.0639      2.4543     36.3812    101.4976  
  4896.5000    -19.3170      4.1926      4.0881      4.1522     13.6735     70.6971      0.0602      2.4298     36.7416    102.5067  
  4897.0000    -19.1891      4.2174      4.2014      4.2105     13.6445     71.9004      0.0691      2.4281     37.0350    101.2338  
  4897.5000    -19.0571      4.2424      4.1263      4.2017     13.6768     72.7209      0.0730      2.4295     37.1173    105.4501  
  4898.0000    -18.8041      4.2520      4.0526      4.1596     13.7519     71.7138      0.0617      2.4169     37.1921    104.3894  
  4898.5000    -18.9040      4.2371      3.9803      4.1210     13.8343     70.2210      0.0503      2.4087     36.8591    101.1942  
  4899.0000    -18.8916      4.2223      3.9092      4.0471     13.8021     68.7943      0.0489      2.4162     36.3741     97.6859  
  4899.5000    -18.6372      4.2075      3.8394      4.0435     13.7330     68.0685      0.0417      2.4272     35.8127     92.0395  
  4900.0000    -18.4544      4.1927      3.7708      3.9817     13.7227     68.8019      0.0446      2.4561     35.7798     90.7495  
  4900.5000    -18.5855      4.1780      3.7504      3.9469     13.7335     69.5898      0.0708      2.4990     35.7740     94.2670  
  4901.0000    -18.7774      4.1634      3.7658      3.9977     13.7260     70.3542      0.0831      2.4846     35.6298    100.4870  
  4901.5000    -18.9185      4.1488      3.7812      4.0121     13.7848     71.1195      0.0788      2.4825     35.7176    103.7108  
  4902.0000    -18.6467      4.1342      3.7968      3.9999     13.7426     70.8090      0.1016      2.5013     36.3640    101.8898  
  4902.5000    -19.0192      4.1197      3.8123      3.9657     13.5337     70.6311      0.1246      2.5055     37.0476    103.2449  
  4903.0000    -19.2827      4.1298      3.8280      3.9895     13.5200     70.6590      0.0918      2.4827     37.7380    101.5672  
  4903.5000    -19.3418      4.1488      3.8437      3.9810     13.5249     70.2107      0.0798      2.4730     37.9887     97.3151  
  4904.0000    -19.1370      4.1679      3.8595      4.0112     13.4625     70.9936      0.0739      2.4692     38.5752     96.0949  
  4904.5000    -18.6816      4.1870      3.8753      4.0479     13.4907     71.4113      0.0903      2.4760     38.8535     98.5365  
  4905.0000    -18.4585      4.2063      3.8912      4.1140     13.5584     71.7222      0.0947      2.4776     38.5776     98.1867  
  4905.5000    -18.3486      4.2257      3.9072      4.1313     13.4735     70.3792      0.0848      2.4710     38.3017    102.3949  
  4906.0000    -18.4298      4.2451      3.9232      4.1526     13.4245     68.8088      0.0843      2.4600     38.1089    102.6110  
  4906.5000    -18.9258      4.2647      3.9340      4.1432     13.3167     68.1682      0.0869      2.4505     38.1422    100.3895  
  4907.0000    -19.3271      4.2843      3.9297      4.1116     13.3881     69.0944      0.0742      2.4410     38.3095     98.5404  
  4907.5000    -19.5325      4.2957      3.9254      4.0981     13.4629     69.9534      0.0603      2.4458     37.9267     93.9658  
