~VERSION INFORMATION
 VERS.                           2.00:        CWLS LOG ASCII STANDARD - VERSION 2.00
 WRAP.                             NO:        ONE LINE PER DEPTH STEP
~WELL INFORMATION
#MNEM.UNIT                   DATA             INFORMATION
#----------             --------------        ------------------------------
 STRT.F                      116.0000:        START DEPTH
 STOP.F                     8861.0000:        STOP DEPTH
 STEP.F                        0.5000:        STEP VALUE
 NULL.                      -999.2500:        NULL VALUE
 COMP.                     U.S. NAAVY:        COMPANY
 LOC .                 [33^13 17N 2W:        LOCATION
 DATE.                        3/30/77:        LOG DATE
 WELL.                    WT FORAN #1:        WELL
 UWI .                   501032001000:        UNIQUE WELL ID
 API .                   501032001000:        UNIQUE WELL IDENTIFIER
 FLD .                        WILDCAT:        FIELD
 CNTY.                    NORTH SLOPE:        COUNTY
 STAT.                         ALASKA:        STATE
 CTRY.                            USA:        COUNTRY
 OPER.                     U.S. NAAVY:        OPERATOR
 SRVC.                   SCHLUMBERGER:        SERVICE COMPANY
 LAT .                         0.0000:        LATITUDE
 LON .                         0.0000:        LONGITUDE
 DIGS.               CENTER LINE DATA:        DIGITIZING COMPANY
~CURVE INFORMATION      
#MNEM        .UNIT         API CODE           CURVE DESCRIPTION
#-----------------      --------------        ------------------------------
 DEPT        .F                      :        1  DEPTH
 CALI        .IN                     :        2  
 GR          .GAPI                   :        3  
 DRHO        .G/C3                   :        4  
 RHOB        .G/C3                   :        5  
 NPHI        .%                      :        6  
 DT          .US/F                   :        7  
 SP          .MV                     :        8  
 ILD         .OHMM                   :        9  
 ILM         .OHMM                   :        10 
 LL8         .OHMM                   :        11 
~PARAMETER INFORMATION
#MNEM.UNIT                  VALUE             DESCRIPTION OF MNEMONIC
#---------             ---------------        ------------------------------
 EKB .F                       39.0000:        KELLY BUSHING
 TD  .F                     8864.0000:        TOTAL DEPTH
 BHT .F                      152.0000:        BOTTOM HOLE TEMPERATURE
 BS  .                        14.2500:        BIT SIZE
 FD  .                        10.2000:        FLUID DENSITY
 CSIZ.                        16.0000:        CASING SIZE
 CBD .F                     1458.0000:        CASING DRILLER 1
 CBL .F                        0.0000:        CASING LOGGER 1
 DFT .                  MISCELLANEOUS:        TYPE FLUID IN HOLE
 DFV .                        45.0000:        VISCOSITY
 DFPH.                        10.5000:        PH
 DFL .                         5.5000:        FLUID LOSS
 RMS .                         2.4000:        RM
 MST .F                       54.0000:        RM MEAS. TEMP.
 RMF .                         2.3000:        RMF
 MFST.F                       56.0000:        RMF MEAS. TEMP.
 RMC .                         2.7000:        RMC
 MCST.F                       54.0000:        RMC MEAS. TEMP.
~OTHER INFORMATION
~A    DEPTH        CALI          GR        DRHO        RHOB        NPHI          DT          SP         ILD         ILM         LL8 
# ...
  2098.5000     16.9476     96.9901      0.0597      2.0027   -999.2500    174.1317    -46.3402      2.3923      2.0348      2.7566 
  2099.0000     16.7339     96.9667      0.0521      1.9894   -999.2500    174.0603    -47.9765      2.4070      2.0600      2.6844 
  2099.5000     16.5745     96.2310      0.0493      1.9741   -999.2500    173.6960    -50.8420      2.4002      2.1197      2.7282 
  2100.0000     16.3842     95.2756      0.0592      1.9604   -999.2500    173.4227    -54.2725      2.3933      2.1694      2.9033 
  2100.5000     16.2894     94.4063      0.0642      1.9597   -999.2500    173.5604    -56.0331      2.4019      2.2040      2.9865 
  2101.0000     16.3626     93.5495      0.0492      1.9604   -999.2500    174.0815    -56.0324      2.4312      2.2381      2.9964 
  2101.5000     16.8358     90.9853      0.0501      1.9771   -999.2500    174.6424    -55.5593      2.4610      2.2664      2.9579 
  2102.0000     17.1219     89.5303      0.0492      1.9991   -999.2500    174.8568    -55.0830      2.5214      2.2854      2.9111 
  2102.5000     17.0163     88.0726      0.0471      1.9862   -999.2500    174.7774    -55.2041      2.5496      2.2966      2.8914 
  2103.0000     16.6881     86.2236      0.0475      1.9859   -999.2500    174.5119    -56.1143      2.5260      2.2898      2.9058 
  2103.5000     16.3750     86.3961      0.0439      1.9893   -999.2500    174.0471    -57.1552      2.4887      2.2610      2.9049 
  2104.0000     16.2366     88.1095      0.0387      1.9975   -999.2500    173.5461    -58.1273      2.4574      2.2326      2.8754 
  2104.5000     16.4192     89.3687      0.0334      2.0096   -999.2500    174.4082    -59.1365      2.4286      2.2046      2.8838 
  2105.0000     16.5024     89.3933      0.0395      2.0217   -999.2500    175.8598    -59.3366      2.4033      2.1769      2.8729 
  2105.5000     17.0473     88.8885      0.0535      2.0371   -999.2500    177.3018    -59.4457      2.3787      2.1495      2.8552 
  2106.0000     17.1039     88.5781      0.0417      2.0355   -999.2500    178.8115    -59.4319      2.3542      2.1225      2.8223 
  2106.5000     17.0735     89.7215      0.0209      2.0365   -999.2500    180.6279    -59.4323      2.3300      2.0966      2.8048 
  2107.0000     16.9645     90.6873      0.0184      2.0386   -999.2500    191.7661    -59.4831      2.3000      2.0725      2.7890 
  2107.5000     16.8704     90.1507      0.0246      2.0409   -999.2500    191.9471    -59.4720      2.2597      2.0526      2.7733 
  2108.0000     16.7352     89.1450      0.0288      2.0433   -999.2500    192.1260    -59.0335      2.2510      2.0339      2.7613 
  2108.5000     17.0257     88.4928      0.0447      2.0483   -999.2500    192.0808    -58.9181      2.2520      2.0284      2.7545 
  2109.0000     17.1801     88.0439      0.0483      2.0516   -999.2500    192.2456    -58.6754      2.2656      2.0330      2.7704 
  2109.5000     17.1822     87.4073      0.0515      2.0547   -999.2500    192.7132    -58.5836      2.2849      2.0357      2.7970 
  2110.0000     17.2074     86.7534      0.0546      2.0566   -999.2500    193.2910    -58.5161      2.2674      2.0385      2.8201 
  2110.5000     17.2268     88.1135      0.0578      2.0544   -999.2500    194.3997    -58.3415      2.2613      2.0406      2.8292 
  2111.0000     17.1966     89.4605      0.0559      2.0505   -999.2500    187.5083    -57.6827      2.2279      2.0308      2.8071 
  2111.5000     17.2578     90.7051      0.0485      2.0401   -999.2500    150.0141    -56.4468      2.2431      2.0211      2.7711 
  2112.0000     17.3434     92.3643      0.0503      2.0326   -999.2500    150.0858    -54.4720      2.2585      2.0069      2.7542 
  2112.5000     17.2394     94.0952      0.0510      2.0274   -999.2500    159.5069    -52.9644      2.2752      2.0025      2.7530 
  2113.0000     17.1437     95.3236      0.0446      2.0217   -999.2500    174.7750    -52.8011      2.3188      2.0525      2.7423 
  2113.5000     17.0851     95.2546      0.0448      2.0228   -999.2500    190.0431    -54.3334      2.3347      2.1038      2.7839 
  2114.0000     16.9611     94.0973      0.0552      2.0327   -999.2500    204.0925    -56.8032      2.3628      2.1592      2.9070 
  2114.5000     16.9383     93.6432      0.0698      2.0414   -999.2500    202.7967    -58.6865      2.3947      2.2017      2.9350 
  2115.0000     17.5039     93.5478      0.0708      2.0448   -999.2500    190.9285    -59.8951      2.4344      2.2356      2.9556 
  2115.5000     18.0073     94.2508      0.0678      2.0555   -999.2500    190.9573    -60.4161      2.5067      2.2762      2.9764 
  2116.0000     18.0036     95.0805      0.0559      2.0771   -999.2500    194.8087    -60.8961      2.5811      2.3009      2.9771 
  2116.5000     18.0000     93.5155      0.0543      2.0692   -999.2500    186.2736    -61.3841      2.6362      2.3101      2.9685 
  2117.0000     17.9963     93.0531      0.0479      2.0563   -999.2500    185.4061    -61.8051      2.5677      2.3102      2.9599 
  2117.5000     17.9927     94.0810      0.0322      2.0443   -999.2500    184.6470    -62.1713      2.5650      2.3103      2.9513 
  2118.0000     17.9890     95.4785      0.0337      2.0461   -999.2500    182.2817    -62.4493      2.5530      2.2937      2.9427 
  2118.5000     17.9853     95.4381      0.0357      2.0478   -999.2500    181.8320    -62.6173      2.5283      2.2898      2.9342 
  2119.0000     17.9817     95.3146      0.0410      2.0512   -999.2500    181.4146    -62.7725      2.5110      2.2755      2.9262 
  2119.5000     17.9780     95.4167      0.0442      2.0566   -999.2500    181.1192    -62.9276      2.4988      2.2644      2.9187 
  2120.0000     17.9744     95.5023      0.0447      2.0620   -999.2500    181.0800    -63.0716      2.4876      2.2522      2.9113 
  2120.5000     17.9707     95.5554      0.0458      2.0616   -999.2500    181.0204    -63.3102      2.4735      2.2389      2.9183 
  2121.0000     17.9671     95.3750      0.0411      2.0577   -999.2500    181.4043    -63.6864      2.4566      2.2245      2.8925 
  2121.5000     17.9101     95.1140      0.0389      2.0559   -999.2500    181.6983    -64.0208      2.4472      2.2057      2.8735 
  2122.0000     17.8072     94.6275      0.0390      2.0545   -999.2500    181.5832    -64.2093      2.4396      2.1964      2.8638 
  2122.5000     17.9316     94.3088      0.0460      2.0519   -999.2500    181.3920    -64.2957      2.4443      2.1956      2.8674 
  2123.0000     17.9328     93.6118      0.0483      2.0520   -999.2500    181.4738    -64.2904      2.4451      2.2044      2.8861 
  2123.5000     17.9322     92.0905      0.0575      2.0628   -999.2500    181.5544    -64.2851      2.4397      2.2163      2.8962 
  2124.0000     17.9316     91.2789      0.0457      2.0755   -999.2500    181.8017    -64.2798      2.4504      2.2261      2.9175 
  2124.5000     17.9040     91.0552      0.0453      2.0721   -999.2500    181.5222    -64.2746      2.4633      2.2355      2.9390 
  2125.0000     17.9947     91.5085      0.0385      2.0669   -999.2500    180.6683    -64.2404      2.4551      2.2405      2.9606 
  2125.5000     17.9920     92.0669      0.0270      2.0617   -999.2500    180.2908    -64.1600      2.5010      2.2656      2.9825 
  2126.0000     17.9892     92.1475      0.0289      2.0788   -999.2500    180.2006    -63.9639      2.5299      2.2729      3.0013 
  2126.5000     17.9864     92.3213      0.0336      2.0892   -999.2500    180.1842    -63.8723      2.5528      2.2924      3.0149 
  2127.0000     17.9837     92.3518      0.0382      2.1005   -999.2500    180.3418    -63.8723      2.5761      2.3245      3.0286 
  2127.5000     17.9809     91.5984      0.0442      2.1111   -999.2500    180.6125    -63.8723      2.6026      2.3443      3.0424 
  2128.0000     17.9781     90.4980      0.0613      2.1137   -999.2500    180.3802    -63.8958      2.6251      2.3675      3.0562 
  2128.5000     17.9753     90.2606      0.0604      2.0984   -999.2500    180.0744    -63.8807      2.6464      2.3870      3.0701 
