~VERSION INFORMATION
 VERS.                      2.00:        CWLS LOG ASCII STANDARD - VERSION 2.00
 WRAP.                        NO:        ONE LINE PER DEPTH STEP
~WELL INFORMATION
#MNEM.UNIT               DATA            INFORMATION
#----------          ------------        ------------------------------
 STRT.F                  40.0000:        START DEPTH
 STOP.F                9893.0000:        STOP DEPTH
 STEP.F                   0.5000:        STEP VALUE
 NULL.                 -999.2500:        NULL VALUE
 COMP.                 U.S. NAVY:        COMPANY  
 WELL.    CAPE HALKETT #16N-2W-1:        WELL     
 FLD .                   WILDCAT:        FIELD    
 LOC .               5  16N   2W:        LOCATION   
 CNTY.               NORTH SLOPE:        COUNTY  
 STAT.                    ALASKA:        STATE   
 CTRY.                       USA:        COUNTRY 
 DATE.                    4/9/75:        LOG DATE 
 API .              500000000000:        UNIQUE WELL IDENTIFIER 
 OPER.                 U.S. NAVY:        OPERATOR  
 SRVC.              Schlumberger:        SERVICE COMPANY 
 UWI .              500000000000:        UNIQUE WELL ID 
 LAT .                    0.0000:        LATITUDE
 LON .                    0.0000:        LONGITUDE
 DIGS.          Center Line Data:        DIGITIZING COMPANY 
~CURVE INFORMATION      
#MNEM.UNIT            API CODE           CURVE DESCRIPTION
#---------          -------------        ------------------------------
 DEPT.F                         :        1  DEPTH
 SP  .MV                        :        2
 ILD .OHMM                      :        3
 ILM .OHMM                      :        4
 LL8 .OHMM                      :        5
 CALI.IN                        :        6
 GR  .GAPI                      :        7
 DRHO.G/C3                      :        8
 RHOB.G/C3                      :        9
 NPHI.%                         :       10
 DPHI.%                         :       11
 DT  .US/F                      :       12
~PARAMETER INFORMATION       
#MNEM.UNIT              VALUE            DESCRIPTION OF MNEMONIC
#---------          -------------        ------------------------------
 EKB .F                  39.5000:        KELLY BUSHING
 TD  .F                7867.0000:        TOTAL DEPTH
 BHT .F                  60.0000:        BOTTOM HOLE TEMPERATURE
 BS  .                   18.5000:        BIT SIZE
 FD  .                   10.5000:        FLUID DENSITY
 CSIZ.                   20.0000:        CASING SIZE
 CBD .F                 492.0000:        CASING DRILLER 1
 CBL .F                 493.0000:        CASING LOGGER 1
 DFT .             Miscellaneous:        TYPE FLUID IN HOLE
 DFV .                  200.0000:        VISCOSITY
 DFPH.                   10.0000:        PH
 DFL .                    9.2000:        FLUID LOSS
 RMS .                    2.1500:        RM
 MST .F                  57.0000:        RM MEAS. TEMP.
 RMF .                    2.2000:        RMF
 MFST.F                  40.0000:        RMF MEAS. TEMP.
 RMC .                    0.0000:        RMC
 MCST.F                   0.0000:        RMC MEAS. TEMP.
 UWI .              500000000000:        UNIQUE WELL ID
~OTHER INFORMATION
~A    DEPTH          SP         ILD         ILM         LL8        CALI          GR        DRHO        RHOB        NPHI        DPHI          DT  
# ...
  8867.5000    -70.6684     19.2216     21.7277     43.4133     10.4346     27.7453     -0.0001   -999.2500     10.1552      7.7979     65.4943  
  8868.0000    -70.0441     21.3574     25.0093     46.0157     10.4320     28.8239     -0.0006   -999.2500     10.2814      8.2594     61.9117  
  8868.5000    -69.1905     23.7132     28.2171     49.1051     10.4294     27.6175      0.0028   -999.2500     10.1430      8.8002     57.0643  
  8869.0000    -68.4583     23.6849     30.6634     51.5126     10.4787     23.6269      0.0062   -999.2500      8.7677      8.4541     55.2939  
  8869.5000    -67.7379     22.8951     29.3518     54.1662     10.5509     20.4351      0.0090   -999.2500      6.9813      7.0748     54.4431  
  8870.0000    -66.9431     22.0098     25.0631     53.8969     10.5544     19.8785      0.0101   -999.2500      5.1948      7.5451     54.7502  
  8870.5000    -66.0140     21.6139     20.9349     36.4858     10.3908     19.5979      0.0110   -999.2500      3.7913      8.8214     55.2801  
  8871.0000    -65.4020     22.0915     19.0648     21.8923     10.3433     19.2419      0.0181   -999.2500      2.9757      9.3429     55.3813  
  8871.5000    -65.0632     22.8252     19.9649     17.3157     10.3667     18.7917      0.0622   -999.2500      2.6759     10.9460     55.0616  
  8872.0000    -64.6276     23.6184     22.4097     23.8602     10.4064     17.9788      0.1089   -999.2500      2.7441     15.3250     53.8666  
  8872.5000    -64.2134     24.5090     31.9866     38.7576     10.7840     17.2924      0.1807   -999.2500      2.8123     18.8434     52.5052  
  8873.0000    -63.8916     25.6846     34.5151     61.3723     11.2094     17.2485      0.1884   -999.2500      2.6261     18.3398     53.7071  
  8873.5000    -63.6551     27.9394     35.7652     72.9262     11.3361     17.7848      0.1480   -999.2500      2.1649     14.7840     55.9302  
  8874.0000    -63.6058     31.8684     36.6976     83.0770     11.0167     19.7781      0.0369   -999.2500      2.0869     10.8663     57.8339  
  8874.5000    -63.4597     36.3500     38.1043     75.3302     10.6878     21.6816      0.0123   -999.2500      2.7182      7.3601     57.2250  
  8875.0000    -63.3446     42.5478     43.0243     63.1009     10.3981     23.2606      0.0380   -999.2500      3.9568      9.3514     58.4606  
  8875.5000    -63.0678     51.0170     55.0627     61.3456     10.3741     24.4602      0.0346   -999.2500      5.1410     12.1789     59.8686  
  8876.0000    -62.8607     56.6423     61.1096     78.0193     10.1966     26.0017      0.0150   -999.2500      6.1762     13.5966     60.1846  
  8876.5000    -62.6074     55.9370     59.4164    103.4511     10.0965     26.7829      0.0141   -999.2500      7.2340     13.5752     60.1843  
  8877.0000    -62.3367     50.6805     53.3046    133.5975     10.0278     29.5213      0.0116   -999.2500      8.3551     13.6129     60.6514  
  8877.5000    -62.0937     44.1831     47.3030    120.6024     10.0186     32.2598      0.0206   -999.2500      9.9127     11.6196     62.9235  
  8878.0000    -62.1720     42.6475     43.3724     79.4132     10.0849     35.9339      0.1387   -999.2500     11.5080     11.6909     66.7764  
  8878.5000    -61.8188     40.2426     40.8348     53.0785     10.1409     38.3073      0.1833   -999.2500     13.1437     12.1274     67.7816  
  8879.0000    -61.4413     35.5640     35.5888     45.0895     10.1708     38.9515      0.1923   -999.2500     15.0976     11.7077     63.2144  
  8879.5000    -61.1133     27.4734     29.3027     43.9748     10.1998     38.2894      0.1700   -999.2500     15.6912     12.7087     57.5445  
  8880.0000    -60.7798     20.6794     21.2418     27.6268     10.2270     33.7084      0.0858   -999.2500     12.9129     11.8852     54.0410  
  8880.5000    -59.7241     15.7791     15.9019     25.8140     10.2538     29.4521      0.0185   -999.2500      8.6129      6.8156     53.2740  
  8881.0000    -59.3417     12.8451     12.1285     29.9377     10.2947     27.2045      0.0321   -999.2500      4.3301      5.2943     53.6832  
  8881.5000    -59.1382     12.1052      7.9469     23.9725     10.3355     25.4970      0.0226   -999.2500      3.0715      5.2151     55.1806  
  8882.0000    -58.5617     12.2473      7.8946     14.7377     10.4490     24.3926      0.0044   -999.2500      2.6156      6.2431     58.2769  
  8882.5000    -58.1504     12.9396     10.5209     11.0985     10.5908     24.8867      0.0062   -999.2500      3.5323      6.0197     61.3712  
  8883.0000    -58.2227     13.1837     14.8273     15.7622     10.6101     27.6495      0.0478   -999.2500      4.5854      5.1563     62.6396  
  8883.5000    -58.0669     13.1091     18.2474     39.1509     10.3350     31.1019      0.1091   -999.2500      5.7559      6.2917     62.3190  
  8884.0000    -57.9781     13.5654     19.3181     48.1413     10.2408     33.3217      0.1483   -999.2500      6.6798      9.0870     62.2381  
  8884.5000    -57.9767     15.8691     19.7910     44.6106     10.2046     34.7765      0.0701   -999.2500      5.8621     11.9901     62.8260  
  8885.0000    -58.0046     19.0285     22.1063     67.6450     10.1493     34.0577      0.0174   -999.2500      4.8618      8.7878     64.0915  
  8885.5000    -58.0460     19.2982     23.7671     73.2579     10.1128     32.2446      0.0166   -999.2500      4.2102      7.1295     66.0401  
  8886.0000    -57.8082     17.9044     25.1842     37.4920     10.1138     31.3385      0.0099   -999.2500      4.2739      8.3083     67.5716  
  8886.5000    -57.7046     30.6697     28.3301     20.7859     10.1153     30.5551      0.0033   -999.2500      4.5910      8.8028     66.4946  
  8887.0000    -57.8438     52.5364     32.8381     29.3563     10.1094     30.2554      0.0063   -999.2500      4.9991      8.8586     64.4587  
  8887.5000    -58.0953     35.8965     36.7982     41.5656     10.1118     30.0140      0.0116   -999.2500      5.3071      9.0685     61.4848  
  8888.0000    -58.1795     24.3241     36.2552     57.9342     10.1163     28.8114      0.0192   -999.2500      4.8914      8.2169     59.5181  
  8888.5000    -58.3639     22.4066     31.9096     62.4073     10.1207     26.8644      0.0175   -999.2500      4.2231      7.4922     59.3734  
  8889.0000    -58.4818     23.6904     29.3533     54.2899     10.1198     26.8737      0.0107   -999.2500      3.2561      6.8558     60.7658  
  8889.5000    -58.4932     25.5054     29.1381     47.7640     10.1142     27.7576      0.0120   -999.2500      2.5955      6.2018     61.7883  
  8890.0000    -58.7814     27.1086     29.7629     36.9531     10.1095     31.1135      0.0126   -999.2500      2.7545      5.3031     62.4543  
  8890.5000    -58.9760     28.5665     32.7911     28.7447     10.1184     34.9457      0.0100   -999.2500      3.1417      4.7938     61.7105  
  8891.0000    -58.8109     29.4150     37.0712     32.0888     10.1216     37.1774      0.0135   -999.2500      4.2142      4.6224     60.1986  
  8891.5000    -58.6457     29.9613     41.2769     43.9913     10.1249     38.4994      0.0094   -999.2500      5.2867      4.5420     58.2998  
  8892.0000    -58.2864     30.2623     40.5258     76.4340     10.1151     38.6956      0.0075   -999.2500      6.2873      3.9278     56.6996  
  8892.5000    -57.6724     31.1586     39.8703     95.4214     10.1150     38.9104      0.0057   -999.2500      6.0462      3.8089     56.8628  
  8893.0000    -57.2017     32.6381     39.2254     74.7981     10.1217     39.7534      0.0032   -999.2500      6.0124      4.0329     58.3709  
  8893.5000    -56.8817     34.7115     39.1745     57.1403     10.1269     40.4551     -0.0008   -999.2500      6.0621      4.2968     64.0093  
  8894.0000    -56.6279     37.3757     41.0145     45.7710     10.1172     44.1471     -0.0012   -999.2500      6.7892      5.4935     71.1184  
  8894.5000    -56.3171     41.7879     45.5021     43.5987     10.1076     52.9972     -0.0008   -999.2500     10.1400      6.9236     78.4359  
