~VERSION INFORMATION
 VERS.                           2.00:        CWLS LOG ASCII STANDARD - VERSION 2.00
 WRAP.                             NO:        ONE LINE PER DEPTH STEP
~WELL INFORMATION
#MNEM.UNIT                   DATA             INFORMATION
#----------             --------------        ------------------------------
 STRT.F                       94.0000:        START DEPTH
 STOP.F                    11429.0000:        STOP DEPTH
 STEP.F                        0.5000:        STEP VALUE
 NULL.                      -999.2500:        NULL VALUE
 COMP. U.S. NAVY (HUSKY OIL CO.-OPER.:        COMPANY
 LOC .                      11 11N 1W:        LOCATION
 DATE.                        2/17/77:        LOG DATE
 WELL.             WEST FISH CREEK #1:        WELL
 UWI .                   500232001400:        UNIQUE WELL ID
 API .                   500232001400:        UNIQUE WELL IDENTIFIER
 FLD .                        WILDCAT:        FIELD
 CNTY.                    NORTH SLOPE:        COUNTY
 STAT.                         ALASKA:        STATE
 CTRY.                            USA:        COUNTRY
 OPER. U.S. NAVY (HUSKY OIL CO.-OPER.:        OPERATOR
 SRVC.                   SCHLUMBERGER:        SERVICE COMPANY
 LAT .                         0.0000:        LATITUDE
 LON .                         0.0000:        LONGITUDE
 DIGS.               CENTER LINE DATA:        DIGITIZING COMPANY
~CURVE INFORMATION      
#MNEM        .UNIT         API CODE           CURVE DESCRIPTION
#-----------------      --------------        ------------------------------
 DEPT        .F                      :        1  DEPTH
 SP          .MV                     :        2  
 ILD         .OHMM                   :        3  
 ILM         .OHMM                   :        4  
 LL8         .OHMM                   :        5  
 CALI        .IN                     :        6  
 RHOB        .G/C3                   :        7  
 DRHO        .G/C3                   :        8  
 NPHI        .%                      :        9  
 GR          .GAPI                   :        10 
 DT          .US/F                   :        11 
~PARAMETER INFORMATION
#MNEM.UNIT                  VALUE             DESCRIPTION OF MNEMONIC
#---------             ---------------        ------------------------------
 EKB .F                      113.0000:        KELLY BUSHING
 TD  .F                    11429.0000:        TOTAL DEPTH
~OTHER INFORMATION
~A    DEPTH          SP         ILD         ILM         LL8        CALI        RHOB        DRHO        NPHI          GR          DT 
# ...
 10006.5000    -30.9739      8.4066      8.3873      8.6166   -999.2500   -999.2500   -999.2500     34.4860    118.9340     71.6424 
 10007.0000    -30.7836      8.4200      8.4649      8.9197   -999.2500   -999.2500   -999.2500     36.9718    118.8602     72.5266 
 10007.5000    -31.0859      8.4590      8.4945      9.8769   -999.2500   -999.2500   -999.2500     37.8931    117.5141     72.4203 
 10008.0000    -31.3001      8.5745      8.3765     11.8863   -999.2500   -999.2500   -999.2500     38.9661    116.5329     71.7408 
 10008.5000    -31.2284      8.7897      8.0143     11.2490   -999.2500   -999.2500   -999.2500     40.3178    115.7889     70.8405 
 10009.0000    -31.1678      9.0934      7.6037     10.0458   -999.2500   -999.2500   -999.2500     40.6232    114.1783     69.0013 
 10009.5000    -31.2370      9.4573      7.9798      8.9714   -999.2500   -999.2500   -999.2500     40.2630    112.8520     70.3939 
 10010.0000    -31.3062      9.9018      9.1151      8.9759   -999.2500   -999.2500   -999.2500     39.9513    110.2836     72.4938 
 10010.5000    -31.3175     10.3682     10.0174     10.7277   -999.2500   -999.2500   -999.2500     40.3260    105.2854     73.7987 
 10011.0000    -31.2996     11.0537     10.9750     13.1543   -999.2500   -999.2500   -999.2500     40.7007     96.3282     72.5153 
 10011.5000    -31.7304     12.2306     12.0241     16.8398   -999.2500   -999.2500   -999.2500     40.9939     86.7429     68.9203 
 10012.0000    -32.3341     13.5973     13.3858     24.4679   -999.2500   -999.2500   -999.2500     40.2463     77.0219     65.4468 
 10012.5000    -33.0899     15.1956     14.9282     29.0313   -999.2500   -999.2500   -999.2500     38.4532     71.5626     64.1276 
 10013.0000    -33.8079     17.3904     16.5473     26.7120   -999.2500   -999.2500   -999.2500     36.5841     69.7808     62.6486 
 10013.5000    -34.4079     20.0130     19.4998     24.2688   -999.2500   -999.2500   -999.2500     34.4554     70.1476     63.3021 
 10014.0000    -35.1759     24.6240     24.4068     24.2180   -999.2500   -999.2500   -999.2500     29.6962     71.9406     64.7738 
 10014.5000    -35.9722     26.1679     30.0227     29.7083   -999.2500   -999.2500   -999.2500     27.4299     73.1677     66.4462 
 10015.0000    -36.5859     26.5542     35.9356     37.2540   -999.2500   -999.2500   -999.2500     27.3974     70.7812     67.3565 
 10015.5000    -37.1061     26.6221     37.4573     46.2488   -999.2500   -999.2500   -999.2500     31.4821     65.6018     64.6105 
 10016.0000    -37.5820     27.3659     36.1493     55.8021   -999.2500   -999.2500   -999.2500     31.6146     58.8680     62.9331 
 10016.5000    -37.8889     28.1278     33.5272     58.9053   -999.2500   -999.2500   -999.2500     31.5705     54.3994     61.4663 
 10017.0000    -38.0006     28.9029     29.2506     55.8804   -999.2500   -999.2500   -999.2500     29.9614     53.1834     61.4824 
 10017.5000    -37.9805     30.0645     24.7732     45.2096   -999.2500   -999.2500   -999.2500     27.5631     54.3317     61.5252 
 10018.0000    -37.8800     31.4086     21.7484     32.4713   -999.2500      2.6157      0.4770     25.1648     56.8732     63.5159 
 10018.5000    -37.9481     30.8616     24.9653     25.2558      9.3011      2.6068      0.4663     24.1710     60.1132     64.8623 
 10019.0000    -38.1411     28.9413     29.6638     28.9790      9.3711      2.5810      0.4557     23.7216     60.3354     65.3320 
 10019.5000    -38.2196     27.4931     32.6656     40.5207      9.4411      2.5733      0.4483     24.2066     56.8260     65.3766 
 10020.0000    -38.2964     26.5318     28.2091     42.4606      9.5111      2.5955      0.4536     25.4183     50.0198     64.5377 
 10020.5000    -38.5753     26.7148     26.9662     38.7263      9.5106      2.5622      0.4720     26.0620     48.8856     63.4877 
 10021.0000    -39.1296     28.5021     29.1418     37.3168      9.4071      2.5337      0.4803     25.0660     51.6135     64.8057 
 10021.5000    -39.5027     31.1902     31.5769     38.6433      9.4270      2.5702      0.4732     23.6929     53.4221     65.2563 
 10022.0000    -39.4611     33.6466     33.6146     41.2754      9.5581      2.6180      0.4661     23.0682     53.7836     65.2356 
 10022.5000    -39.3664     34.4050     34.1078     47.2720      9.8005      2.6074      0.4634     23.5830     53.9964     64.8831 
 10023.0000    -39.0073     35.9263     32.9786     56.4541      9.5218      2.5717      0.4686     24.3463     53.1563     64.7266 
 10023.5000    -38.4526     37.7472     31.2389     60.7864      9.1852      2.5977      0.4741     24.7823     50.5292     63.8964 
 10024.0000    -38.1928     39.6605     30.3202     50.6893      9.1344      2.6188      0.4782     24.5531     48.7945     64.6996 
 10024.5000    -37.9289     41.6556     32.7472     43.7925      9.1381      2.6063      0.4828     24.1508     50.8133     65.3564 
 10025.0000    -37.6249     42.4037     35.9396     44.0022      9.1419      2.5826      0.4887     23.7318     54.0975     65.7604 
 10025.5000    -37.0924     41.7907     38.9258     50.6353      9.1456      2.5794      0.4833     23.1303     54.0110     65.6979 
 10026.0000    -36.3597     39.9438     35.6210     58.9490      9.1494      2.5782      0.4716     23.1165     50.6319     65.4919 
 10026.5000    -35.8417     32.5448     30.0299     58.3912      9.1532      2.5597      0.4779     23.5479     47.0269     64.7578 
 10027.0000    -35.6012     25.4947     24.3343     49.3287      9.1569      2.5620      0.4819     23.9547     46.7194     63.2621 
 10027.5000    -35.2215     20.1464     19.7189     36.8320      9.1607      2.5501      0.4859     23.8256     50.4358     65.1252 
 10028.0000    -34.5610     19.2786     19.1999     29.1851      9.1644      2.5336      0.4804     23.1439     57.7743     66.9273 
 10028.5000    -33.8957     19.4520     19.1783     26.3455      9.2007      2.4985      0.4646     22.8794     65.9870     64.9073 
 10029.0000    -33.7736     19.2224     19.0285     26.5944      9.2595      2.4645      0.4476     23.0095     71.0436     65.4529 
 10029.5000    -34.0220     20.8293     21.1754     23.7816      9.4796      2.4555      0.4249     23.2043     72.8684     67.5659 
 10030.0000    -34.3524     25.3635     25.7572     27.1409      9.7604      2.3899      0.4023     25.1149     71.0197     67.0874 
 10030.5000    -34.4625     31.5470     30.4092     46.7765      9.7537      2.3312      0.3836     27.0256     64.4661     66.3866 
 10031.0000    -34.2139     27.1994     24.4590     56.2415      9.6000      2.3270      0.3755     28.9363     56.0652     67.2595 
 10031.5000    -33.8363     27.3775     22.2843     43.5379      9.4536      2.2754      0.3748     30.1153     52.0760     64.6544 
 10032.0000    -33.3440     29.1128     26.9279     30.0653      9.3072      2.3149      0.3866     31.1427     56.5628     65.4839 
 10032.5000    -32.8175     25.3592     27.7019     31.8960      9.1951      2.4690      0.4273     32.6781     62.6300     66.9974 
 10033.0000    -32.4561     21.9417     22.4880     40.6091      9.2061      2.5104      0.4361     32.0695     65.7046     66.9836 
 10033.5000    -32.2049     18.9133     16.0048     38.8035      9.2170      2.5171      0.4261     26.9686     67.0648     65.4363 
 10034.0000    -31.9901     16.3030     11.3906     23.7178      9.2133      2.4907      0.4026     25.7510     76.4103     65.2255 
 10034.5000    -31.7420     14.5184     10.0248     16.0153      9.2144      2.4616      0.3754     27.1696     90.6886     67.4462 
 10035.0000    -31.5610     13.3048     10.4379     13.7394      9.2222      2.4388      0.3483     28.2074    107.9463     70.3742 
 10035.5000    -31.4919     12.3546     11.3118     12.9740      9.5673      2.4229      0.3023     29.1734    114.1830     75.4607 
 10036.0000    -31.5273     12.0875     13.1941     15.0150     10.1011      2.3541      0.2777     32.6002    109.9753     76.2352 
 10036.5000    -31.5627     12.0964     14.9805     18.2389     10.4143      2.3482      0.2692     35.4999    103.6901     73.7252 
