~VERSION INFORMATION
 VERS.                      2.00:        CWLS LOG ASCII STANDARD - VERSION 2.00
 WRAP.                        NO:        ONE LINE PER DEPTH STEP
~WELL INFORMATION
#MNEM.UNIT               DATA            INFORMATION
#----------          ------------        ------------------------------
 STRT.F                  40.0000:        START DEPTH
 STOP.F                9893.0000:        STOP DEPTH
 STEP.F                   0.5000:        STEP VALUE
 NULL.                 -999.2500:        NULL VALUE
 COMP.                 U.S. NAVY:        COMPANY  
 WELL.    CAPE HALKETT #16N-2W-1:        WELL     
 FLD .                   WILDCAT:        FIELD    
 LOC .               5  16N   2W:        LOCATION   
 CNTY.               NORTH SLOPE:        COUNTY  
 STAT.                    ALASKA:        STATE   
 CTRY.                       USA:        COUNTRY 
 DATE.                    4/9/75:        LOG DATE 
 API .              500000000000:        UNIQUE WELL IDENTIFIER 
 OPER.                 U.S. NAVY:        OPERATOR  
 SRVC.              Schlumberger:        SERVICE COMPANY 
 UWI .              500000000000:        UNIQUE WELL ID 
 LAT .                    0.0000:        LATITUDE
 LON .                    0.0000:        LONGITUDE
 DIGS.          Center Line Data:        DIGITIZING COMPANY 
~CURVE INFORMATION      
#MNEM.UNIT            API CODE           CURVE DESCRIPTION
#---------          -------------        ------------------------------
 DEPT.F                         :        1  DEPTH
 SP  .MV                        :        2
 ILD .OHMM                      :        3
 ILM .OHMM                      :        4
 LL8 .OHMM                      :        5
 CALI.IN                        :        6
 GR  .GAPI                      :        7
 DRHO.G/C3                      :        8
 RHOB.G/C3                      :        9
 NPHI.%                         :       10
 DPHI.%                         :       11
 DT  .US/F                      :       12
~PARAMETER INFORMATION       
#MNEM.UNIT              VALUE            DESCRIPTION OF MNEMONIC
#---------          -------------        ------------------------------
 EKB .F                  39.5000:        KELLY BUSHING
 TD  .F                7867.0000:        TOTAL DEPTH
 BHT .F                  60.0000:        BOTTOM HOLE TEMPERATURE
 BS  .                   18.5000:        BIT SIZE
 FD  .                   10.5000:        FLUID DENSITY
 CSIZ.                   20.0000:        CASING SIZE
 CBD .F                 492.0000:        CASING DRILLER 1
 CBL .F                 493.0000:        CASING LOGGER 1
 DFT .             Miscellaneous:        TYPE FLUID IN HOLE
 DFV .                  200.0000:        VISCOSITY
 DFPH.                   10.0000:        PH
 DFL .                    9.2000:        FLUID LOSS
 RMS .                    2.1500:        RM
 MST .F                  57.0000:        RM MEAS. TEMP.
 RMF .                    2.2000:        RMF
 MFST.F                  40.0000:        RMF MEAS. TEMP.
 RMC .                    0.0000:        RMC
 MCST.F                   0.0000:        RMC MEAS. TEMP.
 UWI .              500000000000:        UNIQUE WELL ID
~OTHER INFORMATION
~A    DEPTH          SP         ILD         ILM         LL8        CALI          GR        DRHO        RHOB        NPHI        DPHI          DT  
# ...
  2405.0000   -999.2500   -999.2500   -999.2500   -999.2500   -999.2500     44.6337   -999.2500   -999.2500   -999.2500   -999.2500   -999.2500  
  2405.5000   -999.2500   -999.2500   -999.2500   -999.2500   -999.2500     43.6229   -999.2500   -999.2500   -999.2500   -999.2500   -999.2500  
  2406.0000   -999.2500   -999.2500   -999.2500   -999.2500   -999.2500     42.6960   -999.2500   -999.2500   -999.2500   -999.2500   -999.2500  
  2406.5000   -999.2500   -999.2500   -999.2500   -999.2500   -999.2500     41.9097   -999.2500   -999.2500   -999.2500   -999.2500   -999.2500  
  2407.0000   -999.2500   -999.2500   -999.2500   -999.2500   -999.2500     41.1420   -999.2500   -999.2500   -999.2500   -999.2500   -999.2500  
  2407.5000   -999.2500   -999.2500   -999.2500   -999.2500   -999.2500     40.5017   -999.2500   -999.2500   -999.2500   -999.2500   -999.2500  
  2408.0000   -999.2500   -999.2500   -999.2500   -999.2500   -999.2500     40.5013   -999.2500   -999.2500   -999.2500   -999.2500   -999.2500  
  2408.5000   -999.2500   -999.2500   -999.2500   -999.2500   -999.2500     40.5475   -999.2500   -999.2500   -999.2500   -999.2500   -999.2500  
  2409.0000   -999.2500   -999.2500   -999.2500   -999.2500   -999.2500     41.0778   -999.2500   -999.2500   -999.2500   -999.2500   -999.2500  
  2409.5000   -999.2500   -999.2500   -999.2500   -999.2500   -999.2500     41.9472   -999.2500   -999.2500   -999.2500   -999.2500   -999.2500  
  2410.0000   -999.2500   -999.2500   -999.2500   -999.2500   -999.2500     42.5795   -999.2500   -999.2500   -999.2500   -999.2500   -999.2500  
  2410.5000   -999.2500   -999.2500   -999.2500   -999.2500   -999.2500     43.2898   -999.2500   -999.2500   -999.2500   -999.2500   -999.2500  
  2411.0000   -999.2500   -999.2500   -999.2500   -999.2500   -999.2500     44.2134   -999.2500   -999.2500   -999.2500   -999.2500     61.0228  
  2411.5000   -999.2500   -999.2500   -999.2500   -999.2500   -999.2500     45.1136   -999.2500   -999.2500   -999.2500   -999.2500     70.0912  
  2412.0000   -999.2500   -999.2500   -999.2500   -999.2500   -999.2500     45.6080   -999.2500   -999.2500   -999.2500   -999.2500     79.7322  
  2412.5000   -999.2500   -999.2500   -999.2500   -999.2500   -999.2500     45.7993   -999.2500   -999.2500   -999.2500   -999.2500     93.8342  
  2413.0000    -46.1488      2.2972      2.3115      2.5213   -999.2500     46.7236   -999.2500   -999.2500   -999.2500   -999.2500     85.4071  
  2413.5000    -38.5963      1.5088      1.4202      2.7474   -999.2500     48.0332   -999.2500   -999.2500   -999.2500   -999.2500     81.9252  
  2414.0000    -31.4761      1.5446      1.5195      2.8577   -999.2500     50.2225   -999.2500   -999.2500   -999.2500   -999.2500    103.8503  
  2414.5000    -26.2748      1.7728      1.6333      2.9197   -999.2500     52.8447   -999.2500   -999.2500   -999.2500   -999.2500    119.2053  
  2415.0000    -22.1422      2.0347      1.7350      2.9678   -999.2500     55.2755   -999.2500   -999.2500   -999.2500   -999.2500    119.3729  
  2415.5000    -19.5177      2.0826      1.7955      3.0168   -999.2500     58.2212   -999.2500   -999.2500   -999.2500   -999.2500    127.9308  
  2416.0000    -18.6962      2.0197      1.7836      3.0510     12.6156     61.9007      0.1281      2.2138     46.1127   -999.2500    135.4004  
  2416.5000    -18.7985      1.9575      1.8024      2.9313     12.9892     65.5802      0.1176      2.1149     47.3818   -999.2500    133.2618  
  2417.0000    -19.2581      1.9306      1.8479      2.7029     14.1293     68.3820      0.0838      2.0203     52.4751   -999.2500    158.0786  
  2417.5000    -19.8051      1.9908      1.9267      2.5471     14.0130     71.8378      0.0709      1.9990     55.5386   -999.2500    164.4016  
  2418.0000    -20.0767      2.2173      2.0485      2.7382     14.0037     76.8606      0.0755      1.9993     57.8595   -999.2500    155.3434  
  2418.5000    -20.1829      2.5314      2.3896      3.3629     14.0163     82.4333      0.0821      1.9996     58.2829   -999.2500    144.8495  
  2419.0000    -19.8098      2.8622      2.8036      3.6804     14.4094     88.1395      0.0936      1.9999     58.0706   -999.2500    138.6107  
  2419.5000    -19.4175      3.1501      3.0472      3.7146     15.4242     93.3582      0.1069      2.0002     58.5790   -999.2500    135.7516  
  2420.0000    -19.2595      3.4552      3.1448      3.6795     14.8580     98.3993      0.1346      2.0452     59.7635   -999.2500    134.8794  
  2420.5000    -19.3874      3.5308      3.1793      3.6445     13.6038    103.0720      0.1567      2.0920     56.6719   -999.2500    143.0178  
  2421.0000    -19.9223      3.5586      3.2143      3.6788     14.1168    107.2357      0.1466      2.0896     54.0545   -999.2500    139.2084  
  2421.5000    -20.4409      3.5457      3.2379      3.7132     13.5916    112.4361      0.1241      2.0760     51.0705   -999.2500    133.2455  
  2422.0000    -20.8936      3.5262      3.2361      3.7338     13.3191    111.7906      0.1037      2.0731     50.3685   -999.2500    125.7247  
  2422.5000    -21.3462      3.5059      3.2342      3.7140     13.1007    106.9929      0.0785      2.0828     50.4017   -999.2500    119.8074  
  2423.0000    -21.8969      3.4844      3.2323      3.6895     13.0553    103.0798      0.0516      2.1008     50.2504   -999.2500    118.4365  
  2423.5000    -22.0280      3.4630      3.2304      3.6669     13.1792     99.9313      0.0696      2.1718     49.3073   -999.2500    118.4999  
  2424.0000    -21.6669      3.4404      3.2286      3.6432     13.3804     99.5875      0.0779      2.2051     47.6663   -999.2500    118.8996  
  2424.5000    -21.0334      3.4178      3.2267      3.6193     13.6461     99.9719      0.0739      2.2152     47.3446   -999.2500    119.2531  
  2425.0000    -20.7446      3.4018      3.2248      3.6013     13.9441    101.0279      0.0668      2.2186     47.3827   -999.2500    119.5243  
  2425.5000    -20.6372      3.4173      3.2216      3.6188     14.1201    101.0285      0.0661      2.2273     47.7625   -999.2500    119.3680  
  2426.0000    -20.8589      3.4561      3.2161      3.6578     14.0857    101.0219      0.0727      2.2435     48.3436   -999.2500    119.7941  
  2426.5000    -21.1529      3.4517      3.2105      3.6538     13.7797    101.0153      0.0732      2.2414     48.9248   -999.2500    119.9642  
  2427.0000    -21.3628      3.4391      3.2050      3.6404     13.3487    100.7445      0.0683      2.2402     48.7335   -999.2500    119.6175  
  2427.5000    -21.2175      3.4579      3.1994      3.6621     13.1866    100.5923      0.0689      2.2433     48.1193   -999.2500    119.8218  
  2428.0000    -21.2635      3.4747      3.1939      3.6774     13.1529    101.0606      0.0728      2.2537     48.6871   -999.2500    120.0310  
  2428.5000    -21.3716      3.4736      3.1884      3.6763     13.2318    104.5768      0.0776      2.2566     48.8257   -999.2500    120.3032  
  2429.0000    -21.7904      3.4758      3.2158      3.6802     13.3460    107.3714      0.0831      2.2559     47.6589   -999.2500    120.2224  
  2429.5000    -22.2656      3.4979      3.2612      3.7041     13.1343    106.1545      0.0873      2.2692     46.9126   -999.2500    120.4655  
  2430.0000    -22.4431      3.5042      3.3072      3.7112     13.0980    105.8566      0.0927      2.2599     46.6560   -999.2500    120.1444  
  2430.5000    -22.3462      3.4852      3.2985      3.6894     13.1807    106.9059      0.0616      2.2441     46.1539   -999.2500    120.0123  
  2431.0000    -21.8721      3.4445      3.2711      3.6522     13.2189    108.4738      0.0515      2.2382     45.2500   -999.2500    121.3849  
  2431.5000    -21.2032      3.3765      3.2345      3.5946     13.3521    107.7205      0.0616      2.2540     44.1748   -999.2500    120.1853  
  2432.0000    -20.4010      3.3088      3.1863      3.5179     13.9735    111.4722      0.0876      2.2682     42.4482   -999.2500    120.1404  
