~VERSION INFORMATION
 VERS.                           2.00:        CWLS LOG ASCII STANDARD - VERSION 2.00
 WRAP.                             NO:        ONE LINE PER DEPTH STEP
~WELL INFORMATION
#MNEM.UNIT                   DATA             INFORMATION
#----------             --------------        ------------------------------
 STRT.F                       94.0000:        START DEPTH
 STOP.F                    11429.0000:        STOP DEPTH
 STEP.F                        0.5000:        STEP VALUE
 NULL.                      -999.2500:        NULL VALUE
 COMP. U.S. NAVY (HUSKY OIL CO.-OPER.:        COMPANY
 LOC .                      11 11N 1W:        LOCATION
 DATE.                        2/17/77:        LOG DATE
 WELL.             WEST FISH CREEK #1:        WELL
 UWI .                   500232001400:        UNIQUE WELL ID
 API .                   500232001400:        UNIQUE WELL IDENTIFIER
 FLD .                        WILDCAT:        FIELD
 CNTY.                    NORTH SLOPE:        COUNTY
 STAT.                         ALASKA:        STATE
 CTRY.                            USA:        COUNTRY
 OPER. U.S. NAVY (HUSKY OIL CO.-OPER.:        OPERATOR
 SRVC.                   SCHLUMBERGER:        SERVICE COMPANY
 LAT .                         0.0000:        LATITUDE
 LON .                         0.0000:        LONGITUDE
 DIGS.               CENTER LINE DATA:        DIGITIZING COMPANY
~CURVE INFORMATION      
#MNEM        .UNIT         API CODE           CURVE DESCRIPTION
#-----------------      --------------        ------------------------------
 DEPT        .F                      :        1  DEPTH
 SP          .MV                     :        2  
 ILD         .OHMM                   :        3  
 ILM         .OHMM                   :        4  
 LL8         .OHMM                   :        5  
 CALI        .IN                     :        6  
 RHOB        .G/C3                   :        7  
 DRHO        .G/C3                   :        8  
 NPHI        .%                      :        9  
 GR          .GAPI                   :        10 
 DT          .US/F                   :        11 
~PARAMETER INFORMATION
#MNEM.UNIT                  VALUE             DESCRIPTION OF MNEMONIC
#---------             ---------------        ------------------------------
 EKB .F                      113.0000:        KELLY BUSHING
 TD  .F                    11429.0000:        TOTAL DEPTH
~OTHER INFORMATION
~A    DEPTH          SP         ILD         ILM         LL8        CALI        RHOB        DRHO        NPHI          GR          DT 
# ...
  4303.0000    -13.1422      4.8119      4.0686      4.1803     18.2490      2.4827      0.0271     33.2778     44.5883    104.3079 
  4303.5000    -13.2191      4.8014      4.0331      4.1293     18.2843      2.4993      0.0493     33.6913     45.9437    107.4623 
  4304.0000    -13.3007      4.7976      3.9978      4.0746     18.3110      2.5244      0.0748     34.4352     47.5986    107.3531 
  4304.5000    -13.3733      4.7937      3.9629      4.0568     18.2992      2.5060      0.0657     35.4935     48.1924    106.7324 
  4305.0000    -13.2953      4.7899      3.9455      4.0673     18.2875      2.5006      0.0513     36.4074     48.1881    105.3305 
  4305.5000    -13.2582      4.7861      3.9826      4.0790     18.2757      2.4987      0.0513     35.4954     47.6736    100.3796 
  4306.0000    -13.3290      4.7823      4.0201      4.0946     18.2546      2.4858      0.0413     32.5101     46.7188     97.8535 
  4306.5000    -13.3396      4.7784      4.0580      4.1227     18.1916      2.4741      0.0350     30.9096     45.5133    101.3419 
  4307.0000    -13.4488      4.7746      4.0184      4.0912     18.0810      2.4897      0.0409     30.9989     44.4234    104.3844 
  4307.5000    -13.5581      4.7708      3.9733      4.0600     17.9908      2.5006      0.0468     31.4543     43.4868    107.3876 
  4308.0000    -13.5815      4.7670      3.9286      4.0602     17.9903      2.5043      0.0542     31.5610     43.4566    108.8396 
  4308.5000    -13.5704      4.7775      3.9384      4.1106     18.0219      2.5008      0.0622     31.4566     44.0428    105.3077 
  4309.0000    -13.5655      4.8065      4.0210      4.1617     18.0534      2.4972      0.0625     31.7849     44.8316    103.0511 
  4309.5000    -13.5199      4.8398      4.1053      4.2252     18.0850      2.4911      0.0547     33.1110     45.4970     99.8983 
  4310.0000    -13.4999      4.8698      4.1914      4.2988     18.1165      2.4703      0.0401     33.1598     45.6399     98.1304 
  4310.5000    -13.5303      4.8885      4.2696      4.3731     18.1499      2.4786      0.0283     33.3611     45.0485     97.0439 
  4311.0000    -13.4474      4.9237      4.2335      4.4356     18.1557      2.5023      0.0497     33.0034     44.0866     97.0741 
  4311.5000    -13.2526      4.9619      4.1978      4.3784     18.1426      2.5052      0.0551     32.9907     43.5910    101.4308 
  4312.0000    -13.3007      4.9469      4.1326      4.3045     18.1296      2.4974      0.0459     33.9509     43.8247    104.6815 
  4312.5000    -13.3011      4.9319      4.0584      4.2318     18.1086      2.5087      0.0416     34.4941     44.0123    105.4459 
  4313.0000    -13.2654      4.9245      4.0852      4.1916     18.0463      2.5200      0.0543     34.0427     44.0856    104.8270 
  4313.5000    -13.2346      4.9439      4.1520      4.1847     17.9789      2.5256      0.0566     33.0657     44.3021    102.4854 
  4314.0000    -13.2871      4.9635      4.2198      4.1778     17.9116      2.5083      0.0491     31.6083     44.7906    102.8646 
  4314.5000    -13.3295      4.9831      4.2887      4.1709     17.8586      2.4888      0.0416     29.9707     45.5524    105.1182 
  4315.0000    -13.3697      5.0028      4.3556      4.1640     17.8446      2.4803      0.0393     29.7375     46.6427    105.3677 
  4315.5000    -13.3543      5.0225      4.4145      4.2261     17.8595      2.4666      0.0440     30.2840     47.1356    102.0041 
  4316.0000    -13.3561      5.0424      4.5223      4.4188     17.9002      2.4543      0.0353     32.1572     47.5415     98.5726 
  4316.5000    -13.3644      5.0540      4.6446      4.5830     17.9814      2.4671      0.0325     32.3310     48.0409     96.1697 
  4317.0000    -13.4748      5.0654      4.6397      4.5931     18.0600      2.4976      0.0702     31.5079     48.4402     92.7958 
  4317.5000    -13.6194      5.0767      4.6349      4.5309     18.0802      2.5007      0.0665     30.6847     48.8978     96.6028 
  4318.0000    -13.6685      5.0881      4.6155      4.4337     18.1004      2.4878      0.0463     31.3799     49.1142    101.3483 
  4318.5000    -13.6258      5.0913      4.5643      4.3860     18.1205      2.4904      0.0395     32.3295     49.3306    102.1310 
  4319.0000    -13.5820      5.0749      4.5143      4.3497     18.1407      2.4909      0.0472     33.2792     49.5469    103.2114 
  4319.5000    -13.6412      5.0598      4.4661      4.3010     18.1609      2.4804      0.0327     34.0457     49.0293    103.1647 
  4320.0000    -13.7249      5.0468      4.4313      4.2455     18.1812      2.4657      0.0183     33.6569     47.2826    100.9761 
  4320.5000    -13.8173      5.0063      4.4103      4.1906     18.2017      2.4598      0.0259     33.9474     45.6957    100.0092 
  4321.0000    -13.8692      4.9522      4.3897      4.1855     18.2222      2.4725      0.0335     33.4825     45.3607    101.4615 
  4321.5000    -13.8935      4.8987      4.3535      4.1823     18.2427      2.4902      0.0353     32.8201     45.2794    101.4747 
  4322.0000    -13.7703      4.8458      4.3173      4.1767     18.2633      2.4805      0.0228     31.9489     45.1713    100.0802 
  4322.5000    -13.6172      4.7935      4.3160      4.1769     18.2805      2.4927      0.0461     32.5759     44.8914    100.9044 
  4323.0000    -13.6285      4.7699      4.3181      4.1838     18.2732      2.5061      0.0657     33.3043     45.1513    101.7423 
  4323.5000    -13.5778      4.8136      4.3238      4.1907     18.2527      2.5091      0.0510     33.7361     45.7502    102.8142 
  4324.0000    -13.5781      4.8578      4.3320      4.1983     18.2465      2.4931      0.0348     34.2286     46.0358    104.4981 
  4324.5000    -13.5705      4.9024      4.3492      4.2270     18.2496      2.4834      0.0243     33.3285     46.2709    102.4292 
  4325.0000    -13.5097      4.9474      4.3665      4.2603     18.2680      2.5014      0.0361     31.7707     46.7480    101.7360 
  4325.5000    -13.5022      4.9786      4.3838      4.3010     18.2864      2.5398      0.0505     30.0074     47.1115    101.0547 
  4326.0000    -13.5639      4.9942      4.4012      4.3421     18.3048      2.5318      0.0657     30.9620     47.1086    100.8266 
  4326.5000    -13.5524      5.0157      4.4186      4.3834     18.3233      2.5023      0.0415     32.0672     46.8938    100.6831 
  4327.0000    -13.4870      5.0939      4.4409      4.4098     18.3142      2.4954      0.0265     32.4728     46.3949     99.7581 
  4327.5000    -13.5045      5.1177      4.4676      4.4121     18.2924      2.4972      0.0371     33.1627     45.6781     99.1588 
  4328.0000    -13.5313      5.1412      4.4945      4.4036     18.2486      2.5092      0.0508     31.4257     44.9509     98.4636 
  4328.5000    -13.5696      5.1459      4.4846      4.3782     18.1981      2.5311      0.0634     30.8115     44.0582     97.1484 
  4329.0000    -13.6775      5.1505      4.4589      4.3528     18.1683      2.5268      0.0530     30.5080     42.0104     97.5948 
  4329.5000    -13.7060      5.1552      4.4406      4.3276     18.2002      2.5187      0.0345     31.2404     41.1799    100.2674 
  4330.0000    -13.6103      5.1599      4.4227      4.2953     18.2321      2.5112      0.0353     30.7090     41.4518    101.3721 
  4330.5000    -13.4700      5.1646      4.4009      4.2624     18.2640      2.5041      0.0441     29.6769     41.6153    105.6463 
  4331.0000    -13.3829      5.1693      4.4337      4.2433     18.2702      2.5003      0.0343     30.1013     41.6134    107.4816 
  4331.5000    -13.2958      5.1740      4.4663      4.3184     18.2352      2.4981      0.0479     30.0460     41.5580    103.9202 
  4332.0000    -13.0143      5.1760      4.5277      4.4817     18.2309      2.4867      0.0437     31.0238     41.6300    100.5334 
  4332.5000    -12.7080      5.1902      4.6249      4.6212     18.2444      2.4696      0.0235     32.3094     41.1727     96.6902 
  4333.0000    -12.6138      5.2142      4.7241      4.6026     18.2464      2.4866      0.0301     31.6537     41.3452     93.6766 
