~VERSION INFORMATION
 VERS.                           2.00:        CWLS LOG ASCII STANDARD - VERSION 2.00
 WRAP.                             NO:        ONE LINE PER DEPTH STEP
~WELL INFORMATION
#MNEM.UNIT                   DATA             INFORMATION
#----------             --------------        ------------------------------
 STRT.F                       66.0000:        START DEPTH
 STOP.F                    11266.0000:        STOP DEPTH
 STEP.F                        0.5000:        STEP VALUE
 NULL.                      -999.2500:        NULL VALUE
 COMP.              HUSKY OIL COMPANY:        COMPANY
 LOC .                       6 12N 2E:        LOCATION
 DATE.                       12/24/76:        LOG DATE
 WELL.          SOUTH HARRISON BAY #1:        WELL
 UWI .                   501032000700:        UNIQUE WELL ID
 API .                   501032000700:        UNIQUE WELL IDENTIFIER
 FLD .                        WILDCAT:        FIELD
 CNTY.                    NORTH SLOPE:        COUNTY
 STAT.                         ALASKA:        STATE
 CTRY.                            USA:        COUNTRY
 OPER.              HUSKY OIL COMPANY:        OPERATOR
 SRVC.                   SCHLUMBERGER:        SERVICE COMPANY
 LAT .                         0.0000:        LATITUDE
 LON .                         0.0000:        LONGITUDE
 DIGS.               CENTER LINE DATA:        DIGITIZING COMPANY
~CURVE INFORMATION      
#MNEM        .UNIT         API CODE           CURVE DESCRIPTION
#-----------------      --------------        ------------------------------
 DEPT        .F                      :        1  DEPTH
 GR          .GAPI                   :        2  
 CALI        .IN                     :        3  
 DRHO        .G/C3                   :        4  
 RHOB        .G/C3                   :        5  
 NPHI        .%                      :        6  
 DT          .US/F                   :        7  
 SP          .MV                     :        8  
 ILD         .OHMM                   :        9  
 ILM         .OHMM                   :        10 
 LL8         .OHMM                   :        11 
~PARAMETER INFORMATION
#MNEM.UNIT                  VALUE             DESCRIPTION OF MNEMONIC
#---------             ---------------        ------------------------------
 EKB .F                       45.0000:        KELLY BUSHING
 TD  .F                    11290.0000:        TOTAL DEPTH
 BHT .F                      174.0000:        BOTTOM HOLE TEMPERATURE
 BS  .                        12.2500:        BIT SIZE
 FD  .                        10.7000:        FLUID DENSITY
 CSIZ.                        13.3750:        CASING SIZE
 CBD .F                     2600.0000:        CASING DRILLER 1
 CBL .F                     2600.0000:        CASING LOGGER 1
 DFT .                  MISCELLANEOUS:        TYPE FLUID IN HOLE
 DFV .                        52.0000:        VISCOSITY
 DFPH.                         8.2000:        PH
 DFL .                         6.0000:        FLUID LOSS
 RMS .                         1.3900:        RM
 MST .F                       60.0000:        RM MEAS. TEMP.
 RMF .                         1.0200:        RMF
 MFST.F                       60.0000:        RMF MEAS. TEMP.
 RMC .                         1.3800:        RMC
 MCST.F                       60.0000:        RMC MEAS. TEMP.
~OTHER INFORMATION
~A    DEPTH          GR        CALI        DRHO        RHOB        NPHI          DT          SP         ILD         ILM         LL8 
# ...
  6044.0000     81.1971     13.8607      0.0195      2.3256     42.7991     97.6382    -60.1714      3.9395      3.7325      4.2538 
  6044.5000     82.3210     13.8290      0.0342      2.3296     42.1748     96.5587    -60.0012      3.9204      3.7295      4.2265 
  6045.0000     83.0286     13.8751      0.0409      2.3370     43.2960     95.9217    -59.8311      3.9416      3.7264      4.1993 
  6045.5000     83.8349     13.9217      0.0449      2.3418     44.9857     96.8820    -59.7306      3.9290      3.7234      4.1724 
  6046.0000     84.0248     13.9524      0.0356      2.3472     45.9393     96.8100    -59.7543      3.9397      3.7252      4.1629 
  6046.5000     83.8708     13.9830      0.0378      2.3585     46.4879     96.9224    -59.7781      3.9400      3.7292      4.1770 
  6047.0000     83.5908     13.9472      0.0499      2.3660     46.3619     97.1195    -59.8018      3.9402      3.7333      4.1910 
  6047.5000     84.1543     13.9396      0.0410      2.3526     46.2716     96.9695    -59.8255      3.9404      3.7374      4.2194 
  6048.0000     85.7776     13.9447      0.0290      2.3656     45.7929     98.0728    -59.8493      3.9407      3.7415      4.2585 
  6048.5000     86.8740     13.9907      0.0350      2.3900     45.3573     96.0843    -59.8730      3.9409      3.7457      4.1965 
  6049.0000     86.5109     14.0564      0.0358      2.3898     44.6721     94.1701    -59.8967      3.9412      3.7498      4.1354 
  6049.5000     84.1127     14.0841      0.0322      2.3784     43.9507     95.2516    -59.9205      3.9414      3.7539      4.1546 
  6050.0000     81.8100     14.1118      0.0195      2.3706     43.8378     97.4372    -59.9442      3.9417      3.7580      4.1797 
  6050.5000     81.5565     14.1095      0.0511      2.3867     43.7249     98.0437    -59.9621      3.9618      3.7621      4.2365 
  6051.0000     82.8804     14.0902      0.0333      2.3692     43.3696    100.2052    -59.9495      3.9989      3.7663      4.2941 
  6051.5000     83.2658     14.0709      0.0279      2.3668     42.7877    100.4670    -59.9368      4.0274      3.7704      4.3525 
  6052.0000     81.8573     14.1004      0.0353      2.3708     42.0679     96.0468    -59.9241      4.0535      3.7746      4.4097 
  6052.5000     79.8492     14.1419      0.0416      2.3753     41.3705     96.8178    -59.9115      4.0499      3.7787      4.3615 
  6053.0000     78.8150     14.1507      0.0283      2.3489     40.8423     95.5636    -59.8988      3.9973      3.7828      4.3137 
  6053.5000     78.8570     14.1577      0.0095      2.3262     40.9629     94.5723    -59.8862      4.0211      3.7870      4.3034 
  6054.0000     81.0445     14.1618      0.0141      2.3315     41.0510     95.5325    -59.8735      4.0166      3.7924      4.3019 
  6054.5000     82.6905     14.1792      0.0285      2.3392     41.1587     98.6533    -59.8608      4.0304      3.8036      4.3004 
  6055.0000     83.0173     14.1966      0.0376      2.3456     42.0009     97.8761    -59.8482      4.0736      3.8148      4.2990 
  6055.5000     82.7627     14.2094      0.0441      2.3594     43.1865     97.0515    -59.8355      4.0796      3.8260      4.2975 
  6056.0000     82.2396     14.2542      0.0568      2.3838     44.3996     96.3788    -59.8228      4.0981      3.8373      4.2976 
  6056.5000     80.9726     14.3168      0.0464      2.3752     45.4877     93.9788    -59.8102      4.1127      3.8486      4.2996 
  6057.0000     80.5656     14.3132      0.0277      2.3491     45.6248     95.0397    -59.7975      4.1000      3.8599      4.2812 
  6057.5000     81.1121     14.3116      0.0405      2.3500     44.7801     95.6790    -59.7849      4.0652      3.8597      4.2360 
  6058.0000     82.4138     14.3101      0.0559      2.3746     43.8934     95.6494    -59.7948      4.0415      3.8399      4.1913 
  6058.5000     83.6376     14.3193      0.0269      2.3394     43.3520     94.9759    -59.8728      4.0125      3.8201      4.1470 
  6059.0000     84.5158     14.3672      0.0237      2.3539     43.9936     94.9377    -59.9508      3.9822      3.8005      4.1032 
  6059.5000     83.3349     14.4158      0.0381      2.3806     44.5899     95.0541    -60.0288      3.9274      3.7810      4.0599 
  6060.0000     81.8503     14.4582      0.0456      2.3863     45.2669     95.3639    -60.1067      3.8976      3.7616      4.0170 
  6060.5000     82.1652     14.4623      0.0422      2.3780     46.1473     96.4607    -60.1847      3.8986      3.7422      4.0068 
  6061.0000     84.2870     14.4574      0.0281      2.3555     47.2216     98.8728    -60.2627      3.9038      3.7230      4.0701 
  6061.5000     85.3543     14.4496      0.0187      2.3308     47.6370    100.2035    -60.3407      3.9268      3.7039      4.1343 
  6062.0000     85.0065     14.4207      0.0311      2.3545     46.5776     98.8728    -60.4187      3.9378      3.6848      4.1996 
  6062.5000     85.2392     14.3914      0.0328      2.3724     45.5182     97.3466    -60.3562      3.9136      3.6659      4.1683 
  6063.0000     86.3494     14.4020      0.0246      2.3557     44.9333     95.6736    -60.2035      3.9074      3.6679      4.1346 
  6063.5000     86.3069     14.4602      0.0272      2.3360     44.7468     96.9061    -60.2051      3.9013      3.6708      4.1011 
  6064.0000     85.3919     14.5486      0.0422      2.3422     44.7857     98.4430    -60.4926      3.8952      3.6738      4.1810 
  6064.5000     86.0693     14.5924      0.0460      2.3179     44.9219     98.3038    -60.7800      3.8890      3.6767      4.2631 
  6065.0000     86.3149     14.5112      0.0319      2.2883     45.4029     98.6817    -60.7866      3.8829      3.6796      4.3468 
  6065.5000     86.4428     14.4992      0.0232      2.2999     46.2715     97.3774    -60.7245      3.8768      3.6825      4.4321 
  6066.0000     87.4087     14.5409      0.0192      2.3179     46.1091     96.1815    -60.6680      3.8707      3.6854      4.2952 
  6066.5000     88.7145     14.6244      0.0249      2.3292     45.3762     97.7526    -60.6856      3.8597      3.6884      4.1476 
  6067.0000     89.1205     14.6340      0.0130      2.3064     44.9769     98.2053    -60.7032      3.8688      3.6913      4.1208 
  6067.5000     88.8543     14.6230      0.0078      2.3089     44.9212     99.2046    -60.6092      3.9388      3.6942      4.1504 
  6068.0000     89.0745     14.6283      0.0099      2.3240     45.2520    100.2392    -60.5086      3.9256      3.6972      4.1802 
  6068.5000     90.3202     14.6347      0.0284      2.3475     45.9739    100.8162    -60.4079      3.9102      3.7001      4.2102 
  6069.0000     91.1881     14.6684      0.0391      2.3672     45.3971     99.0208    -60.3073      3.8936      3.7030      4.2081 
  6069.5000     90.7466     14.6860      0.0303      2.3780     43.2852     97.9501    -60.3632      3.8832      3.7060      4.2005 
  6070.0000     88.4727     14.6925      0.0418      2.3787     42.7876     98.1667    -60.4297      3.9307      3.7089      4.1929 
  6070.5000     86.0304     14.7078      0.0541      2.3745     44.5253     98.4108    -60.4962      3.9427      3.7078      4.1852 
  6071.0000     84.3484     14.7076      0.0504      2.3590     46.1017     99.2937    -60.6023      3.9249      3.7067      4.1776 
  6071.5000     84.6011     14.7036      0.0396      2.3365     47.0786     99.2982    -60.7477      3.9572      3.7056      4.1701 
  6072.0000     84.6386     14.7501      0.0350      2.3439     47.0701     98.9804    -60.8930      3.9744      3.7045      4.1773 
  6072.5000     83.4132     14.8085      0.0322      2.3359     46.3078     98.0659    -60.8960      3.9613      3.7035      4.1925 
  6073.0000     81.2027     14.8718      0.0296      2.3318     45.1783     96.7055    -60.7682      3.9550      3.7024      4.2078 
  6073.5000     79.3386     14.9350      0.0188      2.3389     44.3979     95.4747    -60.7880      4.0214      3.7373      4.2294 
  6074.0000     77.7229     14.9990      0.0071      2.3578     43.0146     96.4691    -61.0436      4.1633      3.9301      4.2564 
