~VERSION INFORMATION
 VERS.                      2.00:        CWLS LOG ASCII STANDARD - VERSION 2.00
 WRAP.                        NO:        ONE LINE PER DEPTH STEP
~WELL INFORMATION
#MNEM.UNIT               DATA            INFORMATION
#----------          ------------        ------------------------------
 STRT.F                  40.0000:        START DEPTH
 STOP.F                9893.0000:        STOP DEPTH
 STEP.F                   0.5000:        STEP VALUE
 NULL.                 -999.2500:        NULL VALUE
 COMP.                 U.S. NAVY:        COMPANY  
 WELL.    CAPE HALKETT #16N-2W-1:        WELL     
 FLD .                   WILDCAT:        FIELD    
 LOC .               5  16N   2W:        LOCATION   
 CNTY.               NORTH SLOPE:        COUNTY  
 STAT.                    ALASKA:        STATE   
 CTRY.                       USA:        COUNTRY 
 DATE.                    4/9/75:        LOG DATE 
 API .              500000000000:        UNIQUE WELL IDENTIFIER 
 OPER.                 U.S. NAVY:        OPERATOR  
 SRVC.              Schlumberger:        SERVICE COMPANY 
 UWI .              500000000000:        UNIQUE WELL ID 
 LAT .                    0.0000:        LATITUDE
 LON .                    0.0000:        LONGITUDE
 DIGS.          Center Line Data:        DIGITIZING COMPANY 
~CURVE INFORMATION      
#MNEM.UNIT            API CODE           CURVE DESCRIPTION
#---------          -------------        ------------------------------
 DEPT.F                         :        1  DEPTH
 SP  .MV                        :        2
 ILD .OHMM                      :        3
 ILM .OHMM                      :        4
 LL8 .OHMM                      :        5
 CALI.IN                        :        6
 GR  .GAPI                      :        7
 DRHO.G/C3                      :        8
 RHOB.G/C3                      :        9
 NPHI.%                         :       10
 DPHI.%                         :       11
 DT  .US/F                      :       12
~PARAMETER INFORMATION       
#MNEM.UNIT              VALUE            DESCRIPTION OF MNEMONIC
#---------          -------------        ------------------------------
 EKB .F                  39.5000:        KELLY BUSHING
 TD  .F                7867.0000:        TOTAL DEPTH
 BHT .F                  60.0000:        BOTTOM HOLE TEMPERATURE
 BS  .                   18.5000:        BIT SIZE
 FD  .                   10.5000:        FLUID DENSITY
 CSIZ.                   20.0000:        CASING SIZE
 CBD .F                 492.0000:        CASING DRILLER 1
 CBL .F                 493.0000:        CASING LOGGER 1
 DFT .             Miscellaneous:        TYPE FLUID IN HOLE
 DFV .                  200.0000:        VISCOSITY
 DFPH.                   10.0000:        PH
 DFL .                    9.2000:        FLUID LOSS
 RMS .                    2.1500:        RM
 MST .F                  57.0000:        RM MEAS. TEMP.
 RMF .                    2.2000:        RMF
 MFST.F                  40.0000:        RMF MEAS. TEMP.
 RMC .                    0.0000:        RMC
 MCST.F                   0.0000:        RMC MEAS. TEMP.
 UWI .              500000000000:        UNIQUE WELL ID
~OTHER INFORMATION
~A    DEPTH          SP         ILD         ILM         LL8        CALI          GR        DRHO        RHOB        NPHI        DPHI          DT  
# ...
  9362.5000    -70.8280     19.4523     14.8797     16.1750     11.7456     47.3713     -0.0191   -999.2500     22.9266      8.3375     64.1830  
  9363.0000    -70.8579     20.5154     15.5236     16.0682     11.7364     48.9105     -0.0263   -999.2500     23.4886      6.1221     67.5794  
  9363.5000    -70.9385     21.4116     17.0771     15.8309     11.7162     50.8113     -0.0265   -999.2500     24.5501      5.6871     70.7519  
  9364.0000    -71.0764     22.6542     18.7862     15.5729     11.6628     53.3130     -0.0187   -999.2500     25.5235      7.0454     73.3027  
  9364.5000    -71.1924     24.0136     19.4140     15.6475     11.6568     54.7733     -0.0048   -999.2500     26.8660      9.0835     75.1876  
  9365.0000    -71.1761     24.5438     19.3481     16.9678     11.7698     54.8269      0.0012   -999.2500     27.8435     10.2927     76.4830  
  9365.5000    -71.3198     24.6318     18.6039     19.1023     11.7737     54.2944      0.0036   -999.2500     29.0865     10.0484     78.4931  
  9366.0000    -71.5887     24.3963     17.7788     20.7390     11.7674     53.8105      0.0479   -999.2500     30.7871      8.4914     80.1232  
  9366.5000    -71.8646     23.9191     16.9564     19.8769     11.7680     53.0955      0.0805   -999.2500     32.4876      8.2530     81.6604  
  9367.0000    -71.5639     23.4513     16.0205     18.3456     11.7249     52.1724      0.0576   -999.2500     33.3763      9.9805     81.4539  
  9367.5000    -72.2529     22.5084     14.9357     17.0197     11.6818     51.8135      0.0024   -999.2500     32.5824      8.9116     79.4364  
  9368.0000    -80.1934     21.3069     13.9244     15.7896     11.6387     52.9497      0.0124   -999.2500     33.4754      8.3719     80.2066  
  9368.5000    -96.1911     20.1256     13.1491     14.6485     11.5923     53.8994      0.0188   -999.2500     35.0401      7.6396     81.5591  
  9369.0000   -100.9782     18.8880     12.6567     13.5787     11.5524     53.6857      0.0355   -999.2500     35.0314      7.1729     82.6258  
  9369.5000   -100.9884     18.0769     12.5368     12.5868     11.5306     53.0762      0.0412   -999.2500     34.2650      7.1129     82.5985  
  9370.0000   -100.9986     17.5445     12.4128     12.9670     11.4612     53.0231      0.0507   -999.2500     33.4462      5.9783     81.8512  
  9370.5000   -101.0088     16.9786     12.1000     13.8060     11.4590     53.1298      0.0602   -999.2500     33.0117      7.4699     80.6654  
  9371.0000   -101.0191     16.5265     11.6007     14.6993     11.3867     53.3769      0.0487   -999.2500     33.0779      8.4658     79.9605  
  9371.5000   -101.0293     16.6377     11.1841     14.5324     11.3167     53.6447      0.0251   -999.2500     33.1119      9.2762     79.7480  
  9372.0000   -101.0395     16.7495     11.0321     12.7404     11.2719     54.0642      0.0076   -999.2500     32.8841      9.3711     79.0755  
  9372.5000   -101.0497     16.8621     11.0291     12.2416     11.3222     54.5545      0.0010   -999.2500     32.5241      8.9031     79.1440  
  9373.0000   -101.0599     16.8493     11.0858     12.7293     11.4364     55.3198      0.0016   -999.2500     31.6362      9.0689     80.4442  
  9373.5000   -100.8529     16.8068     11.2119     13.0795     11.0804     55.6883      0.0022   -999.2500     31.2100      8.1217     81.4012  
  9374.0000   -100.5480     16.7066     11.3394     13.4393     11.0190     55.1140      0.0121   -999.2500     31.6132      8.2099     81.1100  
  9374.5000   -100.2430     16.5631     11.4589     13.4930     10.9575     54.7113      0.0216   -999.2500     31.6777      9.0717     80.4581  
  9375.0000    -99.9381     16.4209     11.5574     13.0583     10.8497     55.6987      0.0339   -999.2500     31.2809      9.5707     79.6939  
  9375.5000    -99.6332     16.2798     11.5792     13.1650     10.7877     56.3614      0.0507   -999.2500     31.5776     10.0261     79.8274  
  9376.0000    -99.3283     16.1400     11.4738     14.1385     10.7329     56.1761      0.0334   -999.2500     31.4932     11.3137     80.3590  
  9376.5000    -98.7146     15.9962     11.3817     13.7500     10.6512     56.2707      0.0122   -999.2500     31.4317     10.2178     80.1867  
  9377.0000    -97.9045     15.8321     11.4406     13.0530     10.5375     57.2913      0.0264   -999.2500     31.2319      9.3070     79.8250  
  9377.5000    -97.2470     15.6002     11.4777     13.4187     10.4395     57.6549      0.0453   -999.2500     31.1343      8.5147     79.9333  
  9378.0000    -96.7193     15.3066     11.4677     14.1485     10.3235     57.1603      0.0616   -999.2500     30.6264      9.4326     79.5251  
  9378.5000    -96.0238     15.0186     11.4179     14.2848     10.2015     55.3822      0.0420   -999.2500     29.5894     10.7253     78.6596  
  9379.0000    -94.9083     14.9047     11.3713     13.6448     10.0566     52.9929      0.0133   -999.2500     27.7036      9.0384     76.3622  
  9379.5000    -93.8807     14.8802     11.3258     12.9300      9.9937     51.2138      0.0064   -999.2500     25.6353      8.3218     72.5927  
  9380.0000    -92.7463     15.0320     11.5629     12.3904      9.8610     50.2829      0.0038   -999.2500     22.5845      7.5875     68.9060  
  9380.5000    -91.7680     15.2746     12.2571     12.7855      9.7351     49.8569      0.0288   -999.2500     19.6629      7.0074     65.7831  
  9381.0000    -90.8491     16.0164     13.6120     13.9560      9.6566     50.7549      0.0142   -999.2500     17.8040      6.4383     62.6488  
  9381.5000    -89.8066     17.4996     15.4445     15.4640      9.5782     51.7402     -0.0008   -999.2500     16.7316      5.1215     60.5697  
  9382.0000    -88.7104     18.8332     17.5237     17.8038      9.4997     51.9600     -0.0055   -999.2500     15.9551      4.1171     60.2140  
  9382.5000    -87.7128     20.6203     20.0736     20.6765      9.4178     50.9459      0.0014   -999.2500     15.0687      2.8883     59.7487  
  9383.0000    -86.7956     22.6073     23.0299     24.3603      9.3324     49.4463      0.0062   -999.2500     14.1728      2.4751     58.4897  
  9383.5000    -85.9253     24.7858     26.2017     28.6095      9.2974     45.2197      0.0127   -999.2500     13.2941      2.9749     57.9013  
  9384.0000    -84.8259     27.1743     27.9219     35.7405      9.2954     46.6939      0.0161   -999.2500     13.8609      3.9917     57.8298  
  9384.5000    -83.6548     29.7929     28.5220     41.3154      9.2933     50.1330      0.0120   -999.2500     15.0091      3.3266     59.1360  
  9385.0000    -82.5116     32.6638     28.9885     42.4074      9.2954     54.6522      0.0333   -999.2500     18.3200      3.1870     61.6427  
  9385.5000    -81.2182     35.7891     31.9485     43.5151      9.3614     58.6511      0.0462   -999.2500     22.1818      3.5726     64.8419  
  9386.0000    -84.9515     38.0096     35.9139     48.7343      9.4079     60.8768      0.0708   -999.2500     25.1679      3.8079     67.8801  
  9386.5000    -90.8232     38.7296     38.8904     67.1000      9.4478     61.9238      0.1099   -999.2500     25.2722      6.4519     69.2377  
  9387.0000   -101.0582     36.6025     38.3256     95.1474      9.4549     61.8180      0.0924   -999.2500     24.0701      8.3532     69.1637  
  9387.5000   -101.0483     34.1261     34.7297     95.4219      9.4772     61.8565      0.0583   -999.2500     22.5008      8.0704     67.9690  
  9388.0000   -101.0383     32.9114     29.4807     69.8205      9.5087     62.8585      0.0301   -999.2500     22.4005      6.5877     67.2099  
  9388.5000   -101.0283     32.2363     25.0250     45.7832      9.5401     63.3967      0.0148   -999.2500     23.0484      5.3150     67.3479  
  9389.0000   -101.0184     31.5171     23.8018     33.4019      9.5662     61.9980      0.0273   -999.2500     24.2140      4.5181     67.9443  
  9389.5000   -100.7893     30.4620     25.0397     29.8930      9.5913     58.9126      0.0474   -999.2500     25.2880      5.1364     69.1995  
