~VERSION INFORMATION
 VERS.                           2.00:        CWLS LOG ASCII STANDARD - VERSION 2.00
 WRAP.                             NO:        ONE LINE PER DEPTH STEP
~WELL INFORMATION
#MNEM.UNIT                   DATA             INFORMATION
#----------             --------------        ------------------------------
 STRT.F                       66.0000:        START DEPTH
 STOP.F                    11266.0000:        STOP DEPTH
 STEP.F                        0.5000:        STEP VALUE
 NULL.                      -999.2500:        NULL VALUE
 COMP.              HUSKY OIL COMPANY:        COMPANY
 LOC .                       6 12N 2E:        LOCATION
 DATE.                       12/24/76:        LOG DATE
 WELL.          SOUTH HARRISON BAY #1:        WELL
 UWI .                   501032000700:        UNIQUE WELL ID
 API .                   501032000700:        UNIQUE WELL IDENTIFIER
 FLD .                        WILDCAT:        FIELD
 CNTY.                    NORTH SLOPE:        COUNTY
 STAT.                         ALASKA:        STATE
 CTRY.                            USA:        COUNTRY
 OPER.              HUSKY OIL COMPANY:        OPERATOR
 SRVC.                   SCHLUMBERGER:        SERVICE COMPANY
 LAT .                         0.0000:        LATITUDE
 LON .                         0.0000:        LONGITUDE
 DIGS.               CENTER LINE DATA:        DIGITIZING COMPANY
~CURVE INFORMATION      
#MNEM        .UNIT         API CODE           CURVE DESCRIPTION
#-----------------      --------------        ------------------------------
 DEPT        .F                      :        1  DEPTH
 GR          .GAPI                   :        2  
 CALI        .IN                     :        3  
 DRHO        .G/C3                   :        4  
 RHOB        .G/C3                   :        5  
 NPHI        .%                      :        6  
 DT          .US/F                   :        7  
 SP          .MV                     :        8  
 ILD         .OHMM                   :        9  
 ILM         .OHMM                   :        10 
 LL8         .OHMM                   :        11 
~PARAMETER INFORMATION
#MNEM.UNIT                  VALUE             DESCRIPTION OF MNEMONIC
#---------             ---------------        ------------------------------
 EKB .F                       45.0000:        KELLY BUSHING
 TD  .F                    11290.0000:        TOTAL DEPTH
 BHT .F                      174.0000:        BOTTOM HOLE TEMPERATURE
 BS  .                        12.2500:        BIT SIZE
 FD  .                        10.7000:        FLUID DENSITY
 CSIZ.                        13.3750:        CASING SIZE
 CBD .F                     2600.0000:        CASING DRILLER 1
 CBL .F                     2600.0000:        CASING LOGGER 1
 DFT .                  MISCELLANEOUS:        TYPE FLUID IN HOLE
 DFV .                        52.0000:        VISCOSITY
 DFPH.                         8.2000:        PH
 DFL .                         6.0000:        FLUID LOSS
 RMS .                         1.3900:        RM
 MST .F                       60.0000:        RM MEAS. TEMP.
 RMF .                         1.0200:        RMF
 MFST.F                       60.0000:        RMF MEAS. TEMP.
 RMC .                         1.3800:        RMC
 MCST.F                       60.0000:        RMC MEAS. TEMP.
~OTHER INFORMATION
~A    DEPTH          GR        CALI        DRHO        RHOB        NPHI          DT          SP         ILD         ILM         LL8 
# ...
  4549.5000     80.5920     15.1932      0.0040      2.4366     35.1861    103.6621    -72.7410      5.2094      5.1672      5.9229 
  4550.0000     81.5003     15.0504      0.0076      2.4422     33.6857    102.9540    -72.3228      5.1824      5.1227      5.8343 
  4550.5000     82.0275     14.8576      0.0042      2.4444     31.6675    103.8769    -71.7760      5.1556      5.0816      5.4924 
  4551.0000     82.0814     14.6649     -0.0060      2.4419     31.0415    101.5024    -71.3786      5.1288      5.0703      5.1796 
  4551.5000     82.3686     14.4721     -0.0075      2.4376     30.3936     97.6338    -70.7721      5.1613      5.0590      5.1849 
  4552.0000     82.3621     14.3199      0.0006      2.4242     30.4525     97.1996    -70.4421      5.2014      5.0477      5.2425 
  4552.5000     80.9260     14.2637      0.0030      2.4154     30.5113     97.5853    -70.1749      5.2418      5.0364      5.3330 
  4553.0000     78.7914     14.6370     -0.0063      2.4162     30.9451     97.5348    -70.2982      5.1592      5.0251      5.4679 
  4553.5000     76.4570     14.7924     -0.0131      2.4242     31.8763     99.2400    -71.1063      5.0747      5.0139      5.6062 
  4554.0000     76.1061     14.8383     -0.0065      2.4366     32.2828    100.9636    -71.6792      4.9917      4.9854      5.6773 
  4554.5000     78.8407     14.8406      0.0041      2.4482     32.6532    101.8181    -71.1901      4.9292      4.9474      5.6956 
  4555.0000     82.0442     14.8429      0.0003      2.4520     33.1950    101.9856    -71.3123      4.9203      4.9097      5.3098 
  4555.5000     84.8909     14.8387      0.0069      2.4592     33.1466     99.7490    -71.5018      4.9114      4.8723      5.0037 
  4556.0000     86.9828     14.7443      0.0002      2.4537     32.0721     98.0503    -71.9330      4.9304      4.8352      5.1311 
  4556.5000     86.7727     14.6329      0.0046      2.4688     31.7664     98.4209    -72.2732      4.9576      4.8418      5.5647 
  4557.0000     86.5573     14.5139      0.0109      2.4547     32.7621     98.4714    -72.3058      4.9849      4.8610      5.8690 
  4557.5000     84.7132     14.4509      0.0119      2.4547     34.2189     99.7519    -72.2579      4.9448      4.8802      5.6954 
  4558.0000     81.5625     14.3856      0.0062      2.4592     33.2340    101.6362    -72.2347      4.9035      4.8638      5.4404 
  4558.5000     80.4633     14.3289     -0.0093      2.4561     31.5624    102.8905    -72.3228      4.8626      4.8190      5.2294 
  4559.0000     82.0158     14.2987     -0.0057      2.4534     30.1894    103.5229    -72.0044      4.8221      4.7746      5.1904 
  4559.5000     83.2810     14.3328     -0.0089      2.4446     30.1708    102.6515    -71.7613      4.7818      4.7306      5.1091 
  4560.0000     82.6406     14.4229     -0.0012      2.4313     31.1669     99.4579    -71.8409      4.7420      4.7259      4.9379 
  4560.5000     81.3143     14.5557      0.0086      2.4407     32.0518     97.6673    -71.8366      4.7363      4.7319      4.8413 
  4561.0000     80.6629     14.7896     -0.0041      2.4368     32.9721     97.8383    -71.7719      4.8992      4.7705      4.8999 
  4561.5000     80.6571     15.0647     -0.0044      2.4303     32.7550     99.9433    -71.9015      5.0552      4.8954      5.0768 
  4562.0000     81.2736     14.8915      0.0033      2.4300     31.6238    101.2901    -72.3777      5.0843      5.0236      5.9181 
  4562.5000     81.7694     14.9648      0.0110      2.4296     31.9583    100.8812    -72.7162      5.1136      5.1057      6.2095 
  4563.0000     80.8922     14.9766      0.0087      2.4201     33.0550    105.3379    -72.4123      5.1430      5.0913      6.0197 
  4563.5000     81.4281     14.9357      0.0003      2.4216     33.7255    106.3265    -72.1430      5.1678      5.0770      5.6775 
  4564.0000     82.5323     14.7732     -0.0057      2.4428     32.7316    107.0317    -71.8062      5.1678      5.0628      5.2927 
  4564.5000     83.2732     14.7024     -0.0041      2.4405     31.5412    105.5025    -71.8009      5.1678      5.0486      5.2288 
  4565.0000     83.2280     14.7392     -0.0026      2.4318     29.9387    100.0277    -72.1369      5.1658      5.0344      5.3719 
  4565.5000     83.0770     14.9758     -0.0002      2.4360     29.1604     96.4072    -72.4889      5.1601      5.0203      5.3988 
  4566.0000     83.2340     15.0360      0.0024      2.4446     29.6711     95.0903    -72.5402      5.1544      5.0062      5.1959 
  4566.5000     81.9940     15.1152      0.0031      2.4547     30.2328     96.4969    -72.6336      5.1058      4.9921      5.2548 
  4567.0000     80.9831     15.1307      0.0071      2.4559     31.0129     98.9072    -72.8542      5.0478      4.9781      5.4771 
  4567.5000     81.0401     15.0503      0.0219      2.4719     31.2700     99.1832    -72.7986      4.9905      4.9386      5.2812 
  4568.0000     82.3348     15.2905      0.0343      2.4790     31.7262     98.5411    -72.5640      4.9338      4.8809      5.0589 
  4568.5000     83.1458     15.5307      0.0302      2.4705     32.3204     98.9135    -72.2651      4.8777      4.8239      5.0545 
  4569.0000     82.6892     15.3154      0.0258      2.4765     32.9127     98.8930    -72.0047      4.8223      4.7675      5.4149 
  4569.5000     82.7714     15.2556      0.0408      2.4941     32.5367     99.5197    -71.7893      4.7676      4.7117      5.6080 
  4570.0000     84.2837     15.3197      0.0286      2.4752     31.6143    101.5151    -71.6343      4.7134      4.6567      5.2289 
  4570.5000     85.7621     15.3489      0.0098      2.4628     31.8227    101.6099    -71.5617      4.6811      4.6022      4.6965 
  4571.0000     85.7853     15.3570      0.0057      2.4544     31.6202    100.8805    -71.5947      4.6589      4.5484      4.6505 
  4571.5000     86.1022     15.3579      0.0098      2.4455     30.6835    100.1675    -71.6165      4.6560      4.5499      4.6987 
  4572.0000     86.8964     15.4209      0.0166      2.4380     30.3692    100.5598    -71.5366      4.6951      4.6246      5.0211 
  4572.5000     88.1181     15.4888      0.0133      2.4158     30.1930     98.0872    -71.4712      4.7345      4.7005      5.5174 
  4573.0000     89.2329     15.5030      0.0055      2.4054     31.2255     97.8021    -71.5335      4.7743      4.7776      5.1187 
  4573.5000     89.4937     15.3575     -0.0006      2.4149     32.6517    103.3736    -71.6560      4.8221      4.8560      4.8314 
  4574.0000     90.4806     15.2657     -0.0012      2.4391     33.2829    107.7867    -71.9798      4.8754      4.8949      4.7819 
  4574.5000     92.8673     15.3140      0.0060      2.4583     32.4029    108.5792    -72.4788      4.9287      4.9312      5.1077 
  4575.0000     94.3743     15.3742      0.0139      2.4625     30.7261    106.3245    -72.9679      4.9825      4.9678      5.6732 
  4575.5000     94.9374     15.3908      0.0131      2.4605     30.8724    101.7808    -73.1111      5.0369      5.0047      5.8198 
  4576.0000     92.7532     15.2811      0.0064      2.4576     32.3887     99.4250    -73.1948      5.0919      5.0418      5.8446 
  4576.5000     89.4045     15.1523     -0.0002      2.4403     33.4250    102.2280    -73.3317      5.1475      5.0792      5.8193 
  4577.0000     86.0044     15.0770     -0.0069      2.4384     32.4859    104.9400    -73.5299      5.1749      5.1169      5.7017 
  4577.5000     85.2527     15.0777     -0.0113      2.4507     30.9590    103.5275    -73.6974      5.1857      5.1549      5.4653 
  4578.0000     87.2533     15.0846     -0.0055      2.4664     30.0400    100.3110    -73.6167      5.1966      5.1932      5.2455 
  4578.5000     90.3363     15.0591      0.0005      2.4810     30.1993     97.7580    -73.5697      5.2075      5.2315      5.5619 
  4579.0000     91.8672     15.0495      0.0082      2.4738     30.5884     97.8216    -73.6976      5.2185      5.2407      5.6168 
  4579.5000     91.2111     14.9958     -0.0039      2.4601     30.3737     98.4992    -73.8988      5.2315      5.2500      5.3852 
