~VERSION INFORMATION
 VERS.                      2.00:        CWLS LOG ASCII STANDARD - VERSION 2.00
 WRAP.                        NO:        ONE LINE PER DEPTH STEP
~WELL INFORMATION
#MNEM.UNIT               DATA            INFORMATION
#----------          ------------        ------------------------------
 STRT.F                 438.0000:        START DEPTH
 STOP.F               11532.0000:        STOP DEPTH
 STEP.F                   0.5000:        STEP VALUE
 NULL.                 -999.2500:        NULL VALUE
 COMP.      HUSKY-NPR OPERATIONS:        COMPANY  
 WELL.          ATIGARU POINT #1:        WELL     
 FLD .                   WILDCAT:        FIELD    
 LOC .              19  14N   2E:        LOCATION   
 CNTY.               NORTH SLOPE:        COUNTY  
 STAT.                     ALSKA:        STATE   
 CTRY.                       USA:        COUNTRY 
 DATE.                    1/ /77:        LOG DATE 
 API .              501032000800:        UNIQUE WELL IDENTIFIER 
 OPER.      HUSKY-NPR OPERATIONS:        OPERATOR  
 SRVC.              Schlumberger:        SERVICE COMPANY 
 UWI .              501032000800:        UNIQUE WELL ID 
 LAT .                    0.0000:        LATITUDE
 LON .                    0.0000:        LONGITUDE
 DIGS.          Center Line Data:        DIGITIZING COMPANY 
~CURVE INFORMATION      
#MNEM.UNIT            API CODE           CURVE DESCRIPTION
#---------          -------------        ------------------------------
 DEPT.F                         :        1  DEPTH
 SP  .MV                        :        2
 ILD .OHMM                      :        3
 ILM .OHMM                      :        4
 LL8 .OHMM                      :        5
 CALI.IN                        :        6
 GR  .GAPI                      :        7
 DRHO.G/C3                      :        8
 RHOB.G/C3                      :        9
 NPHI.%                         :       10
 DT  .US/F                      :       11
~PARAMETER INFORMATION       
#MNEM.UNIT              VALUE            DESCRIPTION OF MNEMONIC
#---------          -------------        ------------------------------
 EKB .F                  25.0000:        KELLY BUSHING
 TD  .F               11534.0000:        TOTAL DEPTH
 BHT .F                   0.0000:        BOTTOM HOLE TEMPERATURE
 BS  .                   17.5000:        BIT SIZE
 FD  .                    9.3000:        FLUID DENSITY
 CSIZ.                   20.0000:        CASING SIZE
 CBD .F                 447.0000:        CASING DRILLER 1
 CBL .F                 443.0000:        CASING LOGGER 1
 DFT .                       Gel:        TYPE FLUID IN HOLE
 DFV .                   47.0000:        VISCOSITY
 DFPH.                   14.6000:        PH
 DFL .                    8.0000:        FLUID LOSS
 RMS .                    1.9300:        RM
 MST .F                  63.0000:        RM MEAS. TEMP.
 RMF .                    1.6900:        RMF
 MFST.F                  52.0000:        RMF MEAS. TEMP.
 RMC .                    1.6500:        RMC
 MCST.F                  60.0000:        RMC MEAS. TEMP.
 UWI .              501032000800:        UNIQUE WELL ID
~OTHER INFORMATION
~A    DEPTH          SP         ILD         ILM         LL8        CALI          GR        DRHO        RHOB        NPHI          DT  
# ...
  6348.0000    -42.0446      5.1276      4.9408      5.4599     12.4782     66.3337      0.0631      2.5442     33.4066     87.3059  
  6348.5000    -41.9187      5.1755      4.9743      5.6091     12.4598     64.9555      0.0833      2.5514     33.0775     86.9045  
  6349.0000    -42.0847      5.2653      5.0081      5.5490     12.4282     64.5306      0.0943      2.5532     33.3624     86.8590  
  6349.5000    -42.1735      5.4068      5.0421      5.4897     12.4255     64.8644      0.0917      2.5552     33.6953     87.0296  
  6350.0000    -42.3430      5.4924      5.0763      5.4399     12.4627     66.0345      0.0908      2.5587     34.9430     87.2368  
  6350.5000    -42.5184      5.3920      5.1107      5.6561     12.4999     65.5807      0.1048      2.5632     35.3003     87.5019  
  6351.0000    -42.4815      5.2934      5.1168      5.6871     12.5203     64.7136      0.1192      2.5734     35.3093     87.8977  
  6351.5000    -42.3000      5.1967      5.0639      5.5822     12.5120     63.9138      0.1333      2.5761     35.6438     87.8071  
  6352.0000    -42.1937      5.1017      5.0115      5.4792     12.5027     63.5823      0.1002      2.5625     36.1368     87.5252  
  6352.5000    -42.2075      5.0084      4.9597      5.3778     12.4882     63.7173      0.1074      2.5454     36.5765     87.2760  
  6353.0000    -42.1096      4.9506      4.9085      5.2779     12.4736     64.0774      0.1170      2.5553     36.7187     86.2801  
  6353.5000    -42.1583      4.8961      4.8577      5.1798     12.4591     64.6612      0.0922      2.5569     36.1799     87.2619  
  6354.0000    -42.2241      5.0139      4.8658      5.1515     12.4446     65.2701      0.0990      2.5739     35.6559     87.6391  
  6354.5000    -42.2580      5.1594      4.9117      5.2432     12.4911     65.6463      0.1093      2.5815     35.4620     87.3219  
  6355.0000    -42.2672      5.2851      4.9580      5.3366     12.5516     65.4636      0.1020      2.5813     35.9256     86.0380  
  6355.5000    -42.2763      5.2187      4.9723      5.4316     12.5780     65.2194      0.0702      2.5527     36.7603     88.0209  
  6356.0000    -42.2854      5.1533      4.9096      5.2382     12.5805     66.1698      0.0759      2.5512     36.4689     87.0416  
  6356.5000    -42.1642      5.0886      4.8477      5.0028     12.5664     67.6408      0.1021      2.5759     36.0138     87.6289  
  6357.0000    -42.0097      5.0248      4.8381      4.9548     12.4449     67.6084      0.0948      2.5737     36.1775     88.2161  
  6357.5000    -41.8551      4.9617      4.8381      5.2728     12.3263     67.2467      0.0755      2.5504     36.6493     88.2761  
  6358.0000    -41.7006      4.8994      4.8247      5.1639     12.3688     66.9105      0.0790      2.5645     37.0166     88.3906  
  6358.5000    -41.5461      4.9823      4.7986      4.7480     12.3971     66.4521      0.0874      2.5789     36.1339     88.5547  
  6359.0000    -41.4543      5.1604      4.8095      5.0837     12.3906     66.9008      0.1019      2.5987     35.8792     88.2794  
  6359.5000    -41.5477      5.3450      4.8708      5.4554     12.3841     69.1980      0.0902      2.5843     35.5011     86.4995  
  6360.0000    -41.6411      5.3941      4.9329      5.4152     12.4077     70.3225      0.0756      2.5510     35.5746     87.2469  
  6360.5000    -41.7345      5.2904      4.8971      5.1997     12.4334     69.7320      0.0603      2.5251     36.1413     87.7087  
  6361.0000    -41.8279      5.1887      4.8585      4.9927     12.4210     68.8803      0.0571      2.5305     36.0114     88.8120  
  6361.5000    -41.9213      5.1216      4.8202      4.7940     12.4347     68.5993      0.0716      2.5552     36.1348     90.4751  
  6362.0000    -41.9325      5.2199      4.9481      5.1257     12.4497     69.2054      0.0570      2.5594     36.2367     89.4356  
  6362.5000    -41.6494      5.3202      5.1365      5.5172     12.4435     67.6999      0.0427      2.5504     36.0769     88.4950  
  6363.0000    -41.4115      5.4223      5.1972      5.8095     12.4374     65.7999      0.0379      2.5261     36.0794     88.0592  
  6363.5000    -41.5439      5.5264      5.1613      5.7308     12.4313     64.8323      0.0447      2.5162     36.0595     87.4756  
  6364.0000    -41.9132      5.6325      5.1256      5.6531     12.4101     63.9286      0.0470      2.5176     35.8520     87.6704  
  6364.5000    -41.9167      5.7407      5.0902      5.5765     12.3740     64.8575      0.0681      2.5215     35.6446     87.6297  
  6365.0000    -41.8034      5.6939      5.0550      5.5009     12.3684     66.0217      0.0560      2.5204     35.3792     87.6947  
  6365.5000    -41.9743      5.6445      5.0201      5.2783     12.3651     66.8011      0.0584      2.5210     34.7916     87.3081  
  6366.0000    -42.0256      5.5954      5.0219      5.0563     12.3780     68.5777      0.0683      2.5577     34.2544     86.8635  
  6366.5000    -41.8409      5.5468      5.0666      5.3284     12.4254     70.2156      0.0783      2.5952     33.6656     86.4685  
  6367.0000    -41.7220      5.4986      5.1021      5.6787     12.4008     71.2206      0.0692      2.5764     33.0028     86.2892  
  6367.5000    -41.6031      5.4588      5.0990      5.4657     12.3400     71.8310      0.0669      2.5694     32.7937     86.5129  
  6368.0000    -41.5183      5.5093      5.0960      5.3309     12.3840     74.1461      0.0523      2.5570     33.0129     86.8453  
  6368.5000    -41.0989      5.5603      5.0930      5.4987     12.4627     76.1426      0.0379      2.5433     33.6967     86.9990  
  6369.0000    -40.9280      5.6118      5.0899      5.6719     12.4796     74.4822      0.0456      2.5314     34.2144     87.0773  
  6369.5000    -40.8574      5.6638      5.0869      5.7118     12.5076     72.6480      0.0663      2.5400     34.2311     87.2793  
  6370.0000    -41.0789      5.6855      5.0838      5.5331     12.4894     71.3877      0.0830      2.5266     33.7014     87.2293  
  6370.5000    -40.9294      5.6339      5.0808      5.4467     12.4552     71.5021      0.0825      2.5421     33.3632     87.3307  
  6371.0000    -40.9587      5.5829      5.0778      5.6304     12.4496     72.9433      0.0700      2.5247     32.9702     88.1618  
  6371.5000    -41.1241      5.5322      5.0748      5.7884     12.4440     72.9515      0.0585      2.5116     32.7521     89.6070  
  6372.0000    -41.1416      5.4820      5.0752      5.7061     12.5309     72.5188      0.0488      2.5289     32.6116     88.5924  
  6372.5000    -40.8296      5.4323      5.0843      5.6250     12.7470     71.7074      0.0749      2.5428     32.3384     87.9575  
  6373.0000    -40.6581      5.3831      5.0934      5.5451     12.7775     71.2447      0.1010      2.5576     32.1114     86.3716  
  6373.5000    -40.7040      5.3369      5.1025      5.4663     12.5407     72.2563      0.1072      2.5531     32.2137     83.7890  
  6374.0000    -40.8782      5.3770      5.1116      5.3887     12.4056     73.1362      0.0903      2.5679     31.9213     84.6295  
  6374.5000    -40.8083      5.4173      5.1207      5.3121     12.4017     72.1552      0.1184      2.6046     30.9623     85.4699  
  6375.0000    -40.6990      5.4580      5.1298      5.4214     12.3846     70.7685      0.1011      2.5903     30.5148     86.0936  
  6375.5000    -40.6101      5.4990      5.1362      5.5481     12.3856     69.9510      0.1038      2.5628     30.8504     86.3279  
  6376.0000    -40.6136      5.5402      5.1364      5.6778     12.4089     70.9385      0.0479      2.5419     31.5154     86.2869  
  6376.5000    -40.3980      5.5818      5.1365      5.8105     12.4322     71.3900      0.0453      2.5351     32.2590     86.3358  
  6377.0000    -40.2220      5.6237      5.1366      5.8665     12.4518     70.9656      0.0672      2.5582     32.5874     86.2179  
  6377.5000    -40.0485      5.6298      5.1366      5.6776     12.4146     70.1484      0.0931      2.5682     33.0350     85.9103  
