~VERSION INFORMATION
 VERS.                      2.00:        CWLS LOG ASCII STANDARD - VERSION 2.00
 WRAP.                        NO:        ONE LINE PER DEPTH STEP
~WELL INFORMATION
#MNEM.UNIT               DATA            INFORMATION
#----------          ------------        ------------------------------
 STRT.F                  40.0000:        START DEPTH
 STOP.F                9893.0000:        STOP DEPTH
 STEP.F                   0.5000:        STEP VALUE
 NULL.                 -999.2500:        NULL VALUE
 COMP.                 U.S. NAVY:        COMPANY  
 WELL.    CAPE HALKETT #16N-2W-1:        WELL     
 FLD .                   WILDCAT:        FIELD    
 LOC .               5  16N   2W:        LOCATION   
 CNTY.               NORTH SLOPE:        COUNTY  
 STAT.                    ALASKA:        STATE   
 CTRY.                       USA:        COUNTRY 
 DATE.                    4/9/75:        LOG DATE 
 API .              500000000000:        UNIQUE WELL IDENTIFIER 
 OPER.                 U.S. NAVY:        OPERATOR  
 SRVC.              Schlumberger:        SERVICE COMPANY 
 UWI .              500000000000:        UNIQUE WELL ID 
 LAT .                    0.0000:        LATITUDE
 LON .                    0.0000:        LONGITUDE
 DIGS.          Center Line Data:        DIGITIZING COMPANY 
~CURVE INFORMATION      
#MNEM.UNIT            API CODE           CURVE DESCRIPTION
#---------          -------------        ------------------------------
 DEPT.F                         :        1  DEPTH
 SP  .MV                        :        2
 ILD .OHMM                      :        3
 ILM .OHMM                      :        4
 LL8 .OHMM                      :        5
 CALI.IN                        :        6
 GR  .GAPI                      :        7
 DRHO.G/C3                      :        8
 RHOB.G/C3                      :        9
 NPHI.%                         :       10
 DPHI.%                         :       11
 DT  .US/F                      :       12
~PARAMETER INFORMATION       
#MNEM.UNIT              VALUE            DESCRIPTION OF MNEMONIC
#---------          -------------        ------------------------------
 EKB .F                  39.5000:        KELLY BUSHING
 TD  .F                7867.0000:        TOTAL DEPTH
 BHT .F                  60.0000:        BOTTOM HOLE TEMPERATURE
 BS  .                   18.5000:        BIT SIZE
 FD  .                   10.5000:        FLUID DENSITY
 CSIZ.                   20.0000:        CASING SIZE
 CBD .F                 492.0000:        CASING DRILLER 1
 CBL .F                 493.0000:        CASING LOGGER 1
 DFT .             Miscellaneous:        TYPE FLUID IN HOLE
 DFV .                  200.0000:        VISCOSITY
 DFPH.                   10.0000:        PH
 DFL .                    9.2000:        FLUID LOSS
 RMS .                    2.1500:        RM
 MST .F                  57.0000:        RM MEAS. TEMP.
 RMF .                    2.2000:        RMF
 MFST.F                  40.0000:        RMF MEAS. TEMP.
 RMC .                    0.0000:        RMC
 MCST.F                   0.0000:        RMC MEAS. TEMP.
 UWI .              500000000000:        UNIQUE WELL ID
~OTHER INFORMATION
~A    DEPTH          SP         ILD         ILM         LL8        CALI          GR        DRHO        RHOB        NPHI        DPHI          DT  
# ...
  3890.0000    -34.6889      4.3292      4.4915      4.7965     12.4307     82.5805      0.1233      2.3630     41.7284   -999.2500    105.6084  
  3890.5000    -34.6756      4.3350      4.4624      4.7987     12.4339     84.2751      0.1224      2.3425     43.6750   -999.2500    107.4028  
  3891.0000    -34.5200      4.3428      4.5017      4.8009     12.4412     86.0821      0.1274      2.3344     44.0177   -999.2500    111.2580  
  3891.5000    -34.3769      4.3506      4.5098      4.8031     12.4331     86.9042      0.1567      2.3496     43.9629   -999.2500    113.1133  
  3892.0000    -34.2823      4.3584      4.5179      4.8053     12.4194     87.4027      0.1538      2.3387     43.4123   -999.2500    111.7562  
  3892.5000    -34.2296      4.3663      4.5260      4.8075     12.4343     87.3082      0.1487      2.3356     44.4736   -999.2500    110.5531  
  3893.0000    -34.2325      4.3732      4.5331      4.8097     12.4893     87.1483      0.1429      2.3447     44.7712   -999.2500    110.1156  
  3893.5000    -34.3135      4.3752      4.5352      4.8119     12.5209     87.8429      0.1375      2.3479     44.5689   -999.2500    110.7308  
  3894.0000    -34.3946      4.3772      4.5373      4.8141     12.5653     89.3920      0.1309      2.3516     44.4718   -999.2500    111.0820  
  3894.5000    -34.4378      4.3827      4.5436      4.8163     12.6126     90.7540      0.1436      2.3567     44.7211   -999.2500    110.8624  
  3895.0000    -34.4500      4.4016      4.5632      4.8186     12.6420     91.8623      0.1558      2.3698     45.1374   -999.2500    110.0052  
  3895.5000    -34.5111      4.4081      4.5692      4.8208     12.6987     92.7961      0.1501      2.3787     45.4181   -999.2500    108.6041  
  3896.0000    -34.4205      4.4101      4.5713      4.8230     12.8810     92.1615      0.1301      2.3647     45.4999   -999.2500    108.9992  
  3896.5000    -34.2955      4.4044      4.5698      4.8252     13.1466     91.5270      0.1243      2.3600     45.1403   -999.2500    110.5563  
  3897.0000    -34.1218      4.3577      4.5214      4.8274     13.1122     90.9350      0.1297      2.3609     45.0297   -999.2500    112.7138  
  3897.5000    -33.9297      4.3092      4.4735      4.8296     12.8522     89.3766      0.1341      2.3599     44.7061   -999.2500    113.5949  
  3898.0000    -33.7680      4.2467      4.4127      4.8319     12.9072     87.9224      0.0994      2.3363     44.6615   -999.2500    113.0786  
  3898.5000    -33.8370      4.1631      4.3537      4.8341     13.2280     86.5433      0.1228      2.3516     44.9895   -999.2500    112.5797  
  3899.0000    -34.1952      4.0812      4.2953      4.8926     13.1375     85.4743      0.1444      2.3595     45.5127   -999.2500    112.6824  
  3899.5000    -34.4913      4.0036      4.2378      4.9263     12.8514     85.0544      0.1270      2.3670     46.0911   -999.2500    112.5767  
  3900.0000    -34.8323      3.9279      4.1810      4.9475     12.7863     85.9928      0.1302      2.3715     48.0693   -999.2500    111.9867  
  3900.5000    -34.0673      3.8536      4.1250      4.8798     12.7661     87.2293      0.1297      2.3819     49.0775   -999.2500    111.3736  
  3901.0000    -33.6276      3.7807      4.0697      4.8098     12.8061     88.3303      0.1159      2.3871     48.7871   -999.2500    111.0344  
  3901.5000    -33.3027      3.7255      4.0301      4.8005     12.9661     89.1011      0.0970      2.3905     46.5956   -999.2500    111.9978  
  3902.0000    -32.9278      3.7189      3.9936      4.7899     12.8595     88.6325      0.0754      2.3990     45.3887   -999.2500    113.0870  
  3902.5000    -32.5551      3.7276      3.9704      4.8191     12.4517     89.0429      0.0743      2.4057     44.4681   -999.2500    114.1286  
  3903.0000    -32.1101      3.7363      3.9611      4.7303     12.4307     90.5132      0.0708      2.4067     44.2637   -999.2500    115.3099  
  3903.5000    -31.6273      3.7451      3.9518      4.7477     12.4182     92.1990      0.0543      2.3978     44.1789   -999.2500    114.1189  
  3904.0000    -31.4441      3.7538      3.9233      4.8093     12.4086     91.8502      0.0691      2.4163     43.6671   -999.2500    115.1713  
  3904.5000    -31.0255      3.7559      3.8933      4.8611     12.4069     91.4960      0.0848      2.4339     43.0003   -999.2500    115.8932  
  3905.0000    -30.6422      3.7487      3.8858      4.7983     12.3962     91.4529      0.0811      2.4321     43.0749   -999.2500    114.4138  
  3905.5000    -30.3166      3.7415      3.8784      4.6204     12.3815     91.2177      0.0798      2.4072     43.2839   -999.2500    114.4040  
  3906.0000    -30.0530      3.7343      3.8709      4.4988     12.3833     92.0040      0.0858      2.4008     43.0405   -999.2500    113.3745  
  3906.5000    -29.8888      3.7271      3.8635      4.4034     12.3837     93.3593      0.0748      2.3958     42.7987   -999.2500    111.3982  
  3907.0000    -29.7278      3.7200      3.8561      4.3396     12.3375     93.8281      0.0587      2.3868     43.4779   -999.2500    113.9638  
  3907.5000    -29.5936      3.7128      3.8487      4.3842     12.3481     93.9296      0.0629      2.3882     45.7458   -999.2500    115.9671  
  3908.0000    -29.6199      3.6996      3.8358      4.5131     12.3562     94.0415      0.0726      2.3932     46.7035   -999.2500    116.9643  
  3908.5000    -29.6549      3.6807      3.8161      4.5567     12.3563     94.2705      0.0764      2.3946     46.0780   -999.2500    117.7741  
  3909.0000    -29.7199      3.6619      3.7966      4.5295     12.3579     94.5800      0.0736      2.3853     46.7018   -999.2500    117.5733  
  3909.5000    -29.7247      3.6435      3.7772      4.3891     12.3755     94.8031      0.0807      2.3852     46.7188   -999.2500    117.1912  
  3910.0000    -29.7384      3.6416      3.7747      4.2900     12.3795     94.8644      0.0925      2.3925     45.9456   -999.2500    116.3115  
  3910.5000    -29.8504      3.6397      3.7728      4.2950     12.3708     94.8172      0.1003      2.3975     46.4075   -999.2500    115.7036  
  3911.0000    -29.9048      3.6529      3.7870      4.3317     12.3383     94.6081      0.1004      2.3940     45.5300   -999.2500    116.8429  
  3911.5000    -29.9591      3.6701      3.8049      4.3861     12.3088     93.9841      0.1002      2.3886     45.1198   -999.2500    117.2234  
  3912.0000    -30.2660      3.6947      3.8317      4.5729     12.3139     93.5908      0.0890      2.3704     44.8165   -999.2500    119.4274  
  3912.5000    -30.8021      3.7256      3.8705      4.7662     12.3238     93.7483      0.0772      2.3429     45.0046   -999.2500    121.3751  
  3913.0000    -31.3383      3.7891      3.9364      4.8719     12.3288     93.9841      0.0809      2.3422     46.2576   -999.2500    120.0535  
  3913.5000    -31.8001      3.8224      3.9633      4.7028     12.3178     93.7157      0.0966      2.3529     46.9258   -999.2500    119.3062  
  3914.0000    -32.2257      3.8470      3.9889      4.6939     12.3089     91.8938      0.1013      2.3683     45.4958   -999.2500    116.9506  
  3914.5000    -32.7740      3.8719      4.0146      4.7908     12.3046     89.7354      0.1083      2.3864     44.4241   -999.2500    114.4391  
  3915.0000    -33.5769      3.8968      4.0406      5.0585     12.3587     89.1592      0.1084      2.4049     44.0711   -999.2500    112.0514  
  3915.5000    -34.1552      3.9220      4.0666      5.2165     12.5138     89.3333      0.0890      2.4114     42.7573   -999.2500    111.7850  
  3916.0000    -34.5571      3.9486      4.0955      5.1773     12.4421     89.7893      0.0656      2.4120     43.0395   -999.2500    112.4386  
  3916.5000    -34.6999      3.9829      4.1310      5.0298     12.3281     90.0904      0.0782      2.4130     44.8144   -999.2500    112.9288  
  3917.0000    -34.5950      4.0174      4.1668      4.9959     12.2933     90.0348      0.0871      2.4151     44.7058   -999.2500    111.4680  
