~VERSION INFORMATION
 VERS.                           2.00:        CWLS LOG ASCII STANDARD - VERSION 2.00
 WRAP.                             NO:        ONE LINE PER DEPTH STEP
~WELL INFORMATION
#MNEM.UNIT                   DATA             INFORMATION
#----------             --------------        ------------------------------
 STRT.F                      112.0000:        START DEPTH
 STOP.F                    10176.0000:        STOP DEPTH
 STEP.F                        0.5000:        STEP VALUE
 NULL.                      -999.2500:        NULL VALUE
 COMP.                      HUSKY OIL:        COMPANY  
 LOC .                   36  11N   4W:        LOCATION   
 DATE.                        2/16/81:        LOG DATE 
 WELL.            NORTH INIGOK TEST 1:        WELL     
 UWI .                   501032001700:        UNIQUE WELL ID 
 API .                   501032001700:        UNIQUE WELL IDENTIFIER 
 FLD .                        WILDCAT:        FIELD    
 CNTY.                    NORTH SLOPE:        COUNTY  
 STAT.                         ALASKA:        STATE   
 CTRY.                            USA:        COUNTRY 
 OPER.                      HUSKY OIL:        OPERATOR  
 SRVC.                            440:        SERVICE COMPANY 
 LAT .                         0.0000:        LATITUDE
 LON .                         0.0000:        LONGITUDE
 DIGS.                             65:        DIGITIZING COMPANY 
~CURVE INFORMATION      
#MNEM.UNIT                 API CODE           CURVE DESCRIPTION
#---------              --------------        ------------------------------
 DEPT.F                              :        1  DEPTH
 SP  .MV                             :        2
 SFL .OHMM                           :        3
 ILD .OHMM                           :        4
 ILM .OHMM                           :        5
 NPHI.%                              :        6
 CALI.IN                             :        7
 GR  .GAPI                           :        8
 RHOB.G/C3                           :        9
 DRHO.G/C3                           :       10
 DT  .US/F                           :       11
~PARAMETER INFORMATION       
#MNEM.UNIT                  VALUE             DESCRIPTION OF MNEMONIC
#---------             ---------------        ------------------------------
 EKB .F                      166.0000:        KELLY BUSHING
 TD  .F                    10167.0000:        TOTAL DEPTH
~OTHER INFORMATION
~A    DEPTH          SP         SFL         ILD         ILM        NPHI        CALI          GR        RHOB        DRHO          DT  
# ...
  4792.0000    -57.3451      6.6196      7.0319      6.2746     48.4652     18.9055     83.7660      2.2845      0.0711     96.0458  
  4792.5000    -56.9260      6.5785      6.9402      6.2357     47.2503     18.6516     82.7325      2.2921      0.0699     91.9467  
  4793.0000    -56.6232      6.5394      6.8484      6.1989     45.5213     18.3126     81.6254      2.2832      0.0670     89.4241  
  4793.5000    -56.3558      6.4977      6.7571      6.1566     44.2656     18.6510     81.1822      2.2803      0.0865     87.8200  
  4794.0000    -55.8555      6.4427      6.6902      6.1046     43.7000     19.3992     82.7182      2.2736      0.0873     89.8301  
  4794.5000    -55.6412      6.3882      6.6336      6.0530     43.2916     20.1018     85.1665      2.2802      0.0717     92.8170  
  4795.0000    -55.6848      6.3234      6.5697      5.9871     42.7662     20.6414     86.9702      2.2820      0.0632     96.0279  
  4795.5000    -55.7119      6.2500      6.4935      5.9177     42.4844     19.9447     88.8828      2.2886      0.0521     96.5500  
  4796.0000    -55.7170      6.1775      6.4182      5.8490     44.0306     19.6717     87.3881      2.2995      0.0587     95.6366  
  4796.5000    -55.6242      6.1059      6.3437      5.7811     46.1138     19.3229     86.2725      2.3021      0.0661     96.5193  
  4797.0000    -55.4249      6.0751      6.3048      5.7610     47.1647     19.0234     86.7788      2.2960      0.0693     97.6550  
  4797.5000    -55.4906      6.0662      6.2956      5.7526     47.1775     18.6168     87.8266      2.2947      0.0762     96.4494  
  4798.0000    -55.3441      6.0574      6.2864      5.7443     47.7189     18.0250     88.3372      2.3097      0.0832     94.8715  
  4798.5000    -55.3037      6.0486      6.2773      5.7360     48.4739     18.2901     88.5226      2.3281      0.0903     95.8951  
  4799.0000    -55.4755      6.0398      6.2681      5.7276     49.2682     18.3178     88.9225      2.3357      0.0801     95.0152  
  4799.5000    -55.5300      6.0310      6.2590      5.7193     50.0067     18.0449     88.8588      2.3394      0.0744     94.8254  
  4800.0000    -55.5646      6.0223      6.2498      5.7111     50.5081     18.0128     88.0437      2.3430      0.0787     95.8432  
  4800.5000    -55.5924      6.0680      6.4622      5.7312     50.4440     18.0673     86.3575      2.3298      0.0767     95.2820  
  4801.0000    -55.4139      6.0240      6.2529      5.7110     51.1333     18.0268     84.7889      2.3164      0.0699     94.3620  
  4801.5000    -55.1732      6.0149      6.2500      5.6974     50.0354     18.0021     83.4837      2.3127      0.0671     94.4331  
  4802.0000    -54.9670      6.0648      6.2965      5.7481     47.9461     17.9537     83.2006      2.3253      0.0755     94.5154  
  4802.5000    -54.8147      6.0925      6.3565      5.7376     45.8357     17.7558     83.1879      2.3295      0.0726     94.5619  
  4803.0000    -54.7756      6.0354      6.2716      5.6996     44.5880     17.9276     82.7198      2.3101      0.0560     95.4090  
  4803.5000    -54.9407      5.9205      6.2046      5.6131     44.9134     18.1688     82.2117      2.2881      0.0504     96.2815  
  4804.0000    -55.1617      5.9527      6.1953      5.6321     45.8939     18.1876     82.6089      2.2850      0.0624     96.5869  
  4804.5000    -55.4186      6.0357      6.2700      5.7030     46.8171     18.0690     84.4492      2.2791      0.0710     96.6175  
  4805.0000    -55.5579      6.0232      6.2552      5.7680     47.2762     17.6543     86.5076      2.2825      0.0606     96.2573  
  4805.5000    -55.3272      6.0161      6.3274      5.8338     47.0622     17.7400     86.3487      2.3055      0.0541     95.3313  
  4806.0000    -55.1883      6.1973      6.4491      5.9004     45.7763     17.6780     85.4740      2.3181      0.0690     94.7101  
  4806.5000    -55.2197      6.2964      6.5426      5.9677     44.6744     17.5628     85.9068      2.3181      0.0665     96.8996  
  4807.0000    -55.4315      6.3739      6.6232      6.0358     44.7353     17.4974     86.6814      2.2882      0.0515     97.4987  
  4807.5000    -55.6225      6.4184      6.6616      6.0859     45.1914     17.4859     86.8915      2.2710      0.0443     97.5806  
  4808.0000    -55.7409      6.4172      6.6599      6.0854     45.8236     17.5836     86.8424      2.2627      0.0495     96.2895  
  4808.5000    -55.6997      6.4102      6.6526      6.0787     46.0933     17.8213     87.7849      2.2479      0.0444     96.8635  
  4809.0000    -55.7480      6.4031      6.6453      6.0720     46.5021     18.1823     88.6069      2.2476      0.0485     99.4245  
  4809.5000    -55.5862      6.3715      6.6179      6.0349     46.5103     18.3429     87.7577      2.2640      0.0597     97.9826  
  4810.0000    -55.4235      6.2526      6.5278      5.8791     46.1693     18.4348     86.5394      2.2674      0.0566     98.5640  
  4810.5000    -55.2502      6.1687      6.4102      5.8391     45.6945     18.4533     87.4818      2.2871      0.0614     96.7489  
  4811.0000    -55.1526      6.1170      6.3540      5.7935     45.4183     18.4595     88.1466      2.3129      0.0701     93.9625  
  4811.5000    -55.0766      6.1056      6.4027      5.7347     45.0796     18.4701     88.6375      2.3117      0.0740     92.8147  
  4812.0000    -54.9325      5.9739      6.2244      5.6330     44.4763     18.6369     88.8991      2.2984      0.0684     92.6348  
  4812.5000    -54.7855      6.0618      6.2954      5.7484     44.0626     18.5304     89.0554      2.2808      0.0553     93.3218  
  4813.0000    -54.7377      6.0698      6.3253      5.7539     44.3944     18.3162     88.8518      2.2776      0.0488     94.4923  
  4813.5000    -54.7330      6.1016      6.3334      5.7846     45.1586     17.9736     88.8896      2.2782      0.0532     95.6097  
  4814.0000    -54.7005      6.1305      6.3634      5.8120     45.5286     17.9757     89.3482      2.2864      0.0618     97.7706  
  4814.5000    -54.6317      6.1595      6.3935      5.8395     45.6657     18.0933     89.5468      2.3034      0.0708     97.8815  
  4815.0000    -54.5891      6.1886      6.4238      5.8671     45.6598     17.9514     88.7829      2.3019      0.0604     97.6825  
  4815.5000    -54.6598      6.2179      6.4542      5.8949     45.3414     18.3980     88.0906      2.2886      0.0481     98.7289  
  4816.0000    -54.8365      6.2473      6.4847      5.9228     46.3989     18.5246     87.9790      2.2742      0.0392     96.3686  
  4816.5000    -55.0261      6.2769      6.5154      5.9508     47.5296     18.4009     88.2039      2.2494      0.0313     95.7926  
  4817.0000    -55.1637      6.2950      6.5330      5.9696     48.6569     18.0351     88.9191      2.2477      0.0353     95.0324  
  4817.5000    -55.2393      6.2961      6.5341      5.9706     48.3210     17.9959     89.6170      2.2540      0.0408     95.5435  
  4818.0000    -55.2588      6.2971      6.5351      5.9716     47.2040     17.7546     88.8524      2.2644      0.0418     96.5388  
  4818.5000    -55.2684      6.2981      6.5362      5.9725     46.1059     17.9741     88.0879      2.2779      0.0553     97.3357  
  4819.0000    -55.2903      6.2991      6.5372      5.9713     45.4978     17.9057     87.1439      2.2895      0.0657     97.7276  
  4819.5000    -55.1818      6.2505      6.4895      5.9240     45.1837     17.6989     86.2176      2.2858      0.0671     97.1605  
  4820.0000    -54.9632      6.2072      6.4444      5.8831     45.3488     17.5180     85.3770      2.2821      0.0720     95.5346  
  4820.5000    -54.8839      6.1491      6.3870      5.8239     45.5030     17.5873     84.9438      2.2872      0.0728     92.6356  
  4821.0000    -54.8371      6.0859      6.3215      5.7641     45.0172     18.0704     85.8108      2.2932      0.0691     91.7965  
  4821.5000    -54.7455      6.0468      6.2758      5.7337     45.1329     18.6541     87.6206      2.2931      0.0569     89.8317  
