~VERSION INFORMATION
 VERS.                           2.00:        CWLS LOG ASCII STANDARD - VERSION 2.00
 WRAP.                             NO:        ONE LINE PER DEPTH STEP
~WELL INFORMATION
#MNEM.UNIT                   DATA             INFORMATION
#----------             --------------        ------------------------------
 STRT.F                      112.0000:        START DEPTH
 STOP.F                    10176.0000:        STOP DEPTH
 STEP.F                        0.5000:        STEP VALUE
 NULL.                      -999.2500:        NULL VALUE
 COMP.                      HUSKY OIL:        COMPANY  
 LOC .                   36  11N   4W:        LOCATION   
 DATE.                        2/16/81:        LOG DATE 
 WELL.            NORTH INIGOK TEST 1:        WELL     
 UWI .                   501032001700:        UNIQUE WELL ID 
 API .                   501032001700:        UNIQUE WELL IDENTIFIER 
 FLD .                        WILDCAT:        FIELD    
 CNTY.                    NORTH SLOPE:        COUNTY  
 STAT.                         ALASKA:        STATE   
 CTRY.                            USA:        COUNTRY 
 OPER.                      HUSKY OIL:        OPERATOR  
 SRVC.                            440:        SERVICE COMPANY 
 LAT .                         0.0000:        LATITUDE
 LON .                         0.0000:        LONGITUDE
 DIGS.                             65:        DIGITIZING COMPANY 
~CURVE INFORMATION      
#MNEM.UNIT                 API CODE           CURVE DESCRIPTION
#---------              --------------        ------------------------------
 DEPT.F                              :        1  DEPTH
 SP  .MV                             :        2
 SFL .OHMM                           :        3
 ILD .OHMM                           :        4
 ILM .OHMM                           :        5
 NPHI.%                              :        6
 CALI.IN                             :        7
 GR  .GAPI                           :        8
 RHOB.G/C3                           :        9
 DRHO.G/C3                           :       10
 DT  .US/F                           :       11
~PARAMETER INFORMATION       
#MNEM.UNIT                  VALUE             DESCRIPTION OF MNEMONIC
#---------             ---------------        ------------------------------
 EKB .F                      166.0000:        KELLY BUSHING
 TD  .F                    10167.0000:        TOTAL DEPTH
~OTHER INFORMATION
~A    DEPTH          SP         SFL         ILD         ILM        NPHI        CALI          GR        RHOB        DRHO          DT  
# ...
   772.0000    -88.3290      9.2378     11.1165     10.3343     50.5121     19.0912     65.6380      2.2319      0.0386    135.0037  
   772.5000    -87.6462      9.0711     10.3978      9.6662     47.9702     19.0842     65.3049      2.2507      0.0448    135.3101  
   773.0000    -86.9112      7.9766      9.7256      9.1455     47.2605     19.0991     64.3256      2.2440      0.0391    133.7924  
   773.5000    -86.3284      6.8471      9.0968      8.6964     47.2131     19.1411     64.3317      2.2403      0.0339    132.5821  
   774.0000    -86.0516      6.4282      8.7836      8.2694     48.5161     19.2202     65.4566      2.2402      0.0363    132.5431  
   774.5000    -85.8903      6.2472      8.4998      7.8633     50.3231     19.2026     65.7000      2.2452      0.0440    132.6612  
   775.0000    -85.6772      6.2404      8.3000      7.5245     51.7014     19.1990     64.8154      2.2436      0.0573    132.7543  
   775.5000    -85.2586      6.3405      8.1537      7.3990     52.0714     19.2236     64.4972      2.2558      0.0703    132.7354  
   776.0000    -84.7699      6.2837      8.0294      7.2756     51.1295     19.3228     64.9293      2.2286      0.0493    132.2695  
   776.5000    -84.3046      6.0480      8.0308      7.1543     52.2842     19.2113     64.9328      2.2184      0.0422    132.2036  
   777.0000    -83.9773      5.5707      7.9946      7.0408     53.7677     19.2679     64.5086      2.2193      0.0472    132.1376  
   777.5000    -83.7378      5.4952      8.0607      6.9660     54.0591     19.3247     63.9346      2.2147      0.0372    132.0888  
   778.0000    -83.3983      5.5495      8.0145      6.8898     54.6554     19.3465     63.7934      2.2010      0.0305    132.5099  
   778.5000    -82.9048      5.5834      7.7620      6.8125     56.1968     19.3022     63.9551      2.1958      0.0389    132.7766  
   779.0000    -82.4457      5.4978      7.5054      6.7360     56.2889     19.2735     61.9198      2.1955      0.0418    133.5047  
   779.5000    -82.0246      5.2389      7.2573      6.5753     55.4665     19.2659     61.2027      2.1798      0.0378    134.3457  
   780.0000    -81.6256      5.0030      6.9675      6.2935     55.4782     19.2758     62.0522      2.1748      0.0416    135.1688  
   780.5000    -81.0741      4.7822      6.6583      6.0077     55.8739     19.3160     64.5037      2.1958      0.0491    136.1548  
   781.0000    -80.7365      4.5373      6.3629      5.7467     57.1766     19.4180     65.5872      2.1968      0.0550    137.4405  
   781.5000    -80.3777      4.3568      6.0805      5.5190     57.6136     19.4534     66.1558      2.1730      0.0541    138.4824  
   782.0000    -80.0189      4.1581      5.8107      5.3003     56.5028     19.4739     67.1618      2.1685      0.0563    139.3425  
   782.5000    -79.7786      3.9604      5.6071      5.0903     56.0370     19.4917     69.3014      2.1630      0.0602    139.1847  
   783.0000    -79.5263      3.9109      5.4169      4.9213     54.6074     19.5123     69.9627      2.1609      0.0590    139.7750  
   783.5000    -79.2473      3.9196      5.2696      4.8602     55.6228     19.4924     69.2427      2.1508      0.0529    141.5374  
   784.0000    -78.9351      3.9780      5.2007      4.8074     56.6880     19.4839     66.8836      2.1370      0.0467    142.6306  
   784.5000    -78.6289      4.0922      5.1327      4.7553     58.6459     19.4942     65.2988      2.1391      0.0435    144.5639  
   785.0000    -78.3921      4.0798      5.0656      4.7099     59.8616     19.5024     65.7399      2.1675      0.0527    146.2664  
   785.5000    -78.2103      4.0171      5.0043      4.6894     59.4020     19.4895     66.8190      2.1734      0.0620    147.6756  
   786.0000    -77.9894      3.8432      4.9706      4.6689     56.2867     19.4681     67.1202      2.1790      0.0713    148.8033  
   786.5000    -77.7455      3.7241      4.9373      4.6486     51.8371     19.4533     66.7710      2.1731      0.0776    147.0518  
   787.0000    -77.3805      3.7711      4.9041      4.6454     49.2499     19.4417     66.0070      2.1607      0.0686    145.5262  
   787.5000    -77.0611      3.8228      4.8772      4.6474     48.4704     19.4584     66.4338      2.1545      0.0668    144.3850  
   788.0000    -76.6006      3.8254      4.8709      4.6495     50.2307     19.5392     65.6261      2.1669      0.0782    144.4483  
   788.5000    -76.0807      3.8134      4.8647      4.6515     53.4224     19.4219     65.3614      2.1782      0.0978    145.2291  
   789.0000    -75.8562      3.8698      4.8584      4.6535     52.7874     19.3519     67.8591      2.1908      0.1034    145.7025  
   789.5000    -75.3746      3.9278      4.8522      4.6546     52.1774     19.3249     70.4795      2.1783      0.0860    146.0991  
   790.0000    -74.8951      3.9457      4.8460      4.6486     52.3844     19.2979     70.2323      2.1732      0.0692    145.9274  
   790.5000    -74.5002      3.9215      4.8610      4.6622     52.3289     19.2764     69.8406      2.1814      0.0726    144.9399  
   791.0000    -74.3043      3.9066      4.8806      4.6810     53.0476     19.3767     69.5017      2.1976      0.0817    142.7639  
   791.5000    -74.1116      3.9791      4.9003      4.6999     53.7997     19.1248     69.3223      2.1811      0.0720    140.6289  
   792.0000    -73.7786      4.0092      4.9201      4.7188     54.4585     19.0841     68.0959      2.1943      0.0846    138.7661  
   792.5000    -73.3985      3.8764      4.9399      4.7379     53.9070     19.0899     66.9465      2.2026      0.1037    137.8284  
   793.0000    -73.0566      3.7319      4.9598      4.7570     53.6235     19.1770     66.2185      2.2075      0.1228    137.6275  
   793.5000    -72.6485      3.8676      4.9697      4.7671     53.2757     19.4453     64.8254      2.2009      0.0991    134.9692  
   794.0000    -72.3984      4.1394      4.9794      4.7765     51.8573     19.3998     64.6800      2.1975      0.0972    133.1473  
   794.5000    -72.2767      4.3094      4.9851      4.7818     50.5153     19.2970     64.9804      2.2340      0.1196    136.1991  
   795.0000    -72.0263      4.2210      4.9657      4.7605     51.1165     19.3099     64.7957      2.2375      0.0989    135.7659  
   795.5000    -71.8202      4.1358      4.9246      4.7211     52.8843     19.2450     64.3047      2.1921      0.0623    135.1395  
   796.0000    -71.6040      4.0436      4.8866      4.6855     55.5686     19.3089     64.8214      2.2133      0.0861    132.9755  
   796.5000    -71.3172      3.9527      4.8518      4.6521     56.3251     19.4161     65.8220      2.2226      0.0967    127.6293  
   797.0000    -71.0079      3.8622      4.8172      4.6190     54.9735     19.3823     66.0848      2.2329      0.1230    127.6176  
   797.5000    -70.6987      3.7968      4.7860      4.5902     52.5071     19.3559     65.4735      2.1959      0.0931    129.4832  
   798.0000    -70.4645      3.7923      4.7622      4.5674     51.5835     19.2809     64.8417      2.1907      0.0725    130.8342  
   798.5000    -69.9642      3.8188      4.7303      4.5351     52.4313     19.2685     63.7926      2.1988      0.0739    133.5693  
   799.0000    -69.5737      3.8918      4.6929      4.4993     52.8594     19.2834     63.2471      2.1968      0.0756    135.6533  
   799.5000    -69.3177      3.9280      4.6584      4.4687     53.4857     19.3813     63.4919      2.1908      0.0805    138.1374  
   800.0000    -69.0321      3.8838      4.6506      4.4612     54.7503     19.5454     63.9248      2.1961      0.1005    141.5269  
   800.5000    -68.7527      3.8289      4.6428      4.4537     56.8149     19.6309     64.5918      2.1845      0.1119    140.4872  
   801.0000    -68.5051      3.8223      4.6350      4.4462     58.4181     19.5656     65.3849      2.1747      0.1053    140.0608  
   801.5000    -68.1353      3.8359      4.6272      4.4388     58.1330     19.4960     65.1846      2.1986      0.1242    139.1333  
