~VERSION INFORMATION
 VERS.                           2.00:        CWLS LOG ASCII STANDARD - VERSION 2.00
 WRAP.                             NO:        ONE LINE PER DEPTH STEP
~WELL INFORMATION
#MNEM.UNIT                   DATA             INFORMATION
#----------             --------------        ------------------------------
 STRT.F                       94.0000:        START DEPTH
 STOP.F                    11429.0000:        STOP DEPTH
 STEP.F                        0.5000:        STEP VALUE
 NULL.                      -999.2500:        NULL VALUE
 COMP. U.S. NAVY (HUSKY OIL CO.-OPER.:        COMPANY
 LOC .                      11 11N 1W:        LOCATION
 DATE.                        2/17/77:        LOG DATE
 WELL.             WEST FISH CREEK #1:        WELL
 UWI .                   500232001400:        UNIQUE WELL ID
 API .                   500232001400:        UNIQUE WELL IDENTIFIER
 FLD .                        WILDCAT:        FIELD
 CNTY.                    NORTH SLOPE:        COUNTY
 STAT.                         ALASKA:        STATE
 CTRY.                            USA:        COUNTRY
 OPER. U.S. NAVY (HUSKY OIL CO.-OPER.:        OPERATOR
 SRVC.                   SCHLUMBERGER:        SERVICE COMPANY
 LAT .                         0.0000:        LATITUDE
 LON .                         0.0000:        LONGITUDE
 DIGS.               CENTER LINE DATA:        DIGITIZING COMPANY
~CURVE INFORMATION      
#MNEM        .UNIT         API CODE           CURVE DESCRIPTION
#-----------------      --------------        ------------------------------
 DEPT        .F                      :        1  DEPTH
 SP          .MV                     :        2  
 ILD         .OHMM                   :        3  
 ILM         .OHMM                   :        4  
 LL8         .OHMM                   :        5  
 CALI        .IN                     :        6  
 RHOB        .G/C3                   :        7  
 DRHO        .G/C3                   :        8  
 NPHI        .%                      :        9  
 GR          .GAPI                   :        10 
 DT          .US/F                   :        11 
~PARAMETER INFORMATION
#MNEM.UNIT                  VALUE             DESCRIPTION OF MNEMONIC
#---------             ---------------        ------------------------------
 EKB .F                      113.0000:        KELLY BUSHING
 TD  .F                    11429.0000:        TOTAL DEPTH
~OTHER INFORMATION
~A    DEPTH          SP         ILD         ILM         LL8        CALI        RHOB        DRHO        NPHI          GR          DT 
# ...
  5004.5000    -13.3462      4.4599      4.0401      4.2515     18.2807      2.5329      0.0717     33.0935     52.5040     98.5786 
  5005.0000    -13.2169      4.4497      4.0312      4.2175     18.3422      2.5320      0.0662     34.3954     52.1059     94.6023 
  5005.5000    -13.3429      4.4119      4.0224      4.1796     18.3519      2.5119      0.0563     35.4102     52.3744     95.6497 
  5006.0000    -13.5695      4.3662      3.9937      4.1422     18.3488      2.5013      0.0434     33.6981     52.6077     98.3949 
  5006.5000    -13.6978      4.3581      3.9521      4.1050     18.3457      2.4970      0.0470     33.1873     51.5169     99.3347 
  5007.0000    -13.7873      4.3220      3.8756      4.0682     18.3427      2.4922      0.0506     33.1157     50.4826     97.3405 
  5007.5000    -13.8313      4.2866      3.8016      4.0318     18.3415      2.4767      0.0485     32.9572     49.5465     96.2549 
  5008.0000    -13.7849      4.2515      3.7726      3.9909     18.3415      2.4739      0.0391     32.1407     48.6670     97.5897 
  5008.5000    -13.8003      4.2167      3.7438      3.9492     18.3415      2.4750      0.0308     32.4149     48.4957     99.9557 
  5009.0000    -13.8515      4.1822      3.7152      3.9080     18.3415      2.4719      0.0225     33.6982     47.1915    101.1923 
  5009.5000    -13.8737      4.1696      3.6868      3.8671     18.3415      2.4660      0.0203     34.6901     45.2964    101.7981 
  5010.0000    -13.9731      4.1772      3.6638      3.8501     18.3374      2.4939      0.0403     35.0868     44.1087     99.1439 
  5010.5000    -14.0492      4.1848      3.6444      3.8420     18.3310      2.5242      0.0670     34.1600     46.2684     98.2218 
  5011.0000    -13.9946      4.1925      3.6250      3.8382     18.3246      2.5249      0.0785     33.9970     47.8684    101.8879 
  5011.5000    -14.0195      4.2001      3.6058      3.8356     18.3183      2.5053      0.0664     33.4505     49.6275    102.6739 
  5012.0000    -14.0366      4.2078      3.6010      3.8136     18.3043      2.4849      0.0596     33.5528     51.0746     99.9214 
  5012.5000    -14.0988      4.2155      3.5971      3.7918     18.2854      2.4653      0.0531     34.0285     51.9317    101.3151 
  5013.0000    -14.3441      4.2268      3.5936      3.7700     18.2665      2.4467      0.0478     34.5042     52.0242    101.4123 
  5013.5000    -14.6945      4.2435      3.5936      3.7509     18.2644      2.4484      0.0440     34.9798     51.7499    103.4031 
  5014.0000    -15.0471      4.2604      3.6069      3.7665     18.2671      2.4628      0.0533     34.2602     51.1060    106.1010 
  5014.5000    -15.2527      4.2773      3.6223      3.7821     18.2754      2.4885      0.0793     33.5289     50.5587    105.6907 
  5015.0000    -15.2354      4.2942      3.6641      3.8064     18.2836      2.4945      0.0893     33.0997     50.5102    103.1740 
  5015.5000    -15.2085      4.3113      3.7099      3.8476     18.2919      2.4738      0.0608     33.3206     50.4766    101.7912 
  5016.0000    -15.1046      4.3284      3.7357      3.8894     18.3002      2.4756      0.0510     32.7380     50.4286    101.9743 
  5016.5000    -15.0428      4.3456      3.7576      3.9284     18.3016      2.5015      0.0511     33.0494     50.4674    104.4220 
  5017.0000    -14.9498      4.3628      3.7797      3.9676     18.2995      2.5198      0.0550     33.3607     51.4231    106.2696 
  5017.5000    -14.7978      4.3801      3.8019      3.9834     18.2975      2.5169      0.0596     33.0195     52.8864    106.5198 
  5018.0000    -14.6001      4.3943      3.8581      3.9992     18.2955      2.5126      0.0644     32.4000     52.5659    106.2651 
  5018.5000    -14.3688      4.4057      3.9463      4.0151     18.2935      2.5253      0.0758     32.7661     51.7315    105.0007 
  5019.0000    -14.3117      4.4172      3.9620      4.0310     18.2915      2.5537      0.0899     33.4014     51.2101    102.2648 
  5019.5000    -14.2753      4.4288      3.9610      4.0298     18.2902      2.5240      0.0814     34.4522     51.0965    101.6161 
  5020.0000    -14.2614      4.4403      3.9535      4.0221     18.2905      2.5054      0.0746     34.7066     51.2007     98.1965 
  5020.5000    -14.2577      4.4375      3.9459      4.0145     18.2911      2.4893      0.0853     33.8295     51.3201     95.1644 
  5021.0000    -14.1569      4.4230      3.9334      4.0018     18.2921      2.4903      0.0711     34.0985     51.6681     94.8004 
  5021.5000    -14.1252      4.4084      3.9195      3.9877     18.2852      2.5041      0.0736     34.4081     51.6402     93.0286 
  5022.0000    -14.0464      4.3940      3.9028      3.9710     18.2601      2.5199      0.0820     33.5164     50.9731     94.9846 
  5022.5000    -13.9157      4.3881      3.8821      3.9500     18.2350      2.5165      0.0815     33.1754     49.5705     99.9066 
  5023.0000    -13.8748      4.3881      3.8780      3.9453     18.2236      2.5057      0.0676     32.7833     48.2803    100.2894 
  5023.5000    -13.8338      4.3954      3.9001      3.9691     18.2970      2.5043      0.0602     31.4063     48.1040    101.0025 
  5024.0000    -13.9268      4.4178      3.9278      4.0048     18.3908      2.5007      0.0552     30.4561     48.9314    105.3285 
  5024.5000    -13.9375      4.4402      3.9132      4.0373     18.3625      2.5051      0.0510     30.2613     50.2262    103.6307 
  5025.0000    -14.0559      4.4614      3.8985      4.0558     18.3342      2.5127      0.0589     30.7748     51.0715    102.6556 
  5025.5000    -14.2154      4.4827      3.8840      4.0744     18.3049      2.5029      0.0673     30.5910     50.7399    101.8577 
  5026.0000    -14.2753      4.4929      3.8695      4.0931     18.2859      2.4915      0.0618     30.6444     50.4493    100.4569 
  5026.5000    -14.3150      4.4908      3.8550      4.0819     18.2803      2.5185      0.0673     31.0001     49.4286     98.5117 
  5027.0000    -14.2865      4.4612      3.8365      4.0531     18.2938      2.5209      0.0729     31.3283     48.9677     98.2725 
  5027.5000    -14.2692      4.4085      3.7803      4.0008     18.3107      2.5070      0.0591     32.2096     48.7963     96.9201 
  5028.0000    -14.1462      4.3564      3.7249      3.9481     18.3206      2.4848      0.0460     33.1160     49.1567     96.7746 
  5028.5000    -14.0116      4.3050      3.6809      3.8951     18.3305      2.5059      0.0553     33.1740     50.2790     96.9029 
  5029.0000    -13.9050      4.2541      3.6587      3.8413     18.3404      2.5326      0.0735     32.5098     51.0115     98.7936 
  5029.5000    -13.8720      4.2086      3.6366      3.7930     18.3503      2.5305      0.0723     31.8251     51.8575     99.5721 
  5030.0000    -13.8365      4.2207      3.6409      3.7835     18.3602      2.5072      0.0553     31.1403     52.1849    100.4629 
  5030.5000    -13.8276      4.2329      3.6515      3.7741     18.3501      2.5245      0.0539     31.2711     51.9449    100.6207 
  5031.0000    -13.8691      4.2451      3.6626      3.7852     18.3353      2.5291      0.0578     31.4583     51.8044    100.6374 
  5031.5000    -13.8809      4.2573      3.6986      3.8082     18.3206      2.5116      0.0633     31.4441     52.2703     99.2290 
  5032.0000    -13.8375      4.2696      3.7351      3.8314     18.3058      2.5130      0.0697     31.3336     52.2719     96.7019 
  5032.5000    -13.8438      4.2818      3.7718      3.8560     18.2911      2.5250      0.0762     31.6806     50.6227     99.2274 
  5033.0000    -13.9667      4.2942      3.8090      3.8810     18.2820      2.5171      0.0780     32.0139     49.4207     99.2635 
  5033.5000    -14.1012      4.3065      3.8323      3.8991     18.2770      2.5094      0.0770     32.2471     48.1830     99.5720 
  5034.0000    -14.3396      4.3189      3.8463      3.9132     18.2721      2.4961      0.0655     32.4803     46.5496    103.5168 
  5034.5000    -14.5240      4.3367      3.8238      3.8911     18.2676      2.4721      0.0447     32.4322     45.5338    100.5968 
