~VERSION INFORMATION
 VERS.                           2.00:        CWLS LOG ASCII STANDARD - VERSION 2.00
 WRAP.                             NO:        ONE LINE PER DEPTH STEP
~WELL INFORMATION
#MNEM.UNIT                   DATA             INFORMATION
#----------             --------------        ------------------------------
 STRT.F                       94.0000:        START DEPTH
 STOP.F                    11429.0000:        STOP DEPTH
 STEP.F                        0.5000:        STEP VALUE
 NULL.                      -999.2500:        NULL VALUE
 COMP. U.S. NAVY (HUSKY OIL CO.-OPER.:        COMPANY
 LOC .                      11 11N 1W:        LOCATION
 DATE.                        2/17/77:        LOG DATE
 WELL.             WEST FISH CREEK #1:        WELL
 UWI .                   500232001400:        UNIQUE WELL ID
 API .                   500232001400:        UNIQUE WELL IDENTIFIER
 FLD .                        WILDCAT:        FIELD
 CNTY.                    NORTH SLOPE:        COUNTY
 STAT.                         ALASKA:        STATE
 CTRY.                            USA:        COUNTRY
 OPER. U.S. NAVY (HUSKY OIL CO.-OPER.:        OPERATOR
 SRVC.                   SCHLUMBERGER:        SERVICE COMPANY
 LAT .                         0.0000:        LATITUDE
 LON .                         0.0000:        LONGITUDE
 DIGS.               CENTER LINE DATA:        DIGITIZING COMPANY
~CURVE INFORMATION      
#MNEM        .UNIT         API CODE           CURVE DESCRIPTION
#-----------------      --------------        ------------------------------
 DEPT        .F                      :        1  DEPTH
 SP          .MV                     :        2  
 ILD         .OHMM                   :        3  
 ILM         .OHMM                   :        4  
 LL8         .OHMM                   :        5  
 CALI        .IN                     :        6  
 RHOB        .G/C3                   :        7  
 DRHO        .G/C3                   :        8  
 NPHI        .%                      :        9  
 GR          .GAPI                   :        10 
 DT          .US/F                   :        11 
~PARAMETER INFORMATION
#MNEM.UNIT                  VALUE             DESCRIPTION OF MNEMONIC
#---------             ---------------        ------------------------------
 EKB .F                      113.0000:        KELLY BUSHING
 TD  .F                    11429.0000:        TOTAL DEPTH
~OTHER INFORMATION
~A    DEPTH          SP         ILD         ILM         LL8        CALI        RHOB        DRHO        NPHI          GR          DT 
# ...
  7109.0000    -19.4453      4.4808      3.9333      4.3471     17.2430      2.3245      0.1438     37.3672     48.7297     86.6715 
  7109.5000    -19.3433      4.4621      3.8875      4.3381     16.7682      2.2942      0.1141     36.7573     50.5834     89.5359 
  7110.0000    -19.1898      4.4375      3.9408      4.3689     16.4871      2.3137      0.0732     36.0286     52.5567     90.5127 
  7110.5000    -19.2961      4.4120      3.9949      4.4645     15.9295      2.3567      0.0944     35.2798     55.0903     89.1050 
  7111.0000    -19.3850      4.3922      4.0525      4.5890     16.3155      2.3131      0.1108     35.4277     56.9262     90.0990 
  7111.5000    -19.4721      4.4055      4.1300      4.7169     16.1734      2.2806      0.1172     36.1720     58.0845     90.4121 
  7112.0000    -19.5032      4.4424      4.2072      4.8484     15.8918      2.2426      0.0662     37.3757     58.4946     91.3466 
  7112.5000    -19.5110      4.5026      4.1986      4.9836     16.6444      2.2993      0.0950     37.8183     58.5930     92.3239 
  7113.0000    -19.5110      4.5738      4.2559      5.1225     16.9824      2.3148      0.0985     37.6901     58.6973     91.8221 
  7113.5000    -19.4462      4.6461      4.3331      5.2653     16.6278      2.3048      0.0577     37.6668     58.8837     90.7090 
  7114.0000    -19.4337      4.7055      4.3885      5.4121     15.9983      2.3668      0.0274     38.7079     58.8952     90.0686 
  7114.5000    -19.4370      4.7352      4.3746      5.5630     15.6640      2.3514      0.0562     38.9582     58.7203     89.6112 
  7115.0000    -19.4295      4.7189      4.2601      5.5592     16.0100      2.3070      0.0958     39.0598     58.5927     88.7682 
  7115.5000    -19.4636      4.7027      4.1144      5.4175     16.5618      2.2688      0.1471     38.2185     58.6695     88.1727 
  7116.0000    -19.2211      4.6866      4.0867      5.2794     16.8172      2.2782      0.1496     36.6711     57.8145     88.4836 
  7116.5000    -19.2999      4.6705      4.1913      5.1448     16.4941      2.3001      0.1543     36.1933     55.9959     88.8932 
  7117.0000    -19.3702      4.6544      4.2985      5.0237     16.2502      2.2998      0.1548     35.8218     54.9636     90.1848 
  7117.5000    -19.4144      4.6260      4.3520      5.1060     17.4545      2.3038      0.1296     35.7355     53.8335     90.3027 
  7118.0000    -19.4147      4.5973      4.2865      5.1896     17.3084      2.3475      0.1592     36.9572     54.5293     90.2081 
  7118.5000    -19.4020      4.5733      4.1891      5.1537     16.4953      2.3457      0.1595     37.9045     56.1538     89.6463 
  7119.0000    -19.3892      4.5682      4.1786      5.1135     16.0421      2.3790      0.1123     37.9333     56.5084     87.9260 
  7119.5000    -19.3447      4.5682      4.3018      5.0924     15.6304      2.4376      0.0813     35.8794     56.1160     89.2112 
  7120.0000    -19.0935      4.6118      4.4286      5.2947     15.8125      2.4153      0.0750     34.4360     55.1661     89.0639 
  7120.5000    -19.3605      4.6896      4.5436      5.5049     15.4732      2.3648      0.0897     33.6715     53.1612     87.5683 
  7121.0000    -19.5397      4.7809      4.5054      5.5779     15.8730      2.3578      0.1114     33.3754     50.4640     86.4082 
  7121.5000    -19.7084      4.8741      4.4845      5.4353     16.2939      2.3577      0.1359     33.2562     49.2785     84.7436 
  7122.0000    -19.8771      4.9602      4.6462      5.2963     16.7073      2.3477      0.1481     33.8070     50.2822     83.5757 
  7122.5000    -20.0458      4.9803      4.8136      5.1860     17.0782      2.3408      0.1213     34.3578     51.2828     84.8939 
  7123.0000    -20.1084      4.9859      4.8097      5.1578     16.8992      2.3659      0.1185     35.0956     52.1515     85.4018 
  7123.5000    -19.8440      4.9621      4.7652      5.1298     16.3753      2.3880      0.0920     34.3625     53.1053     85.5818 
  7124.0000    -19.6969      4.9212      4.6799      5.1020     17.1589      2.4390      0.0640     32.9680     53.9259     86.3936 
  7124.5000    -19.6460      4.8852      4.5775      5.0742     17.0326      2.4737      0.0679     31.6919     54.6063     85.0478 
  7125.0000    -19.5950      4.8495      4.4875      5.0467     16.6497      2.5077      0.0557     30.8200     54.7706     85.1353 
  7125.5000    -19.6184      4.8633      4.4650      5.0437     16.8391      2.5179      0.0611     31.1525     54.1070     86.2434 
  7126.0000    -19.6876      4.9405      4.4427      5.1305     17.0178      2.5056      0.0541     31.3198     52.9197     86.4561 
  7126.5000    -19.7513      5.0415      4.6062      5.2188     16.7079      2.5183      0.0587     31.5734     52.2141     85.8373 
  7127.0000    -19.8087      5.1269      4.8016      5.3086     16.3980      2.5264      0.0701     31.7428     51.6101     84.9059 
  7127.5000    -19.8661      5.1888      4.9987      5.4000     16.3122      2.5092      0.0691     32.2561     50.7766     83.8564 
  7128.0000    -19.9235      5.2394      4.9929      5.4154     16.2832      2.5029      0.0687     32.5846     50.4065     82.6839 
  7128.5000    -19.9810      5.2173      4.9871      5.3247     16.2470      2.5082      0.0624     32.8857     50.1610     83.4472 
  7129.0000    -20.0384      5.1285      4.9341      5.2356     16.1921      2.5288      0.0681     33.2950     50.2705     82.9523 
  7129.5000    -20.0958      5.0201      4.8511      5.1480     16.1438      2.5366      0.0768     33.4206     50.6939     82.8710 
  7130.0000    -20.1532      4.9140      4.7695      5.0619     16.1410      2.5423      0.0976     33.1822     52.0361     83.2251 
  7130.5000    -20.2106      4.8102      4.6892      4.9772     16.3782      2.5108      0.0974     33.0381     53.6744     83.5906 
  7131.0000    -20.2680      4.7287      4.6103      4.8939     16.6711      2.4825      0.1153     33.2274     53.9488     83.5966 
  7131.5000    -20.3245      4.6656      4.5449      4.8580     16.8141      2.4678      0.1304     33.8199     53.6516     83.6456 
  7132.0000    -20.3645      4.6035      4.4838      4.8277     16.6268      2.4487      0.1472     34.7808     53.1175     84.5954 
  7132.5000    -20.4044      4.5473      4.4236      4.7977     16.8063      2.4084      0.1129     35.2159     52.7565     86.2869 
  7133.0000    -20.4444      4.4965      4.3641      4.7678     16.6522      2.4627      0.1219     35.2432     52.9241     85.8886 
  7133.5000    -20.4390      4.4553      4.3055      4.7380     16.1254      2.4837      0.1100     35.5353     52.3992     86.8753 
  7134.0000    -20.3324      4.4540      4.2882      4.7085     16.2789      2.4772      0.1071     34.5247     51.1845     86.4592 
  7134.5000    -20.1290      4.4858      4.2924      4.7005     16.3335      2.4705      0.1128     33.4653     50.1233     85.5730 
  7135.0000    -19.9832      4.5517      4.2966      4.7757     16.4485      2.4829      0.1352     33.3275     49.7563     85.3860 
  7135.5000    -19.9033      4.6545      4.3995      4.8521     15.9128      2.4424      0.1134     33.7138     50.1356     85.3249 
  7136.0000    -19.7979      4.7596      4.5354      4.9297     16.3326      2.4412      0.0892     34.1179     51.9982     85.1033 
  7136.5000    -19.7250      4.8670      4.6756      5.0086     16.9538      2.4763      0.1233     34.7275     51.2495     85.1048 
  7137.0000    -19.7250      4.9020      4.7873      5.0887     17.1292      2.4634      0.1394     35.3370     50.1734     84.8622 
  7137.5000    -19.7250      4.9075      4.7210      5.1701     16.8134      2.4121      0.1257     35.8938     48.5353     83.8221 
  7138.0000    -19.9412      4.9093      4.6555      5.2338     16.5553      2.3983      0.1207     35.4937     46.6864     83.4348 
  7138.5000    -20.1765      4.8949      4.5910      5.1120     16.2118      2.3887      0.1244     35.0433     45.5446     82.9726 
  7139.0000    -20.2684      4.8628      4.5319      4.9930     16.6404      2.4251      0.1040     34.6900     44.8834     83.3225 
