~VERSION INFORMATION
 VERS.                      2.00:        CWLS LOG ASCII STANDARD - VERSION 2.00
 WRAP.                        NO:        ONE LINE PER DEPTH STEP
~WELL INFORMATION
#MNEM.UNIT               DATA            INFORMATION
#----------          ------------        ------------------------------
 STRT.F                  40.0000:        START DEPTH
 STOP.F                9893.0000:        STOP DEPTH
 STEP.F                   0.5000:        STEP VALUE
 NULL.                 -999.2500:        NULL VALUE
 COMP.                 U.S. NAVY:        COMPANY  
 WELL.    CAPE HALKETT #16N-2W-1:        WELL     
 FLD .                   WILDCAT:        FIELD    
 LOC .               5  16N   2W:        LOCATION   
 CNTY.               NORTH SLOPE:        COUNTY  
 STAT.                    ALASKA:        STATE   
 CTRY.                       USA:        COUNTRY 
 DATE.                    4/9/75:        LOG DATE 
 API .              500000000000:        UNIQUE WELL IDENTIFIER 
 OPER.                 U.S. NAVY:        OPERATOR  
 SRVC.              Schlumberger:        SERVICE COMPANY 
 UWI .              500000000000:        UNIQUE WELL ID 
 LAT .                    0.0000:        LATITUDE
 LON .                    0.0000:        LONGITUDE
 DIGS.          Center Line Data:        DIGITIZING COMPANY 
~CURVE INFORMATION      
#MNEM.UNIT            API CODE           CURVE DESCRIPTION
#---------          -------------        ------------------------------
 DEPT.F                         :        1  DEPTH
 SP  .MV                        :        2
 ILD .OHMM                      :        3
 ILM .OHMM                      :        4
 LL8 .OHMM                      :        5
 CALI.IN                        :        6
 GR  .GAPI                      :        7
 DRHO.G/C3                      :        8
 RHOB.G/C3                      :        9
 NPHI.%                         :       10
 DPHI.%                         :       11
 DT  .US/F                      :       12
~PARAMETER INFORMATION       
#MNEM.UNIT              VALUE            DESCRIPTION OF MNEMONIC
#---------          -------------        ------------------------------
 EKB .F                  39.5000:        KELLY BUSHING
 TD  .F                7867.0000:        TOTAL DEPTH
 BHT .F                  60.0000:        BOTTOM HOLE TEMPERATURE
 BS  .                   18.5000:        BIT SIZE
 FD  .                   10.5000:        FLUID DENSITY
 CSIZ.                   20.0000:        CASING SIZE
 CBD .F                 492.0000:        CASING DRILLER 1
 CBL .F                 493.0000:        CASING LOGGER 1
 DFT .             Miscellaneous:        TYPE FLUID IN HOLE
 DFV .                  200.0000:        VISCOSITY
 DFPH.                   10.0000:        PH
 DFL .                    9.2000:        FLUID LOSS
 RMS .                    2.1500:        RM
 MST .F                  57.0000:        RM MEAS. TEMP.
 RMF .                    2.2000:        RMF
 MFST.F                  40.0000:        RMF MEAS. TEMP.
 RMC .                    0.0000:        RMC
 MCST.F                   0.0000:        RMC MEAS. TEMP.
 UWI .              500000000000:        UNIQUE WELL ID
~OTHER INFORMATION
~A    DEPTH          SP         ILD         ILM         LL8        CALI          GR        DRHO        RHOB        NPHI        DPHI          DT  
# ...
  4880.0000    -20.8088      4.3601      4.4546      5.0878     15.9949    103.0795      0.1603      2.5296     36.5402   -999.2500    105.4491  
  4880.5000    -20.9495      4.3599      4.4537      5.0740     15.9950    103.8657      0.1511      2.5201     35.9472   -999.2500    105.7256  
  4881.0000    -20.8846      4.3598      4.4527      5.0882     15.9950    104.1853      0.1551      2.5139     35.7313   -999.2500    106.6119  
  4881.5000    -20.7822      4.3596      4.4518      5.1053     15.9950    104.8848      0.1419      2.4940     35.8626   -999.2500    106.0277  
  4882.0000    -20.8325      4.3595      4.4509      5.0990     15.9950    106.0437      0.1366      2.5070     35.9917   -999.2500    104.6202  
  4882.5000    -20.8323      4.3593      4.4499      5.0824     15.9951    103.7966      0.1520      2.5217     36.3343   -999.2500    105.1536  
  4883.0000    -20.8073      4.3591      4.4490      5.0875     15.9951    101.6954      0.1553      2.5253     37.6624   -999.2500    104.9252  
  4883.5000    -20.9444      4.3590      4.4481      5.1211     15.9951    100.2083      0.1558      2.5250     38.6059   -999.2500    104.8798  
  4884.0000    -20.9506      4.3588      4.4471      5.1505     15.9952     99.7350      0.1602      2.5240     38.9689   -999.2500    105.4340  
  4884.5000    -20.7035      4.3587      4.4462      5.1488     15.9952     99.8102      0.1543      2.5222     39.0008   -999.2500    106.1427  
  4885.0000    -20.7379      4.3585      4.4453      5.1159     15.9952    100.1123      0.1517      2.5141     38.2642   -999.2500    105.8110  
  4885.5000    -20.8507      4.3584      4.4443      5.0833     15.9953     99.7754      0.1500      2.5070     37.2562   -999.2500    104.6734  
  4886.0000    -20.7596      4.3582      4.4434      5.0530     15.9953     99.0924      0.1422      2.5058     35.2900   -999.2500    104.3461  
  4886.5000    -20.5962      4.3580      4.4425      5.0359     15.9953     98.5518      0.1324      2.5106     35.9779   -999.2500    104.6592  
  4887.0000    -20.5019      4.3579      4.4415      5.0348     15.9954     98.5598      0.1250      2.5169     37.1887   -999.2500    104.9724  
  4887.5000    -20.5965      4.3577      4.4406      5.0337     15.9954     98.7187      0.1422      2.5343     37.0857   -999.2500    105.1172  
  4888.0000    -20.6257      4.3576      4.4397      5.0591     15.9954     99.7102      0.1414      2.5327     36.8944   -999.2500    104.9231  
  4888.5000    -20.5433      4.3574      4.4387      5.0785     15.9955    101.5558      0.1221      2.5139     36.8220   -999.2500    104.7935  
  4889.0000    -20.5399      4.3573      4.4378      5.0567     15.9955    101.3621      0.1176      2.5107     36.8012   -999.2500    105.0279  
  4889.5000    -20.5365      4.3576      4.4369      5.0695     15.9955    100.8990      0.1176      2.5117     36.6674   -999.2500    105.4136  
  4890.0000    -20.5935      4.3643      4.4359      5.1041     15.9956    100.7587      0.1069      2.4984     36.2493   -999.2500    105.7592  
  4890.5000    -20.5681      4.3710      4.4350      5.1016     15.9956    100.3109      0.0889      2.4740     35.9237   -999.2500    105.4916  
  4891.0000    -20.6724      4.3778      4.4341      5.0538     15.9956     99.3668      0.0840      2.4595     35.9422   -999.2500    105.1270  
  4891.5000    -20.8450      4.3845      4.4331      5.0426     15.9957     98.5590      0.0862      2.4614     36.3607   -999.2500    105.1534  
  4892.0000    -21.0574      4.3913      4.4322      5.0437     15.9957     97.9356      0.1192      2.4787     36.9794   -999.2500    104.9553  
  4892.5000    -21.0873      4.3981      4.4313      5.0381     15.9957     97.7673      0.1423      2.5025     37.2906   -999.2500    104.8596  
  4893.0000    -20.9691      4.4049      4.4304      5.0632     15.9958     98.0586      0.1381      2.4921     36.9341   -999.2500    105.2106  
  4893.5000    -20.9394      4.4117      4.4297      5.0919     15.9958     98.4516      0.1421      2.4949     36.2547   -999.2500    106.2299  
  4894.0000    -20.8248      4.4185      4.4303      5.0799     15.9958     99.9729      0.1542      2.5042     35.9748   -999.2500    105.1823  
  4894.5000    -20.5630      4.4253      4.4309      5.0760     15.9958    101.7404      0.1578      2.5123     35.9849   -999.2500    104.3488  
  4895.0000    -20.5924      4.4321      4.4315      5.1206     15.9959    101.9229      0.1481      2.5104     36.1713   -999.2500    104.1442  
  4895.5000    -20.7167      4.4390      4.4322      5.1049     15.9959    101.9483      0.1375      2.5028     36.1593   -999.2500    104.1316  
  4896.0000    -20.7330      4.4458      4.4328      5.1121     15.9959    102.5268      0.1285      2.4905     35.5074   -999.2500    105.7486  
  4896.5000    -20.5610      4.4484      4.4334      5.1169     15.9960    104.0690      0.1249      2.4776     35.7232   -999.2500    107.1918  
  4897.0000    -20.4001      4.4170      4.4340      5.0784     15.9960    104.3291      0.1329      2.4894     36.1464   -999.2500    106.9525  
  4897.5000    -20.2391      4.3862      4.4347      5.0401     15.9960    104.2966      0.1232      2.4813     36.4386   -999.2500    105.3858  
  4898.0000    -20.1614      4.3625      4.4353      5.0021     15.9961    103.6670      0.1146      2.4715     36.3511   -999.2500    104.6433  
  4898.5000    -20.1652      4.3390      4.4359      4.9644     15.9961    102.3664      0.0901      2.4589     35.8795   -999.2500    103.8591  
  4899.0000    -20.1565      4.3231      4.4365      4.9525     15.9961    101.0783      0.0963      2.4580     35.7091   -999.2500    103.3811  
  4899.5000    -20.1123      4.3225      4.4372      4.9525     15.9962    100.8237      0.1038      2.4648     35.5757   -999.2500    105.2828  
  4900.0000    -19.8798      4.3220      4.4378      5.0265     15.9962    101.0120      0.0991      2.4615     35.5036   -999.2500    105.7904  
  4900.5000    -20.3475      4.3242      4.4384      5.1246     15.9962    101.2322      0.0976      2.4574     36.5283   -999.2500    105.6463  
  4901.0000    -20.4860      4.3427      4.4390      5.1645     15.9963    101.5730      0.1139      2.4780     37.2796   -999.2500    105.2547  
  4901.5000    -20.6708      4.3613      4.4397      5.0719     15.9963    101.9218      0.1366      2.5107     37.7314   -999.2500    104.2371  
  4902.0000    -20.8054      4.3800      4.4403      5.0896     15.9963    101.5928      0.1652      2.5326     37.7332   -999.2500    103.5401  
  4902.5000    -20.8593      4.3987      4.4409      5.0976     15.9964    100.7879      0.1746      2.5341     36.8919   -999.2500    104.0004  
  4903.0000    -20.7837      4.4175      4.4415      5.1285     15.9964    100.7363      0.1516      2.5079     36.1244   -999.2500    105.3130  
  4903.5000    -20.8810      4.4364      4.4422      5.1942     15.9964    100.7486      0.1389      2.4957     34.5629   -999.2500    106.1502  
  4904.0000    -20.9636      4.4424      4.4428      5.1717     15.9965     99.9245      0.1312      2.4919     35.7862   -999.2500    105.3126  
  4904.5000    -20.8425      4.4465      4.4434      5.1474     15.9965     99.0906      0.1461      2.5024     37.2667   -999.2500    106.1276  
  4905.0000    -20.7622      4.4507      4.4440      5.1232     15.9965     99.2600      0.1483      2.5100     38.7798   -999.2500    104.6006  
  4905.5000    -20.6414      4.4548      4.4447      5.0865     15.9966     98.9802      0.1407      2.5084     38.7267   -999.2500    102.9720  
  4906.0000    -20.6785      4.4590      4.4453      5.0824     15.9966     99.1117      0.1387      2.4998     38.3788   -999.2500    104.0937  
  4906.5000    -20.6238      4.4631      4.4459      5.0863     15.9966     99.9721      0.1349      2.4894     36.4425   -999.2500    104.5731  
  4907.0000    -20.5167      4.4569      4.4465      5.1047     15.9966    100.6318      0.1397      2.4951     36.8660   -999.2500    105.5076  
