~VERSION INFORMATION
 VERS.                      2.00:        CWLS LOG ASCII STANDARD - VERSION 2.00
 WRAP.                        NO:        ONE LINE PER DEPTH STEP
~WELL INFORMATION
#MNEM.UNIT               DATA            INFORMATION
#----------          ------------        ------------------------------
 STRT.F                  40.0000:        START DEPTH
 STOP.F                9893.0000:        STOP DEPTH
 STEP.F                   0.5000:        STEP VALUE
 NULL.                 -999.2500:        NULL VALUE
 COMP.                 U.S. NAVY:        COMPANY  
 WELL.    CAPE HALKETT #16N-2W-1:        WELL     
 FLD .                   WILDCAT:        FIELD    
 LOC .               5  16N   2W:        LOCATION   
 CNTY.               NORTH SLOPE:        COUNTY  
 STAT.                    ALASKA:        STATE   
 CTRY.                       USA:        COUNTRY 
 DATE.                    4/9/75:        LOG DATE 
 API .              500000000000:        UNIQUE WELL IDENTIFIER 
 OPER.                 U.S. NAVY:        OPERATOR  
 SRVC.              Schlumberger:        SERVICE COMPANY 
 UWI .              500000000000:        UNIQUE WELL ID 
 LAT .                    0.0000:        LATITUDE
 LON .                    0.0000:        LONGITUDE
 DIGS.          Center Line Data:        DIGITIZING COMPANY 
~CURVE INFORMATION      
#MNEM.UNIT            API CODE           CURVE DESCRIPTION
#---------          -------------        ------------------------------
 DEPT.F                         :        1  DEPTH
 SP  .MV                        :        2
 ILD .OHMM                      :        3
 ILM .OHMM                      :        4
 LL8 .OHMM                      :        5
 CALI.IN                        :        6
 GR  .GAPI                      :        7
 DRHO.G/C3                      :        8
 RHOB.G/C3                      :        9
 NPHI.%                         :       10
 DPHI.%                         :       11
 DT  .US/F                      :       12
~PARAMETER INFORMATION       
#MNEM.UNIT              VALUE            DESCRIPTION OF MNEMONIC
#---------          -------------        ------------------------------
 EKB .F                  39.5000:        KELLY BUSHING
 TD  .F                7867.0000:        TOTAL DEPTH
 BHT .F                  60.0000:        BOTTOM HOLE TEMPERATURE
 BS  .                   18.5000:        BIT SIZE
 FD  .                   10.5000:        FLUID DENSITY
 CSIZ.                   20.0000:        CASING SIZE
 CBD .F                 492.0000:        CASING DRILLER 1
 CBL .F                 493.0000:        CASING LOGGER 1
 DFT .             Miscellaneous:        TYPE FLUID IN HOLE
 DFV .                  200.0000:        VISCOSITY
 DFPH.                   10.0000:        PH
 DFL .                    9.2000:        FLUID LOSS
 RMS .                    2.1500:        RM
 MST .F                  57.0000:        RM MEAS. TEMP.
 RMF .                    2.2000:        RMF
 MFST.F                  40.0000:        RMF MEAS. TEMP.
 RMC .                    0.0000:        RMC
 MCST.F                   0.0000:        RMC MEAS. TEMP.
 UWI .              500000000000:        UNIQUE WELL ID
~OTHER INFORMATION
~A    DEPTH          SP         ILD         ILM         LL8        CALI          GR        DRHO        RHOB        NPHI        DPHI          DT  
# ...
  4385.0000    -26.5724      3.7262      3.8651      4.3555     14.0429    101.2401      0.0995      2.4117     43.1736   -999.2500    111.6099  
  4385.5000    -26.4474      3.6835      3.8232      4.2984     14.0584     99.9798      0.0959      2.4122     43.1918   -999.2500    110.2867  
  4386.0000    -26.4182      3.6518      3.7874      4.2490     14.0616    100.2048      0.0951      2.4137     42.1102   -999.2500    110.2704  
  4386.5000    -26.4048      3.6336      3.7663      4.2177     14.0608    101.4643      0.0944      2.4148     40.9554   -999.2500    111.0399  
  4387.0000    -26.4066      3.6461      3.7811      4.2405     14.0659    102.7076      0.0997      2.4166     40.9193   -999.2500    112.1750  
  4387.5000    -26.4084      3.6731      3.8091      4.2720     14.0751    104.1722      0.1197      2.4265     41.2249   -999.2500    113.7824  
  4388.0000    -26.4576      3.7042      3.8450      4.3249     14.1001    104.5690      0.1086      2.4074     42.0181   -999.2500    114.7601  
  4388.5000    -26.5071      3.7374      3.8740      4.3383     14.1032    103.5287      0.0958      2.3930     43.7709   -999.2500    115.2685  
  4389.0000    -26.4875      3.7231      3.8604      4.3265     14.0990    101.9191      0.0812      2.3850     46.3254   -999.2500    115.2109  
  4389.5000    -26.3761      3.7048      3.8406      4.3022     14.0947    101.5557      0.0749      2.3827     47.5145   -999.2500    114.7774  
  4390.0000    -26.2304      3.6509      3.7925      4.2777     14.0932    101.9592      0.0912      2.3934     45.4351   -999.2500    113.5218  
  4390.5000    -26.1677      3.5782      3.7210      4.2062     14.0939    102.4309      0.1124      2.4227     42.2638   -999.2500    112.5635  
  4391.0000    -26.0715      3.5013      3.6463      4.1254     14.1111    102.4161      0.1133      2.4216     40.1836   -999.2500    111.8379  
  4391.5000    -26.0080      3.3280      3.4917      4.0426     14.1384    101.1933      0.0902      2.4058     40.0491   -999.2500    110.9258  
  4392.0000    -25.9179      3.2000      3.3544      3.9584     14.1320    100.1524      0.0913      2.4041     41.2479   -999.2500    111.1168  
  4392.5000    -25.8483      3.1556      3.2722      3.7424     14.1435     99.7181      0.0981      2.4172     43.5312   -999.2500    111.6725  
  4393.0000    -25.8535      3.1340      3.2498      3.6437     14.1779     99.8743      0.1038      2.4279     44.8524   -999.2500    112.2609  
  4393.5000    -25.7941      3.1126      3.2275      3.6187     14.1993    100.6983      0.1134      2.4495     44.0175   -999.2500    113.2851  
  4394.0000    -25.6047      3.0913      3.2054      3.6146     14.2021    102.3549      0.1245      2.4518     42.7564   -999.2500    114.7829  
  4394.5000    -25.4960      3.1315      3.2564      3.6840     14.2026    104.2558      0.1330      2.4486     41.5261   -999.2500    115.4044  
  4395.0000    -25.3653      3.1916      3.2950      3.7752     14.2174    105.9780      0.1342      2.4511     42.4845   -999.2500    116.2627  
  4395.5000    -25.1929      3.2597      3.3184      3.8338     14.2376    107.6190      0.1315      2.4507     43.0927   -999.2500    117.0826  
  4396.0000    -24.7945      3.3237      3.3419      3.8919     14.2688    109.5981      0.1239      2.4454     43.4687   -999.2500    117.0224  
  4396.5000    -24.3619      3.3220      3.3640      3.8737     14.3005    111.5772      0.1207      2.4424     43.4037   -999.2500    116.4430  
  4397.0000    -23.8971      3.2904      3.3831      3.8301     14.4090    113.0697      0.1102      2.4381     43.4966   -999.2500    115.2113  
  4397.5000    -23.5199      3.2592      3.3917      3.7938     14.4610    113.2068      0.1021      2.4369     43.8261   -999.2500    113.7571  
  4398.0000    -23.7265      3.2665      3.4004      3.8045     14.4904    110.8110      0.1046      2.4382     43.8531   -999.2500    112.9402  
  4398.5000    -24.0980      3.2958      3.4190      3.8472     14.5079    109.7675      0.1072      2.4380     43.7789   -999.2500    112.1379  
  4399.0000    -24.7046      3.3331      3.4659      3.9208     14.5214    109.7404      0.1068      2.4372     42.7505   -999.2500    111.5536  
  4399.5000    -25.4019      3.3972      3.5323      3.9959     14.5283    109.8758      0.0982      2.4326     41.4169   -999.2500    110.5325  
  4400.0000    -25.7330      3.4625      3.5993      4.0546     14.5327    109.4362      0.0997      2.4273     42.2314   -999.2500    110.3098  
  4400.5000    -25.8310      3.5117      3.6402      4.0840     14.5352    108.9827      0.1132      2.4425     42.6189   -999.2500    110.6601  
  4401.0000    -25.8631      3.5425      3.6821      4.1594     14.5161    108.0231      0.1198      2.4489     43.0053   -999.2500    111.5868  
  4401.5000    -25.9875      3.6079      3.7501      4.2328     14.5273    105.4190      0.1175      2.4384     43.4666   -999.2500    112.8853  
  4402.0000    -26.1525      3.6714      3.8098      4.2814     14.5844    103.2506      0.1184      2.4365     42.3082   -999.2500    113.6957  
  4402.5000    -26.2704      3.7136      3.8535      4.3296     14.6191    102.8165      0.1218      2.4454     40.1975   -999.2500    114.0907  
  4403.0000    -26.3840      3.7493      3.8880      4.3598     14.6363    103.2102      0.1291      2.4536     40.0159   -999.2500    114.1823  
  4403.5000    -26.5247      3.7755      3.9151      4.3903     14.6427    103.4037      0.1373      2.4532     40.3319   -999.2500    114.0681  
  4404.0000    -26.6350      3.7967      3.9359      4.4091     14.6489    102.1180      0.1235      2.4290     41.1620   -999.2500    113.1673  
  4404.5000    -26.6442      3.8107      3.9531      4.4380     14.6555    101.4404      0.1181      2.4316     41.5662   -999.2500    111.8646  
  4405.0000    -26.5847      3.8475      3.9912      4.4808     14.6615    101.9236      0.1226      2.4367     41.8196   -999.2500    111.5856  
  4405.5000    -26.5253      3.8475      3.9899      4.4732     14.6564    102.0298      0.1156      2.4357     42.0991   -999.2500    111.7474  
  4406.0000    -26.5449      3.7748      3.9252      4.4401     14.6572    100.4384      0.1132      2.4388     42.9907   -999.2500    112.1941  
  4406.5000    -26.5996      3.7434      3.8806      4.3533     14.6601     98.7376      0.1141      2.4449     43.0460   -999.2500    112.6104  
  4407.0000    -26.6543      3.7136      3.8534      4.3301     14.6555     97.4298      0.1166      2.4523     43.2265   -999.2500    112.6538  
  4407.5000    -26.7089      3.7072      3.8427      4.3036     14.6411     97.6709      0.1180      2.4547     43.3228   -999.2500    112.8738  
  4408.0000    -26.6273      3.6917      3.8286      4.2943     14.6160     98.5586      0.1152      2.4544     42.9885   -999.2500    113.3776  
  4408.5000    -26.4242      3.6740      3.8090      4.2682     14.5963     99.5164      0.1113      2.4480     42.7618   -999.2500    113.9470  
  4409.0000    -26.1341      3.6988      3.8409      4.3261     14.5851    100.2602      0.1146      2.4359     43.2007   -999.2500    115.0823  
  4409.5000    -25.8902      3.7537      3.8980      4.3785     14.5738    100.6198      0.1168      2.4308     43.2773   -999.2500    116.9249  
  4410.0000    -25.7347      3.7903      3.9297      4.4038     14.5523    101.0201      0.1173      2.4266     43.6108   -999.2500    116.7976  
  4410.5000    -25.6692      3.7917      3.9316      4.4075     14.5388    101.1345      0.1098      2.4252     44.4104   -999.2500    116.2917  
  4411.0000    -25.7644      3.7688      3.9076      4.3807     14.5372    100.8488      0.1138      2.4197     43.7958   -999.2500    115.0876  
  4411.5000    -25.8267      3.7607      3.9005      4.3760     14.5356    100.8831      0.1122      2.4152     43.0914   -999.2500    113.7261  
  4412.0000    -25.7749      3.7884      3.9277      4.4015     14.5348    100.3576      0.1245      2.4113     42.9169   -999.2500    112.7887  
