~VERSION INFORMATION
 VERS.                           2.00:        CWLS LOG ASCII STANDARD - VERSION 2.00
 WRAP.                             NO:        ONE LINE PER DEPTH STEP
~WELL INFORMATION
#MNEM.UNIT                   DATA             INFORMATION
#----------             --------------        ------------------------------
 STRT.F                       66.0000:        START DEPTH
 STOP.F                    11266.0000:        STOP DEPTH
 STEP.F                        0.5000:        STEP VALUE
 NULL.                      -999.2500:        NULL VALUE
 COMP.              HUSKY OIL COMPANY:        COMPANY
 LOC .                       6 12N 2E:        LOCATION
 DATE.                       12/24/76:        LOG DATE
 WELL.          SOUTH HARRISON BAY #1:        WELL
 UWI .                   501032000700:        UNIQUE WELL ID
 API .                   501032000700:        UNIQUE WELL IDENTIFIER
 FLD .                        WILDCAT:        FIELD
 CNTY.                    NORTH SLOPE:        COUNTY
 STAT.                         ALASKA:        STATE
 CTRY.                            USA:        COUNTRY
 OPER.              HUSKY OIL COMPANY:        OPERATOR
 SRVC.                   SCHLUMBERGER:        SERVICE COMPANY
 LAT .                         0.0000:        LATITUDE
 LON .                         0.0000:        LONGITUDE
 DIGS.               CENTER LINE DATA:        DIGITIZING COMPANY
~CURVE INFORMATION      
#MNEM        .UNIT         API CODE           CURVE DESCRIPTION
#-----------------      --------------        ------------------------------
 DEPT        .F                      :        1  DEPTH
 GR          .GAPI                   :        2  
 CALI        .IN                     :        3  
 DRHO        .G/C3                   :        4  
 RHOB        .G/C3                   :        5  
 NPHI        .%                      :        6  
 DT          .US/F                   :        7  
 SP          .MV                     :        8  
 ILD         .OHMM                   :        9  
 ILM         .OHMM                   :        10 
 LL8         .OHMM                   :        11 
~PARAMETER INFORMATION
#MNEM.UNIT                  VALUE             DESCRIPTION OF MNEMONIC
#---------             ---------------        ------------------------------
 EKB .F                       45.0000:        KELLY BUSHING
 TD  .F                    11290.0000:        TOTAL DEPTH
 BHT .F                      174.0000:        BOTTOM HOLE TEMPERATURE
 BS  .                        12.2500:        BIT SIZE
 FD  .                        10.7000:        FLUID DENSITY
 CSIZ.                        13.3750:        CASING SIZE
 CBD .F                     2600.0000:        CASING DRILLER 1
 CBL .F                     2600.0000:        CASING LOGGER 1
 DFT .                  MISCELLANEOUS:        TYPE FLUID IN HOLE
 DFV .                        52.0000:        VISCOSITY
 DFPH.                         8.2000:        PH
 DFL .                         6.0000:        FLUID LOSS
 RMS .                         1.3900:        RM
 MST .F                       60.0000:        RM MEAS. TEMP.
 RMF .                         1.0200:        RMF
 MFST.F                       60.0000:        RMF MEAS. TEMP.
 RMC .                         1.3800:        RMC
 MCST.F                       60.0000:        RMC MEAS. TEMP.
~OTHER INFORMATION
~A    DEPTH          GR        CALI        DRHO        RHOB        NPHI          DT          SP         ILD         ILM         LL8 
# ...
  5281.5000     81.7938     14.1617      0.0277      2.2950     49.0634    102.9037    -65.5369      4.4012      4.3882      4.5590 
  5282.0000     81.5511     14.1767      0.0214      2.3062     48.5384    104.6464    -65.4148      4.4408      4.3882      4.7245 
  5282.5000     81.3541     14.2035      0.0245      2.3134     47.9186    103.0180    -65.1509      4.4808      4.3882      4.8959 
  5283.0000     81.3165     14.2575      0.0276      2.3095     46.9798     99.8899    -65.1541      4.5211      4.3882      4.9749 
  5283.5000     81.2803     14.1679      0.0364      2.3116     45.7077     98.8379    -65.0908      4.5618      4.3882      4.9294 
  5284.0000     81.9508     14.1416      0.0317      2.2971     45.5026     94.6244    -64.8767      4.5170      4.3214      4.8409 
  5284.5000     84.5850     14.1359      0.0204      2.2943     45.4757     93.1097    -64.7297      4.4231      4.2329      4.6515 
  5285.0000     83.6104     14.1303      0.0332      2.3119     44.8553     96.5984    -65.1394      4.3311      4.1462      4.4695 
  5285.5000     82.4735     14.1247      0.0410      2.3267     44.1852     98.0329    -65.5912      4.2411      4.0612      4.5122 
  5286.0000     82.8254     14.1190      0.0255      2.3061     44.8776     99.9537    -65.2335      4.1529      3.9780      4.4873 
  5286.5000     84.0129     14.1134      0.0151      2.3014     45.6009    102.9966    -64.6360      4.0666      3.8965      4.2336 
  5287.0000     84.6056     14.1115      0.0084      2.3055     45.9829    102.9185    -64.5149      4.0101      3.8167      4.0066 
  5287.5000     83.7831     14.1717      0.0252      2.3316     46.2461    101.2844    -64.9257      3.9589      3.7385      3.9684 
  5288.0000     82.0831     14.2319      0.0375      2.3572     45.9517     99.9228    -64.8586      3.9083      3.6619      3.9793 
  5288.5000     81.5732     14.2756      0.0513      2.3694     46.1236     98.4137    -64.4884      3.8584      3.5869      3.9902 
  5289.0000     81.7022     14.2942      0.0344      2.3435     46.9868    100.0635    -64.4767      3.8193      3.5517      4.0012 
  5289.5000     81.8919     14.2882      0.0249      2.3262     47.6959    101.3701    -64.5513      3.8092      3.5259      4.0106 
  5290.0000     81.2977     14.2821      0.0203      2.3161     47.1998    102.5614    -64.6984      3.7991      3.5003      4.0017 
  5290.5000     80.3353     14.2474      0.0192      2.3033     46.5269    103.3229    -64.8328      3.7910      3.5145      3.9929 
  5291.0000     79.9588     14.2666      0.0126      2.2968     46.3743    103.6026    -64.8089      3.8045      3.5463      3.9842 
  5291.5000     79.1210     14.2964      0.0155      2.3073     47.1431    104.2108    -64.6408      3.8182      3.5783      3.9813 
  5292.0000     78.4840     14.2980      0.0268      2.3109     46.7729    105.9271    -64.5107      3.8319      3.6107      3.9969 
  5292.5000     79.5657     14.3134      0.0204      2.2967     46.2831    105.0734    -64.3234      3.8456      3.6434      4.0213 
  5293.0000     80.4437     14.3488      0.0155      2.2968     46.2193    102.9922    -64.1490      3.8594      3.6763      4.0992 
  5293.5000     80.9087     14.3886      0.0243      2.3080     46.4079    102.5624    -64.1315      3.8732      3.7096      4.1786 
  5294.0000     80.5108     14.4231      0.0292      2.3159     46.5965    103.2838    -64.2998      3.8871      3.7431      4.2595 
  5294.5000     79.8742     14.4332      0.0333      2.3158     46.9226    104.2195    -64.4864      3.9010      3.7770      4.3420 
  5295.0000     79.2913     14.4432      0.0435      2.3106     46.6557    103.0072    -64.4458      3.9150      3.8112      4.3533 
  5295.5000     79.9097     14.4436      0.0505      2.3262     45.7258    101.5709    -64.1506      3.9290      3.8457      4.3627 
  5296.0000     80.2281     14.4400      0.0391      2.3337     45.4979    102.4019    -64.4371      3.9431      3.8804      4.3721 
  5296.5000     80.0504     14.4399      0.0370      2.3276     45.2458    100.6214    -64.5425      3.9576      3.9155      4.3816 
  5297.0000     79.1270     14.4362      0.0359      2.3302     45.2950    100.6714    -64.4892      3.9722      3.9237      4.3911 
  5297.5000     78.4333     14.4323      0.0365      2.3225     45.1498    101.0849    -64.5767      3.9868      3.9278      4.4006 
  5298.0000     79.6904     14.4318      0.0399      2.3114     45.2269     99.7403    -64.6225      4.0015      3.9320      4.4101 
  5298.5000     81.4337     14.4352      0.0247      2.2816     45.0698    100.0440    -64.6304      4.0163      3.9361      4.4196 
  5299.0000     82.5975     14.4439      0.0141      2.2751     45.7110    102.6241    -64.6324      4.0311      3.9402      4.4292 
  5299.5000     83.6212     14.4525      0.0141      2.2944     46.9110    102.7336    -64.5894      4.0459      3.9444      4.4388 
  5300.0000     81.0582     14.4624      0.0231      2.3010     47.0876    102.1988    -64.4751      4.0609      3.9485      4.4618 
  5300.5000     79.0713     14.4724      0.0141      2.2826     46.3002    102.7944    -64.4174      4.0758      3.9526      4.4964 
  5301.0000     79.1766     14.4849      0.0041      2.2764     46.1083    100.7244    -64.5952      4.0909      3.9568      4.5312 
  5301.5000     79.3072     14.4992      0.0172      2.2872     45.6663    100.1105    -64.6853      4.1060      3.9609      4.5284 
  5302.0000     79.4449     14.5049      0.0386      2.3070     45.5574    100.0208    -64.6349      4.1211      3.9651      4.5251 
  5302.5000     79.6567     14.5068      0.0315      2.2960     46.8553     99.6440    -64.5175      4.1363      3.9693      4.5218 
  5303.0000     78.1325     14.5510      0.0200      2.2925     47.2353     99.2904    -64.4583      4.1515      3.9734      4.5149 
  5303.5000     77.2340     14.6175      0.0328      2.3244     46.7612     99.5698    -64.3990      4.1668      3.9776      4.4752 
  5304.0000     77.3292     14.6376      0.0454      2.3309     46.3836     98.2943    -64.3397      4.1822      3.9818      4.4359 
  5304.5000     77.8475     14.6410      0.0579      2.3402     45.8896     99.2487    -64.2804      4.1976      3.9860      4.4120 
  5305.0000     76.5931     14.6463      0.0519      2.3259     44.9492    101.0974    -64.2211      4.2284      4.0348      4.4396 
  5305.5000     75.5395     14.6667      0.0460      2.3265     45.7046    101.0359    -64.2695      4.3140      4.1215      4.4674 
  5306.0000     74.1656     14.6743      0.0448      2.3255     46.9329    101.5244    -64.1582      4.4014      4.2101      4.5226 
  5306.5000     74.5121     14.6836      0.0436      2.3248     48.1139     99.6893    -64.1897      4.4905      4.3005      4.6305 
  5307.0000     75.3523     14.6887      0.0439      2.3367     48.0510     98.2735    -64.3532      4.5815      4.3929      4.7407 
  5307.5000     75.6448     14.6763      0.0484      2.3409     46.4676     96.9082    -64.2505      4.6743      4.4873      4.8769 
  5308.0000     74.5238     14.6634      0.0434      2.3184     46.7309     99.4336    -64.3354      4.7690      4.5837      5.0480 
  5308.5000     71.6632     14.7432      0.0278      2.3225     47.2181     99.9467    -64.5414      4.8656      4.6667      5.1568 
  5309.0000     69.2845     14.8264      0.0128      2.3392     46.1460     97.3293    -64.7165      4.9641      4.6472      5.1307 
  5309.5000     69.3204     14.8923      0.0206      2.3748     44.6031     98.9862    -64.6739      4.9115      4.5373      4.9629 
  5310.0000     71.7764     14.8960      0.0298      2.3645     46.0102     95.6930    -64.4655      4.7765      4.4054      4.7267 
  5310.5000     75.0687     14.8512      0.0561      2.3446     47.6494     91.7482    -64.4419      4.6451      4.2775      4.5972 
  5311.0000     76.1189     14.7896      0.0564      2.3066     47.2358     94.0103    -64.7887      4.5174      4.1532      4.5892 
  5311.5000     77.7252     14.7223      0.0469      2.2903     45.6454     94.3421    -64.8682      4.3932      4.1187      4.6570 
