~VERSION INFORMATION
 VERS.                           2.00:        CWLS LOG ASCII STANDARD - VERSION 2.00
 WRAP.                             NO:        ONE LINE PER DEPTH STEP
~WELL INFORMATION
#MNEM.UNIT                   DATA             INFORMATION
#----------             --------------        ------------------------------
 STRT.F                      116.0000:        START DEPTH
 STOP.F                     8861.0000:        STOP DEPTH
 STEP.F                        0.5000:        STEP VALUE
 NULL.                      -999.2500:        NULL VALUE
 COMP.                     U.S. NAAVY:        COMPANY
 LOC .                 [33^13 17N 2W:        LOCATION
 DATE.                        3/30/77:        LOG DATE
 WELL.                    WT FORAN #1:        WELL
 UWI .                   501032001000:        UNIQUE WELL ID
 API .                   501032001000:        UNIQUE WELL IDENTIFIER
 FLD .                        WILDCAT:        FIELD
 CNTY.                    NORTH SLOPE:        COUNTY
 STAT.                         ALASKA:        STATE
 CTRY.                            USA:        COUNTRY
 OPER.                     U.S. NAAVY:        OPERATOR
 SRVC.                   SCHLUMBERGER:        SERVICE COMPANY
 LAT .                         0.0000:        LATITUDE
 LON .                         0.0000:        LONGITUDE
 DIGS.               CENTER LINE DATA:        DIGITIZING COMPANY
~CURVE INFORMATION      
#MNEM        .UNIT         API CODE           CURVE DESCRIPTION
#-----------------      --------------        ------------------------------
 DEPT        .F                      :        1  DEPTH
 CALI        .IN                     :        2  
 GR          .GAPI                   :        3  
 DRHO        .G/C3                   :        4  
 RHOB        .G/C3                   :        5  
 NPHI        .%                      :        6  
 DT          .US/F                   :        7  
 SP          .MV                     :        8  
 ILD         .OHMM                   :        9  
 ILM         .OHMM                   :        10 
 LL8         .OHMM                   :        11 
~PARAMETER INFORMATION
#MNEM.UNIT                  VALUE             DESCRIPTION OF MNEMONIC
#---------             ---------------        ------------------------------
 EKB .F                       39.0000:        KELLY BUSHING
 TD  .F                     8864.0000:        TOTAL DEPTH
 BHT .F                      152.0000:        BOTTOM HOLE TEMPERATURE
 BS  .                        14.2500:        BIT SIZE
 FD  .                        10.2000:        FLUID DENSITY
 CSIZ.                        16.0000:        CASING SIZE
 CBD .F                     1458.0000:        CASING DRILLER 1
 CBL .F                        0.0000:        CASING LOGGER 1
 DFT .                  MISCELLANEOUS:        TYPE FLUID IN HOLE
 DFV .                        45.0000:        VISCOSITY
 DFPH.                        10.5000:        PH
 DFL .                         5.5000:        FLUID LOSS
 RMS .                         2.4000:        RM
 MST .F                       54.0000:        RM MEAS. TEMP.
 RMF .                         2.3000:        RMF
 MFST.F                       56.0000:        RMF MEAS. TEMP.
 RMC .                         2.7000:        RMC
 MCST.F                       54.0000:        RMC MEAS. TEMP.
~OTHER INFORMATION
~A    DEPTH        CALI          GR        DRHO        RHOB        NPHI          DT          SP         ILD         ILM         LL8 
# ...
  3654.0000     17.9089     93.7391      0.0349      2.3128     38.8563    119.7813    -29.6782      3.2063      3.2644      3.7219 
  3654.5000     17.8762     94.9396      0.0467      2.3265     39.1099    121.3305    -29.6623      3.1781      3.2844      3.5970 
  3655.0000     17.8434     95.8483      0.0528      2.3433     40.5347    121.9413    -29.5831      3.1502      3.2654      3.5241 
  3655.5000     17.9185     96.5840      0.0406      2.3395     42.3415    121.4635    -29.5719      3.1226      3.2232      3.5882 
  3656.0000     18.0054     97.1806      0.0298      2.3270     44.0687    120.5803    -29.5012      3.0794      3.1909      3.6796 
  3656.5000     18.0036     97.0358      0.0446      2.3104     44.0424    121.2928    -29.5691      3.0347      3.1602      3.6826 
  3657.0000     18.0018     96.6027      0.0289      2.2881     42.9624    120.0732    -29.8080      2.9907      3.1299      3.5842 
  3657.5000     18.0000     96.2721      0.0522      2.3057     41.8300    120.1342    -29.8897      2.9474      3.0998      3.4943 
  3658.0000     17.9982     96.2924      0.0418      2.3092     41.6724    123.8765    -30.1215      2.9266      3.0779      3.4066 
  3658.5000     17.9965     96.8562      0.0314      2.2993     41.2206    123.1510    -30.5750      2.9139      3.0571      3.3500 
  3659.0000     17.9947     97.6806      0.0350      2.3057     40.7289    125.2407    -31.0011      2.9011      3.0365      3.3047 
  3659.5000     17.9929     98.7373      0.0487      2.3194     40.5781    127.1549    -31.2708      2.8885      3.0160      3.2816 
  3660.0000     17.9911     98.8993      0.0569      2.3083     40.4761    127.0385    -31.2069      2.8759      2.9957      3.2803 
  3660.5000     17.9893     98.1571      0.0486      2.2991     40.5823    125.3410    -31.0260      2.8633      2.9753      3.3272 
  3661.0000     17.9072     97.1492      0.0487      2.2742     40.7955    125.3842    -30.9488      2.8508      2.9540      3.3918 
  3661.5000     17.8444     97.0852      0.0604      2.2899     41.3045    124.1318    -30.8143      2.8545      2.9329      3.4577 
  3662.0000     17.7916     97.8760      0.0713      2.3062     42.0743    121.3940    -30.7566      2.8722      2.9158      3.5249 
  3662.5000     17.8555     99.0343      0.0678      2.3234     43.6476    122.6317    -30.4627      2.8901      2.9491      3.4892 
  3663.0000     17.8975    100.2929      0.0562      2.3141     43.9923    122.7201    -30.3631      2.9081      2.9828      3.3923 
  3663.5000     17.9080    101.1880      0.0419      2.2914     43.8469    122.3503    -30.4176      2.9502      3.0178      3.3539 
  3664.0000     17.9230    100.1713      0.0519      2.2972     44.4347    123.9189    -30.5791      2.9933      3.0542      3.4389 
  3664.5000     17.9336     98.7750      0.0542      2.3030     44.4783    123.5725    -30.6592      3.0369      3.0910      3.5537 
  3665.0000     17.9326     97.9645      0.0531      2.2951     43.2451    122.4461    -30.6553      3.0896      3.1282      3.5928 
  3665.5000     17.9418     96.2875      0.0449      2.2840     42.3132    122.4573    -30.7126      3.1542      3.1659      3.6481 
  3666.0000     17.9773     94.2190      0.0354      2.2776     41.2955    119.4362    -30.6423      3.2001      3.1885      3.7843 
  3666.5000     17.9924     93.3602      0.0234      2.2666     39.6126    116.8322    -30.6719      3.2323      3.1874      3.9611 
  3667.0000     17.9900     94.7118      0.0313      2.2734     39.5296    117.9348    -31.0101      3.2578      3.1862      3.7722 
  3667.5000     17.9876     96.3504      0.0437      2.2842     39.5603    119.2155    -31.5965      3.2834      3.1851      3.2772 
  3668.0000     17.9852     95.5079      0.0570      2.2988     39.6879    122.4398    -32.1828      3.3093      3.1839      3.2967 
  3668.5000     17.9827     93.5839      0.0689      2.3167     39.7543    125.6666    -32.3309      3.3353      3.1827      3.3593 
  3669.0000     17.9803     92.3762      0.0565      2.3069     38.7704    126.4588    -32.5257      3.3586      3.1816      3.3932 
  3669.5000     17.9779     92.1696      0.0516      2.3016     37.9190    125.2174    -33.0313      3.3808      3.2042      3.4089 
  3670.0000     17.9755     92.9002      0.0579      2.3083     38.5665    122.2240    -33.4697      3.4032      3.2359      3.4326 
  3670.5000     17.9731     94.0410      0.0685      2.3247     39.6571    120.8806    -34.1398      3.4257      3.2679      3.4715 
  3671.0000     17.9707     94.0388      0.0746      2.3341     40.5020    120.3217    -35.1146      3.4483      3.3002      3.5108 
  3671.5000     17.9683     92.7241      0.0539      2.3191     39.9073    118.5720    -36.1201      3.4711      3.3564      3.5379 
  3672.0000     17.9659     90.3006      0.0364      2.3078     39.1050    116.6348    -38.1064      3.4941      3.4136      4.0686 
  3672.5000     17.9634     87.0358      0.0451      2.2996     38.3028    114.1310    -39.9994      3.5172      3.4717      4.5972 
  3673.0000     17.9610     83.5164      0.0482      2.2955     37.4901    109.2803    -41.5417      3.5593      3.5328      4.9119 
  3673.5000     17.9586     78.5361      0.0361      2.2912     36.9288    109.2162    -42.8290      3.6036      3.6139      4.9878 
  3674.0000     17.9562     75.1264      0.0228      2.2745     36.8383    109.9753    -43.1099      3.6484      3.7070      5.0018 
  3674.5000     17.9538     72.1490      0.0140      2.2924     36.8979    110.4543    -43.4609      3.7148      3.8598      5.0321 
  3675.0000     17.9514     70.5575      0.0119      2.3001     36.9614    111.4460    -44.0019      3.8202      4.0188      5.1475 
  3675.5000     17.8428     68.4672      0.0122      2.3027     36.9341    112.5717    -44.3199      3.9191      4.2185      5.3630 
  3676.0000     17.6884     67.3924      0.0073      2.2900     37.6344    112.2257    -44.3476      3.9940      4.4100      5.9110 
  3676.5000     17.6577     67.8358      0.0184      2.2938     38.5190    112.1946    -44.4089      4.0449      4.4503      6.4369 
  3677.0000     17.6938     67.4181      0.0393      2.3029     38.0450    111.3163    -44.2470      4.0268      4.4882      6.5059 
  3677.5000     17.6952     66.1405      0.0284      2.2869     36.8835    110.0768    -44.1304      3.9926      4.4206      6.2336 
  3678.0000     17.6868     66.8295      0.0304      2.2681     36.6077    110.7077    -43.6710      3.9586      4.3467      5.8330 
  3678.5000     17.6709     68.6125      0.0359      2.2781     36.3671    110.8816    -43.1331      3.9114      4.2050      5.4477 
  3679.0000     17.6326     70.4102      0.0395      2.2920     36.1447    113.6173    -42.0841      3.8641      4.0679      5.2606 
  3679.5000     17.6654     74.3843      0.0241      2.2895     35.9222    112.6772    -41.0403      3.8173      3.9353      5.2939 
  3680.0000     17.6868     77.9303      0.0090      2.2812     35.6555    112.4083    -40.1000      3.7711      3.8209      5.2987 
  3680.5000     17.7195     78.5712      0.0163      2.2954     35.6049    113.0574    -39.1596      3.7254      3.7207      5.0197 
  3681.0000     17.8374     78.6142      0.0253      2.3052     35.7665    114.9190    -37.9745      3.6803      3.6463      4.6485 
  3681.5000     17.9721     78.9882      0.0417      2.3220     36.5408    116.7785    -36.9802      3.6357      3.6223      4.4412 
  3682.0000     17.9720     79.7680      0.0548      2.3332     37.5765    118.3129    -36.1369      3.5917      3.5985      4.4961 
  3682.5000     17.9719     80.3701      0.0445      2.3455     38.1955    119.5306    -34.9458      3.5571      3.5959      4.5354 
  3683.0000     17.9718     80.7145      0.0343      2.3163     38.8159    117.5977    -34.2813      3.5510      3.5951      4.4175 
  3683.5000     17.9717     81.0676      0.0343      2.3110     39.0902    120.1281    -34.0206      3.5449      3.5942      4.2140 
  3684.0000     17.9716     80.7855      0.0492      2.3261     39.3592    119.3398    -34.3744      3.5389      3.5933      4.1456 
