~VERSION INFORMATION
 VERS.                      2.00:        CWLS LOG ASCII STANDARD - VERSION 2.00
 WRAP.                        NO:        ONE LINE PER DEPTH STEP
~WELL INFORMATION
#MNEM.UNIT               DATA            INFORMATION
#----------          ------------        ------------------------------
 STRT.F                 490.0000:        START DEPTH
 STOP.F               10659.0000:        STOP DEPTH
 STEP.F                   0.5000:        STEP VALUE
 NULL.                 -999.2500:        NULL VALUE
 COMP. HUSKY OIL NPR OPERATIONS,:        COMPANY  
 WELL.         EAST TESHEKPUK #1:        WELL     
 FLD .   U.S. NAVY NPR-4 WILDCAT:        FIELD    
 LOC .              16  14N   4W:        LOCATION   
 CNTY.                  N. SLOPE:        COUNTY  
 STAT.                    ALASKA:        STATE   
 CTRY.                       USA:        COUNTRY 
 DATE.                   4/11/76:        LOG DATE 
 API .              502790000000:        UNIQUE WELL IDENTIFIER 
 OPER. HUSKY OIL NPR OPERATIONS,:        OPERATOR  
 SRVC.              Schlumberger:        SERVICE COMPANY 
 UWI .              502790000000:        UNIQUE WELL ID 
 LAT .                    0.0000:        LATITUDE
 LON .                    0.0000:        LONGITUDE
 DIGS.          Center Line Data:        DIGITIZING COMPANY 
~CURVE INFORMATION      
#MNEM.UNIT            API CODE           CURVE DESCRIPTION
#---------          -------------        ------------------------------
 DEPT.F                         :        1  DEPTH
 SP  .MV                        :        2
 LL8 .OHMM                      :        3
 ILM .OHMM                      :        4
 ILD .OHMM                      :        5
 CALI.IN                        :        6
 GR  .GAPI                      :        7
 RHOB.G/C3                      :        8
 DRHO.G/C3                      :        9
 NPHI.%                         :       10
 DT  .US/F                      :       11
~PARAMETER INFORMATION       
#MNEM.UNIT              VALUE            DESCRIPTION OF MNEMONIC
#---------          -------------        ------------------------------
 EKB .F                  27.6000:        KELLY BUSHING
 TD  .F               10664.0000:        TOTAL DEPTH
 BHT .F                 172.0000:        BOTTOM HOLE TEMPERATURE
 BS  .                   13.5000:        BIT SIZE
 FD  .                   10.2000:        FLUID DENSITY
 CSIZ.                   16.0000:        CASING SIZE
 CBD .F                2578.0000:        CASING DRILLER 1
 CBL .F                2572.0000:        CASING LOGGER 1
 DFT . Salt Water-Lignosulfonate:        TYPE FLUID IN HOLE
 DFV .                   51.0000:        VISCOSITY
 DFPH.                   10.6000:        PH
 DFL .                    3.5000:        FLUID LOSS
 RMS .                    2.2600:        RM
 MST .F                  64.0000:        RM MEAS. TEMP.
 RMF .                    1.8900:        RMF
 MFST.F                  58.0000:        RMF MEAS. TEMP.
 RMC .                    2.5400:        RMC
 MCST.F                  58.0000:        RMC MEAS. TEMP.
 UWI .              502790000000:        UNIQUE WELL ID
~OTHER INFORMATION
~A    DEPTH          SP         LL8         ILM         ILD        CALI          GR        RHOB        DRHO        NPHI          DT  
# ...
  4690.0000    -47.0121      4.2950      4.1228      4.4954     13.9976     83.5678   -999.2500   -999.2500   -999.2500     97.3419  
  4690.5000    -46.6765      4.2943      4.1221      4.4946     13.9408     85.9694   -999.2500   -999.2500   -999.2500     98.2863  
  4691.0000    -46.5520      4.2936      4.1214      4.4967     13.8669     86.1980   -999.2500   -999.2500   -999.2500    100.2100  
  4691.5000    -46.5018      4.2928      4.1207      4.4987     13.7930     86.1224   -999.2500   -999.2500   -999.2500    102.4850  
  4692.0000    -46.5609      4.2921      4.1199      4.5007     13.7770     86.0983   -999.2500   -999.2500   -999.2500    101.8261  
  4692.5000    -46.8963      4.2913      4.1192      4.5028     13.7616     86.0971   -999.2500   -999.2500   -999.2500     99.9511  
  4693.0000    -47.2106      4.2906      4.1185      4.5048     13.7519     85.7994   -999.2500   -999.2500   -999.2500     98.5105  
  4693.5000    -47.4111      4.2898      4.1178      4.4911     13.7751     85.5175   -999.2500   -999.2500   -999.2500     96.3322  
  4694.0000    -47.4959      4.2891      4.1171      4.4766     13.8634     86.7316   -999.2500   -999.2500   -999.2500     95.7430  
  4694.5000    -47.4316      4.2883      4.1164      4.4621     14.0022     88.0439   -999.2500   -999.2500   -999.2500     97.4642  
  4695.0000    -47.2999      4.2876      4.1157      4.4477     14.0002     88.8965   -999.2500   -999.2500   -999.2500     99.7325  
  4695.5000    -47.1972      4.2869      4.1149      4.4333     13.8702     87.7673   -999.2500   -999.2500   -999.2500    100.8659  
  4696.0000    -47.0241      4.2861      4.1142      4.4190     13.6852     85.7396   -999.2500   -999.2500   -999.2500    101.7383  
  4696.5000    -46.7596      4.2855      4.1136      4.4047     13.6744     85.8000   -999.2500   -999.2500   -999.2500    101.9025  
  4697.0000    -46.6883      4.2852      4.1134      4.3904     13.7597     87.2178   -999.2500   -999.2500   -999.2500    101.4506  
  4697.5000    -46.6408      4.2850      4.1132      4.3763     13.8505     88.1567   -999.2500   -999.2500   -999.2500    101.6083  
  4698.0000    -46.5270      4.2848      4.1130      4.3621     13.9212     88.0014   -999.2500   -999.2500   -999.2500    100.2309  
  4698.5000    -46.5089      4.2846      4.1128      4.3480     13.9401     86.5171   -999.2500   -999.2500   -999.2500     98.5955  
  4699.0000    -46.7085      4.2844      4.1126      4.3340     13.9480     85.6042   -999.2500   -999.2500   -999.2500     98.1832  
  4699.5000    -46.8149      4.2842      4.1124      4.3252     13.9526     85.8407   -999.2500   -999.2500   -999.2500     98.3746  
  4700.0000    -46.7908      4.2840      4.1122      4.3186     13.9335     88.0013   -999.2500   -999.2500   -999.2500     99.5471  
  4700.5000    -46.7729      4.2838      4.1120      4.3119     13.9362     90.5831   -999.2500   -999.2500   -999.2500     99.7559  
  4701.0000    -46.8493      4.2836      4.1118      4.3058     13.9471     93.2120   -999.2500   -999.2500   -999.2500     99.0030  
  4701.5000    -47.1369      4.2834      4.1116      4.3023     13.8756     95.1347   -999.2500   -999.2500   -999.2500     98.4730  
  4702.0000    -47.5855      4.2832      4.1114      4.2989     13.7441     95.2764   -999.2500   -999.2500   -999.2500     98.2087  
  4702.5000    -48.0032      4.2830      4.1112      4.2954     13.8533     94.8260   -999.2500   -999.2500   -999.2500     98.3798  
  4703.0000    -48.1411      4.2828      4.1110      4.2920     13.9625     93.5053   -999.2500   -999.2500   -999.2500     98.5294  
  4703.5000    -48.0775      4.2826      4.1108      4.2921     14.0716     92.0628   -999.2500   -999.2500   -999.2500     99.2103  
  4704.0000    -47.9031      4.2824      4.1106      4.2950     14.0587     90.6203   -999.2500   -999.2500   -999.2500    100.6823  
  4704.5000    -47.9099      4.2792      4.1075      4.3008     13.9921     88.9196   -999.2500   -999.2500   -999.2500     99.0842  
  4705.0000    -47.8620      4.2730      4.1015      4.3075     13.9492     85.7147   -999.2500   -999.2500   -999.2500     98.8657  
  4705.5000    -47.9334      4.2668      4.0956      4.3142     14.0047     82.5329   -999.2500   -999.2500   -999.2500     98.7439  
  4706.0000    -48.0264      4.2607      4.0897      4.3209     14.0396     84.7337   -999.2500   -999.2500   -999.2500     97.5161  
  4706.5000    -48.0623      4.2545      4.0838      4.3277     13.9917     89.4658   -999.2500   -999.2500   -999.2500    101.2660  
  4707.0000    -48.0892      4.2483      4.0779      4.3344     13.8059     92.9166   -999.2500   -999.2500   -999.2500    103.3359  
  4707.5000    -48.0525      4.2422      4.0720      4.3411     13.6761     92.5933   -999.2500   -999.2500   -999.2500    103.3759  
  4708.0000    -47.7659      4.2361      4.0661      4.3479     13.8332     90.2732   -999.2500   -999.2500   -999.2500    102.6283  
  4708.5000    -47.4611      4.2299      4.0602      4.3613     13.9750     88.9250   -999.2500   -999.2500   -999.2500    101.1505  
  4709.0000    -47.3036      4.2238      4.0543      4.3764     13.9745     88.3444   -999.2500   -999.2500   -999.2500     99.5023  
  4709.5000    -47.1987      4.2177      4.0485      4.3956     13.9645     87.6890   -999.2500   -999.2500   -999.2500     99.0189  
  4710.0000    -47.1474      4.2116      4.0426      4.4156     13.9291     87.2140   -999.2500   -999.2500   -999.2500     98.9132  
  4710.5000    -47.0301      4.2055      4.0368      4.4356     13.9581     89.9331   -999.2500   -999.2500   -999.2500     98.8674  
  4711.0000    -46.9834      4.1995      4.0309      4.4557     14.0080     88.8484   -999.2500   -999.2500   -999.2500     98.0398  
  4711.5000    -46.9175      4.1934      4.0251      4.4759     14.0790     86.4985   -999.2500   -999.2500   -999.2500     98.3310  
  4712.0000    -46.9335      4.1873      4.0193      4.4693     14.1098     82.8123   -999.2500   -999.2500   -999.2500     99.7296  
  4712.5000    -47.0086      4.1813      4.0135      4.4585     14.0033     80.6504   -999.2500   -999.2500   -999.2500     98.7894  
  4713.0000    -47.1069      4.1757      4.0082      4.4477     13.8881     79.6865   -999.2500   -999.2500   -999.2500    100.0196  
  4713.5000    -47.1469      4.1810      4.0132      4.4369     13.9813     79.7268   -999.2500   -999.2500   -999.2500    101.3386  
  4714.0000    -47.1745      4.1862      4.0183      4.4262     14.0021     82.3374   -999.2500   -999.2500   -999.2500     98.8437  
  4714.5000    -47.2135      4.1915      4.0233      4.4155     13.9734     86.6441   -999.2500   -999.2500   -999.2500     98.0882  
  4715.0000    -47.2053      4.1968      4.0284      4.4048     13.9574     90.2923   -999.2500   -999.2500   -999.2500     97.6170  
  4715.5000    -47.2131      4.2021      4.0335      4.3933     13.9574     90.1938   -999.2500   -999.2500   -999.2500     95.4581  
  4716.0000    -47.1374      4.2074      4.0386      4.3807     13.9786     88.6482   -999.2500   -999.2500   -999.2500     98.3865  
  4716.5000    -47.0437      4.2127      4.0437      4.3697     13.9667     89.1416   -999.2500   -999.2500   -999.2500    102.2045  
  4717.0000    -46.7326      4.2180      4.0488      4.3712     13.9548     89.1312   -999.2500   -999.2500   -999.2500    102.5358  
  4717.5000    -46.4122      4.2233      4.0539      4.3726     13.9465     84.9209   -999.2500   -999.2500   -999.2500    102.7876  
  4718.0000    -46.2207      4.2286      4.0590      4.3740     13.9408     89.1164   -999.2500   -999.2500   -999.2500    102.5172  
  4718.5000    -46.0744      4.2344      4.0645      4.3754     13.9028     89.7750   -999.2500   -999.2500   -999.2500     99.7407  
  4719.0000    -46.0978      4.2407      4.0705      4.3769     13.8636     91.5565   -999.2500   -999.2500   -999.2500     99.1145  
  4719.5000    -46.1100      4.2470      4.0766      4.3783     13.8422     91.6759   -999.2500   -999.2500   -999.2500     99.8172  
