~VERSION INFORMATION
 VERS.                           2.00:        CWLS LOG ASCII STANDARD - VERSION 2.00
 WRAP.                             NO:        ONE LINE PER DEPTH STEP
~WELL INFORMATION
#MNEM.UNIT                   DATA             INFORMATION
#----------             --------------        ------------------------------
 STRT.F                      116.0000:        START DEPTH
 STOP.F                     8861.0000:        STOP DEPTH
 STEP.F                        0.5000:        STEP VALUE
 NULL.                      -999.2500:        NULL VALUE
 COMP.                     U.S. NAAVY:        COMPANY
 LOC .                 [33^13 17N 2W:        LOCATION
 DATE.                        3/30/77:        LOG DATE
 WELL.                    WT FORAN #1:        WELL
 UWI .                   501032001000:        UNIQUE WELL ID
 API .                   501032001000:        UNIQUE WELL IDENTIFIER
 FLD .                        WILDCAT:        FIELD
 CNTY.                    NORTH SLOPE:        COUNTY
 STAT.                         ALASKA:        STATE
 CTRY.                            USA:        COUNTRY
 OPER.                     U.S. NAAVY:        OPERATOR
 SRVC.                   SCHLUMBERGER:        SERVICE COMPANY
 LAT .                         0.0000:        LATITUDE
 LON .                         0.0000:        LONGITUDE
 DIGS.               CENTER LINE DATA:        DIGITIZING COMPANY
~CURVE INFORMATION      
#MNEM        .UNIT         API CODE           CURVE DESCRIPTION
#-----------------      --------------        ------------------------------
 DEPT        .F                      :        1  DEPTH
 CALI        .IN                     :        2  
 GR          .GAPI                   :        3  
 DRHO        .G/C3                   :        4  
 RHOB        .G/C3                   :        5  
 NPHI        .%                      :        6  
 DT          .US/F                   :        7  
 SP          .MV                     :        8  
 ILD         .OHMM                   :        9  
 ILM         .OHMM                   :        10 
 LL8         .OHMM                   :        11 
~PARAMETER INFORMATION
#MNEM.UNIT                  VALUE             DESCRIPTION OF MNEMONIC
#---------             ---------------        ------------------------------
 EKB .F                       39.0000:        KELLY BUSHING
 TD  .F                     8864.0000:        TOTAL DEPTH
 BHT .F                      152.0000:        BOTTOM HOLE TEMPERATURE
 BS  .                        14.2500:        BIT SIZE
 FD  .                        10.2000:        FLUID DENSITY
 CSIZ.                        16.0000:        CASING SIZE
 CBD .F                     1458.0000:        CASING DRILLER 1
 CBL .F                        0.0000:        CASING LOGGER 1
 DFT .                  MISCELLANEOUS:        TYPE FLUID IN HOLE
 DFV .                        45.0000:        VISCOSITY
 DFPH.                        10.5000:        PH
 DFL .                         5.5000:        FLUID LOSS
 RMS .                         2.4000:        RM
 MST .F                       54.0000:        RM MEAS. TEMP.
 RMF .                         2.3000:        RMF
 MFST.F                       56.0000:        RMF MEAS. TEMP.
 RMC .                         2.7000:        RMC
 MCST.F                       54.0000:        RMC MEAS. TEMP.
~OTHER INFORMATION
~A    DEPTH        CALI          GR        DRHO        RHOB        NPHI          DT          SP         ILD         ILM         LL8 
# ...
  6734.5000     17.9777     98.0626      0.0415      2.4777     36.6324     93.4679    -13.5752      4.1852      4.0395      5.0817 
  6735.0000     17.9777     97.9688      0.0321      2.4756     35.6444     93.1742    -13.4113      4.2456      4.0978      5.1279 
  6735.5000     17.9777     98.4474      0.0331      2.4784     35.2725     93.2781    -13.3472      4.3069      4.1570      5.1839 
  6736.0000     17.9776     97.9293      0.0474      2.4925     35.6094     93.1889    -13.4119      4.3639      4.2170      5.2820 
  6736.5000     17.9776     97.3530      0.0682      2.5162     36.1906     92.6825    -13.6319      4.3924      4.2448      5.2794 
  6737.0000     17.9775     97.9873      0.0451      2.5079     36.0096     92.4885    -13.9843      4.4210      4.2725      5.3199 
  6737.5000     17.9775     98.1134      0.0406      2.5109     34.9474     92.3791    -14.2211      4.4499      4.3004      5.3489 
  6738.0000     17.9775     98.0643      0.0366      2.5106     34.2826     91.4946    -14.3238      4.4789      4.3284      5.4282 
  6738.5000     17.9774     97.9169      0.0397      2.5100     33.8844     92.1181    -14.3355      4.5081      4.3567      5.4565 
  6739.0000     17.9774     97.1200      0.0552      2.5180     33.4862     92.3148    -14.3266      4.5360      4.3847      5.4000 
  6739.5000     17.9773     95.8567      0.0535      2.5112     33.3344     90.6329    -14.2949      4.5486      4.3969      5.3307 
  6740.0000     17.9773     95.0989      0.0506      2.5135     33.5534     92.5934    -14.2987      4.5612      4.4090      5.3372 
  6740.5000     17.9772     97.1328      0.0586      2.5077     33.6069     91.3670    -14.3713      4.5738      4.4212      5.3436 
  6741.0000     17.9772     98.1329      0.0909      2.5253     33.7791     90.7806    -14.2021      4.5768      4.4244      5.4752 
  6741.5000     17.9772     98.7750      0.1061      2.5398     34.3340     92.4726    -13.9792      4.5789      4.4264      5.6728 
  6742.0000     17.9771    100.9745      0.0904      2.5393     34.4910     92.0720    -13.8605      4.5810      4.4285      5.6922 
  6742.5000     17.9771    103.1036      0.0586      2.5147     34.1754     91.4558    -14.0233      4.5603      4.4060      5.5537 
  6743.0000     17.9770    101.0021      0.0436      2.5007     34.2098     90.5722    -14.1609      4.5266      4.3746      5.3525 
  6743.5000     17.9770     98.0860      0.0627      2.5090     34.4846     88.6072    -14.0540      4.5018      4.3507      5.2330 
  6744.0000     17.9769     94.7084      0.0661      2.5148     35.6864     88.9329    -13.9155      4.4772      4.3269      5.1768 
  6744.5000     17.9769     93.3500      0.0607      2.5099     36.5382     89.8527    -13.9477      4.4528      4.3033      5.1596 
  6745.0000     17.9769     92.5692      0.0740      2.5166     36.8184     91.1116    -14.0831      4.4284      4.2797      5.1652 
  6745.5000     17.9768     92.7109      0.0793      2.5263     36.7661     93.0455    -14.1839      4.4042      4.2564      5.1878 
  6746.0000     17.9768     93.0174      0.0687      2.5213     36.2629     91.4817    -14.2798      4.3801      4.2331      5.2799 
  6746.5000     17.9767     93.0659      0.0628      2.5230     35.2390     92.7802    -14.3689      4.3562      4.2100      5.3778 
  6747.0000     17.9767     92.9498      0.0718      2.5578     34.5411     92.0152    -14.3627      4.3324      4.1870      5.2584 
  6747.5000     17.9766     93.2055      0.0956      2.5804     33.9939     91.2754    -14.3565      4.3087      4.1642      5.0718 
  6748.0000     17.9766     93.2579      0.0869      2.5572     33.9169     90.8215    -14.1214      4.3166      4.1725      5.0059 
  6748.5000     17.9766     91.8659      0.0791      2.5457     34.0602     90.8555    -13.6887      4.3252      4.1809      5.0234 
  6749.0000     17.9765     90.9147      0.0788      2.5378     35.3575     91.3159    -13.5064      4.3339      4.1893      5.1044 
  6749.5000     17.9765     91.1632      0.0852      2.5471     36.2918     91.6341    -13.5934      4.3426      4.1977      5.1851 
  6750.0000     17.9764     92.4231      0.0847      2.5419     36.7321     93.9529    -13.7740      4.3513      4.2061      5.1331 
  6750.5000     17.9764     93.5848      0.0845      2.5329     35.7773     92.4298    -14.0132      4.3601      4.2145      5.0291 
  6751.0000     17.9763     94.4688      0.0941      2.5451     34.7986     91.6562    -14.2370      4.3688      4.2230      5.0889 
  6751.5000     17.9763     94.6592      0.0844      2.5433     33.8881     91.7303    -14.2263      4.3987      4.2492      5.1863 
  6752.0000     17.9763     94.8267      0.0713      2.5151     33.0067     91.2350    -14.0764      4.4398      4.2888      5.2787 
  6752.5000     17.9762     94.8657      0.0658      2.5219     32.7708     91.1161    -13.9254      4.4726      4.3232      5.4232 
  6753.0000     17.9762     94.5968      0.0665      2.5358     33.3102     92.1854    -13.7211      4.4847      4.3350      5.5128 
  6753.5000     17.9761     93.6478      0.0521      2.5361     33.9601     91.0492    -13.4556      4.4969      4.3468      5.4727 
  6754.0000     17.9761     91.9282      0.0410      2.5305     34.2904     90.2093    -13.2951      4.4948      4.3443      5.3757 
  6754.5000     17.9761     91.8583      0.0300      2.5099     34.4252     89.8027    -13.3140      4.4758      4.3260      5.2654 
  6755.0000     17.9760     94.1971      0.0189      2.4939     34.4176     88.8889    -13.2861      4.4607      4.3117      5.1574 
  6755.5000     17.9760     95.7944      0.0230      2.5124     34.3649     88.5973    -13.2216      4.4461      4.2975      5.0800 
  6756.0000     17.9759     97.5008      0.0315      2.5157     33.6891     89.3545    -13.3693      4.4315      4.2834      5.0990 
  6756.5000     17.9759     98.6264      0.0400      2.5183     34.0149     89.5566    -13.4393      4.4169      4.2693      5.1147 
  6757.0000     17.9758     97.1964      0.0485      2.5340     34.1175     90.7123    -13.2267      4.4824      4.3262      5.1265 
  6757.5000     17.9758     93.4078      0.0582      2.5367     33.7473     91.5696    -13.2227      4.5502      4.3916      5.2476 
  6758.0000     17.9758     90.9398      0.0641      2.5378     33.6489     91.8114    -13.4037      4.6189      4.4579      5.5677 
  6758.5000     17.9757     89.1574      0.0698      2.5463     33.6129     91.9779    -13.4734      4.6887      4.5253      5.8445 
  6759.0000     17.9523     88.6649      0.0761      2.5617     32.2087     91.9739    -13.4191      4.7492      4.5877      5.8606 
  6759.5000     17.8741     88.7937      0.0724      2.5693     31.6221     90.1115    -13.4814      4.7978      4.6346      5.7788 
  6760.0000     17.8084     89.1092      0.0649      2.5549     31.8245     89.6883    -13.4785      4.8612      4.6835      5.6885 
  6760.5000     17.8091     89.2261      0.0624      2.5379     32.1535     87.3880    -13.4226      4.9445      4.7773      5.7770 
  6761.0000     17.8510     89.0116      0.0769      2.5580     32.4814     87.6996    -13.3577      5.0511      4.8742      5.9957 
  6761.5000     17.8788     89.6020      0.0525      2.5364     32.7297     88.6735    -13.3659      5.0480      4.8781      6.2100 
  6762.0000     17.9063     90.0295      0.0381      2.5284     32.5890     88.4472    -13.3322      5.0745      4.9051      6.3572 
  6762.5000     17.8257     90.3751      0.0266      2.5371     32.0650     88.0940    -13.2264      5.0829      4.9136      6.4357 
  6763.0000     17.7547     90.2048      0.0394      2.5619     32.1105     86.9491    -13.2783      5.0347      4.8617      6.3393 
  6763.5000     17.6937     90.5816      0.0354      2.5693     32.2847     86.0246    -13.3861      4.9956      4.8274      6.0345 
  6764.0000     17.6950     91.5537      0.0236      2.5406     32.0263     84.8660    -13.2918      4.9606      4.7935      5.7419 
  6764.5000     17.7154     93.4055      0.0015      2.5084     32.3344     85.9841    -12.9565      4.9257      4.7599      5.5179 
