~VERSION INFORMATION
 VERS.                      2.00:        CWLS LOG ASCII STANDARD - VERSION 2.00
 WRAP.                        NO:        ONE LINE PER DEPTH STEP
~WELL INFORMATION
#MNEM.UNIT               DATA            INFORMATION
#----------          ------------        ------------------------------
 STRT.F                 490.0000:        START DEPTH
 STOP.F               10659.0000:        STOP DEPTH
 STEP.F                   0.5000:        STEP VALUE
 NULL.                 -999.2500:        NULL VALUE
 COMP. HUSKY OIL NPR OPERATIONS,:        COMPANY  
 WELL.         EAST TESHEKPUK #1:        WELL     
 FLD .   U.S. NAVY NPR-4 WILDCAT:        FIELD    
 LOC .              16  14N   4W:        LOCATION   
 CNTY.                  N. SLOPE:        COUNTY  
 STAT.                    ALASKA:        STATE   
 CTRY.                       USA:        COUNTRY 
 DATE.                   4/11/76:        LOG DATE 
 API .              502790000000:        UNIQUE WELL IDENTIFIER 
 OPER. HUSKY OIL NPR OPERATIONS,:        OPERATOR  
 SRVC.              Schlumberger:        SERVICE COMPANY 
 UWI .              502790000000:        UNIQUE WELL ID 
 LAT .                    0.0000:        LATITUDE
 LON .                    0.0000:        LONGITUDE
 DIGS.          Center Line Data:        DIGITIZING COMPANY 
~CURVE INFORMATION      
#MNEM.UNIT            API CODE           CURVE DESCRIPTION
#---------          -------------        ------------------------------
 DEPT.F                         :        1  DEPTH
 SP  .MV                        :        2
 LL8 .OHMM                      :        3
 ILM .OHMM                      :        4
 ILD .OHMM                      :        5
 CALI.IN                        :        6
 GR  .GAPI                      :        7
 RHOB.G/C3                      :        8
 DRHO.G/C3                      :        9
 NPHI.%                         :       10
 DT  .US/F                      :       11
~PARAMETER INFORMATION       
#MNEM.UNIT              VALUE            DESCRIPTION OF MNEMONIC
#---------          -------------        ------------------------------
 EKB .F                  27.6000:        KELLY BUSHING
 TD  .F               10664.0000:        TOTAL DEPTH
 BHT .F                 172.0000:        BOTTOM HOLE TEMPERATURE
 BS  .                   13.5000:        BIT SIZE
 FD  .                   10.2000:        FLUID DENSITY
 CSIZ.                   16.0000:        CASING SIZE
 CBD .F                2578.0000:        CASING DRILLER 1
 CBL .F                2572.0000:        CASING LOGGER 1
 DFT . Salt Water-Lignosulfonate:        TYPE FLUID IN HOLE
 DFV .                   51.0000:        VISCOSITY
 DFPH.                   10.6000:        PH
 DFL .                    3.5000:        FLUID LOSS
 RMS .                    2.2600:        RM
 MST .F                  64.0000:        RM MEAS. TEMP.
 RMF .                    1.8900:        RMF
 MFST.F                  58.0000:        RMF MEAS. TEMP.
 RMC .                    2.5400:        RMC
 MCST.F                  58.0000:        RMC MEAS. TEMP.
 UWI .              502790000000:        UNIQUE WELL ID
~OTHER INFORMATION
~A    DEPTH          SP         LL8         ILM         ILD        CALI          GR        RHOB        DRHO        NPHI          DT  
# ...
  4180.0000    -52.7483      4.9273      4.7307      5.0941     13.2158     74.4915   -999.2500   -999.2500   -999.2500     99.9630  
  4180.5000    -53.0048      4.8772      4.6731      5.1232     13.2197     75.8909   -999.2500   -999.2500   -999.2500     96.3797  
  4181.0000    -53.1728      4.8106      4.6093      5.1250     13.3127     75.5102   -999.2500   -999.2500   -999.2500     96.2023  
  4181.5000    -53.2515      4.7450      4.5464      5.1034     13.4056     74.5128   -999.2500   -999.2500   -999.2500     97.7982  
  4182.0000    -53.2687      4.6802      4.4843      5.0819     13.4545     74.0672   -999.2500   -999.2500   -999.2500     98.0740  
  4182.5000    -53.2291      4.6163      4.4231      5.0407     13.4823     74.5945   -999.2500   -999.2500   -999.2500     97.1363  
  4183.0000    -53.1867      4.5720      4.3879      4.9947     13.4101     73.4555   -999.2500   -999.2500   -999.2500     95.3583  
  4183.5000    -53.2624      4.5894      4.4045      4.9490     13.3888     72.1661   -999.2500   -999.2500   -999.2500     92.7998  
  4184.0000    -53.4969      4.6068      4.4212      4.9141     13.4336     71.8978   -999.2500   -999.2500   -999.2500     93.1058  
  4184.5000    -53.5400      4.6243      4.4380      4.8795     13.5102     71.7981   -999.2500   -999.2500   -999.2500     96.6239  
  4185.0000    -53.4741      4.6419      4.4549      4.8452     13.4901     71.0256   -999.2500   -999.2500   -999.2500     99.7596  
  4185.5000    -53.2716      4.6595      4.4718      4.8111     13.4699     70.4989   -999.2500   -999.2500   -999.2500    100.5247  
  4186.0000    -52.8712      4.6772      4.4888      4.8063     13.4725     71.9869   -999.2500   -999.2500   -999.2500     99.8621  
  4186.5000    -52.4660      4.6949      4.5058      4.8351     13.4510     75.0760   -999.2500   -999.2500   -999.2500     98.3736  
  4187.0000    -52.2600      4.7128      4.5229      4.8641     13.4244     77.3380   -999.2500   -999.2500   -999.2500     96.4853  
  4187.5000    -52.1062      4.7307      4.5401      4.8932     13.3770     78.3770   -999.2500   -999.2500   -999.2500     99.0856  
  4188.0000    -52.0579      4.7486      4.5573      4.9298     13.3223     78.3770   -999.2500   -999.2500   -999.2500    103.0880  
  4188.5000    -51.9346      4.7667      4.5746      4.9735     13.2854     78.0095   -999.2500   -999.2500   -999.2500    102.1032  
  4189.0000    -51.8431      4.7848      4.5920      5.0162     13.3788     76.1167   -999.2500   -999.2500   -999.2500    100.2930  
  4189.5000    -51.8078      4.8131      4.6143      5.0432     13.3895     73.5926   -999.2500   -999.2500   -999.2500     99.2119  
  4190.0000    -51.9158      4.8678      4.6668      5.0704     13.3263     72.2117   -999.2500   -999.2500   -999.2500     98.7505  
  4190.5000    -52.1413      4.9232      4.7199      5.0977     13.1134     71.4998   -999.2500   -999.2500   -999.2500    102.2502  
  4191.0000    -52.3532      4.9219      4.7243      5.1251     13.1876     70.6168   -999.2500   -999.2500   -999.2500    103.6775  
  4191.5000    -52.4443      4.9168      4.7194      5.1498     13.2421     70.3898   -999.2500   -999.2500   -999.2500    102.1189  
  4192.0000    -52.4486      4.9192      4.7217      5.1541     13.2605     72.7094   -999.2500   -999.2500   -999.2500     99.6689  
  4192.5000    -52.4414      4.9215      4.7240      5.1585     13.6008     75.3507   -999.2500   -999.2500   -999.2500     95.8253  
  4193.0000    -52.2954      4.9239      4.7263      5.1606     13.6908     75.8236   -999.2500   -999.2500   -999.2500     95.6288  
  4193.5000    -52.2155      4.9263      4.7285      5.1604     13.6153     74.6888   -999.2500   -999.2500   -999.2500     96.8217  
  4194.0000    -52.2302      4.9287      4.7308      5.1602     13.5499     73.3205   -999.2500   -999.2500   -999.2500     98.6273  
  4194.5000    -52.4313      4.9310      4.7331      5.1599     13.4965     72.6655   -999.2500   -999.2500   -999.2500     99.2774  
  4195.0000    -52.5260      4.9334      4.7354      5.1597     13.4497     73.6486   -999.2500   -999.2500   -999.2500     99.1291  
  4195.5000    -52.4889      4.9358      4.7377      5.1595     13.4189     74.0759   -999.2500   -999.2500   -999.2500     98.0474  
  4196.0000    -52.5001      4.9382      4.7400      5.1593     13.5015     73.3589   -999.2500   -999.2500   -999.2500     96.7182  
  4196.5000    -52.5286      4.9405      4.7422      5.1590     13.4707     74.1007   -999.2500   -999.2500   -999.2500     96.3600  
  4197.0000    -52.5648      4.9429      4.7445      5.1603     13.4400     74.5399   -999.2500   -999.2500   -999.2500     97.0280  
  4197.5000    -52.5488      4.9453      4.7468      5.1637     13.4857     73.1484   -999.2500   -999.2500   -999.2500     98.7556  
  4198.0000    -52.4326      4.9477      4.7491      5.1670     13.5808     71.3441   -999.2500   -999.2500   -999.2500     98.9622  
  4198.5000    -52.4404      4.9501      4.7514      5.1704     13.7010     71.2737   -999.2500   -999.2500   -999.2500     98.4590  
  4199.0000    -52.4288      4.9524      4.7537      5.1734     13.6098     73.6820   -999.2500   -999.2500   -999.2500     96.8848  
  4199.5000    -52.2843      4.9548      4.7560      5.1758     13.6003     75.4523   -999.2500   -999.2500   -999.2500     96.1901  
  4200.0000    -52.0109      4.9572      4.7583      5.1783     13.5832     76.7090   -999.2500   -999.2500   -999.2500     99.2952  
  4200.5000    -51.7409      4.9596      4.7606      5.1807     13.5665     77.1705   -999.2500   -999.2500   -999.2500    101.9164  
  4201.0000    -51.8445      4.9620      4.7629      5.1831     13.5781     75.7797   -999.2500   -999.2500   -999.2500    102.3850  
  4201.5000    -51.9863      4.9644      4.7651      5.1856     13.6640     73.9818   -999.2500   -999.2500   -999.2500    101.8199  
  4202.0000    -52.1749      4.9668      4.7674      5.1913     13.7715     71.4591   -999.2500   -999.2500   -999.2500    100.3209  
  4202.5000    -52.2807      4.9692      4.7697      5.2024     13.7903     69.7306   -999.2500   -999.2500   -999.2500     96.8723  
  4203.0000    -52.3364      4.9716      4.7720      5.2135     13.6273     70.6951   -999.2500   -999.2500   -999.2500     95.5719  
  4203.5000    -52.4049      4.9740      4.7743      5.2246     13.6411     72.4621   -999.2500   -999.2500   -999.2500     97.4773  
  4204.0000    -52.5265      4.9763      4.7766      5.2389     13.7487     73.9462   -999.2500   -999.2500   -999.2500     95.3576  
  4204.5000    -52.7293      4.9787      4.7789      5.2578     13.6755     75.5881   -999.2500   -999.2500   -999.2500     94.8323  
  4205.0000    -52.6721      4.9811      4.7812      5.2767     13.6023     75.8051   -999.2500   -999.2500   -999.2500     96.8431  
  4205.5000    -52.4488      4.9835      4.7836      5.2943     13.5291     76.8205   -999.2500   -999.2500   -999.2500     95.9824  
  4206.0000    -52.2826      4.9859      4.7859      5.3085     13.4559     78.2568   -999.2500   -999.2500   -999.2500     96.2833  
  4206.5000    -52.0626      4.9883      4.7882      5.3209     13.3996     79.5620   -999.2500   -999.2500   -999.2500     97.2670  
  4207.0000    -52.0478      4.9907      4.7905      5.3236     13.3730     79.5384   -999.2500   -999.2500   -999.2500     98.3246  
  4207.5000    -51.9741      4.9931      4.7928      5.3263     13.3677     78.3628   -999.2500   -999.2500   -999.2500     99.2545  
  4208.0000    -52.0930      4.9955      4.7951      5.3289     13.3839     76.3551   -999.2500   -999.2500   -999.2500    100.2173  
  4208.5000    -51.7931      4.9980      4.7974      5.3316     13.4385     75.2162   -999.2500   -999.2500   -999.2500     98.8978  
  4209.0000    -51.6140      5.0004      4.7997      5.3343     13.4931     74.8964   -999.2500   -999.2500   -999.2500     95.1294  
  4209.5000    -51.5815      5.0028      4.8020      5.3321     13.4604     73.7710   -999.2500   -999.2500   -999.2500     93.3070  
