~VERSION INFORMATION
 VERS.                      2.00:        CWLS LOG ASCII STANDARD - VERSION 2.00
 WRAP.                        NO:        ONE LINE PER DEPTH STEP
~WELL INFORMATION
#MNEM.UNIT               DATA            INFORMATION
#----------          ------------        ------------------------------
 STRT.F                 490.0000:        START DEPTH
 STOP.F               10659.0000:        STOP DEPTH
 STEP.F                   0.5000:        STEP VALUE
 NULL.                 -999.2500:        NULL VALUE
 COMP. HUSKY OIL NPR OPERATIONS,:        COMPANY  
 WELL.         EAST TESHEKPUK #1:        WELL     
 FLD .   U.S. NAVY NPR-4 WILDCAT:        FIELD    
 LOC .              16  14N   4W:        LOCATION   
 CNTY.                  N. SLOPE:        COUNTY  
 STAT.                    ALASKA:        STATE   
 CTRY.                       USA:        COUNTRY 
 DATE.                   4/11/76:        LOG DATE 
 API .              502790000000:        UNIQUE WELL IDENTIFIER 
 OPER. HUSKY OIL NPR OPERATIONS,:        OPERATOR  
 SRVC.              Schlumberger:        SERVICE COMPANY 
 UWI .              502790000000:        UNIQUE WELL ID 
 LAT .                    0.0000:        LATITUDE
 LON .                    0.0000:        LONGITUDE
 DIGS.          Center Line Data:        DIGITIZING COMPANY 
~CURVE INFORMATION      
#MNEM.UNIT            API CODE           CURVE DESCRIPTION
#---------          -------------        ------------------------------
 DEPT.F                         :        1  DEPTH
 SP  .MV                        :        2
 LL8 .OHMM                      :        3
 ILM .OHMM                      :        4
 ILD .OHMM                      :        5
 CALI.IN                        :        6
 GR  .GAPI                      :        7
 RHOB.G/C3                      :        8
 DRHO.G/C3                      :        9
 NPHI.%                         :       10
 DT  .US/F                      :       11
~PARAMETER INFORMATION       
#MNEM.UNIT              VALUE            DESCRIPTION OF MNEMONIC
#---------          -------------        ------------------------------
 EKB .F                  27.6000:        KELLY BUSHING
 TD  .F               10664.0000:        TOTAL DEPTH
 BHT .F                 172.0000:        BOTTOM HOLE TEMPERATURE
 BS  .                   13.5000:        BIT SIZE
 FD  .                   10.2000:        FLUID DENSITY
 CSIZ.                   16.0000:        CASING SIZE
 CBD .F                2578.0000:        CASING DRILLER 1
 CBL .F                2572.0000:        CASING LOGGER 1
 DFT . Salt Water-Lignosulfonate:        TYPE FLUID IN HOLE
 DFV .                   51.0000:        VISCOSITY
 DFPH.                   10.6000:        PH
 DFL .                    3.5000:        FLUID LOSS
 RMS .                    2.2600:        RM
 MST .F                  64.0000:        RM MEAS. TEMP.
 RMF .                    1.8900:        RMF
 MFST.F                  58.0000:        RMF MEAS. TEMP.
 RMC .                    2.5400:        RMC
 MCST.F                  58.0000:        RMC MEAS. TEMP.
 UWI .              502790000000:        UNIQUE WELL ID
~OTHER INFORMATION
~A    DEPTH          SP         LL8         ILM         ILD        CALI          GR        RHOB        DRHO        NPHI          DT  
# ...
  7390.0000    -14.0292      4.3517      3.9958      4.0531     13.7412     77.5637      2.5933      0.0344     20.2291     77.1042  
  7390.5000    -13.4026      4.1169      3.9882      4.0454     13.7505     76.1087      2.6004      0.0397     20.1510     77.7851  
  7391.0000    -13.3341      4.3330      3.9806      4.0377     13.7456     74.4522      2.6031      0.0521     19.6713     78.4543  
  7391.5000    -13.5000      4.5370      3.9731      4.0300     13.7060     73.0790      2.6182      0.0614     19.1912     78.6239  
  7392.0000    -14.0053      4.7022      3.9655      4.0224     13.6935     73.4095      2.5993      0.0560     19.4038     78.0889  
  7392.5000    -14.6357      4.5980      3.9580      4.0147     13.6811     74.8822      2.5918      0.0453     20.1298     77.4201  
  7393.0000    -14.9831      4.4200      3.9505      4.0071     13.6687     76.3395      2.5890      0.0359     20.8397     77.1281  
  7393.5000    -14.9826      4.3712      3.9430      3.9995     13.6562     77.6570      2.5867      0.0343     20.6019     77.4272  
  7394.0000    -14.6401      4.3834      3.9703      4.0278     13.6467     78.1488      2.5961      0.0446     19.7926     77.7807  
  7394.5000    -14.6151      4.4517      3.9994      4.0574     13.6485     76.9958      2.6028      0.0562     19.0950     77.7501  
  7395.0000    -14.9293      4.4983      4.0288      4.0872     13.6503     76.8052      2.6046      0.0615     19.2817     77.6106  
  7395.5000    -15.0156      4.4634      4.0584      4.1172     13.6521     77.0030      2.6023      0.0494     19.3215     77.3094  
  7396.0000    -15.0944      4.5001      4.0809      4.1393     13.6540     75.6430      2.5803      0.0364     19.2018     77.2509  
  7396.5000    -15.2008      4.7196      4.0790      4.1374     13.6558     73.0386      2.5790      0.0340     18.8962     77.3098  
  7397.0000    -15.3620      4.8010      4.0771      4.1355     13.6576     70.9959      2.5837      0.0459     18.5918     77.2746  
  7397.5000    -15.2731      4.7113      4.0753      4.1336     13.6594     70.5405      2.5867      0.0580     19.1774     77.1018  
  7398.0000    -15.1889      4.6131      4.0734      4.1318     13.6612     73.5575      2.5653      0.0352     19.7210     76.9444  
  7398.5000    -15.1553      4.5168      4.0715      4.1299     13.6615     77.0448      2.5627      0.0276     20.2018     77.0235  
  7399.0000    -15.1264      4.4226      4.0697      4.1280     13.6755     76.9209      2.5792      0.0351     20.3067     77.4515  
  7399.5000    -15.1232      4.3304      4.0678      4.1261     13.7033     76.0443      2.5776      0.0394     20.3122     77.7308  
  7400.0000    -15.0323      4.4103      4.0660      4.1242     13.7137     75.1677      2.5890      0.0488     19.8679     77.7465  
  7400.5000    -14.8653      4.5778      4.0641      4.1223     13.7241     76.3682      2.6061      0.0598     19.4757     77.7387  
  7401.0000    -14.6669      4.6440      4.0756      4.1341     13.7273     77.8110      2.6116      0.0527     19.2297     77.7610  
  7401.5000    -14.8166      4.5749      4.0888      4.1475     13.7202     78.3721      2.6092      0.0433     19.0994     77.8747  
  7402.0000    -15.1212      4.5068      4.1020      4.1609     13.7130     77.9576      2.5942      0.0482     19.5789     78.0833  
  7402.5000    -15.1628      4.5054      4.1152      4.1743     13.7058     77.7648      2.6028      0.0496     19.7915     78.2919  
  7403.0000    -15.1220      4.5779      4.1285      4.1878     13.6911     78.0141      2.5921      0.0265     19.4720     78.4047  
  7403.5000    -15.1380      4.6776      4.1455      4.2093     13.6675     77.5829      2.5818      0.0157     19.3244     78.4427  
  7404.0000    -15.1506      4.7968      4.2189      4.2837     13.6794     77.6125      2.5687      0.0114     19.1089     78.4572  
  7404.5000    -15.2136      4.8858      4.2935      4.3595     13.7153     78.0447      2.5599      0.0119     18.9135     78.4650  
  7405.0000    -15.6663      4.9306      4.3695      4.4366     13.7512     78.8275      2.5514      0.0137     18.8945     78.3414  
  7405.5000    -16.0253      4.9758      4.4468      4.5151     13.7629     78.9471      2.5544      0.0196     18.8429     78.3213  
  7406.0000    -15.9380      5.0214      4.5254      4.5950     13.7557     77.7665      2.5692      0.0483     18.7538     78.3797  
  7406.5000    -15.9238      5.0674      4.6055      4.6763     13.7533     76.0325      2.5872      0.0553     18.4499     78.5476  
  7407.0000    -16.0923      5.1139      4.6695      4.7374     13.7816     74.3599      2.5991      0.0610     17.9462     78.6413  
  7407.5000    -16.2254      5.1607      4.7061      4.7746     13.8099     72.8098      2.6106      0.0714     17.5676     78.4597  
  7408.0000    -16.1845      5.2080      4.7431      4.8120     13.8101     71.1236      2.5970      0.0685     17.2547     78.2024  
  7408.5000    -15.9913      5.2041      4.7803      4.8498     13.8069     70.0948      2.5852      0.0616     17.2963     78.2456  
  7409.0000    -16.0583      5.1961      4.8178      4.8878     13.8038     69.5607      2.5715      0.0566     17.6940     78.3049  
  7409.5000    -16.0529      5.1881      4.8556      4.9262     13.6928     69.6252      2.5472      0.0480     18.1650     78.3425  
  7410.0000    -16.0655      5.1664      4.8937      4.9648     13.6731     69.9663      2.5439      0.0354     18.1530     78.3770  
  7410.5000    -16.0796      5.1349      4.8816      4.9522     13.7226     70.0303      2.5501      0.0289     18.0825     78.3931  
  7411.0000    -16.1485      5.1036      4.8520      4.9221     13.6939     69.4431      2.5645      0.0237     17.9250     78.6099  
  7411.5000    -16.3878      5.0725      4.8226      4.8923     13.6508     68.8033      2.5725      0.0185     17.7874     78.8374  
  7412.0000    -16.7122      5.0416      4.7933      4.8626     13.6821     69.2754      2.5756      0.0320     17.5992     78.7726  
  7412.5000    -16.9463      5.0109      4.7643      4.8332     13.7491     69.7068      2.5693      0.0286     17.3405     78.5918  
  7413.0000    -16.8378      5.0510      4.7928      4.8649     13.7707     69.9699      2.5755      0.0419     17.1936     78.5215  
  7413.5000    -16.9457      5.1266      4.8645      4.9377     13.7055     69.3298      2.5852      0.0543     17.3758     78.2895  
  7414.0000    -16.9957      5.2034      4.9374      5.0117     13.6402     67.9926      2.5891      0.0642     17.8376     78.1261  
  7414.5000    -17.0159      5.1867      4.9319      5.0031     13.5750     66.5803      2.5743      0.0545     18.3368     78.2263  
  7415.0000    -16.9090      5.1581      4.9046      4.9754     13.6682     65.4638      2.5652      0.0464     19.0921     78.3199  
  7415.5000    -16.7005      5.1296      4.8775      4.9479     13.7815     65.3119      2.5763      0.0538     19.6920     78.3064  
  7416.0000    -16.8558      5.0913      4.8386      4.9092     13.7912     66.9467      2.5570      0.0333     20.0267     78.3309  
  7416.5000    -16.9859      5.0475      4.7969      4.8669     13.8009     68.4633      2.5427      0.0153     19.9657     78.2979  
  7417.0000    -16.6714      5.0040      4.7556      4.8250     13.8106     68.3283      2.5444      0.0176     19.7015     78.3013  
  7417.5000    -16.3138      4.9850      4.7178      4.7924     13.8210     67.1057      2.5503      0.0280     19.3402     78.5122  
  7418.0000    -16.2040      5.0930      4.8201      4.8962     13.8334     66.4025      2.5525      0.0227     19.2694     78.3843  
  7418.5000    -16.2012      5.2034      4.9245      5.0023     13.8467     66.2320      2.5559      0.0267     19.4610     78.0584  
  7419.0000    -16.2350      5.2574      4.9886      5.0637     13.7803     66.9207      2.5508      0.0203     19.9283     77.8978  
  7419.5000    -16.1984      5.1812      4.9166      4.9905     13.6714     67.5014      2.5467      0.0179     20.3072     77.8289  
