~VERSION INFORMATION
 VERS.                           2.00:        CWLS LOG ASCII STANDARD - VERSION 2.00
 WRAP.                             NO:        ONE LINE PER DEPTH STEP
~WELL INFORMATION
#MNEM.UNIT                   DATA             INFORMATION
#----------             --------------        ------------------------------
 STRT.F                       66.0000:        START DEPTH
 STOP.F                    11266.0000:        STOP DEPTH
 STEP.F                        0.5000:        STEP VALUE
 NULL.                      -999.2500:        NULL VALUE
 COMP.              HUSKY OIL COMPANY:        COMPANY
 LOC .                       6 12N 2E:        LOCATION
 DATE.                       12/24/76:        LOG DATE
 WELL.          SOUTH HARRISON BAY #1:        WELL
 UWI .                   501032000700:        UNIQUE WELL ID
 API .                   501032000700:        UNIQUE WELL IDENTIFIER
 FLD .                        WILDCAT:        FIELD
 CNTY.                    NORTH SLOPE:        COUNTY
 STAT.                         ALASKA:        STATE
 CTRY.                            USA:        COUNTRY
 OPER.              HUSKY OIL COMPANY:        OPERATOR
 SRVC.                   SCHLUMBERGER:        SERVICE COMPANY
 LAT .                         0.0000:        LATITUDE
 LON .                         0.0000:        LONGITUDE
 DIGS.               CENTER LINE DATA:        DIGITIZING COMPANY
~CURVE INFORMATION      
#MNEM        .UNIT         API CODE           CURVE DESCRIPTION
#-----------------      --------------        ------------------------------
 DEPT        .F                      :        1  DEPTH
 GR          .GAPI                   :        2  
 CALI        .IN                     :        3  
 DRHO        .G/C3                   :        4  
 RHOB        .G/C3                   :        5  
 NPHI        .%                      :        6  
 DT          .US/F                   :        7  
 SP          .MV                     :        8  
 ILD         .OHMM                   :        9  
 ILM         .OHMM                   :        10 
 LL8         .OHMM                   :        11 
~PARAMETER INFORMATION
#MNEM.UNIT                  VALUE             DESCRIPTION OF MNEMONIC
#---------             ---------------        ------------------------------
 EKB .F                       45.0000:        KELLY BUSHING
 TD  .F                    11290.0000:        TOTAL DEPTH
 BHT .F                      174.0000:        BOTTOM HOLE TEMPERATURE
 BS  .                        12.2500:        BIT SIZE
 FD  .                        10.7000:        FLUID DENSITY
 CSIZ.                        13.3750:        CASING SIZE
 CBD .F                     2600.0000:        CASING DRILLER 1
 CBL .F                     2600.0000:        CASING LOGGER 1
 DFT .                  MISCELLANEOUS:        TYPE FLUID IN HOLE
 DFV .                        52.0000:        VISCOSITY
 DFPH.                         8.2000:        PH
 DFL .                         6.0000:        FLUID LOSS
 RMS .                         1.3900:        RM
 MST .F                       60.0000:        RM MEAS. TEMP.
 RMF .                         1.0200:        RMF
 MFST.F                       60.0000:        RMF MEAS. TEMP.
 RMC .                         1.3800:        RMC
 MCST.F                       60.0000:        RMC MEAS. TEMP.
~OTHER INFORMATION
~A    DEPTH          GR        CALI        DRHO        RHOB        NPHI          DT          SP         ILD         ILM         LL8 
# ...
  7508.0000     77.4345     13.3440     -0.0002      2.5067     23.3866     75.1908    -38.0673      4.3849      4.3111      5.8866 
  7508.5000     79.9776     13.4516      0.0044      2.4822     24.1734     75.5291    -37.9599      4.3770      4.2485      5.5717 
  7509.0000     80.5019     13.4839     -0.0066      2.4826     25.4762     76.8084    -37.6386      4.3848      4.1869      5.3057 
  7509.5000     79.1422     13.4220     -0.0161      2.4882     26.3495     79.0422    -37.5019      4.3926      4.1262      5.0379 
  7510.0000     75.2280     13.2916     -0.0176      2.5102     26.2463     81.2685    -37.9676      4.4004      4.1386      4.8929 
  7510.5000     72.6666     13.1538     -0.0112      2.5324     25.2993     82.3385    -38.3817      4.4082      4.1792      5.0748 
  7511.0000     71.7444     13.1293     -0.0116      2.5522     23.9784     81.8017    -38.3975      4.4161      4.2201      5.1572 
  7511.5000     72.8363     13.1290     -0.0146      2.5454     22.7273     79.9210    -38.2732      4.4239      4.2615      5.3549 
  7512.0000     73.8912     13.0857     -0.0203      2.5360     22.3378     78.8337    -38.3738      4.4868      4.3353      5.5381 
  7512.5000     72.1383     13.0410     -0.0259      2.5441     21.8847     77.9723    -38.5852      4.5757      4.4262      5.6788 
  7513.0000     72.0733     13.0230     -0.0273      2.5508     20.9995     78.1118    -38.6415      4.6665      4.5190      5.9023 
  7513.5000     73.1784     13.0473     -0.0214      2.5472     20.3324     78.4067    -38.7036      4.7590      4.6138      6.1975 
  7514.0000     75.8281     13.1447     -0.0272      2.5398     20.7027     77.2407    -38.6250      4.8534      4.6992      6.3074 
  7514.5000     78.1413     13.2465     -0.0413      2.5205     21.4257     76.4963    -38.5418      4.9496      4.7845      6.1783 
  7515.0000     78.6361     13.2051     -0.0310      2.5163     22.1158     76.4805    -38.4793      4.9957      4.8645      6.0517 
  7515.5000     77.6274     13.0051     -0.0158      2.5308     22.0537     78.3185    -38.4759      4.9549      4.8140      5.9245 
  7516.0000     76.5447     13.0087     -0.0143      2.5474     22.0971     78.0500    -38.4303      4.9144      4.7174      5.7878 
  7516.5000     77.3089     13.2739     -0.0083      2.5647     22.5791     79.5060    -38.3178      4.8742      4.6031      5.6543 
  7517.0000     77.8001     13.1157     -0.0052      2.5611     23.1988     79.5878    -37.9570      4.4640      4.4598      5.8431 
  7517.5000     78.5590     12.8019      0.0286      2.5484     23.8579     79.0797    -37.9159      4.3689      4.2773      6.0962 
  7518.0000     79.1926     13.3212      0.0822      2.5432     24.5284     78.3595    -37.9515      4.2757      4.1023      5.1655 
  7518.5000     78.6945     13.5940      0.0661      2.4997     25.1990     79.4505    -37.9417      4.1846      3.9421      4.5327 
  7519.0000     77.0407     13.5777      0.0313      2.4585     26.2922     80.9948    -37.8987      4.1382      3.9791      4.3761 
  7519.5000     75.1774     13.4841     -0.0045      2.4570     27.1809     82.4592    -37.9111      4.1776      4.0165      4.2249 
  7520.0000     74.0797     13.3537     -0.0211      2.4693     26.6736     83.6100    -37.7684      4.2174      4.0543      4.7344 
  7520.5000     76.2118     13.0175     -0.0202      2.4865     25.2134     84.4054    -37.5895      4.2575      4.1391      5.3509 
  7521.0000     77.5348     12.9091     -0.0083      2.4853     23.8462     81.7856    -37.4515      4.2794      4.1167      5.9408 
  7521.5000     78.0555     12.9302      0.0035      2.4611     23.7044     80.0960    -37.4368      4.2955      4.0707      6.0174 
  7522.0000     77.5113     12.7271      0.0152      2.4498     24.5635     78.3514    -37.7064      4.3118      4.0251      5.8702 
  7522.5000     79.1031     12.9759      0.0414      2.4656     25.4225     77.6775    -37.9177      4.1527      3.9581      5.7363 
  7523.0000     81.5503     12.9866      0.0705      2.4522     26.4163     78.5221    -37.7323      4.0552      3.8668      5.4826 
  7523.5000     83.0613     12.9849      0.0987      2.4352     27.6708     79.3511    -37.4588      3.9863      3.7775      4.9941 
  7524.0000     83.5139     13.3516      0.1476      2.4518     29.3264     81.2184    -37.1341      3.9185      3.6904      4.3830 
  7524.5000     82.8057     13.5722      0.1701      2.4332     31.0570     83.2113    -37.0322      3.8519      3.6150      3.8332 
  7525.0000     82.4351     13.6053      0.1510      2.4233     32.1820     84.9669    -37.0666      3.7865      3.6190      3.7846 
  7525.5000     81.9901     13.6953      0.1502      2.4573     31.2620     87.2626    -37.1313      3.8819      3.6230      3.9320 
  7526.0000     80.1179     13.0379      0.1505      2.4585     27.6245     86.5323    -37.3376      4.0455      3.6523      4.7946 
  7526.5000     78.0331     13.1735      0.1220      2.4432     24.8753     83.8813    -37.5127      4.2159      3.7175      5.6427 
  7527.0000     77.3656     12.9806      0.0888      2.4313     24.0465     80.9767    -37.2285      4.3935      3.9284      5.7880 
  7527.5000     76.4972     12.8118      0.0772      2.4311     23.7632     79.2256    -36.9038      4.5409      4.1512      5.7557 
  7528.0000     76.0527     13.0502      0.0770      2.4377     23.5424     79.2417    -37.1055      4.5939      4.3513      5.7261 
  7528.5000     74.7088     13.0348      0.0267      2.4224     23.3165     78.6133    -37.6968      4.6475      4.4448      5.7873 
  7529.0000     74.2838     12.8595      0.0440      2.4813     23.1622     78.8215    -37.6662      4.7017      4.5403      5.8856 
  7529.5000     74.7114     12.6818      0.0991      2.5404     23.3349     79.4528    -37.3235      4.7525      4.6140      5.5176 
  7530.0000     75.8181     12.6782      0.0981      2.5174     24.1506     79.8865    -37.1813      4.8032      4.6378      5.1131 
  7530.5000     77.1532     12.7281      0.0849      2.4907     24.8185     80.3364    -37.0390      4.8545      4.6617      5.3626 
  7531.0000     77.4312     13.3701      0.1180      2.4985     24.0867     80.7914    -36.8980      4.9063      4.6858      5.9379 
  7531.5000     77.3115     13.3071      0.1369      2.5062     23.4029     81.0599    -37.2439      4.8918      4.7035      6.0992 
  7532.0000     77.0155     13.1332      0.1388      2.4489     24.0840     79.7644    -37.4662      4.7822      4.6936      6.0287 
  7532.5000     76.5501     13.0365      0.1187      2.4220     24.7456     77.8275    -37.7707      4.6750      4.6603      5.9222 
  7533.0000     77.2102     12.9751      0.1098      2.4314     24.9707     78.4444    -37.9047      4.5308      4.4630      5.9036 
  7533.5000     78.4016     13.0199      0.1299      2.4417     24.9435     78.8461    -37.8908      4.3234      4.2553      5.9416 
  7534.0000     79.5593     13.3821      0.1690      2.4166     24.9579     79.3769    -37.5178      4.0997      4.0572      5.7783 
  7534.5000     80.6286     13.3726      0.1648      2.3755     26.0554     78.7988    -36.7824      3.9538      3.8683      5.1207 
  7535.0000     80.3437     13.0348      0.1364      2.3309     28.7490     80.6809    -36.0636      3.9570      3.6882      4.4650 
  7535.5000     79.1314     13.2531      0.1269      2.3485     30.9381     82.8243    -35.4811      3.9603      3.6404      4.0959 
  7536.0000     78.7164     12.9067      0.1467      2.4149     30.4251     85.3642    -36.0348      3.9636      3.6461      3.9331 
  7536.5000     79.6674     13.2916      0.1619      2.4101     29.5985     86.6250    -37.0603      3.9668      3.6518      4.4498 
  7537.0000     79.9692     13.4026      0.1556      2.4265     28.7467     86.5005    -37.1672      4.0292      3.7854      5.0344 
  7537.5000     79.3383     13.2002      0.1407      2.4279     27.1956     85.0565    -37.0465      4.1862      3.9375      5.6714 
  7538.0000     78.3149     12.8778      0.1048      2.4039     25.9865     82.6922    -37.3323      4.3492      4.0957      5.9205 
