~VERSION INFORMATION
 VERS.                      2.00:        CWLS LOG ASCII STANDARD - VERSION 2.00
 WRAP.                        NO:        ONE LINE PER DEPTH STEP
~WELL INFORMATION
#MNEM.UNIT               DATA            INFORMATION
#----------          ------------        ------------------------------
 STRT.F                 438.0000:        START DEPTH
 STOP.F               11532.0000:        STOP DEPTH
 STEP.F                   0.5000:        STEP VALUE
 NULL.                 -999.2500:        NULL VALUE
 COMP.      HUSKY-NPR OPERATIONS:        COMPANY  
 WELL.          ATIGARU POINT #1:        WELL     
 FLD .                   WILDCAT:        FIELD    
 LOC .              19  14N   2E:        LOCATION   
 CNTY.               NORTH SLOPE:        COUNTY  
 STAT.                     ALSKA:        STATE   
 CTRY.                       USA:        COUNTRY 
 DATE.                    1/ /77:        LOG DATE 
 API .              501032000800:        UNIQUE WELL IDENTIFIER 
 OPER.      HUSKY-NPR OPERATIONS:        OPERATOR  
 SRVC.              Schlumberger:        SERVICE COMPANY 
 UWI .              501032000800:        UNIQUE WELL ID 
 LAT .                    0.0000:        LATITUDE
 LON .                    0.0000:        LONGITUDE
 DIGS.          Center Line Data:        DIGITIZING COMPANY 
~CURVE INFORMATION      
#MNEM.UNIT            API CODE           CURVE DESCRIPTION
#---------          -------------        ------------------------------
 DEPT.F                         :        1  DEPTH
 SP  .MV                        :        2
 ILD .OHMM                      :        3
 ILM .OHMM                      :        4
 LL8 .OHMM                      :        5
 CALI.IN                        :        6
 GR  .GAPI                      :        7
 DRHO.G/C3                      :        8
 RHOB.G/C3                      :        9
 NPHI.%                         :       10
 DT  .US/F                      :       11
~PARAMETER INFORMATION       
#MNEM.UNIT              VALUE            DESCRIPTION OF MNEMONIC
#---------          -------------        ------------------------------
 EKB .F                  25.0000:        KELLY BUSHING
 TD  .F               11534.0000:        TOTAL DEPTH
 BHT .F                   0.0000:        BOTTOM HOLE TEMPERATURE
 BS  .                   17.5000:        BIT SIZE
 FD  .                    9.3000:        FLUID DENSITY
 CSIZ.                   20.0000:        CASING SIZE
 CBD .F                 447.0000:        CASING DRILLER 1
 CBL .F                 443.0000:        CASING LOGGER 1
 DFT .                       Gel:        TYPE FLUID IN HOLE
 DFV .                   47.0000:        VISCOSITY
 DFPH.                   14.6000:        PH
 DFL .                    8.0000:        FLUID LOSS
 RMS .                    1.9300:        RM
 MST .F                  63.0000:        RM MEAS. TEMP.
 RMF .                    1.6900:        RMF
 MFST.F                  52.0000:        RMF MEAS. TEMP.
 RMC .                    1.6500:        RMC
 MCST.F                  60.0000:        RMC MEAS. TEMP.
 UWI .              501032000800:        UNIQUE WELL ID
~OTHER INFORMATION
~A    DEPTH          SP         ILD         ILM         LL8        CALI          GR        DRHO        RHOB        NPHI          DT  
# ...
  4128.0000    -27.7882      4.3516      4.2960      4.7554     12.0015     60.5141      0.0170      2.3953     36.1569     99.6284  
  4128.5000    -27.0453      4.3159      4.2578      4.6327     11.9955     60.8111      0.0046      2.3746     35.5706     97.6656  
  4129.0000    -26.6255      4.2804      4.2199      4.5131     11.9894     60.3565     -0.0038      2.3529     35.2444     95.6589  
  4129.5000    -26.5451      4.2453      4.1823      4.3967     11.9834     59.8705      0.0012      2.3525     34.6750     95.5990  
  4130.0000    -27.1680      4.2104      4.1144      4.4276     11.9773     59.3845      0.0186      2.3642     34.0146     95.0066  
  4130.5000    -28.1480      4.1560      4.0324      4.5424     11.9713     59.6624      0.0305      2.3816     33.5276     97.9743  
  4131.0000    -29.1089      4.0786      3.9519      4.6601     11.9664     60.2017      0.0220      2.3821     34.3962    100.6931  
  4131.5000    -29.8292      4.0027      3.9251      4.6904     11.9865     60.5009      0.0134      2.3851     35.6117    102.4475  
  4132.0000    -30.6092      3.9281      3.9084      4.7014     12.0065     59.2459      0.0217      2.4039     36.5805    100.8250  
  4132.5000    -31.2818      3.8550      3.8919      4.7126     12.0266     58.2051      0.0307      2.4017     36.5331     96.2487  
  4133.0000    -31.4522      3.7832      3.8754      4.7237     12.0324     56.8229      0.0252      2.3942     36.1855     95.1246  
  4133.5000    -31.4868      3.8018      3.8589      4.7348     12.0234     56.2888      0.0197      2.3776     35.9253     94.3335  
  4134.0000    -31.2618      3.8246      3.8425      4.7305     12.0171     55.9140      0.0144      2.3595     35.8754     93.7258  
  4134.5000    -30.9297      3.8476      3.8897      4.6912     12.0049     55.7522      0.0092      2.3522     36.0641     96.7792  
  4135.0000    -30.6121      3.8707      3.9839      4.6522     12.0003     56.1762      0.0156      2.3561     36.4698     97.4115  
  4135.5000    -30.2321      3.8940      4.0804      4.5787     12.0108     56.5907      0.0361      2.3806     36.6188     97.2055  
  4136.0000    -29.9024      3.9452      4.1793      4.4584     12.0213     56.9290      0.0418      2.3671     35.8713     97.0126  
  4136.5000    -29.7846      4.0557      4.2806      4.4360     12.0291     57.4101      0.0325      2.3535     35.5924     97.2772  
  4137.0000    -29.9669      4.1694      4.3538      4.5906     12.0303     58.6953      0.0384      2.3684     35.7118     97.8194  
  4137.5000    -30.2399      4.2863      4.2728      4.7505     12.0314     59.8242      0.0402      2.3808     35.8976     98.0547  
  4138.0000    -30.4674      4.3223      4.1932      4.8091     12.0326     60.9530      0.0362      2.3832     36.5566     98.1035  
  4138.5000    -30.6424      4.2197      4.1152      4.8618     12.0337     60.0872      0.0262      2.3620     37.0311     97.6906  
  4139.0000    -30.8228      4.1195      4.0385      4.8125     12.0349     58.8607      0.0154      2.3696     37.6274     97.1460  
  4139.5000    -31.0478      4.0217      3.9633      4.7764     12.0120     57.8547      0.0173      2.3720     37.2475     95.8110  
  4140.0000    -31.3609      3.9263      3.8896      4.7406     11.9879     56.9852      0.0203      2.3617     36.7155     94.8909  
  4140.5000    -31.2346      3.8997      3.8171      4.7051     11.9638     55.8569      0.0133      2.3515     36.2098     93.9043  
  4141.0000    -31.3633      3.8903      3.7738      4.6809     11.9396     55.6129      0.0130      2.3463     35.7241     92.7196  
  4141.5000    -31.5995      3.8808      3.7628      4.7044     11.9574     55.4646      0.0141      2.3525     35.2294     93.6202  
  4142.0000    -31.9320      3.8715      3.7517      4.7064     11.9804     55.1080      0.0161      2.3497     35.1198     94.2841  
  4142.5000    -32.8433      3.8117      3.7082      4.7079     11.9775     55.1084      0.0134      2.3489     34.8608     94.7246  
  4143.0000    -33.2719      3.7320      3.6607      4.6965     11.9478     55.6986      0.0081      2.3491     34.2878     94.9456  
  4143.5000    -33.5227      3.6539      3.6138      4.6548     11.9182     55.9943      0.0136      2.3505     33.5242     95.1150  
  4144.0000    -33.5492      3.6113      3.5675      4.6301     11.8922     56.0117      0.0197      2.3658     33.6001     94.8293  
  4144.5000    -33.5283      3.5963      3.5218      4.6913     11.8822     55.6683      0.0234      2.3798     34.6757     94.2868  
  4145.0000    -33.4405      3.5922      3.4767      4.7287     11.8722     55.1604      0.0258      2.3706     35.3112     93.9635  
  4145.5000    -33.1629      3.6146      3.4721      4.7451     11.8622     54.9295      0.0279      2.3406     35.4141     93.8820  
  4146.0000    -32.6742      3.6663      3.5659      4.7267     11.8586     54.2687      0.0237      2.3261     35.3044     93.8853  
  4146.5000    -31.9917      3.7188      3.6621      4.6764     11.8792     52.8936      0.0126      2.3206     35.2864     94.4424  
  4147.0000    -31.2882      3.7720      3.7610      4.6210     11.8806     52.1246      0.0144      2.3225     35.6035     95.1090  
  4147.5000    -30.3800      3.8810      3.8625      4.5663     11.8820     52.2485      0.0174      2.3271     36.1300     95.2427  
  4148.0000    -29.1125      4.0068      3.9668      4.6663     11.8834     53.0410      0.0059      2.3419     36.4005     94.8155  
  4148.5000    -27.8450      4.1367      4.0739      4.7686     11.8719     54.7071      0.0125      2.3564     35.8849     94.1040  
  4149.0000    -25.8476      4.1940      4.1624      4.8479     11.8556     56.3892      0.0240      2.3759     35.4913     93.7155  
  4149.5000    -23.9728      4.1528      4.1532      4.6007     11.8394     56.6676      0.0316      2.3742     35.5950     93.3732  
  4150.0000    -21.8241      4.1121      4.0713      4.3661     11.8232     56.5062      0.0224      2.3569     35.8135     93.2029  
  4150.5000    -19.6001      4.0718      3.9910      4.1434     11.8070     57.3795      0.0229      2.3537     35.9508     94.0622  
  4151.0000    -19.4836      4.0319      3.9123      4.2855     11.8351     58.2529      0.0168      2.3576     35.6968     94.9328  
  4151.5000    -20.3205      4.0297      4.0051      4.4897     11.9009     59.1262      0.0205      2.3586     35.4429     95.9408  
  4152.0000    -22.4332      4.0907      4.1689      4.4993     11.9667     59.9582      0.0458      2.3674     35.1867     99.7953  
  4152.5000    -24.7238      4.1526      4.2614      4.3613     12.0326     60.7671      0.0787      2.3777     35.2680    107.6049  
  4153.0000    -26.8468      4.1851      4.0854      4.3878     12.0665     61.4943      0.0981      2.3572     35.9793    111.3029  
  4153.5000    -29.0286      4.0312      3.9167      4.6077     12.0493     61.9627      0.0921      2.3448     36.8565    109.3429  
  4154.0000    -30.8758      3.8830      3.7550      4.8387     12.0320     61.4865      0.0632      2.3596     37.8854    102.4884  
  4154.5000    -31.2641      3.7320      3.5999      4.8981     12.0251     59.0475      0.0357      2.3741     38.7955     91.9153  
  4155.0000    -30.8491      3.6019      3.4512      4.7009     12.0227     55.8631      0.0209      2.3880     37.6243     86.9371  
  4155.5000    -30.3610      3.6021      3.4942      4.5293     12.0203     53.5650      0.0256      2.3704     36.3876     85.9534  
  4156.0000    -29.7154      3.6899      3.5386      4.3640     12.0179     51.0697      0.0236      2.3443     35.6107     89.6902  
  4156.5000    -29.0907      3.7221      3.5834      4.2157     12.0155     49.1219      0.0227      2.3264     35.0908     90.9988  
  4157.0000    -28.6990      3.7209      3.6212      4.3519     12.0053     48.7974      0.0397      2.3355     35.1883     91.3732  
  4157.5000    -28.2324      3.7197      3.6542      4.4925     11.9766     49.6805      0.0507      2.3604     35.0643     92.1143  
