~VERSION INFORMATION
 VERS.                      2.00:        CWLS LOG ASCII STANDARD - VERSION 2.00
 WRAP.                        NO:        ONE LINE PER DEPTH STEP
~WELL INFORMATION
#MNEM.UNIT               DATA            INFORMATION
#----------          ------------        ------------------------------
 STRT.F                 490.0000:        START DEPTH
 STOP.F               10659.0000:        STOP DEPTH
 STEP.F                   0.5000:        STEP VALUE
 NULL.                 -999.2500:        NULL VALUE
 COMP. HUSKY OIL NPR OPERATIONS,:        COMPANY  
 WELL.         EAST TESHEKPUK #1:        WELL     
 FLD .   U.S. NAVY NPR-4 WILDCAT:        FIELD    
 LOC .              16  14N   4W:        LOCATION   
 CNTY.                  N. SLOPE:        COUNTY  
 STAT.                    ALASKA:        STATE   
 CTRY.                       USA:        COUNTRY 
 DATE.                   4/11/76:        LOG DATE 
 API .              502790000000:        UNIQUE WELL IDENTIFIER 
 OPER. HUSKY OIL NPR OPERATIONS,:        OPERATOR  
 SRVC.              Schlumberger:        SERVICE COMPANY 
 UWI .              502790000000:        UNIQUE WELL ID 
 LAT .                    0.0000:        LATITUDE
 LON .                    0.0000:        LONGITUDE
 DIGS.          Center Line Data:        DIGITIZING COMPANY 
~CURVE INFORMATION      
#MNEM.UNIT            API CODE           CURVE DESCRIPTION
#---------          -------------        ------------------------------
 DEPT.F                         :        1  DEPTH
 SP  .MV                        :        2
 LL8 .OHMM                      :        3
 ILM .OHMM                      :        4
 ILD .OHMM                      :        5
 CALI.IN                        :        6
 GR  .GAPI                      :        7
 RHOB.G/C3                      :        8
 DRHO.G/C3                      :        9
 NPHI.%                         :       10
 DT  .US/F                      :       11
~PARAMETER INFORMATION       
#MNEM.UNIT              VALUE            DESCRIPTION OF MNEMONIC
#---------          -------------        ------------------------------
 EKB .F                  27.6000:        KELLY BUSHING
 TD  .F               10664.0000:        TOTAL DEPTH
 BHT .F                 172.0000:        BOTTOM HOLE TEMPERATURE
 BS  .                   13.5000:        BIT SIZE
 FD  .                   10.2000:        FLUID DENSITY
 CSIZ.                   16.0000:        CASING SIZE
 CBD .F                2578.0000:        CASING DRILLER 1
 CBL .F                2572.0000:        CASING LOGGER 1
 DFT . Salt Water-Lignosulfonate:        TYPE FLUID IN HOLE
 DFV .                   51.0000:        VISCOSITY
 DFPH.                   10.6000:        PH
 DFL .                    3.5000:        FLUID LOSS
 RMS .                    2.2600:        RM
 MST .F                  64.0000:        RM MEAS. TEMP.
 RMF .                    1.8900:        RMF
 MFST.F                  58.0000:        RMF MEAS. TEMP.
 RMC .                    2.5400:        RMC
 MCST.F                  58.0000:        RMC MEAS. TEMP.
 UWI .              502790000000:        UNIQUE WELL ID
~OTHER INFORMATION
~A    DEPTH          SP         LL8         ILM         ILD        CALI          GR        RHOB        DRHO        NPHI          DT  
# ...
  6850.0000    -23.7072      7.2583      6.3488      6.5656     13.0205     79.6579   -999.2500   -999.2500   -999.2500     79.2825  
  6850.5000    -23.5598      5.9158      5.5930      6.0831     13.0530     83.3204   -999.2500   -999.2500   -999.2500     80.5456  
  6851.0000    -23.3113      5.5135      5.0437      5.6463     13.1300     86.0890   -999.2500   -999.2500   -999.2500     83.0205  
  6851.5000    -23.3513      5.4756      4.8164      5.2469     13.2644     91.1452   -999.2500   -999.2500   -999.2500     86.1973  
  6852.0000    -23.5457      5.4379      4.5993      4.8758     13.4274     97.4816   -999.2500   -999.2500   -999.2500     86.9023  
  6852.5000    -23.6981      5.5473      4.3920      4.5303     13.4619    100.6456   -999.2500   -999.2500   -999.2500     86.3237  
  6853.0000    -23.6473      5.6344      4.2514      4.3199     13.3658    102.1851   -999.2500   -999.2500   -999.2500     86.3831  
  6853.5000    -23.4784      5.2432      4.2473      4.3007     13.2767    103.8522   -999.2500   -999.2500   -999.2500     88.3253  
  6854.0000    -23.1614      4.8954      4.2604      4.3531     13.3616    105.4606   -999.2500   -999.2500   -999.2500     90.1929  
  6854.5000    -22.9568      5.5143      4.3661      4.4313     13.5653    107.6149   -999.2500   -999.2500   -999.2500     88.8947  
  6855.0000    -23.1371      5.9993      4.4573      4.5109     13.5231    110.6261   -999.2500   -999.2500   -999.2500     86.8272  
  6855.5000    -23.2720      6.3474      4.5373      4.5920     13.4759    111.1215   -999.2500   -999.2500   -999.2500     84.6695  
  6856.0000    -23.1133      6.4006      4.6189      4.6745     13.1640    107.1794   -999.2500   -999.2500   -999.2500     84.3098  
  6856.5000    -22.7278      6.4542      4.7019      4.7585     13.0777    107.9154   -999.2500   -999.2500   -999.2500     84.9548  
  6857.0000    -22.2682      6.8600      4.7864      4.8440     13.1033    116.1832   -999.2500   -999.2500   -999.2500     86.2532  
  6857.5000    -21.5480      7.7748      4.7841      4.9311     13.2504    127.2355   -999.2500   -999.2500   -999.2500     84.9217  
  6858.0000    -21.0654      8.3174      4.6245      4.9663     13.2195    137.2781   -999.2500   -999.2500   -999.2500     79.7587  
  6858.5000    -20.6340      7.3487      4.4702      4.9820     13.1037    146.7988   -999.2500   -999.2500   -999.2500     77.7670  
  6859.0000    -20.4281      6.0437      4.3211      4.9978     13.0544    155.8860   -999.2500   -999.2500   -999.2500     78.1442  
  6859.5000    -20.4064      5.9617      4.5113      5.0136     13.0252    165.8636   -999.2500   -999.2500   -999.2500     78.0457  
  6860.0000    -20.6063      7.2441      4.8115      5.0295     13.0732    177.0877   -999.2500   -999.2500   -999.2500     77.8457  
  6860.5000    -20.9294      9.0792      4.9112      5.0454     13.1021    181.5206   -999.2500   -999.2500   -999.2500     77.5322  
  6861.0000    -21.4394      9.3037      4.8822      5.0330     13.0519    168.9404   -999.2500   -999.2500   -999.2500     76.5169  
  6861.5000    -21.9761      8.6523      4.9258      5.0102     13.0346    151.8185   -999.2500   -999.2500   -999.2500     77.8510  
  6862.0000    -22.1805      8.1752      4.9726      5.0291     13.0580    141.6486   -999.2500   -999.2500   -999.2500     82.2490  
  6862.5000    -22.1626      7.7584      4.9858      5.0555     13.0556    130.2692   -999.2500   -999.2500   -999.2500     84.5589  
  6863.0000    -21.9353      7.5128      4.8204      4.8972     13.0653    119.6338   -999.2500   -999.2500   -999.2500     87.7193  
  6863.5000    -21.6846      7.3046      4.6605      4.7440     13.0769    116.1861   -999.2500   -999.2500   -999.2500     91.4531  
  6864.0000    -21.8711      7.0328      4.5059      4.5955     13.0884    118.6455   -999.2500   -999.2500   -999.2500     95.1525  
  6864.5000    -22.1428      6.7598      4.3564      4.4517     13.1000    120.4714   -999.2500   -999.2500   -999.2500     97.1881  
  6865.0000    -22.4123      6.6871      4.2517      4.4429     13.1047    122.5899   -999.2500   -999.2500   -999.2500     96.8274  
  6865.5000    -22.5921      6.9851      4.2998      4.4611     13.1052    125.1687   -999.2500   -999.2500   -999.2500     95.6029  
  6866.0000    -22.3506      7.6014      4.3878      4.5036     13.1037    127.2629   -999.2500   -999.2500   -999.2500     93.8042  
  6866.5000    -22.0787      8.1018      4.4842      4.6224     13.0988    125.4143   -999.2500   -999.2500   -999.2500     92.3476  
  6867.0000    -21.6955      8.0807      4.5828      4.7443     13.0907    122.6698   -999.2500   -999.2500   -999.2500     92.3249  
  6867.5000    -21.3298      7.8681      4.6917      4.8694     13.0821    123.4224   -999.2500   -999.2500   -999.2500     94.5562  
  6868.0000    -21.3143      7.9154      4.8207      4.9978     13.0734    127.5562   -999.2500   -999.2500   -999.2500     98.7552  
  6868.5000    -21.1996      8.3204      4.9459      5.1297     13.0647    134.7809   -999.2500   -999.2500   -999.2500    101.5050  
  6869.0000    -20.8837      8.7815      5.0733      5.2649     13.0603    141.0609   -999.2500   -999.2500   -999.2500    102.2441  
  6869.5000    -20.7410      9.1089      5.2041      5.4038     13.0608    148.3040   -999.2500   -999.2500   -999.2500    102.5322  
  6870.0000    -21.0670      9.5969      5.3304      5.5252     13.0613    158.1112   -999.2500   -999.2500   -999.2500    102.5095  
  6870.5000    -21.4166      9.7604      5.5051      5.5982     13.0618    167.7340   -999.2500   -999.2500   -999.2500    103.4022  
  6871.0000    -22.0062      9.7623      5.5398      5.6722     13.0623    173.0569   -999.2500   -999.2500   -999.2500    104.9802  
  6871.5000    -22.3807      9.8626      5.4442      5.5475     13.0556    173.9749   -999.2500   -999.2500   -999.2500    105.6532  
  6872.0000    -22.4264      9.7364      5.2861      5.3797     13.0485    173.0651   -999.2500   -999.2500   -999.2500    105.8056  
  6872.5000    -22.5247      8.7890      4.9678      5.0677     13.0413    173.0992   -999.2500   -999.2500   -999.2500    105.4677  
  6873.0000    -22.6860      7.7014      4.6578      4.7523     13.0429    177.2190   -999.2500   -999.2500   -999.2500    104.9593  
  6873.5000    -22.7793      6.8443      4.4705      4.5218     13.0468    181.2206   -999.2500   -999.2500   -999.2500    104.2541  
  6874.0000    -23.0605      6.6177      4.2445      4.3210     13.0535    182.1288   -999.2500   -999.2500   -999.2500    103.8098  
  6874.5000    -23.5055      6.8517      3.9631      4.0328     13.0609    182.8993   -999.2500   -999.2500   -999.2500    103.7230  
  6875.0000    -23.7148      6.8730      3.6872      3.7857     13.0682    182.3833   -999.2500   -999.2500   -999.2500    103.3998  
  6875.5000    -23.8141      6.4160      3.2492      3.3216     13.0756    182.6712   -999.2500   -999.2500   -999.2500    103.1242  
  6876.0000    -23.5228      5.6624      2.9513      3.0299     13.0829    186.6883   -999.2500   -999.2500   -999.2500    102.5195  
  6876.5000    -23.2295      4.9244      2.7023      2.7589     13.0893    190.5255   -999.2500   -999.2500   -999.2500    101.5522  
  6877.0000    -23.1836      4.3102      2.5686      2.6068     13.0886    190.9895   -999.2500   -999.2500   -999.2500    100.6195  
  6877.5000    -23.1925      4.0481      2.4269      2.4694     13.0861    188.2436   -999.2500   -999.2500   -999.2500     99.6574  
  6878.0000    -23.1515      4.0482      2.3601      2.3915     13.0835    179.7110   -999.2500   -999.2500   -999.2500     98.1337  
  6878.5000    -23.0902      4.1456      2.3226      2.3490     13.0809    166.2270   -999.2500   -999.2500   -999.2500     96.8192  
  6879.0000    -23.2172      4.4287      2.3136      2.3399     13.0779    154.2868   -999.2500   -999.2500   -999.2500     95.6299  
  6879.5000    -23.5624      4.8326      2.3208      2.3469     13.0749    147.2015   -999.2500   -999.2500   -999.2500     93.4581  
