~VERSION INFORMATION
 VERS.                           2.00:        CWLS LOG ASCII STANDARD - VERSION 2.00
 WRAP.                             NO:        ONE LINE PER DEPTH STEP
~WELL INFORMATION
#MNEM.UNIT                   DATA             INFORMATION
#----------             --------------        ------------------------------
 STRT.F                       94.0000:        START DEPTH
 STOP.F                    11429.0000:        STOP DEPTH
 STEP.F                        0.5000:        STEP VALUE
 NULL.                      -999.2500:        NULL VALUE
 COMP. U.S. NAVY (HUSKY OIL CO.-OPER.:        COMPANY
 LOC .                      11 11N 1W:        LOCATION
 DATE.                        2/17/77:        LOG DATE
 WELL.             WEST FISH CREEK #1:        WELL
 UWI .                   500232001400:        UNIQUE WELL ID
 API .                   500232001400:        UNIQUE WELL IDENTIFIER
 FLD .                        WILDCAT:        FIELD
 CNTY.                    NORTH SLOPE:        COUNTY
 STAT.                         ALASKA:        STATE
 CTRY.                            USA:        COUNTRY
 OPER. U.S. NAVY (HUSKY OIL CO.-OPER.:        OPERATOR
 SRVC.                   SCHLUMBERGER:        SERVICE COMPANY
 LAT .                         0.0000:        LATITUDE
 LON .                         0.0000:        LONGITUDE
 DIGS.               CENTER LINE DATA:        DIGITIZING COMPANY
~CURVE INFORMATION      
#MNEM        .UNIT         API CODE           CURVE DESCRIPTION
#-----------------      --------------        ------------------------------
 DEPT        .F                      :        1  DEPTH
 SP          .MV                     :        2  
 ILD         .OHMM                   :        3  
 ILM         .OHMM                   :        4  
 LL8         .OHMM                   :        5  
 CALI        .IN                     :        6  
 RHOB        .G/C3                   :        7  
 DRHO        .G/C3                   :        8  
 NPHI        .%                      :        9  
 GR          .GAPI                   :        10 
 DT          .US/F                   :        11 
~PARAMETER INFORMATION
#MNEM.UNIT                  VALUE             DESCRIPTION OF MNEMONIC
#---------             ---------------        ------------------------------
 EKB .F                      113.0000:        KELLY BUSHING
 TD  .F                    11429.0000:        TOTAL DEPTH
~OTHER INFORMATION
~A    DEPTH          SP         ILD         ILM         LL8        CALI        RHOB        DRHO        NPHI          GR          DT 
# ...
 10708.0000    -20.0685     51.7812     45.7063    235.9264      9.0656      2.6844      0.5440     23.6559     16.7179     51.6447 
 10708.5000    -19.8772    126.8346     54.1527    207.3765      9.0835      2.6632      0.5566     19.6284     14.5016     52.5608 
 10709.0000    -19.7654    295.9451     62.3946    189.4440      9.0981      2.6260      0.5598     16.5892     14.1851     54.0029 
 10709.5000    -19.5854    581.7331     70.6000    186.6607      9.0869      2.6188      0.5626     15.8622     14.3608     55.8130 
 10710.0000    -19.4887    869.2173     84.1387    202.2848      9.1195      2.6187      0.5641     15.6225     16.4953     55.1063 
 10710.5000    -19.5348    518.5929     95.8592    223.6166      9.0478      2.6040      0.5627     15.5041     19.1607     54.3311 
 10711.0000    -19.6958    328.9426     96.9138    248.1586      9.2371      2.6504      0.5603     15.4576     20.9783     52.8882 
 10711.5000    -19.7483    230.5288     92.0680    297.6454      9.4299      2.6799      0.5580     15.4307     21.2488     52.4618 
 10712.0000    -19.9515    209.2188     88.6397    338.6509      9.5202      2.6625      0.5556     15.4464     19.9663     51.8740 
 10712.5000    -20.3121    190.0354     83.0657    336.0192      9.5710      2.6778      0.5533     15.4105     18.2464     51.0955 
 10713.0000    -20.7241    171.0153     74.9578    328.0242      9.6610      2.6690      0.5509     15.3847     17.3899     52.0064 
 10713.5000    -21.2338    158.1680     66.8283    364.0680      9.7193      2.6259      0.5485     15.3920     17.8804     52.2157 
 10714.0000    -22.0232    143.0900     60.6566    425.1946      9.9822      2.5937      0.5462     15.4053     18.8602     53.0126 
 10714.5000    -22.8697    129.8860     56.4307    377.2472     10.0969      2.5812      0.5378     15.4232     19.4866     53.3113 
 10715.0000    -23.7688    124.8340     58.6381    188.2588     10.0275      2.5706      0.5292     15.5212     20.5845     49.2090 
 10715.5000    -24.7555    117.4811     63.8966    118.0042     10.2594      2.5818      0.5246     15.6282     22.2537     51.3098 
 10716.0000    -25.8192    108.3940     62.3979    120.5865     10.3526      2.5007      0.5271     15.7711     24.1409     53.5597 
 10716.5000    -26.6664     99.9562     59.3867    163.2563     10.0918      2.4909      0.5295     15.9623     25.6903     56.8014 
 10717.0000    -27.1689    101.1389     58.4213    222.9764      9.5762      2.5192      0.5320     16.2154     23.4950     56.9923 
 10717.5000    -27.3561    119.7188     59.6430    253.4120      9.0309      2.5726      0.5353     16.4744     20.7900     54.8249 
 10718.0000    -26.5729    141.7120     62.9400    241.5210      9.4211      2.6345      0.5419     16.2123     19.2673     55.6218 
 10718.5000    -24.0387    163.6828     68.5265    221.4003      9.8586      2.6597      0.5458     15.8498     18.0656     54.0361 
 10719.0000    -19.7921    177.1365     74.5209    203.0589      9.8744      2.6577      0.5463     15.6038     18.4181     53.7857 
 10719.5000    -17.5859    180.0604     72.5128    183.6797      9.6269      2.6337      0.5456     15.5934     18.9429     53.7819 
 10720.0000    -19.3851    174.6558     68.3651    174.7099      9.5879      2.6211      0.5449     15.6535     18.9370     54.5634 
 10720.5000    -25.1162    166.0038     64.1936    168.9193      9.5455      2.6008      0.5442     15.6889     19.3022     49.3735 
 10721.0000    -28.7848    159.8395     61.5061    189.1402      9.6628      2.5822      0.5446     15.6905     21.6576     51.9467 
 10721.5000    -28.6533    158.6088     61.1293    221.6062      9.8852      2.5833      0.5450     15.6410     24.0427     51.8027 
 10722.0000    -29.7063    159.8879     63.4273    254.7288     10.1535      2.6171      0.5454     15.6092     25.1842     53.2049 
 10722.5000    -32.4825    160.1489     66.9605    290.3738     10.3811      2.6377      0.5457     15.4518     25.3335     55.5559 
 10723.0000    -40.1768    154.7192     66.7262    288.4587     10.2922      2.6466      0.5469     15.3721     23.6897     50.3582 
 10723.5000    -54.6741    152.7121     60.5481    217.3033     10.2032      2.6326      0.5492     15.3171     21.2492     53.1888 
 10724.0000    -66.8929    151.1456     54.9480    171.7211     10.3033      2.5831      0.5494     15.3261     21.4460     53.9992 
 10724.5000    -68.9058    154.1963     59.8856    152.0094     10.2507      2.5925      0.5486     15.4249     23.4584     57.6732 
 10725.0000    -69.8443    169.7203     64.9729    195.0037     10.0886      2.6084      0.5438     15.5181     24.9918     55.3806 
 10725.5000    -72.6465    170.1242     65.5084    273.0967     10.2873      2.5933      0.5389     15.5766     24.1000     56.6423 
 10726.0000    -79.0568    168.8162     65.8035    297.5942     10.2377      2.5803      0.5340     15.5811     23.1137     52.4686 
 10726.5000    -90.7923    176.1803     66.4236    307.7476     10.0399      2.5764      0.5292     15.6120     23.1315     51.8289 
 10727.0000    -97.5144    185.5558     64.0669    305.4796      9.8778      2.6218      0.5243     15.7204     22.7369     50.5796 
 10727.5000    -98.1426    191.6931     60.1463    254.2258     10.1276      2.6560      0.5155     15.8239     22.7689     52.8777 
 10728.0000    -98.8969    192.9301     61.9893    192.7411     10.1565      2.6528      0.5068     15.9352     24.4515     52.0319 
 10728.5000    -99.7750    179.1036     65.7606    168.0691     10.1004      2.6615      0.4980     16.0785     26.8419     53.1641 
 10729.0000   -100.6353    157.7453     71.1381    170.1427      9.9499      2.6759      0.4931     16.5489     29.3461     55.3681 
 10729.5000   -101.3240    138.9229     69.8460    211.2015      9.9631      2.6553      0.5013     18.3331     31.3343     54.2067 
 10730.0000   -101.5754    120.4580     61.8503    247.3671     10.0373      2.6225      0.5094     19.3024     33.7262     52.8124 
 10730.5000   -101.7835    123.2250     55.0988    280.0868      9.8274      2.6093      0.5230     18.2085     32.3384     52.7205 
 10731.0000   -101.7935    141.0961     58.9591    242.7792      9.7280      2.5692      0.5291     17.1146     29.4061     54.1068 
 10731.5000   -101.3381    161.5591     72.7037    198.5339     10.0720      2.5406      0.5343     16.3104     29.0672     50.8649 
 10732.0000   -100.9601    190.8219    101.4976    180.8418     10.5436      2.5314      0.5394     15.9725     29.9439     53.7080 
 10732.5000   -100.6014    236.2897    163.7699    229.5064     10.4400      2.5622      0.5367     15.8193     27.3631     56.3645 
 10733.0000   -100.3542    262.5721    184.0513    268.3353      9.9190      2.5785      0.5339     15.8483     24.3351     57.4660 
 10733.5000   -100.3642    250.7196    168.7367    255.1091      9.7477      2.6030      0.5342     15.9242     21.3657     55.9082 
 10734.0000   -100.3742    227.0762    136.7560    230.6268      9.5888      2.6445      0.5392     15.9965     21.1133     56.2871 
 10734.5000   -100.3842    211.0135    124.2842    218.3405      9.5151      2.6716      0.5429     15.9728     20.4431     55.7081 
 10735.0000   -100.4519    193.6503    114.3123    223.3027      9.4881      2.6411      0.5418     15.9130     19.5410     55.1892 
 10735.5000   -100.5231    165.5940    102.4086    223.7897      9.4610      2.6208      0.5407     15.9410     19.1404     54.9970 
 10736.0000   -100.5943    137.8293     87.7375    182.2099      9.4983      2.6089      0.5356     16.0168     19.8065     54.4886 
 10736.5000   -100.6655    114.5475     75.1681    120.6032      9.5472      2.6144      0.5305     16.0588     20.3304     54.2153 
 10737.0000   -100.7367     96.7840     64.3994    100.4946      9.5961      2.6245      0.5254     16.0787     20.4067     54.6607 
 10737.5000   -100.8079     87.3191     62.8419     93.5756      9.6067      2.6316      0.5203     16.1336     21.3917     55.1060 
 10738.0000   -100.8894     79.3164     67.1414    103.7624      9.6253      2.6489      0.5138     16.2604     21.6066     55.3489 
