~VERSION INFORMATION
 VERS.                           2.00:        CWLS LOG ASCII STANDARD - VERSION 2.00
 WRAP.                             NO:        ONE LINE PER DEPTH STEP
~WELL INFORMATION
#MNEM.UNIT                   DATA             INFORMATION
#----------             --------------        ------------------------------
 STRT.F                       66.0000:        START DEPTH
 STOP.F                    11266.0000:        STOP DEPTH
 STEP.F                        0.5000:        STEP VALUE
 NULL.                      -999.2500:        NULL VALUE
 COMP.              HUSKY OIL COMPANY:        COMPANY
 LOC .                       6 12N 2E:        LOCATION
 DATE.                       12/24/76:        LOG DATE
 WELL.          SOUTH HARRISON BAY #1:        WELL
 UWI .                   501032000700:        UNIQUE WELL ID
 API .                   501032000700:        UNIQUE WELL IDENTIFIER
 FLD .                        WILDCAT:        FIELD
 CNTY.                    NORTH SLOPE:        COUNTY
 STAT.                         ALASKA:        STATE
 CTRY.                            USA:        COUNTRY
 OPER.              HUSKY OIL COMPANY:        OPERATOR
 SRVC.                   SCHLUMBERGER:        SERVICE COMPANY
 LAT .                         0.0000:        LATITUDE
 LON .                         0.0000:        LONGITUDE
 DIGS.               CENTER LINE DATA:        DIGITIZING COMPANY
~CURVE INFORMATION      
#MNEM        .UNIT         API CODE           CURVE DESCRIPTION
#-----------------      --------------        ------------------------------
 DEPT        .F                      :        1  DEPTH
 GR          .GAPI                   :        2  
 CALI        .IN                     :        3  
 DRHO        .G/C3                   :        4  
 RHOB        .G/C3                   :        5  
 NPHI        .%                      :        6  
 DT          .US/F                   :        7  
 SP          .MV                     :        8  
 ILD         .OHMM                   :        9  
 ILM         .OHMM                   :        10 
 LL8         .OHMM                   :        11 
~PARAMETER INFORMATION
#MNEM.UNIT                  VALUE             DESCRIPTION OF MNEMONIC
#---------             ---------------        ------------------------------
 EKB .F                       45.0000:        KELLY BUSHING
 TD  .F                    11290.0000:        TOTAL DEPTH
 BHT .F                      174.0000:        BOTTOM HOLE TEMPERATURE
 BS  .                        12.2500:        BIT SIZE
 FD  .                        10.7000:        FLUID DENSITY
 CSIZ.                        13.3750:        CASING SIZE
 CBD .F                     2600.0000:        CASING DRILLER 1
 CBL .F                     2600.0000:        CASING LOGGER 1
 DFT .                  MISCELLANEOUS:        TYPE FLUID IN HOLE
 DFV .                        52.0000:        VISCOSITY
 DFPH.                         8.2000:        PH
 DFL .                         6.0000:        FLUID LOSS
 RMS .                         1.3900:        RM
 MST .F                       60.0000:        RM MEAS. TEMP.
 RMF .                         1.0200:        RMF
 MFST.F                       60.0000:        RMF MEAS. TEMP.
 RMC .                         1.3800:        RMC
 MCST.F                       60.0000:        RMC MEAS. TEMP.
~OTHER INFORMATION
~A    DEPTH          GR        CALI        DRHO        RHOB        NPHI          DT          SP         ILD         ILM         LL8 
# ...
  6776.0000     88.1001     13.8661      0.0139      2.5062     33.3302     85.2484    -49.7616      5.3996      5.4722      6.0459 
  6776.5000     87.3695     14.0102      0.0009      2.4976     33.3079     86.1017    -49.7835      5.4072      5.4800      5.9472 
  6777.0000     86.9464     14.3191     -0.0028      2.4947     33.0033     87.0752    -49.8053      5.4149      5.4878      5.8501 
  6777.5000     87.0012     13.8865      0.0088      2.4949     32.6987     87.1398    -49.8271      5.4231      5.4962      5.7545 
  6778.0000     86.3951     13.8130      0.0058      2.4944     32.3418     87.1042    -49.8489      5.4425      5.5159      5.7727 
  6778.5000     84.2234     14.1154      0.0041      2.4803     31.5464     86.6233    -49.8483      5.4620      5.5357      5.8087 
  6779.0000     82.2310     14.2281      0.0212      2.4853     30.8395     86.3729    -49.8404      5.4816      5.5556      5.8755 
  6779.5000     81.7394     14.2195      0.0343      2.4981     31.0460     85.8856    -49.8326      5.5013      5.5755      5.9642 
  6780.0000     83.2858     13.9719      0.0263      2.5004     31.5882     85.3745    -49.8247      5.5210      5.5955      6.0542 
  6780.5000     85.6993     14.0664      0.0176      2.5024     32.1827     84.9199    -49.8168      5.5408      5.6156      5.9710 
  6781.0000     88.6413     14.4794      0.0152      2.5152     32.1031     85.3348    -49.8090      5.5607      5.6357      5.9362 
  6781.5000     88.5571     14.9944      0.0198      2.5017     32.0943     85.9277    -49.8011      5.5806      5.6559      6.0323 
  6782.0000     86.1089     14.3365      0.0118      2.5006     32.0927     84.7253    -49.7932      5.6007      5.6762      6.0978 
  6782.5000     85.2793     13.9103      0.0374      2.5073     32.0911     83.6146    -49.7854      5.6208      5.6966      6.0950 
  6783.0000     84.9053     13.9108      0.0732      2.5354     32.5583     84.7319    -49.7775      5.6409      5.7170      6.0922 
  6783.5000     85.2172     14.2052      0.0648      2.5259     33.0162     85.0655    -49.7696      5.6611      5.7375      6.0895 
  6784.0000     84.5528     14.0685      0.0512      2.5069     33.8950     85.4056    -49.7618      5.6814      5.7581      6.0644 
  6784.5000     83.2717     13.8924      0.0359      2.4880     34.3856     85.6216    -49.7539      5.6503      5.7269      5.9912 
  6785.0000     84.8200     13.9594      0.0087      2.4842     33.6843     86.5930    -49.7460      5.6181      5.6942      5.9190 
  6785.5000     86.2906     14.2617      0.0085      2.5180     31.9680     85.8306    -49.7382      5.5860      5.6617      5.8476 
  6786.0000     86.5977     13.9952      0.0199      2.5485     30.7871     85.9070    -49.7303      5.5542      5.6294      5.8322 
  6786.5000     86.6262     13.9093      0.0216      2.5237     30.2433     85.4944    -49.7224      5.5225      5.5973      5.9140 
  6787.0000     87.1285     13.9899      0.0175      2.5079     30.1991     84.7087    -49.7146      5.4910      5.5653      5.9970 
  6787.5000     88.0074     13.7565      0.0230      2.4865     31.0849     84.7106    -49.7067      5.4596      5.5336      5.9210 
  6788.0000     87.9061     14.1880      0.0237      2.4843     32.4610     85.5733    -49.6988      5.4285      5.5020      5.8353 
  6788.5000     87.0562     14.2647      0.0283      2.4893     33.7725     86.0938    -49.6910      5.3986      5.4712      5.7667 
  6789.0000     86.3414     14.0642      0.0208      2.4908     34.7454     86.7451    -49.6831      5.4002      5.4728      5.7026 
  6789.5000     86.5202     13.9500      0.0319      2.5234     34.7841     87.1333    -49.6752      5.4017      5.4743      5.6393 
  6790.0000     87.4030     13.9074      0.0210      2.5268     34.4279     87.3002    -49.6674      5.4033      5.4759      5.6318 
  6790.5000     87.8170     14.0468      0.0081      2.5201     34.0801     87.0560    -49.6595      5.4048      5.4775      5.6742 
  6791.0000     86.8687     14.6086      0.0139      2.5184     34.0898     86.5827    -49.6516      5.4063      5.4790      5.7169 
  6791.5000     85.9164     14.2856      0.0296      2.5222     34.2929     85.5831    -49.6438      5.4079      5.4806      5.9035 
  6792.0000     87.2278     14.0945      0.0513      2.5276     34.4000     84.6882    -49.6359      5.4094      5.4822      6.1090 
  6792.5000     88.9142     14.0572      0.0367      2.5051     34.5030     83.7933    -49.6280      5.4110      5.4838      6.3131 
  6793.0000     89.2645     13.9440      0.0182      2.4964     34.4272     84.9883    -49.6202      5.4125      5.4853      6.1032 
  6793.5000     88.9138     13.7691      0.0132      2.4911     34.3916     85.8354    -49.6123      5.4144      5.4872      5.7501 
  6794.0000     87.3758     13.5899      0.0111      2.4767     34.3818     86.3890    -49.6044      5.4175      5.4904      5.7688 
  6794.5000     86.1758     13.5682      0.0078      2.4586     34.4575     86.7224    -49.5966      5.4206      5.4935      5.7876 
  6795.0000     85.9823     13.5656     -0.0000      2.4525     34.8810     86.0535    -49.5887      5.4238      5.4967      5.8065 
  6795.5000     85.1326     13.5404     -0.0056      2.4480     34.9113     86.1134    -49.5808      5.4269      5.4999      5.8254 
  6796.0000     82.6489     13.6626     -0.0031      2.4699     33.8606     86.5120    -49.5730      5.4300      5.5030      5.8444 
  6796.5000     80.4769     13.8874      0.0137      2.4886     33.0439     86.6651    -49.5651      5.4332      5.5062      5.8634 
  6797.0000     79.5980     13.7870      0.0365      2.4997     33.0123     86.6521    -49.5573      5.4363      5.5094      5.8909 
  6797.5000     79.5959     14.0728      0.0235      2.4793     33.3044     86.5141    -49.5494      5.4394      5.5125      5.9201 
  6798.0000     80.9618     13.7237      0.0130      2.4735     33.4726     85.8942    -49.5415      5.4426      5.5157      5.9493 
  6798.5000     83.9186     13.8393      0.0158      2.4813     33.2248     85.0593    -49.5336      5.4457      5.5189      6.0032 
  6799.0000     87.4061     13.8280      0.0301      2.5067     33.0232     84.7869    -49.5258      5.4488      5.5221      6.0814 
  6799.5000     89.5319     13.6770      0.0195      2.4833     32.9356     85.2021    -49.5179      5.4520      5.5253      6.0692 
  6800.0000     89.9502     13.7312      0.0152      2.4826     33.6902     84.2881    -49.5101      5.4551      5.5284      6.0306 
  6800.5000     88.4249     13.7262      0.0266      2.5166     33.1965     84.9922    -49.5103      5.4583      5.5316      5.9922 
  6801.0000     88.2444     13.7816      0.0233      2.5208     33.0038     85.4698    -49.5386      5.4614      5.5348      5.9540 
  6801.5000     88.6950     13.7821      0.0225      2.5045     33.0145     85.9805    -49.5669      5.4646      5.5380      5.9161 
  6802.0000     90.5854     13.7798      0.0177      2.4893     32.2863     86.1038    -49.5952      5.4527      5.5261      5.8784 
  6802.5000     91.8508     13.7696      0.0181      2.4926     31.5527     86.2440    -49.6235      5.4375      5.5108      5.9532 
  6803.0000     90.7445     13.6189      0.0037      2.4897     31.6561     85.9946    -49.6518      5.4224      5.4955      6.0519 
  6803.5000     89.5340     13.5684      0.0007      2.4890     32.9830     85.5079    -49.6801      5.4074      5.4802      6.1522 
  6804.0000     87.6690     13.6800      0.0033      2.5059     33.7737     85.3943    -49.7084      5.3924      5.4650      6.2397 
  6804.5000     86.2021     13.8587      0.0072      2.5095     33.8121     85.4331    -49.7367      5.3774      5.4499      6.1315 
  6805.0000     86.9078     14.0241      0.0054      2.5079     33.8212     86.0000    -49.7650      5.3625      5.4348      6.0252 
  6805.5000     87.7212     13.8164      0.0166      2.5182     33.4552     86.4011    -49.7933      5.3891      5.4670      5.9208 
  6806.0000     88.5737     13.6636      0.0255      2.5346     32.8362     86.1148    -49.8216      5.4875      5.5668      5.8693 
