~VERSION INFORMATION
 VERS.                      2.00:        CWLS LOG ASCII STANDARD - VERSION 2.00
 WRAP.                        NO:        ONE LINE PER DEPTH STEP
~WELL INFORMATION
#MNEM.UNIT               DATA            INFORMATION
#----------          ------------        ------------------------------
 STRT.F                 490.0000:        START DEPTH
 STOP.F               10659.0000:        STOP DEPTH
 STEP.F                   0.5000:        STEP VALUE
 NULL.                 -999.2500:        NULL VALUE
 COMP. HUSKY OIL NPR OPERATIONS,:        COMPANY  
 WELL.         EAST TESHEKPUK #1:        WELL     
 FLD .   U.S. NAVY NPR-4 WILDCAT:        FIELD    
 LOC .              16  14N   4W:        LOCATION   
 CNTY.                  N. SLOPE:        COUNTY  
 STAT.                    ALASKA:        STATE   
 CTRY.                       USA:        COUNTRY 
 DATE.                   4/11/76:        LOG DATE 
 API .              502790000000:        UNIQUE WELL IDENTIFIER 
 OPER. HUSKY OIL NPR OPERATIONS,:        OPERATOR  
 SRVC.              Schlumberger:        SERVICE COMPANY 
 UWI .              502790000000:        UNIQUE WELL ID 
 LAT .                    0.0000:        LATITUDE
 LON .                    0.0000:        LONGITUDE
 DIGS.          Center Line Data:        DIGITIZING COMPANY 
~CURVE INFORMATION      
#MNEM.UNIT            API CODE           CURVE DESCRIPTION
#---------          -------------        ------------------------------
 DEPT.F                         :        1  DEPTH
 SP  .MV                        :        2
 LL8 .OHMM                      :        3
 ILM .OHMM                      :        4
 ILD .OHMM                      :        5
 CALI.IN                        :        6
 GR  .GAPI                      :        7
 RHOB.G/C3                      :        8
 DRHO.G/C3                      :        9
 NPHI.%                         :       10
 DT  .US/F                      :       11
~PARAMETER INFORMATION       
#MNEM.UNIT              VALUE            DESCRIPTION OF MNEMONIC
#---------          -------------        ------------------------------
 EKB .F                  27.6000:        KELLY BUSHING
 TD  .F               10664.0000:        TOTAL DEPTH
 BHT .F                 172.0000:        BOTTOM HOLE TEMPERATURE
 BS  .                   13.5000:        BIT SIZE
 FD  .                   10.2000:        FLUID DENSITY
 CSIZ.                   16.0000:        CASING SIZE
 CBD .F                2578.0000:        CASING DRILLER 1
 CBL .F                2572.0000:        CASING LOGGER 1
 DFT . Salt Water-Lignosulfonate:        TYPE FLUID IN HOLE
 DFV .                   51.0000:        VISCOSITY
 DFPH.                   10.6000:        PH
 DFL .                    3.5000:        FLUID LOSS
 RMS .                    2.2600:        RM
 MST .F                  64.0000:        RM MEAS. TEMP.
 RMF .                    1.8900:        RMF
 MFST.F                  58.0000:        RMF MEAS. TEMP.
 RMC .                    2.5400:        RMC
 MCST.F                  58.0000:        RMC MEAS. TEMP.
 UWI .              502790000000:        UNIQUE WELL ID
~OTHER INFORMATION
~A    DEPTH          SP         LL8         ILM         ILD        CALI          GR        RHOB        DRHO        NPHI          DT  
# ...
 10630.0000    -48.0080    369.9568   1864.6906    380.6693      9.6378    236.8424      2.5549     -0.0040      4.6183     55.6973  
 10630.5000    -47.9910    446.4287   1967.5143    731.7283      9.6346    235.4136      2.5734     -0.0035      4.4723     55.6324  
 10631.0000    -47.9890    526.9650   2012.1976   1034.9771      9.6315    234.9199      2.5562     -0.0026      4.3350     55.4946  
 10631.5000    -48.0461    595.7169   2023.3479   1066.2610      9.6283    237.0952      2.5680     -0.0017      4.3034     55.5211  
 10632.0000    -47.9643    644.1414   2022.0143    874.0253      9.6252    239.6889      2.5753     -0.0007      4.6665     55.5826  
 10632.5000    -48.1879    652.1489   2020.6827    812.9302      9.6220    241.2779      2.5748      0.0007      5.1339     55.6657  
 10633.0000    -48.4875    634.3630   1935.4971    735.4644      9.6189    242.3822      2.5686      0.0032      5.5082     55.7021  
 10633.5000    -48.7525    539.4874   1846.1575    560.7266      9.6318    242.2778      2.5774      0.0004      5.8826     55.6283  
 10634.0000    -48.8416    424.0842   1767.4421    427.5045      9.6489    238.5205      2.5755     -0.0066      6.4028     55.5715  
 10634.5000    -49.6101    321.7910   1693.0225    325.9344      9.6577    233.0413      2.5771     -0.0135      6.9695     55.5689  
 10635.0000    -50.0615    208.9405   1606.2404    315.3938      9.6594    232.5681      2.5742     -0.0204      7.3407     55.8043  
 10635.5000    -50.5036    165.8448   1319.5170    325.0345      9.6584    233.3850      2.5777     -0.0274      7.5202     56.7181  
 10636.0000    -51.0129    175.8423   1065.7640    337.4083      9.6574    233.9310      2.5724     -0.0277      7.3242     57.3445  
 10636.5000    -51.5212    208.0951    661.8140    303.9275      9.6564    234.0988      2.5573     -0.0189      7.0981     57.4984  
 10637.0000    -51.7508    243.4805    445.4218    256.6664      9.6554    232.8218      2.5436     -0.0152      6.8512     57.6884  
 10637.5000    -52.0558    276.2021    315.5255    222.7001      9.6544    231.9364      2.5382     -0.0217      6.9858     62.4721  
 10638.0000    -52.3936    313.3210    230.1763    200.0149      9.6533    232.6949      2.5374     -0.0282      7.2902     72.0842  
 10638.5000    -52.7849    247.3541    193.4319    179.6404      9.6523    233.1841      2.5433     -0.0334      7.7247     68.5601  
 10639.0000    -53.0640    179.1346    204.0832    164.1349      9.6513    232.1699      2.5572     -0.0352      8.2551     57.6471  
 10639.5000    -53.2293    126.9124    255.9537    169.0678      9.6503    231.6332      2.5688     -0.0413      8.5704     58.4154  
 10640.0000    -53.1714    103.5698    363.0780    165.2100      9.6493    232.5425      2.5576     -0.0418      8.2371     59.1981  
 10640.5000    -53.0572    108.1488    720.5270    161.4403      9.6441    233.7119      2.5548     -0.0368      7.4182     59.9112  
 10641.0000    -52.9628    144.2835   1428.4727    157.7565      9.6360    235.4990      2.5738     -0.0200      6.3372     60.1362  
 10641.5000    -52.8875    215.5312   1710.7488    174.8413      9.6279    235.1052      2.5812     -0.0069      5.2563     59.7950  
 10642.0000    -52.8185    346.8154   1784.2797    194.9273      9.6198    234.2960      2.5509      0.0062      4.1754     58.4584  
 10642.5000    -52.7663    657.2277   1841.3081    279.2798      9.6118    233.2814      2.5501      0.0194      3.5872     57.3605  
 10643.0000    -52.6863   1237.1456   1878.9059    468.8237      9.6037    231.4279      2.5646      0.0151      3.4801     55.8086  
 10643.5000    -52.5500   1429.2948   1894.3380    868.1044      9.5956    229.4013      2.5724      0.0101      3.4603     54.7684  
 10644.0000    -52.3320   1432.4698   1909.7427   1496.1476      9.5875    224.0799      2.5875      0.0067      3.4404     53.8183  
 10644.5000    -52.0577   1429.3882   1925.2716   1679.2673      9.5795    216.8142      2.5633      0.0044      3.4228     53.2433  
 10645.0000    -51.8759   1426.3131   1940.9279   1692.9231      9.5714    213.0090      2.5426      0.0021      3.4113     53.0078  
 10645.5000    -51.6677   1423.2446   1956.7114   1694.2777      9.5680    212.5670      2.5222      0.0001      3.3998     52.8912  
 10646.0000    -51.6940   1420.1827   1972.6234   1695.6324      9.5657    209.4894      2.5039     -0.0001      3.3607     52.9310  
 10646.5000    -51.1082   1417.1274   1972.6028   1696.9893      9.5634    196.7307      2.5186     -0.0004      3.3967     52.9548  
 10647.0000    -50.9863   1414.0787   1958.8450   1698.3463      9.5612    181.3232      2.5374      0.0016      3.2668     52.7988  
 10647.5000    -50.9785   1411.0358   1945.1830   1699.7053      9.5589    156.8566      2.5559      0.0061      3.3355     52.4767  
 10648.0000    -51.1740   1408.0002   1931.6152   1701.0645      9.5566    142.8138      2.5779      0.0106      3.2672     51.9955  
 10648.5000    -51.0068   1409.9069   1918.1432   1702.4255      9.5544    102.9035      2.5606      0.0134      3.2638     51.6971  
 10649.0000    -50.9197   1412.0494   1904.7651   1703.7869      9.5521     46.1538      2.5496      0.0047      3.1961     51.7649  
 10649.5000    -50.8428   1407.8186   1891.4803   1705.1503      9.5498     20.4790      2.5488      0.0060      3.1851     51.8260  
 10650.0000    -50.7688   1406.8822   1878.2871   1706.5137      9.5476     18.5686      2.5696      0.0225      3.1747     51.7221  
 10650.5000    -50.5366   1406.7014   1862.6637   1707.8793      9.5453   -999.2500      2.6016      0.0336      3.1644   -999.2500  
 10651.0000    -50.4288   1406.0630   1840.6664   1709.2449      9.5430   -999.2500      2.5928      0.0224      3.1267   -999.2500  
 10651.5000    -50.2649   1402.1973   1818.9288   1710.6117      9.5408   -999.2500      2.5706      0.0113      3.1123   -999.2500  
 10652.0000    -50.1171   1399.2045   1797.4479   1711.9805      9.5385   -999.2500      2.5661      0.0031      3.1915   -999.2500  
 10652.5000    -49.8530   1393.6940   1781.1138   1713.3495      9.5362   -999.2500      2.5755      0.0089      3.1654   -999.2500  
 10653.0000    -49.5113   1387.1166   1766.1066   1714.7205      9.5340   -999.2500      2.5846      0.0148      3.1998   -999.2500  
 10653.5000    -49.0381   1390.0492   1761.0566   1716.0916      9.5317   -999.2500      2.5745      0.0153      3.2729   -999.2500  
 10654.0000    -48.5649   1391.2264   1776.8167   1716.9539      9.5268   -999.2500      2.5699      0.0144      3.3242   -999.2500  
 10654.5000   -999.2500   -999.2500   -999.2500   -999.2500      9.5203   -999.2500      2.5634      0.0124      3.3037   -999.2500  
 10655.0000   -999.2500   -999.2500   -999.2500   -999.2500      9.5138   -999.2500      2.5658      0.0104      3.2586   -999.2500  
 10655.5000   -999.2500   -999.2500   -999.2500   -999.2500      9.5074   -999.2500      2.5721      0.0166      3.2829   -999.2500  
 10656.0000   -999.2500   -999.2500   -999.2500   -999.2500      9.5009   -999.2500      2.5825      0.0229      3.1904   -999.2500  
 10656.5000   -999.2500   -999.2500   -999.2500   -999.2500      9.4945   -999.2500      2.6005      0.0214      2.9653   -999.2500  
 10657.0000   -999.2500   -999.2500   -999.2500   -999.2500      9.4880   -999.2500      2.5834      0.0199      2.5173   -999.2500  
 10657.5000   -999.2500   -999.2500   -999.2500   -999.2500      9.4816   -999.2500      2.5730      0.0156      1.7856   -999.2500  
 10658.0000   -999.2500   -999.2500   -999.2500   -999.2500      9.4630   -999.2500      2.5711      0.0226      1.0444   -999.2500  
 10658.5000   -999.2500   -999.2500   -999.2500   -999.2500      9.3690   -999.2500      2.5912      0.0441      0.5225   -999.2500  
 10659.0000   -999.2500   -999.2500   -999.2500   -999.2500      9.2751   -999.2500      2.6113      0.0588      1.5633   -999.2500  
