~VERSION INFORMATION
 VERS.                      2.00:        CWLS LOG ASCII STANDARD - VERSION 2.00
 WRAP.                        NO:        ONE LINE PER DEPTH STEP
~WELL INFORMATION
#MNEM.UNIT               DATA            INFORMATION
#----------          ------------        ------------------------------
 STRT.F                  40.0000:        START DEPTH
 STOP.F                9893.0000:        STOP DEPTH
 STEP.F                   0.5000:        STEP VALUE
 NULL.                 -999.2500:        NULL VALUE
 COMP.                 U.S. NAVY:        COMPANY  
 WELL.    CAPE HALKETT #16N-2W-1:        WELL     
 FLD .                   WILDCAT:        FIELD    
 LOC .               5  16N   2W:        LOCATION   
 CNTY.               NORTH SLOPE:        COUNTY  
 STAT.                    ALASKA:        STATE   
 CTRY.                       USA:        COUNTRY 
 DATE.                    4/9/75:        LOG DATE 
 API .              500000000000:        UNIQUE WELL IDENTIFIER 
 OPER.                 U.S. NAVY:        OPERATOR  
 SRVC.              Schlumberger:        SERVICE COMPANY 
 UWI .              500000000000:        UNIQUE WELL ID 
 LAT .                    0.0000:        LATITUDE
 LON .                    0.0000:        LONGITUDE
 DIGS.          Center Line Data:        DIGITIZING COMPANY 
~CURVE INFORMATION      
#MNEM.UNIT            API CODE           CURVE DESCRIPTION
#---------          -------------        ------------------------------
 DEPT.F                         :        1  DEPTH
 SP  .MV                        :        2
 ILD .OHMM                      :        3
 ILM .OHMM                      :        4
 LL8 .OHMM                      :        5
 CALI.IN                        :        6
 GR  .GAPI                      :        7
 DRHO.G/C3                      :        8
 RHOB.G/C3                      :        9
 NPHI.%                         :       10
 DPHI.%                         :       11
 DT  .US/F                      :       12
~PARAMETER INFORMATION       
#MNEM.UNIT              VALUE            DESCRIPTION OF MNEMONIC
#---------          -------------        ------------------------------
 EKB .F                  39.5000:        KELLY BUSHING
 TD  .F                7867.0000:        TOTAL DEPTH
 BHT .F                  60.0000:        BOTTOM HOLE TEMPERATURE
 BS  .                   18.5000:        BIT SIZE
 FD  .                   10.5000:        FLUID DENSITY
 CSIZ.                   20.0000:        CASING SIZE
 CBD .F                 492.0000:        CASING DRILLER 1
 CBL .F                 493.0000:        CASING LOGGER 1
 DFT .             Miscellaneous:        TYPE FLUID IN HOLE
 DFV .                  200.0000:        VISCOSITY
 DFPH.                   10.0000:        PH
 DFL .                    9.2000:        FLUID LOSS
 RMS .                    2.1500:        RM
 MST .F                  57.0000:        RM MEAS. TEMP.
 RMF .                    2.2000:        RMF
 MFST.F                  40.0000:        RMF MEAS. TEMP.
 RMC .                    0.0000:        RMC
 MCST.F                   0.0000:        RMC MEAS. TEMP.
 UWI .              500000000000:        UNIQUE WELL ID
~OTHER INFORMATION
~A    DEPTH          SP         ILD         ILM         LL8        CALI          GR        DRHO        RHOB        NPHI        DPHI          DT  
# ...
  2900.0000    -27.0619      3.1004      2.9557      3.3917     14.9379    111.5800      0.1093      2.3114     44.5230   -999.2500    122.0969  
  2900.5000    -27.2754      3.1764      2.9716      3.3735     14.8798    112.4928      0.0924      2.2976     44.5157   -999.2500    125.5576  
  2901.0000    -27.7043      3.2317      2.9851      3.4692     14.8005    112.8599      0.0762      2.2855     44.9256   -999.2500    125.6955  
  2901.5000    -28.0557      3.2483      2.9957      3.5417     14.8030    112.2644      0.0790      2.2895     45.5916   -999.2500    126.2335  
  2902.0000    -28.0977      3.2597      3.0062      3.5708     14.8247    112.0011      0.0820      2.2970     44.9021   -999.2500    128.1453  
  2902.5000    -27.5855      3.2593      2.9952      3.5258     14.8489    112.4754      0.0912      2.3023     44.0709   -999.2500    129.5256  
  2903.0000    -26.4975      3.2157      2.9740      3.4601     14.8993    112.2409      0.1113      2.3126     44.2737   -999.2500    128.5228  
  2903.5000    -25.2778      3.1681      2.9541      3.3955     14.9609    111.7085      0.1130      2.3150     46.5124   -999.2500    128.4007  
  2904.0000    -24.5967      3.1374      2.9343      3.3322     15.0018    111.1627      0.1109      2.3139     48.9382   -999.2500    126.7685  
  2904.5000    -24.1627      3.1277      2.9136      3.2900     15.0181    110.3170      0.1083      2.3093     49.7518   -999.2500    124.8482  
  2905.0000    -24.0825      3.1288      2.8930      3.2617     15.0262    109.1001      0.1037      2.3075     47.7252   -999.2500    126.8330  
  2905.5000    -24.1788      3.1133      2.8616      3.2626     15.0315    106.6185      0.1065      2.3087     46.9157   -999.2500    126.7562  
  2906.0000    -23.8661      3.0726      2.8238      3.2461     15.0361    103.7589      0.1163      2.3244     45.8908   -999.2500    127.2749  
  2906.5000    -23.3048      3.0325      2.7864      3.2205     15.0408    102.8440      0.1259      2.3366     48.0200   -999.2500    127.6055  
  2907.0000    -22.3033      2.9928      2.7496      3.1912     15.0455    102.8637      0.1092      2.3132     49.2947   -999.2500    127.0526  
  2907.5000    -21.1245      2.9505      2.7080      3.1494     15.0654    103.5500      0.0917      2.2830     49.5888   -999.2500    126.6843  
  2908.0000    -20.1968      2.8994      2.6623      3.0972     15.0935    104.5492      0.0939      2.3052     48.2859   -999.2500    127.9013  
  2908.5000    -19.2824      2.8492      2.6174      3.0463     15.0875    105.5484      0.1083      2.3247     46.4230   -999.2500    129.4598  
  2909.0000    -18.5555      2.7846      2.5732      2.9557     15.0639    106.5476      0.1226      2.3247     46.4574   -999.2500    128.1704  
  2909.5000    -18.0202      2.7318      2.5442      2.8838     15.0762    107.4060      0.1320      2.3269     47.7656   -999.2500    128.1138  
  2910.0000    -18.0282      2.7063      2.5309      2.8899     15.1070    107.4992      0.1272      2.3208     48.9703   -999.2500    128.5575  
  2910.5000    -18.7430      2.6877      2.5292      2.9155     15.0965    107.1758      0.1176      2.3092     49.9781   -999.2500    127.3311  
  2911.0000    -19.5967      2.6692      2.5276      2.9562     15.0932    105.6055      0.1110      2.3009     48.8488   -999.2500    127.3557  
  2911.5000    -19.9280      2.6537      2.5296      3.0437     15.1137    104.2759      0.1037      2.2938     47.5459   -999.2500    127.6303  
  2912.0000    -19.8323      2.6537      2.5502      3.0240     15.1171    103.1275      0.0948      2.2866     46.4302   -999.2500    127.9689  
  2912.5000    -19.5864      2.6537      2.5710      2.9431     15.1135    102.0544      0.0906      2.2815     45.7936   -999.2500    129.8349  
  2913.0000    -20.0553      2.6902      2.5950      2.9277     15.1305    102.5574      0.0909      2.2806     45.7946   -999.2500    131.3233  
  2913.5000    -21.5927      2.7588      2.6243      3.0253     15.1230    102.7307      0.0871      2.2826     46.0709   -999.2500    132.3043  
  2914.0000    -22.8408      2.8351      2.6539      3.2327     15.1173    102.4110      0.0773      2.2836     46.6416   -999.2500    130.6291  
  2914.5000    -23.2010      2.9185      2.6847      3.2666     15.1120    102.5566      0.0836      2.2824     47.1382   -999.2500    129.0881  
  2915.0000    -23.2531      2.9676      2.7164      3.2635     15.1085    103.0413      0.0812      2.2725     47.3657   -999.2500    127.5452  
  2915.5000    -23.4363      3.0002      2.7485      3.2461     15.1050    103.5177      0.0917      2.2878     47.4713   -999.2500    127.0419  
  2916.0000    -24.2552      3.0426      2.7793      3.2968     15.1160    104.3366      0.1129      2.3175     47.2874   -999.2500    127.5736  
  2916.5000    -24.8568      3.0917      2.8055      3.3352     15.1309    104.8811      0.1161      2.3318     46.9021   -999.2500    125.8756  
  2917.0000    -25.0917      3.1201      2.8254      3.3682     15.1325    104.4464      0.1009      2.3149     46.6892   -999.2500    125.3275  
  2917.5000    -24.9751      3.1423      2.8374      3.3878     15.1261    104.0745      0.0923      2.3123     46.3915   -999.2500    126.3550  
  2918.0000    -24.5743      3.1530      2.8487      3.3993     15.1141    103.4246      0.1136      2.3178     46.2928   -999.2500    128.3492  
  2918.5000    -24.3273      3.1601      2.8600      3.4062     15.1122    102.9194      0.1058      2.3129     46.3902   -999.2500    130.5986  
  2919.0000    -24.0433      3.1465      2.8714      3.3937     15.0920    102.7845      0.1015      2.3054     45.4370   -999.2500    129.5607  
  2919.5000    -23.6433      3.1314      2.8828      3.3753     15.0924    101.5862      0.1098      2.3077     44.1019   -999.2500    128.7434  
  2920.0000    -22.5758      3.1092      2.8943      3.3664     15.1017    100.0004      0.1154      2.3156     43.9754   -999.2500    126.2359  
  2920.5000    -21.4991      3.0653      2.8631      3.3131     15.1140     99.6911      0.1127      2.3144     45.6192   -999.2500    125.2250  
  2921.0000    -20.5246      3.0305      2.8262      3.2745     15.0705    100.7996      0.1185      2.3217     46.6671   -999.2500    126.5518  
  2921.5000    -19.5996      2.9961      2.7897      3.2373     14.9583    101.8212      0.1214      2.3223     46.1558   -999.2500    126.7374  
  2922.0000    -18.8185      2.9566      2.7537      3.1987     14.9163    102.1731      0.1191      2.3217     45.3000   -999.2500    126.3146  
  2922.5000    -18.2056      2.9251      2.7181      3.1544     14.8942    101.8682      0.1230      2.3239     44.3024   -999.2500    125.9539  
  2923.0000    -17.8086      2.9110      2.6830      3.1393     14.8790    100.5911      0.1091      2.3139     44.9182   -999.2500    125.7441  
  2923.5000    -17.5362      2.9054      2.6550      3.1318     14.8477     99.1776      0.1019      2.3027     45.9963   -999.2500    125.0081  
  2924.0000    -17.1970      2.8940      2.6415      3.1244     14.8235     97.8342      0.1140      2.3208     46.4130   -999.2500    126.2923  
  2924.5000    -16.8143      2.8587      2.6281      3.0955     14.8225     98.0792      0.1209      2.3284     47.0933   -999.2500    127.6164  
  2925.0000    -16.3457      2.8127      2.6148      3.0458     14.8219     98.8727      0.1163      2.3216     45.7987   -999.2500    127.5093  
  2925.5000    -15.9191      2.7815      2.5999      3.0054     14.7523     99.4492      0.1169      2.3212     46.0861   -999.2500    127.0538  
  2926.0000    -15.4625      2.7444      2.5757      2.9709     14.6949     99.4346      0.1310      2.3203     46.6328   -999.2500    126.2435  
  2926.5000    -15.0795      2.6943      2.5501      2.9385     14.6634     98.9239      0.1157      2.3192     46.7689   -999.2500    125.8247  
  2927.0000    -14.8990      2.6450      2.5422      2.9459     14.6712     98.4132      0.1223      2.3199     46.6603   -999.2500    127.7186  
