~VERSION INFORMATION
 VERS.                      2.00:        CWLS LOG ASCII STANDARD - VERSION 2.00
 WRAP.                        NO:        ONE LINE PER DEPTH STEP
~WELL INFORMATION
#MNEM.UNIT               DATA            INFORMATION
#----------          ------------        ------------------------------
 STRT.F                  40.0000:        START DEPTH
 STOP.F                9893.0000:        STOP DEPTH
 STEP.F                   0.5000:        STEP VALUE
 NULL.                 -999.2500:        NULL VALUE
 COMP.                 U.S. NAVY:        COMPANY  
 WELL.    CAPE HALKETT #16N-2W-1:        WELL     
 FLD .                   WILDCAT:        FIELD    
 LOC .               5  16N   2W:        LOCATION   
 CNTY.               NORTH SLOPE:        COUNTY  
 STAT.                    ALASKA:        STATE   
 CTRY.                       USA:        COUNTRY 
 DATE.                    4/9/75:        LOG DATE 
 API .              500000000000:        UNIQUE WELL IDENTIFIER 
 OPER.                 U.S. NAVY:        OPERATOR  
 SRVC.              Schlumberger:        SERVICE COMPANY 
 UWI .              500000000000:        UNIQUE WELL ID 
 LAT .                    0.0000:        LATITUDE
 LON .                    0.0000:        LONGITUDE
 DIGS.          Center Line Data:        DIGITIZING COMPANY 
~CURVE INFORMATION      
#MNEM.UNIT            API CODE           CURVE DESCRIPTION
#---------          -------------        ------------------------------
 DEPT.F                         :        1  DEPTH
 SP  .MV                        :        2
 ILD .OHMM                      :        3
 ILM .OHMM                      :        4
 LL8 .OHMM                      :        5
 CALI.IN                        :        6
 GR  .GAPI                      :        7
 DRHO.G/C3                      :        8
 RHOB.G/C3                      :        9
 NPHI.%                         :       10
 DPHI.%                         :       11
 DT  .US/F                      :       12
~PARAMETER INFORMATION       
#MNEM.UNIT              VALUE            DESCRIPTION OF MNEMONIC
#---------          -------------        ------------------------------
 EKB .F                  39.5000:        KELLY BUSHING
 TD  .F                7867.0000:        TOTAL DEPTH
 BHT .F                  60.0000:        BOTTOM HOLE TEMPERATURE
 BS  .                   18.5000:        BIT SIZE
 FD  .                   10.5000:        FLUID DENSITY
 CSIZ.                   20.0000:        CASING SIZE
 CBD .F                 492.0000:        CASING DRILLER 1
 CBL .F                 493.0000:        CASING LOGGER 1
 DFT .             Miscellaneous:        TYPE FLUID IN HOLE
 DFV .                  200.0000:        VISCOSITY
 DFPH.                   10.0000:        PH
 DFL .                    9.2000:        FLUID LOSS
 RMS .                    2.1500:        RM
 MST .F                  57.0000:        RM MEAS. TEMP.
 RMF .                    2.2000:        RMF
 MFST.F                  40.0000:        RMF MEAS. TEMP.
 RMC .                    0.0000:        RMC
 MCST.F                   0.0000:        RMC MEAS. TEMP.
 UWI .              500000000000:        UNIQUE WELL ID
~OTHER INFORMATION
~A    DEPTH          SP         ILD         ILM         LL8        CALI          GR        DRHO        RHOB        NPHI        DPHI          DT  
# ...
  3395.0000    -17.5861      3.4701      3.5702      4.0927     13.1206     86.6684      0.1159      2.3799     44.7746   -999.2500    119.2384  
  3395.5000    -17.8339      3.3645      3.5592      4.0407     13.1161     88.6303      0.1134      2.3805     43.9818   -999.2500    120.1793  
  3396.0000    -17.9922      3.3046      3.5782      3.9932     13.1788     89.4242      0.1073      2.3754     43.7459   -999.2500    121.2242  
  3396.5000    -18.2203      3.3117      3.6262      3.9932     13.2753     89.2368      0.1018      2.3712     43.8622   -999.2500    122.4688  
  3397.0000    -18.3244      3.4104      3.6504      4.0194     13.3147     88.8215      0.0943      2.3541     44.1926   -999.2500    123.0524  
  3397.5000    -18.2230      3.4794      3.6747      4.0930     13.2551     89.2859      0.0929      2.3417     44.8264   -999.2500    124.0431  
  3398.0000    -18.1637      3.5499      3.6906      4.1724     13.3424     90.7040      0.1056      2.3468     46.1599   -999.2500    124.5162  
  3398.5000    -18.1637      3.6218      3.6981      4.2534     13.4518     91.8355      0.1099      2.3470     47.6061   -999.2500    124.4816  
  3399.0000    -18.2821      3.6090      3.6910      4.2850     13.3595     92.4559      0.0927      2.3241     47.7751   -999.2500    125.0885  
  3399.5000    -18.2101      3.5928      3.6823      4.2022     13.2688     92.6986      0.0816      2.3149     46.9064   -999.2500    125.1446  
  3400.0000    -18.5920      3.5560      3.6634      4.1187     13.0318     91.8803      0.1012      2.3249     45.0978   -999.2500    123.3941  
  3400.5000    -19.1721      3.4997      3.6244      4.0372     13.0007     91.0451      0.1063      2.3334     44.7120   -999.2500    121.0523  
  3401.0000    -19.3393      3.4594      3.6011      3.9729     13.0154     90.7827      0.1041      2.3335     45.7690   -999.2500    122.3427  
  3401.5000    -19.2395      3.4310      3.5779      3.9628     13.0497     90.8456      0.1132      2.3375     46.6480   -999.2500    123.3070  
  3402.0000    -19.0777      3.4028      3.5548      3.9526     13.0510     92.2473      0.0865      2.3286     47.0698   -999.2500    126.1669  
  3402.5000    -18.9551      3.3996      3.5352      3.9425     13.0463     93.7275      0.0910      2.3166     47.2917   -999.2500    128.4377  
  3403.0000    -18.8324      3.4226      3.5965      3.9358     13.0828     94.5199      0.1052      2.3202     47.5257   -999.2500    128.8155  
  3403.5000    -18.7418      3.4972      3.6983      3.9557     13.1355     95.0137      0.1135      2.3240     47.1307   -999.2500    127.2922  
  3404.0000    -18.8686      3.6164      3.8237      3.9819     13.1490     96.1918      0.1217      2.3217     45.6028   -999.2500    125.2653  
  3404.5000    -19.1403      3.7397      3.9419      4.0260     13.1640     97.1566      0.1274      2.3268     46.5629   -999.2500    124.0509  
  3405.0000    -19.4172      3.8672      4.0636      4.1602     13.1961     97.6781      0.1263      2.3280     47.8223   -999.2500    123.7353  
  3405.5000    -19.7697      3.9902      4.1892      4.4711     13.2170     98.3491      0.1240      2.3295     48.1734   -999.2500    123.7760  
  3406.0000    -20.1726      4.1009      4.2857      4.6884     13.2237     99.0378      0.1145      2.3374     47.5249   -999.2500    123.0355  
  3406.5000    -20.5873      4.2147      4.3507      4.6583     13.2009     98.9268      0.1052      2.3337     46.6636   -999.2500    119.6176  
  3407.0000    -20.8177      4.2668      4.3879      4.6395     13.0747     97.1302      0.1038      2.3322     46.6866   -999.2500    116.8436  
  3407.5000    -20.8979      4.3106      4.4042      4.6500     13.0389     94.0433      0.1144      2.3428     48.2733   -999.2500    114.9977  
  3408.0000    -20.9509      4.3200      4.4039      4.6825     13.0160     89.7788      0.1242      2.3631     48.2634   -999.2500    113.8493  
  3408.5000    -20.7979      4.2677      4.3961      4.7138     12.9939     85.0516      0.1275      2.3792     47.3627   -999.2500    113.9701  
  3409.0000    -20.6214      4.1585      4.3884      4.6855     12.9731     83.1416      0.1179      2.3847     44.8265   -999.2500    112.7027  
  3409.5000    -20.4155      4.0422      4.2223      4.3855     12.9725     82.9289      0.1073      2.3653     42.2705   -999.2500    109.7669  
  3410.0000    -20.0138      3.9201      4.0938      4.1482     12.9613     82.2863      0.1043      2.3556     42.9907   -999.2500    108.5412  
  3410.5000    -19.5494      3.8016      3.9697      4.0851     12.9443     81.4928      0.1118      2.3650     43.5546   -999.2500    108.0266  
  3411.0000    -19.0749      3.7513      3.8935      4.0673     12.8959     80.5022      0.1185      2.3860     43.1395   -999.2500    107.8648  
  3411.5000    -18.5820      3.7042      3.8447      4.1920     12.8670     80.0333      0.1174      2.3920     42.6392   -999.2500    109.4534  
  3412.0000    -18.0892      3.7068      3.8435      4.3016     12.8063     79.5836      0.1050      2.3858     42.2527   -999.2500    111.5257  
  3412.5000    -18.0329      3.7279      3.8654      4.3375     12.7426     79.1378      0.1081      2.3993     42.1004   -999.2500    112.0364  
  3413.0000    -18.0825      3.7492      3.8875      4.4766     12.6720     79.8966      0.1137      2.4043     42.8068   -999.2500    114.2956  
  3413.5000    -18.0237      3.7638      3.9018      4.7697     12.6328     81.1404      0.1228      2.4101     44.1852   -999.2500    115.6350  
  3414.0000    -17.6772      3.7762      3.9146      4.7052     12.5845     82.9749      0.1247      2.4103     45.2084   -999.2500    115.3075  
  3414.5000    -17.2747      3.7886      3.9275      4.5185     12.5364     84.8818      0.1007      2.3959     44.7251   -999.2500    115.0318  
  3415.0000    -17.0475      3.7971      3.9396      4.4675     12.5132     86.3902      0.0887      2.3741     42.4877   -999.2500    115.2078  
  3415.5000    -16.9545      3.7570      3.8982      4.5464     12.5595     87.3231      0.0851      2.3726     43.0866   -999.2500    117.2091  
  3416.0000    -16.8596      3.7127      3.8530      4.5832     12.6171     87.1644      0.0927      2.3812     43.8158   -999.2500    117.4350  
  3416.5000    -16.7167      3.6690      3.8076      4.4122     12.6670     87.0057      0.1017      2.3929     44.2363   -999.2500    117.4165  
  3417.0000    -16.5474      3.6258      3.7627      4.1858     12.7063     86.8940      0.0957      2.3849     44.3255   -999.2500    117.5147  
  3417.5000    -16.3781      3.5884      3.7221      4.0846     12.7441     87.9162      0.1063      2.3816     43.6631   -999.2500    117.4463  
  3418.0000    -16.5935      3.5560      3.6886      4.1627     12.7661     90.1203      0.0923      2.3743     44.7629   -999.2500    119.9968  
  3418.5000    -16.8769      3.5240      3.6553      4.4136     12.7428     91.9336      0.0862      2.3667     46.1822   -999.2500    124.5175  
  3419.0000    -17.1207      3.4922      3.6224      4.4916     12.7160     92.9906      0.0856      2.3664     47.5875   -999.2500    125.7467  
  3419.5000    -17.2775      3.4560      3.5867      4.2416     12.7023     93.5134      0.0932      2.3684     47.2810   -999.2500    124.2078  
  3420.0000    -17.2871      3.4148      3.5439      3.9454     12.6940     93.7060      0.1073      2.3716     47.7638   -999.2500    121.8085  
  3420.5000    -17.3271      3.3741      3.5016      3.9745     12.6911     93.6783      0.1209      2.3794     49.5535   -999.2500    120.0280  
  3421.0000    -17.1759      3.3339      3.4599      4.1207     12.6908     93.6506      0.1053      2.3822     50.5199   -999.2500    120.9266  
  3421.5000    -17.1960      3.2933      3.4184      4.0157     12.7027     94.2625      0.0946      2.3754     48.9864   -999.2500    123.3524  
  3422.0000    -17.3893      3.2737      3.3941      3.8285     12.7181     94.8124      0.0853      2.3578     46.5127   -999.2500    124.8658  
