~VERSION INFORMATION
 VERS.                           2.00:        CWLS LOG ASCII STANDARD - VERSION 2.00
 WRAP.                             NO:        ONE LINE PER DEPTH STEP
~WELL INFORMATION
#MNEM.UNIT                   DATA             INFORMATION
#----------             --------------        ------------------------------
 STRT.F                       94.0000:        START DEPTH
 STOP.F                    11429.0000:        STOP DEPTH
 STEP.F                        0.5000:        STEP VALUE
 NULL.                      -999.2500:        NULL VALUE
 COMP. U.S. NAVY (HUSKY OIL CO.-OPER.:        COMPANY
 LOC .                      11 11N 1W:        LOCATION
 DATE.                        2/17/77:        LOG DATE
 WELL.             WEST FISH CREEK #1:        WELL
 UWI .                   500232001400:        UNIQUE WELL ID
 API .                   500232001400:        UNIQUE WELL IDENTIFIER
 FLD .                        WILDCAT:        FIELD
 CNTY.                    NORTH SLOPE:        COUNTY
 STAT.                         ALASKA:        STATE
 CTRY.                            USA:        COUNTRY
 OPER. U.S. NAVY (HUSKY OIL CO.-OPER.:        OPERATOR
 SRVC.                   SCHLUMBERGER:        SERVICE COMPANY
 LAT .                         0.0000:        LATITUDE
 LON .                         0.0000:        LONGITUDE
 DIGS.               CENTER LINE DATA:        DIGITIZING COMPANY
~CURVE INFORMATION      
#MNEM        .UNIT         API CODE           CURVE DESCRIPTION
#-----------------      --------------        ------------------------------
 DEPT        .F                      :        1  DEPTH
 SP          .MV                     :        2  
 ILD         .OHMM                   :        3  
 ILM         .OHMM                   :        4  
 LL8         .OHMM                   :        5  
 CALI        .IN                     :        6  
 RHOB        .G/C3                   :        7  
 DRHO        .G/C3                   :        8  
 NPHI        .%                      :        9  
 GR          .GAPI                   :        10 
 DT          .US/F                   :        11 
~PARAMETER INFORMATION
#MNEM.UNIT                  VALUE             DESCRIPTION OF MNEMONIC
#---------             ---------------        ------------------------------
 EKB .F                      113.0000:        KELLY BUSHING
 TD  .F                    11429.0000:        TOTAL DEPTH
~OTHER INFORMATION
~A    DEPTH          SP         ILD         ILM         LL8        CALI        RHOB        DRHO        NPHI          GR          DT 
# ...
  3601.5000    -14.0174      5.2345      4.4384      4.1749     13.2398      2.2962      0.0647     40.5541     44.7856    102.1004 
  3602.0000    -13.9161      5.2346      4.4198      4.1725     13.2692      2.3031      0.0601     41.2630     46.7510    109.5449 
  3602.5000    -13.8354      5.2291      4.4427      4.2013     13.3067      2.3105      0.0717     41.0924     48.8640    112.9845 
  3603.0000    -13.7158      5.2922      4.5086      4.2661     13.3934      2.3139      0.0833     40.6548     49.0632    113.3731 
  3603.5000    -13.7397      5.4086      4.6222      4.3319     13.4988      2.3114      0.0890     40.3032     48.6569    109.5798 
  3604.0000    -13.9150      5.5360      4.7388      4.4753     13.6043      2.3084      0.0838     40.3296     48.4890    105.2476 
  3604.5000    -14.0311      5.6664      4.8102      4.7081     13.7098      2.3096      0.0771     41.2383     48.6295    103.2417 
  3605.0000    -13.8901      5.7442      4.8244      4.8410     13.8152      2.3124      0.0715     42.1469     49.2057    105.4702 
  3605.5000    -13.6558      5.7601      4.8061      4.8433     13.9207      2.3171      0.0774     43.1252     49.2547    110.7258 
  3606.0000    -13.5576      5.7760      4.7575      4.7603     14.0031      2.3137      0.0679     43.8428     47.9581    111.0170 
  3606.5000    -13.4550      5.7530      4.6644      4.6648     14.0810      2.3093      0.0668     44.4228     46.4036    108.0869 
  3607.0000    -13.2347      5.6637      4.5730      4.5478     14.1589      2.3060      0.0697     43.7104     45.3504    104.4297 
  3607.5000    -13.0795      5.5757      4.4415      4.4348     14.2303      2.3031      0.0753     42.8372     44.0696    100.6822 
  3608.0000    -13.0738      5.4136      4.3149      4.4061     14.2678      2.3059      0.0850     44.0238     43.6879     98.7526 
  3608.5000    -13.1151      5.2498      4.2310      4.3433     14.2805      2.3135      0.0987     45.1701     45.7796    105.1725 
  3609.0000    -13.2372      5.0930      4.1487      4.2913     14.2932      2.3208      0.1016     45.5566     48.2716    109.0471 
  3609.5000    -13.3897      5.0000      4.0762      4.2197     14.3059      2.3246      0.1013     45.2294     49.7981    111.2012 
  3610.0000    -13.3679      4.9171      4.0422      4.1494     14.3186      2.3010      0.0874     44.4170     51.2184    113.8602 
  3610.5000    -13.1866      4.8722      4.0123      4.0822     14.3313      2.2777      0.0706     43.6196     51.0170    110.6464 
  3611.0000    -13.1127      4.8276      4.0282      4.0984     14.3418      2.2780      0.0810     43.7326     50.2273    110.4921 
  3611.5000    -13.0654      4.7869      4.0441      4.1146     14.3428      2.2828      0.0990     44.4052     49.4769    113.8682 
  3612.0000    -13.0479      4.7610      4.0602      4.1310     14.3438      2.2901      0.1086     43.7030     48.6029    117.4805 
  3612.5000    -12.9331      4.7353      4.0763      4.1473     14.3448      2.3018      0.0985     43.0341     47.3777    115.3289 
  3613.0000    -12.8736      4.7097      4.0628      4.1335     14.3458      2.2943      0.0870     43.3531     46.1845    114.4003 
  3613.5000    -12.8627      4.6842      4.0301      4.1046     14.3492      2.2929      0.0798     42.7949     45.8276    112.3374 
  3614.0000    -12.8573      4.6529      3.9625      4.0358     14.3531      2.3029      0.0778     42.0476     46.3435    110.4943 
  3614.5000    -12.8840      4.6430      3.8961      3.9681     14.3382      2.3099      0.0820     41.2670     47.2911    113.3199 
  3615.0000    -12.7990      4.6672      3.8736      3.9408     14.3212      2.3036      0.0830     40.6345     48.8595    115.2690 
  3615.5000    -12.7180      4.6816      3.8803      3.9497     14.3022      2.2869      0.0723     41.0531     49.3702    116.5184 
  3616.0000    -12.7320      4.6962      3.9787      4.0597     14.2831      2.2702      0.0727     41.2701     49.3637    118.0270 
  3616.5000    -12.9109      4.7107      4.0662      4.1392     14.2641      2.2710      0.0822     40.9623     49.8410    118.6529 
  3617.0000    -13.0127      4.7253      4.0872      4.1588     14.2451      2.2818      0.0910     41.2580     50.2674    119.0691 
  3617.5000    -13.0652      4.7399      4.0605      4.1317     14.2261      2.2905      0.0989     41.8868     49.8516    117.0552 
  3618.0000    -13.0780      4.7360      4.0340      4.1047     14.2090      2.2993      0.0952     42.6273     48.3164    115.1030 
  3618.5000    -13.1037      4.7278      3.9975      4.0692     14.2048      2.3022      0.0876     43.0064     47.9668    113.2869 
  3619.0000    -13.0650      4.7197      3.9430      4.0114     14.2007      2.3030      0.0824     43.0444     48.8355    110.6828 
  3619.5000    -13.0483      4.7115      3.9456      4.0142     14.1966      2.3074      0.0876     43.6471     49.5727    111.0969 
  3620.0000    -13.0031      4.7034      3.9753      4.0473     14.1923      2.3188      0.0934     42.9585     49.0605    113.5538 
  3620.5000    -13.0119      4.6953      4.0041      4.0737     14.1851      2.3305      0.0992     42.1325     48.2159    116.3871 
  3621.0000    -13.1337      4.6816      3.9959      4.0653     14.1708      2.3345      0.1050     41.7761     47.6641    118.3960 
  3621.5000    -13.3082      4.6619      3.9876      4.0569     14.1437      2.3041      0.0922     41.3683     47.7922    118.6866 
  3622.0000    -13.4101      4.6422      3.9794      4.0486     14.1076      2.2835      0.0697     41.1939     48.1875    116.4688 
  3622.5000    -13.3864      4.6227      3.9615      4.0309     14.0715      2.2707      0.0658     42.5212     48.7702    113.9335 
  3623.0000    -13.2006      4.6043      3.9385      4.0075     14.0355      2.2716      0.0776     42.4764     48.7794    114.0851 
  3623.5000    -13.1088      4.5865      3.9157      3.9842     13.9994      2.2688      0.0850     43.0802     49.2028    114.8886 
  3624.0000    -13.0573      4.5688      3.8919      3.9602     13.9633      2.2593      0.0900     42.9482     50.4382    117.6100 
  3624.5000    -12.9284      4.5511      3.8664      3.9343     13.9151      2.2487      0.0832     42.6387     51.2401    120.6239 
  3625.0000    -12.9200      4.5335      3.8411      3.9085     13.8651      2.2495      0.0736     43.7807     51.0837    118.0801 
  3625.5000    -13.1160      4.5054      3.8159      3.8829     13.8151      2.2530      0.0630     44.9227     50.6327    115.2251 
  3626.0000    -13.2677      4.4744      3.7632      3.8316     13.7897      2.2762      0.0704     44.7393     50.7690    115.0366 
  3626.5000    -13.2181      4.4466      3.7168      3.7815     13.7889      2.2962      0.1032     43.0772     50.9053    115.4425 
  3627.0000    -13.0946      4.4251      3.7091      3.7735     13.7900      2.2984      0.0902     41.9184     50.6987    116.8820 
  3627.5000    -13.1128      4.4037      3.7171      3.7818     13.7911      2.2994      0.0753     41.0784     50.1044    119.2279 
  3628.0000    -13.1892      4.4236      3.7390      3.8156     13.8183      2.3000      0.0630     40.5370     49.1443    121.3835 
  3628.5000    -13.2439      4.4638      3.8480      3.9268     13.8990      2.3011      0.0755     40.1678     47.9560    120.2805 
  3629.0000    -13.2735      4.5449      3.9463      4.0226     14.0322      2.3059      0.0843     40.2980     47.8251    118.8484 
  3629.5000    -13.2735      4.6898      4.0357      4.1137     14.1654      2.3107      0.0737     40.6380     48.2858    117.6767 
  3630.0000    -13.2443      4.8405      4.1271      4.2068     14.2987      2.3183      0.0821     41.8999     48.1924    115.7587 
  3630.5000    -13.1825      4.9960      4.2206      4.3021     14.3363      2.3266      0.0980     43.6036     49.0146    114.7971 
  3631.0000    -13.1930      5.0714      4.3162      4.3957     14.3452      2.3285      0.1033     44.4460     50.1873    114.6195 
  3631.5000    -13.1735      5.0939      4.3313      4.4082     14.3391      2.3203      0.0987     45.2885     51.1998    113.1189 
