~VERSION INFORMATION
 VERS.                           2.00:        CWLS LOG ASCII STANDARD - VERSION 2.00
 WRAP.                             NO:        ONE LINE PER DEPTH STEP
~WELL INFORMATION
#MNEM.UNIT                   DATA             INFORMATION
#----------             --------------        ------------------------------
 STRT.F                      112.0000:        START DEPTH
 STOP.F                    10176.0000:        STOP DEPTH
 STEP.F                        0.5000:        STEP VALUE
 NULL.                      -999.2500:        NULL VALUE
 COMP.                      HUSKY OIL:        COMPANY  
 LOC .                   36  11N   4W:        LOCATION   
 DATE.                        2/16/81:        LOG DATE 
 WELL.            NORTH INIGOK TEST 1:        WELL     
 UWI .                   501032001700:        UNIQUE WELL ID 
 API .                   501032001700:        UNIQUE WELL IDENTIFIER 
 FLD .                        WILDCAT:        FIELD    
 CNTY.                    NORTH SLOPE:        COUNTY  
 STAT.                         ALASKA:        STATE   
 CTRY.                            USA:        COUNTRY 
 OPER.                      HUSKY OIL:        OPERATOR  
 SRVC.                            440:        SERVICE COMPANY 
 LAT .                         0.0000:        LATITUDE
 LON .                         0.0000:        LONGITUDE
 DIGS.                             65:        DIGITIZING COMPANY 
~CURVE INFORMATION      
#MNEM.UNIT                 API CODE           CURVE DESCRIPTION
#---------              --------------        ------------------------------
 DEPT.F                              :        1  DEPTH
 SP  .MV                             :        2
 SFL .OHMM                           :        3
 ILD .OHMM                           :        4
 ILM .OHMM                           :        5
 NPHI.%                              :        6
 CALI.IN                             :        7
 GR  .GAPI                           :        8
 RHOB.G/C3                           :        9
 DRHO.G/C3                           :       10
 DT  .US/F                           :       11
~PARAMETER INFORMATION       
#MNEM.UNIT                  VALUE             DESCRIPTION OF MNEMONIC
#---------             ---------------        ------------------------------
 EKB .F                      166.0000:        KELLY BUSHING
 TD  .F                    10167.0000:        TOTAL DEPTH
~OTHER INFORMATION
~A    DEPTH          SP         SFL         ILD         ILM        NPHI        CALI          GR        RHOB        DRHO          DT  
# ...
  6112.0000    -61.1364      6.0640      5.8319      5.3388     44.4864     16.2556     88.0168      2.3292      0.0657     88.5640  
  6112.5000    -61.2822      5.9459      5.7080      5.2948     45.3903     16.0680     87.5725      2.3515      0.0516     88.0568  
  6113.0000    -61.4406      5.8509      5.6378      5.2587     45.4402     16.4690     87.7954      2.3549      0.0451     87.2783  
  6113.5000    -61.5378      5.8369      5.6244      5.2506     44.7531     16.0684     88.4189      2.3395      0.0503     87.6571  
  6114.0000    -61.8245      5.8230      5.6073      5.2156     45.3608     15.6037     89.3391      2.3259      0.0538     88.5351  
  6114.5000    -61.6497      5.7370      5.4922      5.1496     45.7448     16.0677     90.4442      2.3147      0.0397     89.4770  
  6115.0000    -61.4171      5.5743      5.3364      5.0497     45.4853     15.9058     91.3637      2.3201      0.0514     89.8509  
  6115.5000    -61.2625      5.4163      5.1852      4.9304     45.6313     16.2467     91.6576      2.3333      0.0607     90.3976  
  6116.0000    -61.2420      5.2688      5.0590      4.8269     46.5941     15.9088     92.0744      2.3311      0.0547     90.4618  
  6116.5000    -60.9973      5.1678      4.9726      4.7563     47.1191     16.4668     91.9308      2.3260      0.0401     89.6964  
  6117.0000    -60.8598      5.1045      4.9139      4.7026     45.5723     16.3479     93.3728      2.3221      0.0265     89.3757  
  6117.5000    -60.7600      5.1390      4.9494      4.7372     44.4468     16.2910     94.9103      2.3414      0.0302     88.3568  
  6118.0000    -60.8892      5.2384      5.0240      4.7872     43.7579     16.2913     96.4015      2.3469      0.0343     90.0912  
  6118.5000    -60.8395      5.3548      5.1509      4.9051     44.5941     15.9237     97.2426      2.3576      0.0486     91.9978  
  6119.0000    -60.6920      5.4239      5.2023      4.9821     44.8570     16.1950     95.7068      2.3739      0.0578     93.0756  
  6119.5000    -60.6809      5.6179      5.3632      5.0739     43.9477     16.3337     93.4531      2.3810      0.0640     95.1576  
  6120.0000    -60.7364      5.8189      5.5551      5.1445     43.3904     16.0746     91.4060      2.3748      0.0779     94.4733  
  6120.5000    -60.7506      5.9959      5.7538      5.2161     44.0139     16.0097     89.8820      2.3572      0.0649     92.9245  
  6121.0000    -60.8659      5.9796      5.7617      5.2741     43.7143     16.1920     88.9267      2.3698      0.0484     89.5071  
  6121.5000    -60.9860      5.9244      5.7031      5.2230     41.7916     16.1640     88.1138      2.3680      0.0334     89.8259  
  6122.0000    -61.1641      5.8207      5.5866      5.1725     40.3985     16.3870     86.9616      2.3785      0.0228     91.6441  
  6122.5000    -61.0929      5.6892      5.4582      5.1323     40.7870     16.8628     88.2963      2.4035      0.0338     90.1514  
  6123.0000    -61.1531      5.5782      5.3674      5.1026     41.4668     17.0330     89.3548      2.4078      0.0254     89.1451  
  6123.5000    -61.2198      5.5054      5.2974      5.0670     41.6390     16.9188     90.4133      2.4353      0.0544     86.8543  
  6124.0000    -61.3437      5.4335      5.2282      5.0008     40.4493     17.3715     91.2594      2.4381      0.0552     87.1599  
  6124.5000    -61.0086      5.3789      5.1782      4.9555     39.3071     17.7191     90.7964      2.4358      0.0415     88.8404  
  6125.0000    -60.6793      5.4385      5.2355      5.0104     40.6762     17.9009     89.1351      2.4555      0.0312     90.4122  
  6125.5000    -60.4492      5.5174      5.2998      5.0658     42.3281     17.2221     87.0968      2.4709      0.0316     91.5195  
  6126.0000    -60.1367      5.6284      5.4064      5.1608     43.1572     16.2028     86.0114      2.4922      0.0495     90.6832  
  6126.5000    -59.8410      5.7765      5.5638      5.2646     43.0809     15.8911     86.8655      2.4989      0.0621     91.4404  
  6127.0000    -59.7796      5.8208      5.6065      5.3686     42.4884     15.5827     89.4528      2.5027      0.0644     90.5144  
  6127.5000    -59.9320      5.9966      5.7290      5.4533     41.7152     15.2084     90.9884      2.5059      0.0548     88.1035  
  6128.0000    -60.2157      6.2554      5.9511      5.6113     41.0039     15.3821     91.3166      2.5071      0.0517     88.9107  
  6128.5000    -60.5360      6.4136      6.1532      5.8600     41.0363     15.0703     88.8448      2.4989      0.0552     89.4401  
  6129.0000    -60.7609      6.8273      6.3868      6.0114     41.6837     14.9321     85.6471      2.5033      0.0509     88.7974  
  6129.5000    -61.0585      7.3071      6.8238      6.3350     41.8582     14.6964     82.6470      2.5040      0.0483     88.8521  
  6130.0000    -61.4685      7.9042      7.3515      6.7468     42.3362     14.4895     80.1674      2.5238      0.0610     87.9013  
  6130.5000    -61.4869      8.0172      7.7239      6.8801     42.3809     14.3228     80.2776      2.5388      0.0661     86.9559  
  6131.0000    -61.4929      7.9552      7.6470      7.0160     41.5036     14.2302     80.1289      2.5384      0.0534     86.3790  
  6131.5000    -61.6373      7.8201      7.5171      7.1546     39.2275     14.1810     79.8891      2.5399      0.0504     85.6451  
  6132.0000    -61.8183      7.6872      7.3894      7.1927     38.8561     14.1811     79.7157      2.5310      0.0782     84.3876  
  6132.5000    -61.9609      7.8888      7.5568      7.1904     39.9276     14.1897     79.4216      2.4967      0.0524     81.5427  
  6133.0000    -61.9897      8.0107      7.7173      7.1809     40.2259     14.2001     79.3536      2.5264      0.0383     81.0207  
  6133.5000    -61.8361      7.9638      7.6586      7.1298     39.4963     14.1918     79.2857      2.5304      0.0345     82.5190  
  6134.0000    -61.6275      7.8415      7.5275      7.0527     39.1386     14.2146     79.2177      2.5182      0.0425     82.6890  
  6134.5000    -61.3797      7.6448      7.3211      6.9767     38.9936     14.3765     78.5526      2.5097      0.0413     82.9748  
  6135.0000    -61.3070      7.4587      7.1586      6.9015     38.8451     14.3287     79.7427      2.5041      0.0470     82.5962  
  6135.5000    -61.3789      7.6283      7.1934      6.9329     39.0246     14.6813     80.2767      2.4627      0.0187     79.6646  
  6136.0000    -61.6083      8.2233      7.4922      7.0685     39.4101     14.1740     79.7310      2.4503      0.0185     80.7912  
  6136.5000    -61.9059      8.8648      7.7658      7.2735     38.8817     14.2088     79.1677      2.4743      0.0395     81.6657  
  6137.0000    -62.0146      9.5049      7.8899      7.4844     37.9073     14.0149     79.1437      2.5005      0.0476     83.1783  
  6137.5000    -61.9212      9.5391      7.8062      7.4092     36.4974     13.9150     79.1533      2.5084      0.0281     83.1948  
  6138.0000    -61.8794      9.0597      7.7202      7.2847     36.2501     13.8778     78.8238      2.5119      0.0241     83.7034  
  6138.5000    -61.9723      7.9961      7.5582      7.1332     37.4492     13.8186     79.9591      2.5029      0.0294     82.0977  
  6139.0000    -62.0005      7.3375      7.4286      6.8201     39.1976     13.7565     81.3797      2.4926      0.0624     81.2145  
  6139.5000    -62.0522      7.0506      7.3229      6.6492     41.3663     14.1857     82.5708      2.4632      0.0976     79.2681  
  6140.0000    -62.0896      6.8186      7.2188      6.4943     42.9158     14.4904     82.3649      2.4012      0.0798     77.4861  
  6140.5000    -62.1084      6.7203      7.1790      6.4039     43.4829     14.9415     82.1624      2.3432      0.0786     78.7974  
  6141.0000    -61.9751      6.6234      7.1400      6.3148     42.4603     15.1722     83.1451      2.2992      0.0916     80.6592  
  6141.5000    -61.8336      6.5727      7.1114      6.2192     41.6999     14.1084     84.3324      2.2719      0.1036     82.3944  
