~VERSION INFORMATION
 VERS.                           2.00:        CWLS LOG ASCII STANDARD - VERSION 2.00
 WRAP.                             NO:        ONE LINE PER DEPTH STEP
~WELL INFORMATION
#MNEM.UNIT                   DATA             INFORMATION
#----------             --------------        ------------------------------
 STRT.F                      116.0000:        START DEPTH
 STOP.F                     8861.0000:        STOP DEPTH
 STEP.F                        0.5000:        STEP VALUE
 NULL.                      -999.2500:        NULL VALUE
 COMP.                     U.S. NAAVY:        COMPANY
 LOC .                 [33^13 17N 2W:        LOCATION
 DATE.                        3/30/77:        LOG DATE
 WELL.                    WT FORAN #1:        WELL
 UWI .                   501032001000:        UNIQUE WELL ID
 API .                   501032001000:        UNIQUE WELL IDENTIFIER
 FLD .                        WILDCAT:        FIELD
 CNTY.                    NORTH SLOPE:        COUNTY
 STAT.                         ALASKA:        STATE
 CTRY.                            USA:        COUNTRY
 OPER.                     U.S. NAAVY:        OPERATOR
 SRVC.                   SCHLUMBERGER:        SERVICE COMPANY
 LAT .                         0.0000:        LATITUDE
 LON .                         0.0000:        LONGITUDE
 DIGS.               CENTER LINE DATA:        DIGITIZING COMPANY
~CURVE INFORMATION      
#MNEM        .UNIT         API CODE           CURVE DESCRIPTION
#-----------------      --------------        ------------------------------
 DEPT        .F                      :        1  DEPTH
 CALI        .IN                     :        2  
 GR          .GAPI                   :        3  
 DRHO        .G/C3                   :        4  
 RHOB        .G/C3                   :        5  
 NPHI        .%                      :        6  
 DT          .US/F                   :        7  
 SP          .MV                     :        8  
 ILD         .OHMM                   :        9  
 ILM         .OHMM                   :        10 
 LL8         .OHMM                   :        11 
~PARAMETER INFORMATION
#MNEM.UNIT                  VALUE             DESCRIPTION OF MNEMONIC
#---------             ---------------        ------------------------------
 EKB .F                       39.0000:        KELLY BUSHING
 TD  .F                     8864.0000:        TOTAL DEPTH
 BHT .F                      152.0000:        BOTTOM HOLE TEMPERATURE
 BS  .                        14.2500:        BIT SIZE
 FD  .                        10.2000:        FLUID DENSITY
 CSIZ.                        16.0000:        CASING SIZE
 CBD .F                     1458.0000:        CASING DRILLER 1
 CBL .F                        0.0000:        CASING LOGGER 1
 DFT .                  MISCELLANEOUS:        TYPE FLUID IN HOLE
 DFV .                        45.0000:        VISCOSITY
 DFPH.                        10.5000:        PH
 DFL .                         5.5000:        FLUID LOSS
 RMS .                         2.4000:        RM
 MST .F                       54.0000:        RM MEAS. TEMP.
 RMF .                         2.3000:        RMF
 MFST.F                       56.0000:        RMF MEAS. TEMP.
 RMC .                         2.7000:        RMC
 MCST.F                       54.0000:        RMC MEAS. TEMP.
~OTHER INFORMATION
~A    DEPTH        CALI          GR        DRHO        RHOB        NPHI          DT          SP         ILD         ILM         LL8 
# ...
  1580.0000   -999.2500     70.6370   -999.2500   -999.2500   -999.2500    159.7769    -30.3701      1.7254      1.6227      2.4105 
  1580.5000   -999.2500     71.9003   -999.2500   -999.2500   -999.2500    160.3967    -30.0404      1.7190      1.6250      2.4112 
  1581.0000   -999.2500     73.3232   -999.2500   -999.2500   -999.2500    160.3998    -30.2519      1.7127      1.6273      2.4112 
  1581.5000   -999.2500     73.9170   -999.2500   -999.2500   -999.2500    160.4427    -30.0264      1.7131      1.6296      2.4112 
  1582.0000   -999.2500     74.4504   -999.2500   -999.2500   -999.2500    160.2082    -29.4306      1.7239      1.6319      2.3985 
  1582.5000   -999.2500     76.1353   -999.2500   -999.2500   -999.2500    159.9476    -28.8167      1.7348      1.6345      2.3828 
  1583.0000   -999.2500     77.2363   -999.2500   -999.2500   -999.2500    160.0183    -28.4387      1.7458      1.6381      2.3742 
  1583.5000   -999.2500     77.5245   -999.2500   -999.2500   -999.2500    159.9744    -27.9881      1.7569      1.6417      2.3722 
  1584.0000   -999.2500     77.2982   -999.2500   -999.2500   -999.2500    161.1120    -27.4963      1.7680      1.6453      2.3670 
  1584.5000   -999.2500     76.8728   -999.2500   -999.2500   -999.2500    160.7142    -27.1227      1.7792      1.6456      2.3590 
  1585.0000   -999.2500     75.9051   -999.2500   -999.2500   -999.2500    160.3463    -26.9216      1.7905      1.6456      2.3758 
  1585.5000   -999.2500     75.5247   -999.2500   -999.2500   -999.2500    160.0338    -26.7661      1.8019      1.6456      2.4034 
  1586.0000   -999.2500     76.8405   -999.2500   -999.2500   -999.2500    159.6304    -26.7010      1.8133      1.6456      2.4110 
  1586.5000   -999.2500     79.4200   -999.2500   -999.2500   -999.2500    159.5946    -26.7576      1.8248      1.6456      2.3967 
  1587.0000   -999.2500     80.8324   -999.2500   -999.2500   -999.2500    159.8634    -26.5891      1.8363      1.6456      2.3767 
  1587.5000   -999.2500     81.0817   -999.2500   -999.2500   -999.2500    160.4203    -26.5752      1.8480      1.6456      2.3673 
  1588.0000   -999.2500     79.4136   -999.2500   -999.2500   -999.2500    160.8033    -26.8082      1.8559      1.6571      2.3872 
  1588.5000   -999.2500     79.2927   -999.2500   -999.2500   -999.2500    161.6463    -27.1480      1.8616      1.6699      2.4039 
  1589.0000   -999.2500     77.8499   -999.2500   -999.2500   -999.2500    162.8605    -27.4534      1.8674      1.6828      2.3891 
  1589.5000   -999.2500     77.0862   -999.2500   -999.2500   -999.2500    164.0377    -27.5831      1.8794      1.7071      2.3799 
  1590.0000   -999.2500     76.4046   -999.2500   -999.2500   -999.2500    165.4536    -27.5044      1.9047      1.7202      2.4109 
  1590.5000   -999.2500     75.2014   -999.2500   -999.2500   -999.2500    166.1569    -27.4062      1.9322      1.7482      2.4606 
  1591.0000   -999.2500     75.5292   -999.2500   -999.2500   -999.2500    166.0538    -27.6173      1.9600      1.7767      2.4936 
  1591.5000   -999.2500     77.2252   -999.2500   -999.2500   -999.2500    166.8111    -27.7615      1.9883      1.8093      2.5199 
  1592.0000   -999.2500     78.6930   -999.2500   -999.2500   -999.2500    167.2074    -27.7818      2.0170      1.8354      2.5415 
  1592.5000   -999.2500     79.6557   -999.2500   -999.2500   -999.2500    166.2602    -27.8581      2.0460      1.8696      2.5678 
  1593.0000   -999.2500     80.7018   -999.2500   -999.2500   -999.2500    163.7644    -28.5946      2.0755      1.8906      2.6365 
  1593.5000   -999.2500     80.7147   -999.2500   -999.2500   -999.2500    160.9464    -30.2037      2.1054      1.9160      2.7372 
  1594.0000   -999.2500     79.6364   -999.2500   -999.2500   -999.2500    157.1838    -32.1913      2.1269      1.9395      2.8065 
  1594.5000   -999.2500     78.5966   -999.2500   -999.2500   -999.2500    155.2384    -33.7601      2.1479      1.9632      2.8595 
  1595.0000   -999.2500     77.8439   -999.2500   -999.2500   -999.2500    153.4342    -33.9880      2.1471      1.9861      2.9098 
  1595.5000   -999.2500     76.5045   -999.2500   -999.2500   -999.2500    138.5617    -33.2209      2.1359      1.9868      2.9743 
  1596.0000   -999.2500     74.7831   -999.2500   -999.2500   -999.2500    130.1779    -31.2561      2.1247      1.9594      3.0026 
  1596.5000   -999.2500     73.4227   -999.2500   -999.2500   -999.2500    128.9749    -29.5721      2.1136      1.9133      2.9039 
  1597.0000   -999.2500     72.6045   -999.2500   -999.2500   -999.2500    132.1724    -28.5675      2.1026      1.8719      2.5814 
  1597.5000   -999.2500     71.4694   -999.2500   -999.2500   -999.2500    145.2384    -28.5507      2.0917      1.8612      2.4965 
  1598.0000   -999.2500     71.6055   -999.2500   -999.2500   -999.2500    161.4779    -28.4765      2.0810      1.8692      2.5204 
  1598.5000   -999.2500     73.3278   -999.2500   -999.2500   -999.2500    167.5901    -28.8652      2.0705      1.8796      2.5700 
  1599.0000   -999.2500     74.9974   -999.2500   -999.2500   -999.2500    165.2382    -29.8188      2.0592      1.9019      2.6645 
  1599.5000   -999.2500     76.0183   -999.2500   -999.2500   -999.2500    161.9717    -32.2179      2.0518      1.9023      2.8835 
  1600.0000   -999.2500     76.9597   -999.2500   -999.2500   -999.2500    158.3281    -35.0836      2.0825      1.9063      3.0802 
  1600.5000   -999.2500     77.8685   -999.2500   -999.2500   -999.2500    154.7172    -35.2987      2.1137      1.9278      3.1325 
  1601.0000   -999.2500     78.3386   -999.2500   -999.2500   -999.2500    152.6478    -33.7273      2.1454      1.9374      3.1030 
  1601.5000   -999.2500     77.7575   -999.2500   -999.2500   -999.2500    151.9546    -30.9907      2.1739      1.9550      3.0440 
  1602.0000   -999.2500     77.1205   -999.2500   -999.2500   -999.2500    152.9256    -28.6051      2.2073      1.9827      2.8053 
  1602.5000   -999.2500     76.4656   -999.2500   -999.2500   -999.2500    154.5290    -28.0744      2.2463      2.0413      2.6476 
  1603.0000   -999.2500     75.5073   -999.2500   -999.2500   -999.2500    154.8066    -28.6959      2.2711      2.1166      2.6689 
  1603.5000   -999.2500     74.8579   -999.2500   -999.2500   -999.2500    151.5948    -29.8818      2.2522      2.1482      2.8936 
  1604.0000   -999.2500     75.1982   -999.2500   -999.2500   -999.2500    145.9233    -30.8290      2.2335      2.1046      3.0799 
  1604.5000   -999.2500     75.3039   -999.2500   -999.2500   -999.2500    143.9992    -31.0033      2.2149      2.0553      3.1664 
  1605.0000   -999.2500     75.0265   -999.2500   -999.2500   -999.2500    144.9283    -30.4660      2.1965      2.0073      2.9818 
  1605.5000   -999.2500     74.2489   -999.2500   -999.2500   -999.2500    146.4452    -29.6191      2.1673      1.9604      2.7672 
  1606.0000   -999.2500     72.1755   -999.2500   -999.2500   -999.2500    156.5642    -28.7449      2.1310      1.9314      2.6851 
  1606.5000   -999.2500     68.7750   -999.2500   -999.2500   -999.2500    158.8117    -28.7436      2.0953      1.9125      2.6577 
  1607.0000   -999.2500     65.2649   -999.2500   -999.2500   -999.2500    158.7221    -28.8502      2.0603      1.8938      2.6702 
  1607.5000   -999.2500     64.4032   -999.2500   -999.2500   -999.2500    158.0567    -29.0318      2.0258      1.8753      2.6793 
  1608.0000   -999.2500     64.8492   -999.2500   -999.2500   -999.2500    156.9235    -28.5951      2.0227      1.8683      2.6887 
  1608.5000   -999.2500     67.4439   -999.2500   -999.2500   -999.2500    156.1274    -28.3819      2.0485      1.8816      2.6911 
  1609.0000   -999.2500     69.0730   -999.2500   -999.2500   -999.2500    155.9623    -28.5572      2.0746      1.8949      2.6843 
  1609.5000   -999.2500     69.5020   -999.2500   -999.2500   -999.2500    155.5245    -28.5794      2.0958      1.9084      2.6881 
  1610.0000   -999.2500     69.0615   -999.2500   -999.2500   -999.2500    154.6866    -28.2475      2.1123      1.9220      2.6799 
