~VERSION INFORMATION
 VERS.                      2.00:        CWLS LOG ASCII STANDARD - VERSION 2.00
 WRAP.                        NO:        ONE LINE PER DEPTH STEP
~WELL INFORMATION
#MNEM.UNIT               DATA            INFORMATION
#----------          ------------        ------------------------------
 STRT.F                  40.0000:        START DEPTH
 STOP.F                9893.0000:        STOP DEPTH
 STEP.F                   0.5000:        STEP VALUE
 NULL.                 -999.2500:        NULL VALUE
 COMP.                 U.S. NAVY:        COMPANY  
 WELL.    CAPE HALKETT #16N-2W-1:        WELL     
 FLD .                   WILDCAT:        FIELD    
 LOC .               5  16N   2W:        LOCATION   
 CNTY.               NORTH SLOPE:        COUNTY  
 STAT.                    ALASKA:        STATE   
 CTRY.                       USA:        COUNTRY 
 DATE.                    4/9/75:        LOG DATE 
 API .              500000000000:        UNIQUE WELL IDENTIFIER 
 OPER.                 U.S. NAVY:        OPERATOR  
 SRVC.              Schlumberger:        SERVICE COMPANY 
 UWI .              500000000000:        UNIQUE WELL ID 
 LAT .                    0.0000:        LATITUDE
 LON .                    0.0000:        LONGITUDE
 DIGS.          Center Line Data:        DIGITIZING COMPANY 
~CURVE INFORMATION      
#MNEM.UNIT            API CODE           CURVE DESCRIPTION
#---------          -------------        ------------------------------
 DEPT.F                         :        1  DEPTH
 SP  .MV                        :        2
 ILD .OHMM                      :        3
 ILM .OHMM                      :        4
 LL8 .OHMM                      :        5
 CALI.IN                        :        6
 GR  .GAPI                      :        7
 DRHO.G/C3                      :        8
 RHOB.G/C3                      :        9
 NPHI.%                         :       10
 DPHI.%                         :       11
 DT  .US/F                      :       12
~PARAMETER INFORMATION       
#MNEM.UNIT              VALUE            DESCRIPTION OF MNEMONIC
#---------          -------------        ------------------------------
 EKB .F                  39.5000:        KELLY BUSHING
 TD  .F                7867.0000:        TOTAL DEPTH
 BHT .F                  60.0000:        BOTTOM HOLE TEMPERATURE
 BS  .                   18.5000:        BIT SIZE
 FD  .                   10.5000:        FLUID DENSITY
 CSIZ.                   20.0000:        CASING SIZE
 CBD .F                 492.0000:        CASING DRILLER 1
 CBL .F                 493.0000:        CASING LOGGER 1
 DFT .             Miscellaneous:        TYPE FLUID IN HOLE
 DFV .                  200.0000:        VISCOSITY
 DFPH.                   10.0000:        PH
 DFL .                    9.2000:        FLUID LOSS
 RMS .                    2.1500:        RM
 MST .F                  57.0000:        RM MEAS. TEMP.
 RMF .                    2.2000:        RMF
 MFST.F                  40.0000:        RMF MEAS. TEMP.
 RMC .                    0.0000:        RMC
 MCST.F                   0.0000:        RMC MEAS. TEMP.
 UWI .              500000000000:        UNIQUE WELL ID
~OTHER INFORMATION
~A    DEPTH          SP         ILD         ILM         LL8        CALI          GR        DRHO        RHOB        NPHI        DPHI          DT  
# ...
  7382.5000    -23.4461      2.1312      2.3527      3.7340     13.3555    184.4208      0.2410      2.4492     43.0759   -999.2500    101.8145  
  7383.0000    -23.4474      2.1549      2.3775      3.5972     13.1577    181.6856      0.2363      2.4831     42.0180   -999.2500    101.7852  
  7383.5000    -23.3906      2.1766      2.4231      3.6343     13.1828    181.3371      0.2434      2.5318     42.1598   -999.2500    102.0665  
  7384.0000    -23.2568      2.2121      2.4645      3.8693     13.2545    180.3030      0.2325      2.5356     43.3455   -999.2500    102.5640  
  7384.5000    -23.1231      2.2583      2.5097      3.9762     13.3135    179.5827      0.2204      2.5408     43.6396   -999.2500    103.0000  
  7385.0000    -23.0382      2.2984      2.5527      3.9530     13.3322    180.3684      0.2413      2.5580     42.8494   -999.2500    103.0904  
  7385.5000    -22.9704      2.3369      2.5973      3.9992     13.3398    182.6942      0.2573      2.5466     43.2633   -999.2500    102.9620  
  7386.0000    -23.0679      2.3660      2.6583      4.1383     13.3347    183.2905      0.2630      2.5241     44.0729   -999.2500    102.8664  
  7386.5000    -23.2508      2.3922      2.7198      4.3054     13.3193    183.7849      0.2488      2.5027     43.9032   -999.2500    102.9450  
  7387.0000    -23.4537      2.4187      2.7334      4.4018     13.3154    184.4403      0.2109      2.4664     42.8482   -999.2500    103.0663  
  7387.5000    -23.5820      2.4454      2.7303      4.4243     13.3152    184.5701      0.1914      2.4690     42.3964   -999.2500    102.8955  
  7388.0000    -23.5400      2.4772      2.7564      4.3139     13.3020    183.9543      0.2032      2.5344     43.3378   -999.2500    101.9518  
  7388.5000    -23.4514      2.5108      2.7828      4.2063     13.2639    183.9082      0.2151      2.5454     43.7538   -999.2500    101.1480  
  7389.0000    -23.3638      2.5421      2.8094      4.2281     13.2193    184.5282      0.2368      2.5789     44.1225   -999.2500    100.9218  
  7389.5000    -23.2671      2.5796      2.8363      4.3486     13.1672    185.3761      0.2210      2.5833     44.4587   -999.2500    100.8740  
  7390.0000    -23.2800      2.6634      2.8734      4.5806     13.1311    186.5670      0.2225      2.5852     44.8294   -999.2500    101.1271  
  7390.5000    -23.2765      2.7232      2.9558      4.6963     13.1108    185.5098      0.2453      2.5840     43.6525   -999.2500    101.4469  
  7391.0000    -23.2425      2.7843      3.0406      4.7539     13.0968    180.9688      0.2487      2.5686     43.3682   -999.2500    100.6049  
  7391.5000    -23.2085      2.8468      3.1192      4.8446     13.0891    176.8309      0.2373      2.5282     43.5857   -999.2500     99.4727  
  7392.0000    -23.1101      2.9107      3.1828      5.0221     13.0978    172.6128      0.2339      2.5212     43.7138   -999.2500     99.2913  
  7392.5000    -23.0265      2.9761      3.2477      5.0910     13.1136    171.8713      0.2115      2.4890     43.1878   -999.2500     99.0972  
  7393.0000    -22.9443      3.0432      3.3139      5.0432     13.1610    169.0609      0.2169      2.5016     40.8402   -999.2500     98.7717  
  7393.5000    -22.8785      3.1129      3.3829      5.0520     13.0949    165.7794      0.2502      2.5393     38.3402   -999.2500     98.6366  
  7394.0000    -22.7457      3.1842      3.4545      5.2124     13.0513    162.6982      0.2692      2.5392     38.7614   -999.2500     97.7515  
  7394.5000    -22.6916      3.2571      3.5277      5.4184     12.9956    161.1810      0.2449      2.5380     38.4222   -999.2500     96.8392  
  7395.0000    -22.7046      3.3317      3.6055      5.5640     12.9582    160.2419      0.2239      2.5365     37.8666   -999.2500     96.2633  
  7395.5000    -22.7176      3.4124      3.6983      5.6089     12.9265    159.1544      0.2042      2.5606     37.6766   -999.2500     95.4331  
  7396.0000    -22.8181      3.5048      3.7935      5.5528     12.8928    158.3181      0.1608      2.5556     39.0612   -999.2500     94.4772  
  7396.5000    -22.9436      3.5998      3.8912      5.6488     12.9027    157.6357      0.1812      2.5665     39.3819   -999.2500     93.7343  
  7397.0000    -23.0208      3.6455      3.9890      5.8109     12.9184    155.7513      0.2301      2.5897     38.7892   -999.2500     93.7081  
  7397.5000    -23.1308      3.6789      4.0572      5.9748     12.9206    153.4885      0.1942      2.5487     39.2046   -999.2500     93.6605  
  7398.0000    -23.1651      3.7051      4.0884      5.9675     12.9182    152.0673      0.1976      2.5655     39.1897   -999.2500     93.3753  
  7398.5000    -23.1994      3.6901      4.1120      5.9316     12.9111    149.7753      0.2011      2.5527     38.8750   -999.2500     92.7317  
  7399.0000    -23.2337      3.6752      4.0754      5.9584     12.8946    147.4833      0.1710      2.5504     38.8030   -999.2500     92.3030  
  7399.5000    -23.2670      3.6603      4.0419      5.9394     12.8814    143.7551      0.1351      2.5232     38.5597   -999.2500     92.0567  
  7400.0000    -23.2842      3.6455      4.0086      5.7227     12.8584    140.0270      0.1794      2.5414     38.4954   -999.2500     91.7767  
  7400.5000    -23.3182      3.6300      3.9755      5.5066     12.8711    138.2035      0.1990      2.5458     38.7914   -999.2500     92.2710  
  7401.0000    -23.3791      3.6010      3.9428      5.4557     12.8773    138.3025      0.1798      2.5371     38.8467   -999.2500     92.7761  
  7401.5000    -23.3110      3.5721      3.9291      5.4886     12.8626    137.7908      0.1673      2.5361     37.4634   -999.2500     93.1688  
  7402.0000    -23.1635      3.5435      3.9211      5.5646     12.8568    137.8752      0.2290      2.5474     35.8249   -999.2500     93.3498  
  7402.5000    -23.0397      3.5152      3.9191      5.6397     12.8718    138.5011      0.2087      2.5385     35.2684   -999.2500     93.2927  
  7403.0000    -22.9657      3.4870      3.8985      5.6519     12.8886    139.2261      0.1850      2.5205     35.6332   -999.2500     92.8543  
  7403.5000    -22.8917      3.4736      3.8748      5.5578     12.9012    139.9511      0.2076      2.5437     35.4582   -999.2500     92.6798  
  7404.0000    -22.8177      3.4762      3.8512      5.4109     12.9186    141.1814      0.2155      2.5418     35.3069   -999.2500     92.8606  
  7404.5000    -22.7816      3.4771      3.8278      5.3149     12.9373    144.0493      0.2042      2.5379     35.3739   -999.2500     93.4580  
  7405.0000    -22.7558      3.4635      3.8049      5.2694     12.9267    147.4402      0.2007      2.5541     36.0022   -999.2500     94.0837  
  7405.5000    -22.7299      3.4500      3.7910      5.2070     12.9200    150.8312      0.2253      2.5648     37.0189   -999.2500     94.6162  
  7406.0000    -22.8039      3.4279      3.7771      5.2961     12.9297    150.3101      0.2606      2.5491     38.3076   -999.2500     95.4409  
  7406.5000    -22.9378      3.4014      3.7643      5.4518     12.9473    150.1357      0.2412      2.5516     39.2029   -999.2500     96.2213  
  7407.0000    -23.1722      3.3714      3.7528      5.7742     12.9397    151.1100      0.2127      2.4988     39.5873   -999.2500     96.5640  
  7407.5000    -23.3711      3.3397      3.7414      5.3798     12.9243    153.3784      0.2119      2.4906     39.8233   -999.2500     96.3534  
  7408.0000    -23.3011      3.3222      3.7254      5.1622     12.9113    154.3358      0.1854      2.4761     39.9090   -999.2500     95.5425  
  7408.5000    -23.1779      3.2942      3.6852      5.1801     12.9087    152.5093      0.1658      2.4632     40.1414   -999.2500     95.5996  
  7409.0000    -23.1104      3.2666      3.6458      5.3277     12.8867    150.0270      0.1547      2.4760     40.3494   -999.2500     96.1526  
  7409.5000    -23.0429      3.2462      3.6088      5.3754     12.8646    149.9357      0.1960      2.5114     39.7161   -999.2500     96.8823  
