~VERSION INFORMATION
 VERS.                           2.00:        CWLS LOG ASCII STANDARD - VERSION 2.00
 WRAP.                             NO:        ONE LINE PER DEPTH STEP
~WELL INFORMATION
#MNEM.UNIT                   DATA             INFORMATION
#----------             --------------        ------------------------------
 STRT.F                       94.0000:        START DEPTH
 STOP.F                    11429.0000:        STOP DEPTH
 STEP.F                        0.5000:        STEP VALUE
 NULL.                      -999.2500:        NULL VALUE
 COMP. U.S. NAVY (HUSKY OIL CO.-OPER.:        COMPANY
 LOC .                      11 11N 1W:        LOCATION
 DATE.                        2/17/77:        LOG DATE
 WELL.             WEST FISH CREEK #1:        WELL
 UWI .                   500232001400:        UNIQUE WELL ID
 API .                   500232001400:        UNIQUE WELL IDENTIFIER
 FLD .                        WILDCAT:        FIELD
 CNTY.                    NORTH SLOPE:        COUNTY
 STAT.                         ALASKA:        STATE
 CTRY.                            USA:        COUNTRY
 OPER. U.S. NAVY (HUSKY OIL CO.-OPER.:        OPERATOR
 SRVC.                   SCHLUMBERGER:        SERVICE COMPANY
 LAT .                         0.0000:        LATITUDE
 LON .                         0.0000:        LONGITUDE
 DIGS.               CENTER LINE DATA:        DIGITIZING COMPANY
~CURVE INFORMATION      
#MNEM        .UNIT         API CODE           CURVE DESCRIPTION
#-----------------      --------------        ------------------------------
 DEPT        .F                      :        1  DEPTH
 SP          .MV                     :        2  
 ILD         .OHMM                   :        3  
 ILM         .OHMM                   :        4  
 LL8         .OHMM                   :        5  
 CALI        .IN                     :        6  
 RHOB        .G/C3                   :        7  
 DRHO        .G/C3                   :        8  
 NPHI        .%                      :        9  
 GR          .GAPI                   :        10 
 DT          .US/F                   :        11 
~PARAMETER INFORMATION
#MNEM.UNIT                  VALUE             DESCRIPTION OF MNEMONIC
#---------             ---------------        ------------------------------
 EKB .F                      113.0000:        KELLY BUSHING
 TD  .F                    11429.0000:        TOTAL DEPTH
~OTHER INFORMATION
~A    DEPTH          SP         ILD         ILM         LL8        CALI        RHOB        DRHO        NPHI          GR          DT 
# ...
  8512.0000    -19.8207      4.0407      4.0251      5.0623     14.2581      2.4769      0.0546     30.1871     42.9607     80.9262 
  8512.5000    -19.9003      4.0135      3.9980      4.9284     14.4016      2.4552      0.0296     29.7882     43.3607     81.6358 
  8513.0000    -19.9837      3.9700      3.9540      4.9256     14.3353      2.4720      0.0210     29.3894     43.3421     81.6457 
  8513.5000    -20.0670      3.9093      3.8936      4.9199     14.4781      2.4650      0.0154     28.9906     42.8559     82.4049 
  8514.0000    -20.1071      3.8623      3.8471      4.7310     14.1936      2.4901      0.0357     28.8252     44.2772     82.8600 
  8514.5000    -20.0460      3.8226      3.8076      4.5032     13.6972      2.4930      0.0791     29.1114     46.4338     83.0661 
  8515.0000    -19.9848      3.7621      3.7461      4.4077     13.4506      2.4727      0.0950     29.6288     48.0382     84.7448 
  8515.5000    -19.8453      3.6783      3.6627      4.4061     13.9484      2.4574      0.0830     29.8641     46.9207     85.6508 
  8516.0000    -19.6924      3.6399      3.6260      4.4002     13.6634      2.4656      0.0483     30.8712     45.5735     86.0041 
  8516.5000    -19.6772      3.6442      3.6286      4.3865     13.2398      2.4917      0.0448     30.0735     46.4269     86.0719 
  8517.0000    -19.8464      3.7269      3.7111      4.4278     13.3787      2.4999      0.0300     29.6586     47.5629     85.6185 
  8517.5000    -20.0296      3.8102      3.7942      4.5988     12.9319      2.5070      0.0233     28.7701     49.0471     84.8867 
  8518.0000    -20.2128      3.8908      3.8744      4.8999     13.3507      2.5097      0.0135     29.3491     49.5563     84.1753 
  8518.5000    -20.3959      3.9740      3.9571      5.0377     12.9525      2.5075      0.0102     30.0009     50.0443     83.7775 
  8519.0000    -20.4242      4.0813      4.0630      5.0891     13.6781      2.4915      0.0219     30.4727     50.1431     82.7308 
  8519.5000    -20.4242      4.1769      4.1593      5.0918     13.9413      2.4754      0.0159     29.8889     48.6451     83.5162 
  8520.0000    -20.4242      4.2674      4.2494      5.1510     13.4079      2.4608      0.0053     29.1420     46.5654     83.6474 
  8520.5000    -20.4242      4.3457      4.3288      5.2348     12.9180      2.4253     -0.0026     30.0164     45.5742     83.5871 
  8521.0000    -20.4242      4.3789      4.3619      5.3200     13.3168      2.3980      0.0213     30.5359     45.7492     82.7325 
  8521.5000    -20.4242      4.4124      4.3952      5.5573     13.6966      2.3999      0.0598     31.1683     46.8036     81.7454 
  8522.0000    -20.4242      4.4461      4.4288      5.8112     13.3994      2.3712      0.0613     31.8703     48.5780     81.1636 
  8522.5000    -20.4242      4.4531      4.4361      5.5712     13.1010      2.3832      0.0404     32.1808     49.0466     81.6973 
  8523.0000    -20.4242      4.4575      4.4405      5.2753     13.3513      2.4015      0.0909     32.0148     48.5764     82.5207 
  8523.5000    -20.3724      4.4597      4.4423      5.1371     13.0733      2.4058      0.1059     33.0260     48.5574     83.5973 
  8524.0000    -20.2677      4.4103      4.3920      5.1981     13.0234      2.3854      0.0852     35.2554     49.7893     84.2017 
  8524.5000    -20.1629      4.3281      4.3102      5.2488     13.5411      2.3651      0.0969     37.3546     50.0321     84.4669 
  8525.0000    -20.0582      4.2475      4.2300      5.1911     14.0346      2.3463      0.1079     38.3270     49.3894     84.5885 
  8525.5000    -19.9534      4.1648      4.1473      5.0733     14.5929      2.2979      0.0876     38.8716     48.6865     84.6447 
  8526.0000    -19.8486      4.0795      4.0623      4.9131     14.2973      2.3322      0.0813     38.8735     49.2621     84.8525 
  8526.5000    -19.7439      3.9960      3.9791      4.7531     14.5572      2.3450      0.0982     38.6958     49.7657     85.1938 
  8527.0000    -19.6391      3.9004      3.8832      4.6154     14.4798      2.3226      0.0973     37.5908     49.5073     85.6672 
  8527.5000    -19.5344      3.8024      3.7857      4.4937     14.0830      2.2915      0.0821     36.4685     49.1243     86.2269 
  8528.0000    -19.5791      3.7069      3.6906      4.3752     14.0636      2.2928      0.0576     35.8111     48.1435     86.7850 
  8528.5000    -19.6337      3.6138      3.5979      4.2598     14.2340      2.3020      0.0650     35.0787     46.3415     87.2673 
  8529.0000    -19.6884      3.5230      3.5075      4.1834     14.3304      2.3166      0.0760     34.3463     45.5917     87.5055 
  8529.5000    -19.7431      3.4345      3.4194      4.1737     14.1626      2.3054      0.1070     33.6139     46.0102     87.7987 
  8530.0000    -19.7978      3.3474      3.3327      4.0895     14.1572      2.2853      0.1031     33.8984     46.7516     87.7923 
  8530.5000    -19.8524      3.2656      3.2515      4.0245     14.3573      2.2732      0.1112     34.4480     47.3758     87.6320 
  8531.0000    -19.9071      3.2042      3.1912      3.9249     14.5966      2.3275      0.1121     33.4947     47.7467     87.3729 
  8531.5000    -19.9618      3.1962      3.1837      3.8117     14.7496      2.3763      0.1614     32.5413     47.3692     87.5927 
  8532.0000    -19.9194      3.1313      3.1164      3.6875     14.8215      2.3631      0.1423     31.5879     46.7309     88.0395 
  8532.5000    -19.8430      3.0750      3.0632      3.7167     14.5475      2.3592      0.1157     32.4693     47.9668     88.4332 
  8533.0000    -19.7306      3.0407      3.0283      3.7239     14.6354      2.4159      0.1307     33.4573     49.1888     88.7724 
  8533.5000    -19.6083      3.0038      2.9921      3.6567     14.6603      2.4409      0.1403     34.5064     48.0034     89.8650 
  8534.0000    -19.4909      2.9795      2.9679      3.6013     14.5291      2.3966      0.1254     33.8640     46.0406     90.9983 
  8534.5000    -19.3830      2.9596      2.9482      3.5639     14.7123      2.3539      0.0999     33.6080     44.7365     91.0388 
  8535.0000    -19.2750      2.9619      2.9504      3.5779     14.9248      2.3310      0.0704     33.9098     45.4901     90.3444 
  8535.5000    -19.2290      2.9809      2.9695      3.5933     15.1206      2.3341      0.0662     33.6766     46.8278     89.5581 
  8536.0000    -19.2290      3.0077      2.9957      3.5813     14.8709      2.3625      0.0848     34.1283     47.8909     89.7905 
  8536.5000    -19.2290      3.0394      3.0278      3.7093     14.5753      2.3893      0.0427     35.0581     48.5373     89.8113 
  8537.0000    -19.2290      3.0410      3.0286      3.8279     14.6384      2.4121      0.1168     35.0265     49.2831     88.9688 
  8537.5000    -19.4101      3.0700      3.0582      3.9405     14.8434      2.2855      0.1173     35.2113     50.1430     88.6146 
  8538.0000    -19.5278      3.0819      3.0700      4.0041     14.6082      2.2364      0.0722     35.6257     51.1090     87.9913 
  8538.5000    -19.5278      3.0905      3.0787      4.0380     14.4883      2.2403      0.0469     35.0010     50.2941     87.6601 
  8539.0000    -19.5278      3.0983      3.0865      4.0231     14.1893      2.2607      0.0244     34.3514     49.0158     88.5773 
  8539.5000    -19.5278      3.1062      3.0943      3.9827     14.3500      2.2974      0.0126     33.6536     47.5379     88.9633 
  8540.0000    -19.5617      3.1140      3.1021      3.9634     14.1764      2.3646      0.0277     32.9423     47.4836     89.5184 
  8540.5000    -19.6034      3.1219      3.1100      3.9342     13.6706      2.4048      0.0540     32.4139     47.6731     89.9551 
  8541.0000    -19.6450      3.1302      3.1181      3.8956     14.3113      2.4102      0.0783     31.8838     47.1893     90.4414 
  8541.5000    -19.6827      3.1441      3.1320      3.7979     14.7693      2.4237      0.0981     31.4849     45.6685     92.2142 
  8542.0000    -19.7068      3.1655      3.1399      3.8861     15.0685      2.3966      0.1232     31.8554     44.1780     91.5769 
