~VERSION INFORMATION
 VERS.                      2.00:        CWLS LOG ASCII STANDARD - VERSION 2.00
 WRAP.                        NO:        ONE LINE PER DEPTH STEP
~WELL INFORMATION
#MNEM.UNIT               DATA            INFORMATION
#----------          ------------        ------------------------------
 STRT.F                 490.0000:        START DEPTH
 STOP.F               10659.0000:        STOP DEPTH
 STEP.F                   0.5000:        STEP VALUE
 NULL.                 -999.2500:        NULL VALUE
 COMP. HUSKY OIL NPR OPERATIONS,:        COMPANY  
 WELL.         EAST TESHEKPUK #1:        WELL     
 FLD .   U.S. NAVY NPR-4 WILDCAT:        FIELD    
 LOC .              16  14N   4W:        LOCATION   
 CNTY.                  N. SLOPE:        COUNTY  
 STAT.                    ALASKA:        STATE   
 CTRY.                       USA:        COUNTRY 
 DATE.                   4/11/76:        LOG DATE 
 API .              502790000000:        UNIQUE WELL IDENTIFIER 
 OPER. HUSKY OIL NPR OPERATIONS,:        OPERATOR  
 SRVC.              Schlumberger:        SERVICE COMPANY 
 UWI .              502790000000:        UNIQUE WELL ID 
 LAT .                    0.0000:        LATITUDE
 LON .                    0.0000:        LONGITUDE
 DIGS.          Center Line Data:        DIGITIZING COMPANY 
~CURVE INFORMATION      
#MNEM.UNIT            API CODE           CURVE DESCRIPTION
#---------          -------------        ------------------------------
 DEPT.F                         :        1  DEPTH
 SP  .MV                        :        2
 LL8 .OHMM                      :        3
 ILM .OHMM                      :        4
 ILD .OHMM                      :        5
 CALI.IN                        :        6
 GR  .GAPI                      :        7
 RHOB.G/C3                      :        8
 DRHO.G/C3                      :        9
 NPHI.%                         :       10
 DT  .US/F                      :       11
~PARAMETER INFORMATION       
#MNEM.UNIT              VALUE            DESCRIPTION OF MNEMONIC
#---------          -------------        ------------------------------
 EKB .F                  27.6000:        KELLY BUSHING
 TD  .F               10664.0000:        TOTAL DEPTH
 BHT .F                 172.0000:        BOTTOM HOLE TEMPERATURE
 BS  .                   13.5000:        BIT SIZE
 FD  .                   10.2000:        FLUID DENSITY
 CSIZ.                   16.0000:        CASING SIZE
 CBD .F                2578.0000:        CASING DRILLER 1
 CBL .F                2572.0000:        CASING LOGGER 1
 DFT . Salt Water-Lignosulfonate:        TYPE FLUID IN HOLE
 DFV .                   51.0000:        VISCOSITY
 DFPH.                   10.6000:        PH
 DFL .                    3.5000:        FLUID LOSS
 RMS .                    2.2600:        RM
 MST .F                  64.0000:        RM MEAS. TEMP.
 RMF .                    1.8900:        RMF
 MFST.F                  58.0000:        RMF MEAS. TEMP.
 RMC .                    2.5400:        RMC
 MCST.F                  58.0000:        RMC MEAS. TEMP.
 UWI .              502790000000:        UNIQUE WELL ID
~OTHER INFORMATION
~A    DEPTH          SP         LL8         ILM         ILD        CALI          GR        RHOB        DRHO        NPHI          DT  
# ...
  6310.0000    -34.2584      4.5300      3.8645      4.1418     13.7305     89.5075   -999.2500   -999.2500   -999.2500     89.7740  
  6310.5000    -34.2545      4.4820      3.8663      4.1303     13.7935     88.4795   -999.2500   -999.2500   -999.2500     93.3752  
  6311.0000    -34.5747      4.5669      3.8681      4.1207     13.8565     90.0403   -999.2500   -999.2500   -999.2500     94.6432  
  6311.5000    -35.2156      4.6535      3.8699      4.1111     13.9445     91.2770   -999.2500   -999.2500   -999.2500     92.9889  
  6312.0000    -35.4105      4.7320      3.8718      4.1015     13.9480     91.3514   -999.2500   -999.2500   -999.2500     91.9530  
  6312.5000    -35.4072      4.7997      3.8736      4.0919     13.7237     90.2669   -999.2500   -999.2500   -999.2500     91.7395  
  6313.0000    -35.2417      4.8152      3.8748      4.0665     13.5845     88.2555   -999.2500   -999.2500   -999.2500     92.0010  
  6313.5000    -35.0097      4.7699      3.8458      4.0367     13.5986     86.2441   -999.2500   -999.2500   -999.2500     90.5671  
  6314.0000    -34.8675      4.8340      3.8170      4.0070     13.6972     84.2327   -999.2500   -999.2500   -999.2500     90.7381  
  6314.5000    -34.8176      5.0007      3.7884      3.9776     13.7954     83.1264   -999.2500   -999.2500   -999.2500     89.7265  
  6315.0000    -34.9983      4.8201      3.7600      3.9484     13.7143     82.9352   -999.2500   -999.2500   -999.2500     90.1087  
  6315.5000    -35.3173      4.4957      3.7319      3.9143     13.4620     85.1310   -999.2500   -999.2500   -999.2500     91.3681  
  6316.0000    -35.3293      4.2948      3.7058      3.8780     13.3723     87.6837   -999.2500   -999.2500   -999.2500     92.9064  
  6316.5000    -35.0341      4.2137      3.7093      3.8420     13.6762     88.2227   -999.2500   -999.2500   -999.2500     94.8586  
  6317.0000    -34.6601      4.3561      3.7127      3.8063     13.9910     88.7110   -999.2500   -999.2500   -999.2500     95.0115  
  6317.5000    -34.5507      4.5968      3.6836      3.7710     14.0151     89.4336   -999.2500   -999.2500   -999.2500     93.4839  
  6318.0000    -34.5389      4.7821      3.6238      3.7360     13.2791     90.0401   -999.2500   -999.2500   -999.2500     91.2596  
  6318.5000    -34.4370      4.8833      3.5650      3.7013     13.0111     90.4825   -999.2500   -999.2500   -999.2500     88.8018  
  6319.0000    -34.2413      4.8760      3.5072      3.6669     12.8096     91.3149   -999.2500   -999.2500   -999.2500     87.9668  
  6319.5000    -34.3969      4.5946      3.4503      3.6329     12.8443     92.3857   -999.2500   -999.2500   -999.2500     87.1989  
  6320.0000    -34.5646      4.2725      3.3944      3.6356     12.9101     92.4037   -999.2500   -999.2500   -999.2500     88.3016  
  6320.5000    -34.6512      4.1253      3.3657      3.6621     13.1120     91.0974   -999.2500   -999.2500   -999.2500     91.1674  
  6321.0000    -34.7074      4.1993      3.5181      3.6888     13.6744     88.6680   -999.2500   -999.2500   -999.2500     94.6696  
  6321.5000    -34.9437      4.2785      3.6743      3.7157     14.1523     85.8771   -999.2500   -999.2500   -999.2500     97.8305  
  6322.0000    -35.1050      4.5618      3.7697      3.8293     14.2249     86.3162   -999.2500   -999.2500   -999.2500     96.2017  
  6322.5000    -35.1128      4.9339      3.9266      4.0064     14.0543     89.8646   -999.2500   -999.2500   -999.2500     91.4442  
  6323.0000    -34.9417      5.4708      4.1063      4.1916     13.7680     95.5820   -999.2500   -999.2500   -999.2500     87.8713  
  6323.5000    -34.9180      5.8484      4.3512      4.3853     13.4818     97.9998   -999.2500   -999.2500   -999.2500     87.1462  
  6324.0000    -35.0244      6.0654      4.4922      4.5881     13.2313     95.0376   -999.2500   -999.2500   -999.2500     86.0298  
  6324.5000    -35.2189      6.3270      4.6295      4.8002     13.1669     89.6635   -999.2500   -999.2500   -999.2500     83.7857  
  6325.0000    -35.4491      6.5224      4.7710      4.9002     13.1421     83.7108   -999.2500   -999.2500   -999.2500     81.4539  
  6325.5000    -35.3770      6.3881      4.6214      4.8309     13.1173     78.7089   -999.2500   -999.2500   -999.2500     80.9242  
  6326.0000    -35.2381      5.8122      4.2739      4.7625     13.0935     76.7115   -999.2500   -999.2500   -999.2500     81.0371  
  6326.5000    -35.1114      4.8331      3.9685      4.6528     13.1055     75.0756   -999.2500   -999.2500   -999.2500     81.2876  
  6327.0000    -34.9980      4.6217      3.8612      4.5453     13.2637     74.9508   -999.2500   -999.2500   -999.2500     83.6274  
  6327.5000    -34.8896      4.6865      3.8809      4.4913     13.6525     77.3778   -999.2500   -999.2500   -999.2500     88.4870  
  6328.0000    -34.5597      4.7522      3.9377      4.5475     13.9407     80.7278   -999.2500   -999.2500   -999.2500     91.7101  
  6328.5000    -34.3155      4.8035      3.9747      4.6044     13.9983     83.1195   -999.2500   -999.2500   -999.2500     91.9172  
  6329.0000    -34.4840      4.8517      4.0767      4.7073     13.6453     85.1592   -999.2500   -999.2500   -999.2500     92.8907  
  6329.5000    -34.6717      4.9764      4.2580      4.8765     13.6051     86.4138   -999.2500   -999.2500   -999.2500     93.1364  
  6330.0000    -34.6909      5.7464      4.5192      5.0454     13.8866     86.9311   -999.2500   -999.2500   -999.2500     90.7240  
  6330.5000    -34.7783      6.5168      4.8450      5.2202     13.8133     86.6881   -999.2500   -999.2500   -999.2500     91.4597  
  6331.0000    -35.0352      7.0988      5.0576      5.4010     13.4234     87.2336   -999.2500   -999.2500   -999.2500     89.3661  
  6331.5000    -35.3530      7.5450      5.2796      5.5881     13.3298     89.0680   -999.2500   -999.2500   -999.2500     83.2865  
  6332.0000    -35.4588      7.8471      5.5113      5.8287     13.0763     90.6810   -999.2500   -999.2500   -999.2500     80.2924  
  6332.5000    -35.5970      7.8003      5.7531      6.1073     12.9653     91.1632   -999.2500   -999.2500   -999.2500     78.6843  
  6333.0000    -35.8538      7.3526      5.9970      6.3992     13.0006     91.4654   -999.2500   -999.2500   -999.2500     77.8364  
  6333.5000    -36.1182      7.2575      6.0510      6.5579     13.0589     92.4220   -999.2500   -999.2500   -999.2500     77.9672  
  6334.0000    -36.2477      7.5585      6.1055      6.6287     13.1186     91.4457   -999.2500   -999.2500   -999.2500     78.9960  
  6334.5000    -36.2488      7.8720      6.1604      6.7003     13.2160     88.0963   -999.2500   -999.2500   -999.2500     80.1522  
  6335.0000    -36.3612      7.9713      6.2159      6.7774     13.2528     86.7234   -999.2500   -999.2500   -999.2500     80.7774  
  6335.5000    -36.4189      7.8339      6.3095      6.8803     13.2335     88.2431   -999.2500   -999.2500   -999.2500     80.0288  
  6336.0000    -36.6813      7.7679      6.4472      6.9847     13.2145     89.3987   -999.2500   -999.2500   -999.2500     79.5192  
  6336.5000    -36.9463      8.0455      6.5890      7.0906     13.2265     90.1929   -999.2500   -999.2500   -999.2500     79.7428  
  6337.0000    -37.0971      8.2975      6.8172      7.1982     13.2666     89.8962   -999.2500   -999.2500   -999.2500     79.8653  
  6337.5000    -37.2817      8.5235      7.0496      7.3914     13.2855     88.4728   -999.2500   -999.2500   -999.2500     79.4560  
  6338.0000    -37.7404      8.7360      7.1668      7.5925     13.2560     84.9666   -999.2500   -999.2500   -999.2500     78.0852  
  6338.5000    -38.4037      8.8108      7.3288      7.7990     13.2354     80.4040   -999.2500   -999.2500   -999.2500     76.8053  
  6339.0000    -38.9053      8.8863      7.5772      8.0112     13.2148     77.9163   -999.2500   -999.2500   -999.2500     76.2077  
  6339.5000    -39.2173      8.9307      7.7626      8.2292     13.1942     75.9871   -999.2500   -999.2500   -999.2500     75.5097  
