~VERSION INFORMATION
 VERS.                           2.00:        CWLS LOG ASCII STANDARD - VERSION 2.00
 WRAP.                             NO:        ONE LINE PER DEPTH STEP
~WELL INFORMATION
#MNEM.UNIT                   DATA             INFORMATION
#----------             --------------        ------------------------------
 STRT.F                      116.0000:        START DEPTH
 STOP.F                     8861.0000:        STOP DEPTH
 STEP.F                        0.5000:        STEP VALUE
 NULL.                      -999.2500:        NULL VALUE
 COMP.                     U.S. NAAVY:        COMPANY
 LOC .                 [33^13 17N 2W:        LOCATION
 DATE.                        3/30/77:        LOG DATE
 WELL.                    WT FORAN #1:        WELL
 UWI .                   501032001000:        UNIQUE WELL ID
 API .                   501032001000:        UNIQUE WELL IDENTIFIER
 FLD .                        WILDCAT:        FIELD
 CNTY.                    NORTH SLOPE:        COUNTY
 STAT.                         ALASKA:        STATE
 CTRY.                            USA:        COUNTRY
 OPER.                     U.S. NAAVY:        OPERATOR
 SRVC.                   SCHLUMBERGER:        SERVICE COMPANY
 LAT .                         0.0000:        LATITUDE
 LON .                         0.0000:        LONGITUDE
 DIGS.               CENTER LINE DATA:        DIGITIZING COMPANY
~CURVE INFORMATION      
#MNEM        .UNIT         API CODE           CURVE DESCRIPTION
#-----------------      --------------        ------------------------------
 DEPT        .F                      :        1  DEPTH
 CALI        .IN                     :        2  
 GR          .GAPI                   :        3  
 DRHO        .G/C3                   :        4  
 RHOB        .G/C3                   :        5  
 NPHI        .%                      :        6  
 DT          .US/F                   :        7  
 SP          .MV                     :        8  
 ILD         .OHMM                   :        9  
 ILM         .OHMM                   :        10 
 LL8         .OHMM                   :        11 
~PARAMETER INFORMATION
#MNEM.UNIT                  VALUE             DESCRIPTION OF MNEMONIC
#---------             ---------------        ------------------------------
 EKB .F                       39.0000:        KELLY BUSHING
 TD  .F                     8864.0000:        TOTAL DEPTH
 BHT .F                      152.0000:        BOTTOM HOLE TEMPERATURE
 BS  .                        14.2500:        BIT SIZE
 FD  .                        10.2000:        FLUID DENSITY
 CSIZ.                        16.0000:        CASING SIZE
 CBD .F                     1458.0000:        CASING DRILLER 1
 CBL .F                        0.0000:        CASING LOGGER 1
 DFT .                  MISCELLANEOUS:        TYPE FLUID IN HOLE
 DFV .                        45.0000:        VISCOSITY
 DFPH.                        10.5000:        PH
 DFL .                         5.5000:        FLUID LOSS
 RMS .                         2.4000:        RM
 MST .F                       54.0000:        RM MEAS. TEMP.
 RMF .                         2.3000:        RMF
 MFST.F                       56.0000:        RMF MEAS. TEMP.
 RMC .                         2.7000:        RMC
 MCST.F                       54.0000:        RMC MEAS. TEMP.
~OTHER INFORMATION
~A    DEPTH        CALI          GR        DRHO        RHOB        NPHI          DT          SP         ILD         ILM         LL8 
# ...
  6216.0000     17.9759     83.9902      0.0382      2.3659   -999.2500     97.9140    -15.2850      4.6011      4.4478      4.7705 
  6216.5000     17.9761     81.5096      0.0421      2.3758   -999.2500     95.2011    -15.2023      4.6061      4.4526      4.8089 
  6217.0000     17.9763     77.6854      0.0708      2.4004   -999.2500     92.3598    -15.2338      4.6111      4.4575      4.8462 
  6217.5000     17.9765     76.1306      0.0800      2.4307   -999.2500     91.3410    -15.3510      4.6400      4.4789      4.8838 
  6218.0000     17.9767     76.0809      0.0785      2.4333   -999.2500     91.1846    -15.2876      4.7065      4.5421      4.9144 
  6218.5000     17.9769     77.6437      0.0926      2.4331   -999.2500     91.8301    -15.1838      4.7897      4.6196      4.9268 
  6219.0000     17.9771     80.0313      0.1032      2.4306   -999.2500     92.9753    -15.1572      4.8169      4.6563      4.9392 
  6219.5000     17.9773     80.3605      0.0812      2.4135   -999.2500     92.0485    -15.1426      4.8244      4.6633      4.9517 
  6220.0000     17.9775     79.9831      0.0644      2.3822   -999.2500     89.7138    -15.0329      4.8542      4.6906      4.9642 
  6220.5000     17.9777     80.0624      0.0583      2.3601   -999.2500     90.2337    -14.8897      4.8756      4.7121      4.9767 
  6221.0000     17.9779     80.6842      0.0523      2.3577   -999.2500     90.6074    -14.9761      4.8593      4.6971      4.9892 
  6221.5000     17.9781     80.8361      0.0463      2.3615   -999.2500     93.6011    -15.2910      4.8568      4.6919      5.0018 
  6222.0000     17.9783     80.1957      0.0359      2.3577   -999.2500     97.0944    -15.5768      4.8515      4.6870      5.0144 
  6222.5000     17.9785     79.8613      0.0361      2.3541   -999.2500     99.4815    -15.5728      4.8154      4.6507      4.9884 
  6223.0000     17.9787     80.2633      0.0305      2.3520   -999.2500    101.1426    -15.2735      4.7630      4.6001      4.9314 
  6223.5000     17.9789     80.3434      0.0294      2.3437   -999.2500    102.8001    -15.0203      4.7112      4.5500      4.8709 
  6224.0000     17.9791     80.4934      0.0398      2.3633   -999.2500     99.7651    -14.9174      4.6599      4.5005      4.8087 
  6224.5000     17.9793     80.3603      0.0608      2.3911   -999.2500     92.9866    -15.0123      4.6092      4.4515      4.7618 
  6225.0000     17.9795     80.2388      0.0719      2.3968   -999.2500     87.4496    -14.9414      4.5591      4.4031      4.7172 
  6225.5000     17.9797     80.0608      0.0632      2.3794   -999.2500     86.6514    -15.0231      4.5095      4.3551      4.6731 
  6226.0000     17.9799     78.8128      0.0637      2.3855   -999.2500     86.5936    -15.1055      4.4604      4.3077      4.6293 
  6226.5000     17.9801     78.3812      0.0750      2.3965   -999.2500     90.3934    -15.1738      4.4119      4.2609      4.5860 
  6227.0000     17.9803     78.9558      0.0923      2.4058   -999.2500     92.5594    -15.0727      4.4181      4.2699      4.5469 
  6227.5000     17.9805     79.4341      0.0844      2.4104   -999.2500     94.2503    -14.9320      4.4096      4.2606      4.5305 
  6228.0000     17.9806     79.3937      0.0660      2.3831   -999.2500     93.7726    -15.0420      4.3747      4.2269      4.5140 
  6228.5000     17.9809     78.3059      0.0496      2.3489   -999.2500     92.1083    -15.3267      4.3564      4.2110      4.4977 
  6229.0000     17.9810     77.2215      0.0315      2.3255   -999.2500     93.8191    -15.5158      4.3410      4.1957      4.4814 
  6229.5000     17.9812     77.5702      0.0380      2.3343   -999.2500     93.1593    -15.2520      4.3122      4.1667      4.5013 
  6230.0000     17.9814     79.5970      0.0330      2.3300   -999.2500     95.1092    -14.7623      4.3618      4.2109      4.5547 
  6230.5000     17.9816     79.9163      0.0521      2.3412   -999.2500     96.1848    -14.4839      4.4396      4.2901      4.6087 
  6231.0000     17.9818     79.4338      0.0603      2.3482   -999.2500     95.5515    -14.5816      4.4848      4.3284      4.6660 
  6231.5000     17.9820     79.5952      0.0618      2.3493   -999.2500     95.5432    -14.7191      4.5643      4.3904      4.6799 
  6232.0000     17.9822     79.9989      0.0715      2.3545   -999.2500     95.9431    -14.6882      4.5848      4.3832      4.6052 
  6232.5000     17.9824     80.6113      0.0833      2.3667   -999.2500     94.2104    -14.4714      4.4329      4.2675      4.5318 
  6233.0000     17.9826     81.7228      0.0831      2.3764   -999.2500     96.0453    -14.2547      4.3453      4.1980      4.4757 
  6233.5000     17.9828     82.3016      0.0753      2.3654   -999.2500     98.3896    -14.1498      4.3096      4.1635      4.4480 
  6234.0000     17.9830     81.9574      0.0653      2.3448   -999.2500     97.2498    -14.0271      4.3672      4.2151      4.5113 
  6234.5000     17.9832     80.2987      0.0572      2.3402   -999.2500     96.0364    -13.9384      4.4104      4.2507      4.5658 
  6235.0000     17.9834     78.7806      0.0629      2.3474   -999.2500     95.1349    -14.0540      4.3260      4.1794      4.5176 
  6235.5000     17.9836     77.6347      0.0754      2.3496   -999.2500     96.7118    -14.4448      4.2901      4.1190      4.4697 
  6236.0000     17.9838     78.3680      0.0797      2.3470   -999.2500    100.1719    -14.6954      4.1920      4.0522      4.4140 
  6236.5000     17.9840     78.9422      0.0876      2.3507   -999.2500     99.4192    -14.7410      4.1939      4.0534      4.3864 
  6237.0000     17.8749     78.4261      0.0866      2.3550   -999.2500    100.1705    -14.8582      4.2290      4.0859      4.4370 
  6237.5000     17.9033     78.2156      0.0735      2.3580   -999.2500    101.5151    -15.0103      4.2190      4.0709      4.4954 
  6238.0000     18.0003     79.0981      0.0732      2.3627   -999.2500     97.1934    -15.1070      4.2743      4.1282      4.5548 
  6238.5000     18.0030     79.6986      0.0623      2.3682   -999.2500     95.2899    -15.2022      4.3468      4.2010      4.5961 
  6239.0000     18.0056     80.3029      0.0600      2.3757   -999.2500     96.4781    -15.0912      4.3091      4.1550      4.5572 
  6239.5000     18.0083     79.9190      0.0676      2.3842   -999.2500     96.7839    -14.8588      4.2923      4.1492      4.4993 
  6240.0000     18.0109     77.6800      0.0897      2.3956   -999.2500     95.9093    -14.5323      4.2812      4.1381      4.4421 
  6240.5000     18.0136     77.4345      0.0845      2.3981   -999.2500     96.3052    -14.2994      4.2828      4.1381      4.4778 
  6241.0000     18.0163     78.3288      0.0708      2.3832   -999.2500     99.6057    -14.1825      4.3064      4.1519      4.5421 
  6241.5000     18.0189     78.9989      0.0644      2.3789   -999.2500     99.5184    -13.8981      4.4326      4.2444      4.6295 
  6242.0000     18.0216     79.5822      0.0504      2.3541   -999.2500     95.8294    -13.5585      4.5974      4.4125      4.7186 
  6242.5000     18.0242     80.4550      0.0381      2.3476   -999.2500     90.9037    -13.4776      4.5322      4.2642      4.6728 
  6243.0000     18.0269     81.3338      0.0369      2.3465   -999.2500     89.1345    -13.7324      4.3600      4.2110      4.5858 
  6243.5000     18.0296     81.8527      0.0499      2.3501   -999.2500     89.8153    -13.8376      4.3020      4.1523      4.5005 
  6244.0000     18.0134     81.0232      0.0712      2.3583   -999.2500     95.6787    -13.7473      4.3092      4.1650      4.4974 
  6244.5000     17.8841     80.0297      0.0671      2.3512   -999.2500     99.9604    -13.6028      4.3299      4.1850      4.5540 
  6245.0000     17.8395     79.4139      0.0486      2.3349   -999.2500     99.1817    -13.4926      4.3516      4.2056      4.5641 
  6245.5000     17.8516     79.7699      0.0397      2.3254   -999.2500     96.2799    -13.5163      4.3496      4.2012      4.5101 
  6246.0000     17.8815     80.1717      0.0563      2.3439   -999.2500     94.3842    -13.5322      4.3009      4.1526      4.4372 
