~VERSION INFORMATION
 VERS.                           2.00:        CWLS LOG ASCII STANDARD - VERSION 2.00
 WRAP.                             NO:        ONE LINE PER DEPTH STEP
~WELL INFORMATION
#MNEM.UNIT                   DATA             INFORMATION
#----------             --------------        ------------------------------
 STRT.F                      112.0000:        START DEPTH
 STOP.F                    10176.0000:        STOP DEPTH
 STEP.F                        0.5000:        STEP VALUE
 NULL.                      -999.2500:        NULL VALUE
 COMP.                      HUSKY OIL:        COMPANY  
 LOC .                   36  11N   4W:        LOCATION   
 DATE.                        2/16/81:        LOG DATE 
 WELL.            NORTH INIGOK TEST 1:        WELL     
 UWI .                   501032001700:        UNIQUE WELL ID 
 API .                   501032001700:        UNIQUE WELL IDENTIFIER 
 FLD .                        WILDCAT:        FIELD    
 CNTY.                    NORTH SLOPE:        COUNTY  
 STAT.                         ALASKA:        STATE   
 CTRY.                            USA:        COUNTRY 
 OPER.                      HUSKY OIL:        OPERATOR  
 SRVC.                            440:        SERVICE COMPANY 
 LAT .                         0.0000:        LATITUDE
 LON .                         0.0000:        LONGITUDE
 DIGS.                             65:        DIGITIZING COMPANY 
~CURVE INFORMATION      
#MNEM.UNIT                 API CODE           CURVE DESCRIPTION
#---------              --------------        ------------------------------
 DEPT.F                              :        1  DEPTH
 SP  .MV                             :        2
 SFL .OHMM                           :        3
 ILD .OHMM                           :        4
 ILM .OHMM                           :        5
 NPHI.%                              :        6
 CALI.IN                             :        7
 GR  .GAPI                           :        8
 RHOB.G/C3                           :        9
 DRHO.G/C3                           :       10
 DT  .US/F                           :       11
~PARAMETER INFORMATION       
#MNEM.UNIT                  VALUE             DESCRIPTION OF MNEMONIC
#---------             ---------------        ------------------------------
 EKB .F                      166.0000:        KELLY BUSHING
 TD  .F                    10167.0000:        TOTAL DEPTH
~OTHER INFORMATION
~A    DEPTH          SP         SFL         ILD         ILM        NPHI        CALI          GR        RHOB        DRHO          DT  
# ...
  3442.0000    -64.2701      7.2734      7.6046      7.0637     49.4943     18.3817     80.6546      2.2994      0.0971    105.2140  
  3442.5000    -64.6545      7.4028      7.6154      7.0473     50.2046     18.3697     81.4345      2.2904      0.0957    105.5942  
  3443.0000    -64.0671      7.3346      7.5806      6.9193     51.0517     18.3844     80.3034      2.2942      0.0870    104.2895  
  3443.5000    -63.2194      7.1584      7.5190      6.7759     52.0676     18.4676     78.9311      2.3031      0.0822    104.2372  
  3444.0000    -62.2002      6.8861      7.4487      6.6256     52.6365     18.5812     77.8454      2.3082      0.0848    106.8909  
  3444.5000    -61.6423      6.5134      7.3790      6.4816     52.6166     18.4579     77.8494      2.3132      0.0959    109.3125  
  3445.0000    -61.2601      6.2457      7.3276      6.3440     52.0417     18.2624     78.0825      2.3185      0.1068    107.3920  
  3445.5000    -61.0897      6.0869      7.2808      6.2655     50.7993     18.0386     78.3967      2.3306      0.1108    104.2399  
  3446.0000    -60.8147      6.1189      7.2343      6.2273     49.6493     17.8137     78.4780      2.3384      0.0896    100.2429  
  3446.5000    -60.5566      6.2251      7.1995      6.2468     48.7918     17.6385     78.7908      2.3495      0.0791     97.3229  
  3447.0000    -60.4871      6.3187      7.1828      6.2651     48.9190     17.8393     79.0189      2.3554      0.0899     97.8820  
  3447.5000    -60.2707      6.3342      7.1663      6.2758     49.4648     17.9213     79.1917      2.3456      0.0993    101.4149  
  3448.0000    -59.9751      6.3572      7.1497      6.2891     50.0734     18.3981     79.2054      2.3419      0.1117    102.6928  
  3448.5000    -59.7508      6.3629      7.1332      6.2942     51.0362     18.5548     79.5581      2.3368      0.1173    104.8964  
  3449.0000    -59.5669      6.3222      7.1167      6.2533     52.2892     18.4119     79.7277      2.3362      0.1210    107.8686  
  3449.5000    -59.2921      6.2758      7.1003      6.2084     52.9490     18.4147     79.8056      2.3400      0.1180    107.9570  
  3450.0000    -58.9265      6.2461      7.0839      6.1790     52.2169     18.5011     80.0735      2.3474      0.1081    108.0425  
  3450.5000    -59.0988      6.2677      7.0676      6.2000     51.7812     18.5831     80.1288      2.3354      0.0956    107.1116  
  3451.0000    -59.2149      6.3045      7.0513      6.2367     51.3454     18.6257     80.1842      2.3235      0.0902    105.3553  
  3451.5000    -59.4193      6.3279      7.0350      6.2601     51.0578     18.6102     80.2647      2.3122      0.0840    104.7979  
  3452.0000    -59.4233      6.2873      7.0187      6.2192     51.6110     18.5983     80.5321      2.3035      0.0783    104.6682  
  3452.5000    -59.7411      6.1487      7.0025      6.0731     52.4724     18.5651     81.1369      2.2907      0.0677    103.8501  
  3453.0000    -59.8605      5.9902      6.9864      5.9166     53.6093     18.5206     80.7179      2.2862      0.0566    102.6946  
  3453.5000    -60.0462      5.8534      6.9702      5.7908     51.8834     18.4716     79.9460      2.2832      0.0520    102.9891  
  3454.0000    -60.4423      5.8670      6.9542      5.8043     49.8564     18.3760     79.1550      2.2693      0.0486    104.6487  
  3454.5000    -61.0499      5.9507      6.9381      5.8827     48.7113     18.3189     79.8957      2.2607      0.0451    105.6913  
  3455.0000    -61.5950      6.0530      6.9613      5.9864     48.0348     18.4386     81.0365      2.2518      0.0423    106.1914  
  3455.5000    -62.2157      6.1155      6.9860      6.0492     47.3838     18.4507     80.8378      2.2457      0.0422    105.6971  
  3456.0000    -61.9953      6.1659      7.0107      6.0991     48.2288     18.3156     79.9933      2.2397      0.0435    104.1097  
  3456.5000    -61.0852      6.2025      7.0356      6.1362     48.9983     18.2980     79.6633      2.2434      0.0579    106.9222  
  3457.0000    -60.7321      6.1861      7.0605      6.1197     49.5202     18.3511     79.6095      2.2705      0.0835    109.2458  
  3457.5000    -60.4097      6.1607      7.0408      6.0947     48.2532     18.3931     79.2539      2.2790      0.0990    110.1195  
  3458.0000    -60.3269      6.1293      7.0109      6.0633     47.3372     18.4087     79.4560      2.2793      0.1027    111.5038  
  3458.5000    -60.2295      6.0629      6.9812      5.9956     47.1106     18.3438     79.7001      2.2796      0.1034    110.3203  
  3459.0000    -60.2385      5.9712      6.9513      5.9026     47.4935     18.2026     80.0270      2.2892      0.0981    106.4931  
  3459.5000    -60.1129      5.9031      6.8907      5.8396     48.0878     17.9305     81.0707      2.2958      0.0913    103.0825  
  3460.0000    -59.9709      5.9336      6.8305      5.8702     49.5260     17.7703     81.8955      2.3090      0.0901    101.7720  
  3460.5000    -59.8871      5.9258      6.8053      5.8624     51.1068     17.8491     82.0784      2.3163      0.0983    100.4059  
  3461.0000    -59.8034      5.9047      6.7886      5.8411     51.6114     18.0900     81.5510      2.3151      0.1075    103.7722  
  3461.5000    -59.7001      5.8709      6.7720      5.8077     52.3365     18.1292     80.7623      2.2993      0.1036    106.8673  
  3462.0000    -59.5877      5.8326      6.7743      5.7681     53.4702     18.0399     79.6601      2.2893      0.0966    108.0550  
  3462.5000    -59.7200      5.7696      6.7877      5.7075     52.7735     17.8975     78.4849      2.2801      0.0927    108.5248  
  3463.0000    -60.1562      5.7353      6.8011      5.6735     51.2821     17.8731     79.2808      2.2829      0.0821    109.2229  
  3463.5000    -60.4886      5.7147      6.8146      5.6537     49.5939     17.8671     80.2403      2.2908      0.0789    109.5799  
  3464.0000    -60.7743      5.7414      6.8252      5.6790     48.1057     17.8324     81.4893      2.2970      0.0764    108.9983  
  3464.5000    -60.6748      5.7968      6.7933      5.7322     46.2015     17.8056     83.1474      2.2820      0.0798    110.3725  
  3465.0000    -60.4595      5.8588      6.7617      5.7954     45.1789     17.7910     84.1100      2.2679      0.0684    109.1266  
  3465.5000    -60.5142      5.9055      6.7301      5.8416     44.7524     17.7755     83.8618      2.2632      0.0526    107.2792  
  3466.0000    -60.4135      5.9080      6.6990      5.8439     45.7441     17.6944     82.6601      2.2557      0.0458    105.1970  
  3466.5000    -60.1491      5.8600      6.6823      5.7964     48.3576     17.6701     81.5689      2.2481      0.0361    105.2948  
  3467.0000    -59.8718      5.8124      6.6657      5.7493     50.5265     17.7325     81.2527      2.2420      0.0302    106.3925  
  3467.5000    -59.5397      5.7651      6.6491      5.7026     52.0363     17.8266     81.4701      2.2456      0.0391    107.1562  
  3468.0000    -59.1257      5.7183      6.6326      5.6562     52.6993     17.8180     82.3294      2.2415      0.0326    109.2910  
  3468.5000    -58.9947      5.6718      6.5798      5.6103     52.8463     17.7054     84.1229      2.2410      0.0305    109.6246  
  3469.0000    -58.6869      5.6257      6.5290      5.5647     52.3823     17.7260     86.1006      2.2628      0.0490    108.6569  
  3469.5000    -58.3341      5.6067      6.4970      5.5468     51.0699     17.8296     86.7700      2.2700      0.0597    107.8630  
  3470.0000    -58.1261      5.6115      6.4670      5.5515     50.4608     17.9111     86.8182      2.2622      0.0619    105.9863  
  3470.5000    -58.4212      5.6163      6.4535      5.5563     50.2563     17.9640     86.8670      2.2587      0.0601    105.4518  
  3471.0000    -58.5684      5.6211      6.4400      5.5611     49.4841     17.9657     86.9437      2.2517      0.0584    107.7504  
  3471.5000    -58.6611      5.6258      6.4332      5.5644     48.3086     18.0127     86.6029      2.2534      0.0563    109.7237  
