~VERSION INFORMATION
 VERS.                           2.00:        CWLS LOG ASCII STANDARD - VERSION 2.00
 WRAP.                             NO:        ONE LINE PER DEPTH STEP
~WELL INFORMATION
#MNEM.UNIT                   DATA             INFORMATION
#----------             --------------        ------------------------------
 STRT.F                       66.0000:        START DEPTH
 STOP.F                    11266.0000:        STOP DEPTH
 STEP.F                        0.5000:        STEP VALUE
 NULL.                      -999.2500:        NULL VALUE
 COMP.              HUSKY OIL COMPANY:        COMPANY
 LOC .                       6 12N 2E:        LOCATION
 DATE.                       12/24/76:        LOG DATE
 WELL.          SOUTH HARRISON BAY #1:        WELL
 UWI .                   501032000700:        UNIQUE WELL ID
 API .                   501032000700:        UNIQUE WELL IDENTIFIER
 FLD .                        WILDCAT:        FIELD
 CNTY.                    NORTH SLOPE:        COUNTY
 STAT.                         ALASKA:        STATE
 CTRY.                            USA:        COUNTRY
 OPER.              HUSKY OIL COMPANY:        OPERATOR
 SRVC.                   SCHLUMBERGER:        SERVICE COMPANY
 LAT .                         0.0000:        LATITUDE
 LON .                         0.0000:        LONGITUDE
 DIGS.               CENTER LINE DATA:        DIGITIZING COMPANY
~CURVE INFORMATION      
#MNEM        .UNIT         API CODE           CURVE DESCRIPTION
#-----------------      --------------        ------------------------------
 DEPT        .F                      :        1  DEPTH
 GR          .GAPI                   :        2  
 CALI        .IN                     :        3  
 DRHO        .G/C3                   :        4  
 RHOB        .G/C3                   :        5  
 NPHI        .%                      :        6  
 DT          .US/F                   :        7  
 SP          .MV                     :        8  
 ILD         .OHMM                   :        9  
 ILM         .OHMM                   :        10 
 LL8         .OHMM                   :        11 
~PARAMETER INFORMATION
#MNEM.UNIT                  VALUE             DESCRIPTION OF MNEMONIC
#---------             ---------------        ------------------------------
 EKB .F                       45.0000:        KELLY BUSHING
 TD  .F                    11290.0000:        TOTAL DEPTH
 BHT .F                      174.0000:        BOTTOM HOLE TEMPERATURE
 BS  .                        12.2500:        BIT SIZE
 FD  .                        10.7000:        FLUID DENSITY
 CSIZ.                        13.3750:        CASING SIZE
 CBD .F                     2600.0000:        CASING DRILLER 1
 CBL .F                     2600.0000:        CASING LOGGER 1
 DFT .                  MISCELLANEOUS:        TYPE FLUID IN HOLE
 DFV .                        52.0000:        VISCOSITY
 DFPH.                         8.2000:        PH
 DFL .                         6.0000:        FLUID LOSS
 RMS .                         1.3900:        RM
 MST .F                       60.0000:        RM MEAS. TEMP.
 RMF .                         1.0200:        RMF
 MFST.F                       60.0000:        RMF MEAS. TEMP.
 RMC .                         1.3800:        RMC
 MCST.F                       60.0000:        RMC MEAS. TEMP.
~OTHER INFORMATION
~A    DEPTH          GR        CALI        DRHO        RHOB        NPHI          DT          SP         ILD         ILM         LL8 
# ...
    96.5000     56.8409     12.7203   -999.2500   -999.2500   -999.2500    190.8085    -41.1033     55.2146     18.3231     78.3859 
    97.0000     60.5118     12.6762   -999.2500   -999.2500   -999.2500    190.7823    -41.1049     47.4684     17.7896     76.4629 
    97.5000     61.5528     12.6791   -999.2500   -999.2500   -999.2500    190.8495    -41.1615     39.0687     17.6789     75.9960 
    98.0000     59.8547     12.6801   -999.2500   -999.2500   -999.2500    190.8570    -41.2740     29.0126     17.7008     76.3321 
    98.5000     57.7321     12.6732   -999.2500   -999.2500   -999.2500    190.7327    -42.1068     31.8152     17.7670     76.6697 
    99.0000     55.8338     12.6655   -999.2500   -999.2500   -999.2500    190.6594    -43.1593     35.8396     17.8120     76.7701 
    99.5000     54.4362     12.6596   -999.2500   -999.2500   -999.2500    190.7810    -45.0926     36.8382     17.9035     76.3110 
   100.0000     54.3698     12.6390   -999.2500   -999.2500   -999.2500    190.7581    -47.6495     36.4902     17.5173     75.8546 
   100.5000     55.1370     12.6219   -999.2500   -999.2500   -999.2500    190.6800    -48.6941     36.1294     17.1395     75.4009 
   101.0000     54.3237     12.6061   -999.2500   -999.2500   -999.2500    190.6707    -48.9053     35.1375     16.4989     71.4538 
   101.5000     53.7721     12.6014   -999.2500   -999.2500   -999.2500    190.7373    -48.4728     34.4722     16.0839     68.7751 
   102.0000     55.9527     12.6048   -999.2500   -999.2500   -999.2500    190.7437    -47.9971     34.0507     15.9999     67.5677 
   102.5000     58.3645     12.5975   -999.2500   -999.2500   -999.2500    190.7015    -47.6319     33.5979     15.9552     66.3815 
   103.0000     58.8991     12.5916   -999.2500   -999.2500   -999.2500    190.7309    -47.2730     33.4385     15.9335     64.6490 
   103.5000     57.4230     12.5939   -999.2500   -999.2500   -999.2500    190.7825    -46.9339     33.7760     16.1757     63.3853 
   104.0000     56.0151     12.6015   -999.2500   -999.2500   -999.2500    190.8867    -46.6826     34.3698     16.5881     63.1960 
   104.5000     56.0392     12.6053   -999.2500   -999.2500   -999.2500    190.8712    -46.3607     34.9145     16.9284     62.7387 
   105.0000     57.1516     12.6099   -999.2500   -999.2500   -999.2500    190.8477    -46.0975     35.4178     17.1565     62.0166 
   105.5000     57.9471     12.6064   -999.2500   -999.2500   -999.2500    190.8242    -45.9759     36.0966     17.3397     61.1384 
   106.0000     57.5072     12.5860   -999.2500   -999.2500   -999.2500    190.8007    -45.8633     35.7895     17.3003     60.4118 
   106.5000     57.3013     12.5619   -999.2500   -999.2500   -999.2500    190.8157    -45.7033     35.2436     17.1977     59.1686 
   107.0000     57.2617     12.5520   -999.2500   -999.2500   -999.2500    190.8499    -45.5046     34.7061     16.7580     57.7530 
   107.5000     58.0795     12.5591   -999.2500   -999.2500   -999.2500    190.8964    -45.3933     34.1767     16.2459     56.3712 
   108.0000     60.1711     12.5587   -999.2500   -999.2500   -999.2500    190.9086    -45.3463     33.6554     15.9337     55.0225 
   108.5000     61.9418     12.5564   -999.2500   -999.2500   -999.2500    190.8877    -45.3207     33.1420     15.6288     53.7065 
   109.0000     61.2393     12.5590   -999.2500   -999.2500   -999.2500    190.9450    -45.2676     32.8153     15.4876     52.9670 
   109.5000     62.0035     12.5579   -999.2500   -999.2500   -999.2500    191.0118    -45.2220     33.3846     15.6832     53.7558 
   110.0000     63.1292     12.5136   -999.2500   -999.2500   -999.2500    190.9565    -44.8946     34.6199     16.2180     54.1765 
   110.5000     63.7917     12.4788   -999.2500   -999.2500   -999.2500    190.9666    -45.3043     35.9010     16.7815     54.3485 
   111.0000     63.5685     12.5242   -999.2500   -999.2500   -999.2500    191.0676    -46.0066     36.4665     17.3199     55.3034 
   111.5000     62.5088     12.5587   -999.2500   -999.2500   -999.2500    191.1028    -47.1679     37.5013     17.6168     55.5012 
   112.0000     62.8422     12.4921   -999.2500   -999.2500   -999.2500    191.0423    -49.8122     38.5161     17.3916     55.1330 
   112.5000     63.5450     12.4128   -999.2500   -999.2500   -999.2500    191.0441    -52.4995     39.8407     17.2775     54.1556 
   113.0000     62.2380     12.3674   -999.2500   -999.2500   -999.2500    190.9613    -55.6778     39.8624     17.1965     53.2866 
   113.5000     61.1135     12.3759   -999.2500   -999.2500   -999.2500    190.9347    -58.0227     39.4081     17.0294     52.5309 
   114.0000     61.0272     12.3709   -999.2500   -999.2500   -999.2500    191.0856    -60.0367     39.1022     16.5274     52.8509 
   114.5000     60.0984     12.3780   -999.2500   -999.2500   -999.2500    191.2028    -60.8381     37.0334     16.1143     52.5495 
   115.0000     59.2887     12.3921   -999.2500   -999.2500   -999.2500    191.0366    -62.0100     34.0677     15.8981     52.3057 
   115.5000     59.9184     12.4002   -999.2500   -999.2500   -999.2500    191.0588    -63.0184     35.6920     15.7721     52.0638 
   116.0000     61.7827     12.4205   -999.2500   -999.2500   -999.2500    191.0996    -63.9088     39.1405     15.9851     51.8231 
   116.5000     61.9855     12.4376   -999.2500   -999.2500   -999.2500    191.1126    -64.7797     35.7697     16.7100     51.9503 
   117.0000     61.2002     12.4388   -999.2500   -999.2500   -999.2500    191.1778    -65.4515     31.8359     17.6515     53.7235 
   117.5000     61.4900     12.4522   -999.2500   -999.2500   -999.2500    191.1734    -65.9759     29.5167     16.2439     56.1322 
   118.0000     62.9690     12.4733   -999.2500   -999.2500   -999.2500    191.1039    -66.4502     26.3964     16.3317     55.4385 
   118.5000     64.7213     12.4967   -999.2500   -999.2500   -999.2500    191.1740    -66.8180     25.0168     14.0296     51.7030 
   119.0000     65.3373     12.5202   -999.2500   -999.2500   -999.2500    191.3669    -67.3808     26.1619     12.4330     49.2523 
   119.5000     65.3740     12.5437   -999.2500   -999.2500   -999.2500    191.9326    -68.7022     28.4140     13.2995     47.0353 
   120.0000     66.5516     12.5671   -999.2500   -999.2500   -999.2500    193.4104    -70.3542     30.2244     17.0803     47.6289 
   120.5000     68.0578     12.5464   -999.2500   -999.2500   -999.2500    191.5018    -71.4015     33.1726     20.0856     51.1907 
   121.0000     70.1998     12.5257   -999.2500   -999.2500   -999.2500    189.8010    -71.7035     35.0789     22.5343     55.5623 
   121.5000     71.9153     12.5050   -999.2500   -999.2500   -999.2500    186.9402    -71.6620     36.3009     25.6935     57.3160 
   122.0000     69.8028     12.5431   -999.2500   -999.2500   -999.2500    186.9204    -71.5833     39.9958     27.2905     56.0561 
   122.5000     67.0672     12.5851   -999.2500   -999.2500   -999.2500    187.1568    -71.7620     44.2544     29.5102     48.7237 
   123.0000     65.0321     12.7006   -999.2500   -999.2500   -999.2500    185.8170    -71.9567     51.9242     29.6611     50.2494 
   123.5000     63.5695     12.8516   -999.2500   -999.2500   -999.2500    182.7188    -71.7950     62.1570     30.6623     51.7693 
   124.0000     63.2537     12.6761   -999.2500   -999.2500   -999.2500    190.6349    -72.0841     71.3831     32.1816     51.4244 
   124.5000     63.7774     12.4897   -999.2500   -999.2500   -999.2500    191.6173    -72.6232     69.6700     32.3032     51.3848 
   125.0000     62.7205     12.5044   -999.2500   -999.2500   -999.2500    189.8542    -72.8472     61.8334     32.3604     51.6075 
   125.5000     60.2910     12.5191   -999.2500   -999.2500   -999.2500    185.4145    -72.9148     56.1796     32.1224     51.7113 
   126.0000     54.9636     12.5338   -999.2500   -999.2500   -999.2500    190.4407    -72.8899     51.0509     32.5624     51.6418 
   126.5000     50.9058     12.5485   -999.2500   -999.2500   -999.2500    192.1218    -72.5568     49.7882     30.6603     51.4522 
