~VERSION INFORMATION
 VERS.                           2.00:        CWLS LOG ASCII STANDARD - VERSION 2.00
 WRAP.                             NO:        ONE LINE PER DEPTH STEP
~WELL INFORMATION
#MNEM.UNIT                   DATA             INFORMATION
#----------             --------------        ------------------------------
 STRT.F                       94.0000:        START DEPTH
 STOP.F                    11429.0000:        STOP DEPTH
 STEP.F                        0.5000:        STEP VALUE
 NULL.                      -999.2500:        NULL VALUE
 COMP. U.S. NAVY (HUSKY OIL CO.-OPER.:        COMPANY
 LOC .                      11 11N 1W:        LOCATION
 DATE.                        2/17/77:        LOG DATE
 WELL.             WEST FISH CREEK #1:        WELL
 UWI .                   500232001400:        UNIQUE WELL ID
 API .                   500232001400:        UNIQUE WELL IDENTIFIER
 FLD .                        WILDCAT:        FIELD
 CNTY.                    NORTH SLOPE:        COUNTY
 STAT.                         ALASKA:        STATE
 CTRY.                            USA:        COUNTRY
 OPER. U.S. NAVY (HUSKY OIL CO.-OPER.:        OPERATOR
 SRVC.                   SCHLUMBERGER:        SERVICE COMPANY
 LAT .                         0.0000:        LATITUDE
 LON .                         0.0000:        LONGITUDE
 DIGS.               CENTER LINE DATA:        DIGITIZING COMPANY
~CURVE INFORMATION      
#MNEM        .UNIT         API CODE           CURVE DESCRIPTION
#-----------------      --------------        ------------------------------
 DEPT        .F                      :        1  DEPTH
 SP          .MV                     :        2  
 ILD         .OHMM                   :        3  
 ILM         .OHMM                   :        4  
 LL8         .OHMM                   :        5  
 CALI        .IN                     :        6  
 RHOB        .G/C3                   :        7  
 DRHO        .G/C3                   :        8  
 NPHI        .%                      :        9  
 GR          .GAPI                   :        10 
 DT          .US/F                   :        11 
~PARAMETER INFORMATION
#MNEM.UNIT                  VALUE             DESCRIPTION OF MNEMONIC
#---------             ---------------        ------------------------------
 EKB .F                      113.0000:        KELLY BUSHING
 TD  .F                    11429.0000:        TOTAL DEPTH
~OTHER INFORMATION
~A    DEPTH          SP         ILD         ILM         LL8        CALI        RHOB        DRHO        NPHI          GR          DT 
# ...
  1527.5000     -9.7398      4.4580      4.1771      5.2194   -999.2500   -999.2500   -999.2500   -999.2500     77.5959    120.5295 
  1528.0000    -10.1483      4.3395      4.1535      5.3585   -999.2500   -999.2500   -999.2500   -999.2500     79.7428    119.8390 
  1528.5000    -10.7928      4.2645      4.1467      5.4879   -999.2500   -999.2500   -999.2500   -999.2500     81.5725    119.4780 
  1529.0000    -11.7052      4.2696      4.1385      5.4872   -999.2500   -999.2500   -999.2500   -999.2500     83.1784    119.6186 
  1529.5000    -12.6736      4.3154      4.1313      5.5412   -999.2500   -999.2500   -999.2500   -999.2500     85.6145    119.8250 
  1530.0000    -13.0390      4.3744      4.1252      5.4592   -999.2500   -999.2500   -999.2500   -999.2500     87.4248    119.9120 
  1530.5000    -13.2952      4.4341      4.1264      5.1870   -999.2500   -999.2500   -999.2500   -999.2500     87.0540    119.9826 
  1531.0000    -13.1641      4.4947      4.1375      4.9558   -999.2500   -999.2500   -999.2500   -999.2500     86.5743    120.0022 
  1531.5000    -12.7268      4.5446      4.1488      4.7426   -999.2500   -999.2500   -999.2500   -999.2500     86.8025    119.7079 
  1532.0000    -12.0264      4.5593      4.1501      4.6930   -999.2500   -999.2500   -999.2500   -999.2500     86.7547    119.5991 
  1532.5000    -11.1825      4.5484      4.1482      4.7240   -999.2500   -999.2500   -999.2500   -999.2500     84.6463    119.3696 
  1533.0000    -11.2158      4.5376      4.1463      4.7862   -999.2500   -999.2500   -999.2500   -999.2500     82.6211    119.1548 
  1533.5000    -11.2775      4.5262      4.1464      4.8363   -999.2500   -999.2500   -999.2500   -999.2500     81.5908    119.2596 
  1534.0000    -10.8707      4.5176      4.1639      4.8535   -999.2500   -999.2500   -999.2500   -999.2500     80.7983    119.0258 
  1534.5000    -10.9207      4.5135      4.1815      4.8395   -999.2500   -999.2500   -999.2500   -999.2500     81.2374    117.2692 
  1535.0000    -11.5127      4.5075      4.1991      4.8278   -999.2500   -999.2500   -999.2500   -999.2500     81.7721    116.2694 
  1535.5000    -11.3861      4.5015      4.2057      4.8256   -999.2500   -999.2500   -999.2500   -999.2500     82.1747    115.7456 
  1536.0000    -11.5992      4.4963      4.2003      4.8255   -999.2500   -999.2500   -999.2500   -999.2500     82.7778    115.7451 
  1536.5000    -11.2883      4.4943      4.1950      4.8363   -999.2500   -999.2500   -999.2500   -999.2500     84.2563    115.6219 
  1537.0000    -11.5532      4.4922      4.1890      4.8471   -999.2500   -999.2500   -999.2500   -999.2500     86.9451    114.4952 
  1537.5000    -12.8640      4.4452      4.1711      4.9486   -999.2500   -999.2500   -999.2500   -999.2500     90.4021    113.1605 
  1538.0000    -13.1633      4.3533      4.1441      5.0400   -999.2500   -999.2500   -999.2500   -999.2500     94.7639    114.1447 
  1538.5000    -12.9621      4.2526      4.0561      5.1182   -999.2500   -999.2500   -999.2500   -999.2500     97.4496    117.5473 
  1539.0000    -13.4773      4.1704      3.9595      5.0618   -999.2500   -999.2500   -999.2500   -999.2500     97.7095    121.0010 
  1539.5000    -12.1882      4.1578      3.8860      4.7147   -999.2500   -999.2500   -999.2500   -999.2500     97.2290    125.0435 
  1540.0000    -10.3649      4.1482      3.8842      4.3804   -999.2500   -999.2500   -999.2500   -999.2500     96.6933    126.0557 
  1540.5000    -10.4754      4.1387      3.9129      4.3044   -999.2500   -999.2500   -999.2500   -999.2500     95.4969    124.3342 
  1541.0000    -10.3709      4.1470      3.9490      4.3720   -999.2500   -999.2500   -999.2500   -999.2500     93.9409    121.7387 
  1541.5000     -9.8560      4.1575      3.9789      4.5860   -999.2500   -999.2500   -999.2500   -999.2500     92.3762    119.1643 
  1542.0000     -9.2961      4.1705      3.9868      4.7132   -999.2500   -999.2500   -999.2500   -999.2500     90.7026    116.9589 
  1542.5000     -9.3580      4.2045      3.9948      4.8126   -999.2500   -999.2500   -999.2500   -999.2500     88.3128    116.4797 
  1543.0000     -9.5956      4.2142      4.0028      4.9116   -999.2500   -999.2500   -999.2500   -999.2500     85.6705    117.5516 
  1543.5000     -9.9779      4.2239      3.9981      5.0306   -999.2500   -999.2500   -999.2500   -999.2500     84.8465    119.1150 
  1544.0000    -10.6089      4.2336      3.9850      4.9324   -999.2500   -999.2500   -999.2500   -999.2500     85.4791    120.7302 
  1544.5000    -11.2565      4.2394      3.9718      4.7715   -999.2500   -999.2500   -999.2500   -999.2500     85.0541    122.6948 
  1545.0000    -11.6815      4.2324      3.9494      4.6672   -999.2500   -999.2500   -999.2500   -999.2500     83.9842    124.1572 
  1545.5000    -12.2197      4.2254      3.9252      4.8064   -999.2500   -999.2500   -999.2500   -999.2500     83.0005    124.7531 
  1546.0000    -12.4246      4.2117      3.9083      4.7516   -999.2500   -999.2500   -999.2500   -999.2500     82.4652    125.6930 
  1546.5000    -12.5686      4.1970      3.9116      4.6585   -999.2500   -999.2500   -999.2500   -999.2500     82.0029    125.1537 
  1547.0000    -12.8334      4.1841      3.9437      4.6038   -999.2500   -999.2500   -999.2500   -999.2500     80.4632    123.7923 
  1547.5000    -13.0080      4.1912      3.9574      4.5954   -999.2500   -999.2500   -999.2500   -999.2500     78.9084    122.8748 
  1548.0000    -13.3389      4.1983      3.9681      4.8275   -999.2500   -999.2500   -999.2500   -999.2500     77.5942    121.3186 
  1548.5000    -13.3694      4.2178      3.9986      4.9911   -999.2500   -999.2500   -999.2500   -999.2500     76.8567    121.0422 
  1549.0000    -13.7823      4.2701      4.0827      5.0776   -999.2500   -999.2500   -999.2500   -999.2500     76.6598    120.4731 
  1549.5000    -14.3162      4.3278      4.1679      4.9811   -999.2500   -999.2500   -999.2500   -999.2500     76.6792    119.5064 
  1550.0000    -15.8792      4.3863      4.2240      4.8763   -999.2500   -999.2500   -999.2500   -999.2500     76.8695    118.6608 
  1550.5000    -17.8285      4.4750      4.2809      5.1091   -999.2500   -999.2500   -999.2500   -999.2500     77.1019    118.8173 
  1551.0000    -20.5230      4.5846      4.3674      5.6633   -999.2500   -999.2500   -999.2500   -999.2500     77.0386    118.9152 
  1551.5000    -20.6829      4.7573      4.5059      5.4540   -999.2500   -999.2500   -999.2500   -999.2500     76.8319    119.1004 
  1552.0000    -20.1664      4.8945      4.6489      5.0616   -999.2500   -999.2500   -999.2500   -999.2500     76.5670    117.5911 
  1552.5000    -21.6594      4.9477      4.7678      4.9720   -999.2500   -999.2500   -999.2500   -999.2500     76.3223    114.1071 
  1553.0000    -26.2855      5.0015      4.8059      5.2812   -999.2500   -999.2500   -999.2500   -999.2500     76.1797    112.8656 
  1553.5000    -33.2758      5.0541      4.8313      6.8605   -999.2500   -999.2500   -999.2500   -999.2500     77.3723    112.1400 
  1554.0000    -37.6421      5.1068      4.8221      7.0080   -999.2500   -999.2500   -999.2500   -999.2500     79.7537    114.5969 
  1554.5000    -40.4025      5.1348      4.7710      6.4715   -999.2500   -999.2500   -999.2500   -999.2500     82.2468    116.9001 
  1555.0000    -40.8320      5.0810      4.7450      6.1553   -999.2500   -999.2500   -999.2500   -999.2500     84.1909    117.4312 
  1555.5000    -33.5875      5.0010      4.6932      5.8464   -999.2500   -999.2500   -999.2500   -999.2500     84.0606    117.3248 
  1556.0000    -25.8099      4.8403      4.4886      5.3249   -999.2500   -999.2500   -999.2500   -999.2500     82.3472    117.4953 
  1556.5000    -22.2225      4.5939      4.1540      5.1547   -999.2500   -999.2500   -999.2500   -999.2500     81.2045    117.8571 
  1557.0000    -20.1587      4.3175      3.8443      5.1541   -999.2500   -999.2500   -999.2500   -999.2500     80.4743    120.6293 
  1557.5000    -16.7151      4.0579      3.5406      5.0720   -999.2500   -999.2500   -999.2500   -999.2500     81.7350    126.5492 
