~VERSION INFORMATION
 VERS.                           2.00:        CWLS LOG ASCII STANDARD - VERSION 2.00
 WRAP.                             NO:        ONE LINE PER DEPTH STEP
~WELL INFORMATION
#MNEM.UNIT                   DATA             INFORMATION
#----------             --------------        ------------------------------
 STRT.F                       66.0000:        START DEPTH
 STOP.F                    11266.0000:        STOP DEPTH
 STEP.F                        0.5000:        STEP VALUE
 NULL.                      -999.2500:        NULL VALUE
 COMP.              HUSKY OIL COMPANY:        COMPANY
 LOC .                       6 12N 2E:        LOCATION
 DATE.                       12/24/76:        LOG DATE
 WELL.          SOUTH HARRISON BAY #1:        WELL
 UWI .                   501032000700:        UNIQUE WELL ID
 API .                   501032000700:        UNIQUE WELL IDENTIFIER
 FLD .                        WILDCAT:        FIELD
 CNTY.                    NORTH SLOPE:        COUNTY
 STAT.                         ALASKA:        STATE
 CTRY.                            USA:        COUNTRY
 OPER.              HUSKY OIL COMPANY:        OPERATOR
 SRVC.                   SCHLUMBERGER:        SERVICE COMPANY
 LAT .                         0.0000:        LATITUDE
 LON .                         0.0000:        LONGITUDE
 DIGS.               CENTER LINE DATA:        DIGITIZING COMPANY
~CURVE INFORMATION      
#MNEM        .UNIT         API CODE           CURVE DESCRIPTION
#-----------------      --------------        ------------------------------
 DEPT        .F                      :        1  DEPTH
 GR          .GAPI                   :        2  
 CALI        .IN                     :        3  
 DRHO        .G/C3                   :        4  
 RHOB        .G/C3                   :        5  
 NPHI        .%                      :        6  
 DT          .US/F                   :        7  
 SP          .MV                     :        8  
 ILD         .OHMM                   :        9  
 ILM         .OHMM                   :        10 
 LL8         .OHMM                   :        11 
~PARAMETER INFORMATION
#MNEM.UNIT                  VALUE             DESCRIPTION OF MNEMONIC
#---------             ---------------        ------------------------------
 EKB .F                       45.0000:        KELLY BUSHING
 TD  .F                    11290.0000:        TOTAL DEPTH
 BHT .F                      174.0000:        BOTTOM HOLE TEMPERATURE
 BS  .                        12.2500:        BIT SIZE
 FD  .                        10.7000:        FLUID DENSITY
 CSIZ.                        13.3750:        CASING SIZE
 CBD .F                     2600.0000:        CASING DRILLER 1
 CBL .F                     2600.0000:        CASING LOGGER 1
 DFT .                  MISCELLANEOUS:        TYPE FLUID IN HOLE
 DFV .                        52.0000:        VISCOSITY
 DFPH.                         8.2000:        PH
 DFL .                         6.0000:        FLUID LOSS
 RMS .                         1.3900:        RM
 MST .F                       60.0000:        RM MEAS. TEMP.
 RMF .                         1.0200:        RMF
 MFST.F                       60.0000:        RMF MEAS. TEMP.
 RMC .                         1.3800:        RMC
 MCST.F                       60.0000:        RMC MEAS. TEMP.
~OTHER INFORMATION
~A    DEPTH          GR        CALI        DRHO        RHOB        NPHI          DT          SP         ILD         ILM         LL8 
# ...
  2323.0000     81.6650     12.5089   -999.2500   -999.2500   -999.2500    135.4428    -80.5029      3.5175      3.5806      4.8157 
  2323.5000     81.8431     12.5106   -999.2500   -999.2500   -999.2500    136.0494    -79.8248      3.5462      3.5997      4.5799 
  2324.0000     80.7923     12.5286   -999.2500   -999.2500   -999.2500    134.8687    -78.4158      3.5626      3.6189      4.4468 
  2324.5000     79.5118     12.5600   -999.2500   -999.2500   -999.2500    134.0201    -78.0378      3.5696      3.6381      4.7324 
  2325.0000     78.2332     12.5658   -999.2500   -999.2500   -999.2500    134.0708    -77.7644      3.5975      3.6575      4.7538 
  2325.5000     79.7751     12.5662   -999.2500   -999.2500   -999.2500    133.8757    -77.2613      3.6108      3.6770      4.7752 
  2326.0000     81.8989     12.5697   -999.2500   -999.2500   -999.2500    133.6742    -77.1903      3.6309      3.6966      4.7328 
  2326.5000     85.7477     12.5695   -999.2500   -999.2500   -999.2500    133.5843    -76.2823      3.6653      3.7163      4.6656 
  2327.0000     88.5357     12.5768   -999.2500   -999.2500   -999.2500    133.5163    -75.3347      3.7081      3.7361      4.6877 
  2327.5000     85.8687     12.5610   -999.2500   -999.2500   -999.2500    133.4063    -76.1224      3.7587      3.7560      4.8106 
  2328.0000     81.3386     12.5710   -999.2500   -999.2500   -999.2500    133.3203    -76.9339      3.7486      3.8019      4.8738 
  2328.5000     78.9705     12.5753   -999.2500   -999.2500   -999.2500    133.1309    -76.4839      3.8714      3.8536      4.8774 
  2329.0000     77.1154     12.5767   -999.2500   -999.2500   -999.2500    132.4114    -76.1404      3.8791      3.9060      4.8693 
  2329.5000     76.0319     12.5720   -999.2500   -999.2500   -999.2500    131.6286    -76.0631      3.8869      3.9591      4.8583 
  2330.0000     76.7323     12.5731   -999.2500   -999.2500   -999.2500    131.0789    -76.1011      3.8947      4.0129      4.8270 
  2330.5000     77.9262     12.5745   -999.2500   -999.2500   -999.2500    130.6003    -76.2870      3.9025      3.9796      4.7949 
  2331.0000     78.1906     12.5658   -999.2500   -999.2500   -999.2500    130.5356    -76.5450      3.8968      3.9225      4.7348 
  2331.5000     76.4046     12.5682   -999.2500   -999.2500   -999.2500    130.5397    -77.0951      3.8491      3.8663      4.6305 
  2332.0000     75.5402     12.5681   -999.2500   -999.2500   -999.2500    130.5438    -78.7036      3.8066      3.8109      4.6476 
  2332.5000     74.8189     12.5723   -999.2500   -999.2500   -999.2500    130.4420    -81.0727      3.7619      3.7563      5.0168 
  2333.0000     73.7782     12.5794   -999.2500   -999.2500   -999.2500    130.5250    -83.2001      3.7042      3.7025      5.1067 
  2333.5000     72.7598     12.5783   -999.2500   -999.2500   -999.2500    130.6148    -84.7318      3.6460      3.6494      5.0681 
  2334.0000     68.6076     12.5756   -999.2500   -999.2500   -999.2500    130.7483    -85.1596      3.6100      3.5971      4.9117 
  2334.5000     65.7286     12.5743   -999.2500   -999.2500   -999.2500    130.7527    -85.8067      3.5756      3.5586      4.8446 
  2335.0000     64.9963     12.5731   -999.2500   -999.2500   -999.2500    131.0810    -89.5233      3.5682      3.5788      4.8904 
  2335.5000     65.8254     12.5718   -999.2500   -999.2500   -999.2500    131.9378    -93.7647      3.5608      3.5992      4.9310 
  2336.0000     68.2283     12.5705   -999.2500   -999.2500   -999.2500    132.6942    -97.1220      3.5534      3.6197      4.8104 
  2336.5000     71.2908     12.5672   -999.2500   -999.2500   -999.2500    133.1825    -94.6462      3.5460      3.6404      4.5379 
  2337.0000     72.7469     12.5637   -999.2500   -999.2500   -999.2500    133.3616    -92.1176      3.5387      3.6611      4.3871 
  2337.5000     73.0845     12.5641   -999.2500   -999.2500   -999.2500    134.0048    -90.9568      3.5313      3.6820      4.5329 
  2338.0000     72.8231     12.5596   -999.2500   -999.2500   -999.2500    134.0392    -91.0365      3.5331      3.7030      4.7675 
  2338.5000     73.2855     12.5659   -999.2500   -999.2500   -999.2500    134.1240    -91.0313      3.5470      3.7241      4.7789 
  2339.0000     74.9540     12.5669   -999.2500   -999.2500   -999.2500    134.0923    -90.3956      3.5611      3.7453      4.7235 
  2339.5000     75.2349     12.5734   -999.2500   -999.2500   -999.2500    133.5844    -89.7286      3.5751      3.7666      4.7674 
  2340.0000     76.5216     12.5797   -999.2500   -999.2500   -999.2500    133.1490    -90.9501      3.5893      3.7881      4.8769 
  2340.5000     77.2370     12.5777   -999.2500   -999.2500   -999.2500    133.2164    -90.8774      3.6035      3.8097      4.9106 
  2341.0000     76.2447     12.5709   -999.2500   -999.2500   -999.2500    133.4583    -90.3082      3.6177      3.8306      4.7879 
  2341.5000     75.6538     12.5697   -999.2500   -999.2500   -999.2500    133.4499    -89.6415      3.6320      3.8333      4.7341 
  2342.0000     75.1510     12.5660   -999.2500   -999.2500   -999.2500    133.6290    -88.9426      3.6464      3.8360      4.6436 
  2342.5000     73.7713     12.5591   -999.2500   -999.2500   -999.2500    134.0288    -88.3761      3.6608      3.8387      4.6502 
  2343.0000     72.9877     12.5565   -999.2500   -999.2500   -999.2500    134.1480    -88.3903      3.6753      3.8414      4.6689 
  2343.5000     72.6975     12.5153   -999.2500   -999.2500   -999.2500    134.3945    -88.8918      3.6898      3.8441      4.7728 
  2344.0000     75.6220     12.5007   -999.2500   -999.2500   -999.2500    134.5816    -89.4396      3.7044      3.8468      4.9349 
  2344.5000     79.9887     12.5029   -999.2500   -999.2500   -999.2500    134.6550    -89.9210      3.7191      3.8496      5.0745 
  2345.0000     82.0476     12.4807   -999.2500   -999.2500   -999.2500    134.5131    -90.4803      3.7328      3.8523      5.0750 
  2345.5000     82.5367     12.4886   -999.2500   -999.2500   -999.2500    134.5305    -90.1128      3.7404      3.8550      4.9499 
  2346.0000     83.2603     12.4849   -999.2500   -999.2500   -999.2500    134.8593    -88.6170      3.7480      3.8577      4.6695 
  2346.5000     83.6636     12.4807   -999.2500   -999.2500   -999.2500    135.2514    -88.4433      3.7556      3.8605      4.7437 
  2347.0000     82.6410     12.4780   -999.2500   -999.2500   -999.2500    135.6123    -88.3962      3.7632      3.8632      4.7987 
  2347.5000     79.9532     12.4891   -999.2500   -999.2500   -999.2500    135.9234    -87.8884      3.7708      3.8659      4.8543 
  2348.0000     78.4159     12.4897   -999.2500   -999.2500   -999.2500    135.9968    -87.7649      3.7785      3.8687      4.8915 
  2348.5000     78.5769     12.4781   -999.2500   -999.2500   -999.2500    135.6611    -87.8296      3.7861      3.8714      4.9276 
  2349.0000     79.5685     12.4689   -999.2500   -999.2500   -999.2500    135.4898    -88.0394      3.7938      3.8741      4.9871 
  2349.5000     80.2757     12.4599   -999.2500   -999.2500   -999.2500    135.5794    -88.4040      3.8015      3.8769      4.9708 
  2350.0000     81.3171     12.5091   -999.2500   -999.2500   -999.2500    135.7990    -88.2592      3.8092      3.8796      4.8562 
  2350.5000     82.4155     12.5615   -999.2500   -999.2500   -999.2500    135.4004    -88.2399      3.8170      3.8824      4.8344 
  2351.0000     83.0519     12.5705   -999.2500   -999.2500   -999.2500    134.8557    -88.7046      3.8247      3.8851      5.0001 
  2351.5000     83.3655     12.5651   -999.2500   -999.2500   -999.2500    134.1159    -89.3083      3.8325      3.8895      4.9079 
  2352.0000     83.9325     12.5695   -999.2500   -999.2500   -999.2500    134.4457    -90.3758      3.8403      3.8944      4.8259 
  2352.5000     85.5009     12.5766   -999.2500   -999.2500   -999.2500    135.1563    -91.4282      3.8480      3.8993      4.9051 
  2353.0000     85.7632     12.5811   -999.2500   -999.2500   -999.2500    135.7927    -92.0672      3.8559      3.9042      5.0370 
