~VERSION INFORMATION
 VERS.                           2.00:        CWLS LOG ASCII STANDARD - VERSION 2.00
 WRAP.                             NO:        ONE LINE PER DEPTH STEP
~WELL INFORMATION
#MNEM.UNIT                   DATA             INFORMATION
#----------             --------------        ------------------------------
 STRT.F                       94.0000:        START DEPTH
 STOP.F                    11429.0000:        STOP DEPTH
 STEP.F                        0.5000:        STEP VALUE
 NULL.                      -999.2500:        NULL VALUE
 COMP. U.S. NAVY (HUSKY OIL CO.-OPER.:        COMPANY
 LOC .                      11 11N 1W:        LOCATION
 DATE.                        2/17/77:        LOG DATE
 WELL.             WEST FISH CREEK #1:        WELL
 UWI .                   500232001400:        UNIQUE WELL ID
 API .                   500232001400:        UNIQUE WELL IDENTIFIER
 FLD .                        WILDCAT:        FIELD
 CNTY.                    NORTH SLOPE:        COUNTY
 STAT.                         ALASKA:        STATE
 CTRY.                            USA:        COUNTRY
 OPER. U.S. NAVY (HUSKY OIL CO.-OPER.:        OPERATOR
 SRVC.                   SCHLUMBERGER:        SERVICE COMPANY
 LAT .                         0.0000:        LATITUDE
 LON .                         0.0000:        LONGITUDE
 DIGS.               CENTER LINE DATA:        DIGITIZING COMPANY
~CURVE INFORMATION      
#MNEM        .UNIT         API CODE           CURVE DESCRIPTION
#-----------------      --------------        ------------------------------
 DEPT        .F                      :        1  DEPTH
 SP          .MV                     :        2  
 ILD         .OHMM                   :        3  
 ILM         .OHMM                   :        4  
 LL8         .OHMM                   :        5  
 CALI        .IN                     :        6  
 RHOB        .G/C3                   :        7  
 DRHO        .G/C3                   :        8  
 NPHI        .%                      :        9  
 GR          .GAPI                   :        10 
 DT          .US/F                   :        11 
~PARAMETER INFORMATION
#MNEM.UNIT                  VALUE             DESCRIPTION OF MNEMONIC
#---------             ---------------        ------------------------------
 EKB .F                      113.0000:        KELLY BUSHING
 TD  .F                    11429.0000:        TOTAL DEPTH
~OTHER INFORMATION
~A    DEPTH          SP         ILD         ILM         LL8        CALI        RHOB        DRHO        NPHI          GR          DT 
# ...
  7810.5000    -14.1429      2.8942      2.8052      3.3412     15.2191      2.3308      0.1006     33.6282     46.9118     84.7377 
  7811.0000    -14.2549      2.8794      2.7998      3.2815     14.4856      2.3085      0.1111     33.2496     48.6870     84.9862 
  7811.5000    -14.3669      2.8647      2.7870      3.2574     14.7207      2.3018      0.1074     33.5121     49.4049     85.0986 
  7812.0000    -14.4382      2.8485      2.7742      3.2435     15.0408      2.3381      0.0891     33.3839     50.1284     85.1783 
  7812.5000    -14.4459      2.8287      2.7615      3.2308     15.1692      2.3279      0.0656     32.8072     50.6664     85.2696 
  7813.0000    -14.3658      2.8090      2.7488      3.2253     14.8778      2.3725      0.0884     32.8775     50.5732     84.9967 
  7813.5000    -14.2871      2.7987      2.7362      3.2232     14.5864      2.3865      0.0536     33.2182     50.5649     85.5929 
  7814.0000    -14.2668      2.7900      2.7237      3.2379     14.8286      2.4000      0.0011     33.5569     49.9926     86.6218 
  7814.5000    -14.2771      2.7865      2.7112      3.3810     14.2690      2.4068      0.0141     32.4240     48.5627     86.2501 
  7815.0000    -14.2877      2.7852      2.7100      3.4223     14.0176      2.4023     -0.0020     30.5277     46.8815     86.2724 
  7815.5000    -14.2063      2.8318      2.7173      3.3884     14.4410      2.3953     -0.0064     29.2860     44.9531     85.9028 
  7816.0000    -14.2308      2.8868      2.8234      3.3571     14.8644      2.4041      0.0136     28.4617     45.6544     85.2518 
  7816.5000    -14.1362      2.9428      2.9305      3.3683     14.9462      2.4077      0.0740     28.7522     47.0788     85.3439 
  7817.0000    -14.1495      2.9999      2.9644      3.4718     15.0144      2.3977      0.0765     29.7935     47.7358     86.1502 
  7817.5000    -14.2294      3.0446      2.9898      3.5820     15.0255      2.3744      0.0598     30.9157     47.9405     86.0857 
  7818.0000    -14.2715      3.0684      3.0153      3.6941     14.9333      2.3698      0.0378     32.0405     48.3985     84.8762 
  7818.5000    -14.3151      3.0799      3.0352      3.7055     14.7914      2.3448      0.0494     32.7376     49.2069     83.7876 
  7819.0000    -14.3495      3.0914      3.0166      3.6760     14.6384      2.3387      0.0390     32.5744     49.6997     82.7555 
  7819.5000    -14.3256      3.0998      2.9981      3.5942     14.5097      2.3574      0.0807     32.4479     50.3278     82.6195 
  7820.0000    -14.3656      3.1030      2.9798      3.5293     14.5177      2.3611      0.0943     33.2370     51.3819     82.9557 
  7820.5000    -14.4086      3.1014      2.9615      3.4733     14.6004      2.3523      0.0628     34.1903     51.6311     83.2368 
  7821.0000    -14.5110      3.0816      2.9434      3.4538     14.4936      2.3673      0.0248     34.3551     50.8143     83.3427 
  7821.5000    -14.6306      3.0515      2.9254      3.4530     14.3034      2.3847      0.0008     33.7468     49.6082     83.2873 
  7822.0000    -14.5971      3.0200      2.9074      3.4784     14.3326      2.4063      0.0153     32.6959     48.6826     83.2176 
  7822.5000    -14.5218      2.9754      2.8896      3.4841     14.2146      2.3849      0.0273     32.6157     48.0798     83.2088 
  7823.0000    -14.5755      2.9391      2.8658      3.3901     13.9915      2.3518      0.0068     33.0881     47.7879     83.1626 
  7823.5000    -14.5367      2.9159      2.8339      3.2826     13.9560      2.3261      0.0223     34.6648     47.2470     83.3140 
  7824.0000    -14.4888      2.8812      2.8024      3.2195     14.3187      2.2845      0.0327     35.7024     47.1666     83.9139 
  7824.5000    -14.4689      2.8392      2.7711      3.2802     14.5317      2.2871      0.0691     36.4334     47.4310     84.4835 
  7825.0000    -14.4285      2.7979      2.7403      3.3260     14.3667      2.2783      0.0710     35.9816     47.5799     84.6163 
  7825.5000    -14.4541      2.7535      2.7097      3.2073     14.6597      2.2753      0.0513     34.9714     47.1952     83.8756 
  7826.0000    -14.4163      2.7409      2.6796      3.1085     14.9419      2.2975      0.0338     33.6632     47.2274     83.6068 
  7826.5000    -14.3559      2.7803      2.6870      3.0780     14.9916      2.3457      0.0579     31.8441     48.1920     83.2564 
  7827.0000    -14.3945      2.8282      2.7611      3.1199     14.5463      2.3579      0.0396     31.2221     48.9960     84.2305 
  7827.5000    -14.4536      2.8768      2.8373      3.3072     14.7147      2.3620      0.0154     31.0936     48.9735     85.5021 
  7828.0000    -14.4230      2.9249      2.9134      3.4843     14.7385      2.3452     -0.0000     31.1714     48.0597     84.5934 
  7828.5000    -14.4615      2.9546      2.9270      3.5748     14.4984      2.3503     -0.0115     31.7720     46.4161     84.3633 
  7829.0000    -14.6087      2.9845      2.9259      3.6532     14.6189      2.3758     -0.0179     31.9276     45.6722     83.2002 
  7829.5000    -14.6949      3.0028      2.9249      3.6396     14.7055      2.3917     -0.0092     31.3258     45.7751     82.7305 
  7830.0000    -14.6988      3.0094      2.9238      3.5264     14.6100      2.3768     -0.0100     30.8574     47.2078     82.6323 
  7830.5000    -14.6968      3.0143      2.9227      3.4166     14.8700      2.3505      0.0126     31.4476     48.7913     82.7167 
  7831.0000    -14.7603      3.0034      2.9136      3.3735     14.5957      2.3171      0.0489     32.0525     50.1034     83.5925 
  7831.5000    -14.7092      2.9897      2.8983      3.3616     14.6119      2.2734      0.0757     33.4838     50.8613     84.4139 
  7832.0000    -14.6707      2.9761      2.8830      3.3894     14.9035      2.2891      0.0189     33.3567     49.9415     84.9047 
  7832.5000    -14.7070      2.9625      2.8679      3.4082     14.9202      2.3596     -0.0155     32.9337     46.6125     85.4590 
  7833.0000    -14.7572      2.9490      2.8528      3.4190     15.0104      2.4053     -0.0001     32.1022     44.3459     85.1194 
  7833.5000    -14.6633      2.9356      2.8378      3.3997     15.3288      2.4082      0.0141     30.7984     43.6044     84.0471 
  7834.0000    -14.6463      2.9222      2.8229      3.3789     14.8495      2.4002      0.0244     30.0964     45.1615     83.7889 
  7834.5000    -14.6718      2.9089      2.8081      3.3520     14.9439      2.3878      0.0021     30.1056     47.4448     83.5588 
  7835.0000    -14.6739      2.8947      2.7933      3.3253     14.9624      2.3849     -0.0085     29.8829     49.0556     83.6344 
  7835.5000    -14.6760      2.8801      2.7786      3.3060     14.7906      2.4034      0.0040     29.7656     49.3940     84.3892 
  7836.0000    -14.7335      2.8716      2.7640      3.2986     14.7413      2.4139      0.0025     30.3156     49.5496     84.7455 
  7836.5000    -14.7850      2.8953      2.7686      3.3090     14.9773      2.4017      0.0034     31.4119     50.7867     84.9758 
  7837.0000    -14.7752      2.9701      2.8032      3.3235     14.8882      2.3895      0.0192     31.2080     51.6802     85.0037 
  7837.5000    -14.8653      2.9788      2.8383      3.3670     14.9046      2.3759      0.0477     31.1926     51.0821     84.6345 
  7838.0000    -14.8590      2.9843      2.8738      3.4088     15.1946      2.3553      0.0810     31.6306     50.3709     84.0606 
  7838.5000    -14.8678      2.9954      2.8603      3.4463     14.8537      2.3178      0.0363     32.6698     50.0481     82.3643 
  7839.0000    -14.9628      2.9849      2.8390      3.4474     15.1784      2.3582     -0.0041     32.3109     49.5740     82.1231 
  7839.5000    -15.1007      2.9649      2.8178      3.4103     15.0165      2.3925      0.0250     30.1847     48.2779     82.2081 
  7840.0000    -15.0248      2.9507      2.7968      3.3405     14.9694      2.4028      0.0464     29.1314     48.2725     81.9955 
  7840.5000    -14.8570      2.9477      2.7953      3.2831     14.9714      2.3760      0.0174     30.5496     49.4835     83.9169 
