~VERSION INFORMATION
 VERS.                           2.00:        CWLS LOG ASCII STANDARD - VERSION 2.00
 WRAP.                             NO:        ONE LINE PER DEPTH STEP
~WELL INFORMATION
#MNEM.UNIT                   DATA             INFORMATION
#----------             --------------        ------------------------------
 STRT.F                      116.0000:        START DEPTH
 STOP.F                     8861.0000:        STOP DEPTH
 STEP.F                        0.5000:        STEP VALUE
 NULL.                      -999.2500:        NULL VALUE
 COMP.                     U.S. NAAVY:        COMPANY
 LOC .                 [33^13 17N 2W:        LOCATION
 DATE.                        3/30/77:        LOG DATE
 WELL.                    WT FORAN #1:        WELL
 UWI .                   501032001000:        UNIQUE WELL ID
 API .                   501032001000:        UNIQUE WELL IDENTIFIER
 FLD .                        WILDCAT:        FIELD
 CNTY.                    NORTH SLOPE:        COUNTY
 STAT.                         ALASKA:        STATE
 CTRY.                            USA:        COUNTRY
 OPER.                     U.S. NAAVY:        OPERATOR
 SRVC.                   SCHLUMBERGER:        SERVICE COMPANY
 LAT .                         0.0000:        LATITUDE
 LON .                         0.0000:        LONGITUDE
 DIGS.               CENTER LINE DATA:        DIGITIZING COMPANY
~CURVE INFORMATION      
#MNEM        .UNIT         API CODE           CURVE DESCRIPTION
#-----------------      --------------        ------------------------------
 DEPT        .F                      :        1  DEPTH
 CALI        .IN                     :        2  
 GR          .GAPI                   :        3  
 DRHO        .G/C3                   :        4  
 RHOB        .G/C3                   :        5  
 NPHI        .%                      :        6  
 DT          .US/F                   :        7  
 SP          .MV                     :        8  
 ILD         .OHMM                   :        9  
 ILM         .OHMM                   :        10 
 LL8         .OHMM                   :        11 
~PARAMETER INFORMATION
#MNEM.UNIT                  VALUE             DESCRIPTION OF MNEMONIC
#---------             ---------------        ------------------------------
 EKB .F                       39.0000:        KELLY BUSHING
 TD  .F                     8864.0000:        TOTAL DEPTH
 BHT .F                      152.0000:        BOTTOM HOLE TEMPERATURE
 BS  .                        14.2500:        BIT SIZE
 FD  .                        10.2000:        FLUID DENSITY
 CSIZ.                        16.0000:        CASING SIZE
 CBD .F                     1458.0000:        CASING DRILLER 1
 CBL .F                        0.0000:        CASING LOGGER 1
 DFT .                  MISCELLANEOUS:        TYPE FLUID IN HOLE
 DFV .                        45.0000:        VISCOSITY
 DFPH.                        10.5000:        PH
 DFL .                         5.5000:        FLUID LOSS
 RMS .                         2.4000:        RM
 MST .F                       54.0000:        RM MEAS. TEMP.
 RMF .                         2.3000:        RMF
 MFST.F                       56.0000:        RMF MEAS. TEMP.
 RMC .                         2.7000:        RMC
 MCST.F                       54.0000:        RMC MEAS. TEMP.
~OTHER INFORMATION
~A    DEPTH        CALI          GR        DRHO        RHOB        NPHI          DT          SP         ILD         ILM         LL8 
# ...
  7802.0000      8.8872     45.0761      0.0507      2.4289     21.9663     78.5670    -53.9037      4.5242      5.8811     13.3461 
  7802.5000      8.8938     44.5982      0.0776      2.4641     21.3574     79.8217    -53.6022      4.5680      5.8700     13.0497 
  7803.0000      8.9004     44.2774      0.0649      2.4768     21.1455     81.5124    -53.0130      4.6138      5.9493     13.4311 
  7803.5000      8.9070     44.0598      0.0606      2.4644     20.9835     82.8893    -52.1400      4.6632      6.0650     14.4196 
  7804.0000      8.9136     46.5453      0.0580      2.4618     20.5706     83.2709    -51.1136      4.7294      6.2541     15.5242 
  7804.5000      8.9154     47.9239      0.0489      2.4596     20.3816     83.1647    -49.9693      4.9052      6.4492     16.9650 
  7805.0000      8.9154     48.9359      0.0274      2.4241     20.9434     81.8725    -49.1387      4.9533      6.6955     17.7363 
  7805.5000      8.9154     50.8886      0.0212      2.3923     21.7331     81.2568    -48.5178      4.9302      6.7680     17.7987 
  7806.0000      8.9154     53.3949      0.0363      2.3772     23.0571     80.7325    -48.1409      4.8738      6.7308     17.1633 
  7806.5000      8.9132     53.7844      0.0513      2.3987     24.2494     80.2187    -47.9599      4.8034      6.7022     16.1602 
  7807.0000      8.9043     49.6370      0.0492      2.4068     25.4678     79.7456    -47.8508      4.5681      6.4778     15.0130 
  7807.5000      8.8954     38.4356      0.0439      2.3946     27.0586     79.0520    -47.7224      4.3159      6.0215     13.6795 
  7808.0000      8.8865     32.3296      0.0399      2.3550     27.3892     78.2623    -47.9300      4.0840      5.7054     11.0800 
  7808.5000      8.8775     30.2854      0.0361      2.3171     25.1596     77.5273    -48.5481      3.8646      5.1423      8.7548 
  7809.0000      8.8686     34.4871      0.0346      2.3125     23.2649     76.8599    -49.7479      3.6697      4.7075      8.2413 
  7809.5000      8.8597     40.3456      0.0469      2.3438     22.4980     75.7164    -50.5705      3.5539      4.4991      9.1517 
  7810.0000      8.8508     44.5921      0.0561      2.3679     21.8940     75.4489    -51.2241      3.4787      4.3492      9.7188 
  7810.5000      8.8419     56.3742      0.0637      2.3829     21.2807     76.1218    -50.6100      3.4521      4.2424     10.2078 
  7811.0000      8.8520     68.5552      0.0643      2.4056     20.2321     77.2562    -49.6666      3.4974      4.2842     10.6862 
  7811.5000      8.9066     81.5541      0.0521      2.4527     19.7876     78.0486    -47.3403      3.6084      4.3919     11.0537 
  7812.0000      8.9613     91.2655      0.0367      2.5012     20.2516     78.9049    -43.3329      3.7501      4.6059     11.8785 
  7812.5000      9.0159     90.4986      0.0487      2.5438     20.7705     79.8873    -40.1213      3.9728      4.9058     13.0681 
  7813.0000      9.0217     84.2246      0.0401      2.5611     21.8059     79.2978    -35.2191      4.2955      5.1699     13.0035 
  7813.5000      9.0198     74.2780      0.0257      2.5472     22.5551     78.4242    -32.2063      4.5567      5.4773     10.8333 
  7814.0000      8.9811     66.6611      0.0661      2.5568     22.9150     77.8916    -31.2134      4.8271      5.9589      9.0296 
  7814.5000      8.9423     58.9563      0.0967      2.5600     23.1684     77.8646    -32.0511      5.1123      6.3557      9.3344 
  7815.0000      8.9035     51.8811      0.0784      2.4960     23.6959     78.6740    -33.7272      5.2465      6.6895     10.4456 
  7815.5000      8.8647     49.8688      0.0632      2.4746     23.6944     78.9781    -36.3430      5.3384      6.8265     11.4011 
  7816.0000      8.8338     50.1193      0.0491      2.4284     22.6945     78.1575    -39.2943      5.3747      6.8955     11.9703 
  7816.5000      8.8261     50.7744      0.0351      2.3938     21.9074     77.5638    -42.5535      5.2246      6.8697     12.9159 
  7817.0000      8.8184     52.0233      0.0294      2.4029     21.5158     77.2010    -44.9254      5.1597      6.7083     13.6634 
  7817.5000      8.8107     51.9494      0.0161      2.4174     21.1536     77.5721    -46.3420      5.1781      6.5253     13.5797 
  7818.0000      8.8087     50.3958      0.0219      2.4356     21.8538     78.4632    -47.4490      5.1579      6.4328     12.7450 
  7818.5000      8.8082     48.2452      0.0352      2.4202     22.0140     78.5157    -47.8306      5.1474      6.3758     12.2806 
  7819.0000      8.8076     46.7098      0.0369      2.4125     22.1107     78.1066    -48.3947      5.1728      6.4603     13.4586 
  7819.5000      8.8071     47.0351      0.0492      2.4124     21.6884     77.7054    -49.0932      5.2489      6.5781     15.1450 
  7820.0000      8.8066     45.4779      0.0403      2.4412     21.3294     78.5539    -49.4344      5.3373      6.7527     14.4315 
  7820.5000      8.8060     40.9987      0.0473      2.4886     21.2598     78.9105    -49.7756      5.4271      6.9411     13.4491 
  7821.0000      8.8055     40.1464      0.0690      2.4790     21.6247     79.2957    -50.1168      5.4176      7.1598     13.7653 
  7821.5000      8.8050     39.9560      0.0709      2.4550     21.8959     79.5782    -50.4580      5.3766      7.3981     15.6468 
  7822.0000      8.8045     39.3867      0.0637      2.4189     22.0418     79.5637    -50.4520      5.2660      7.4883     17.4195 
  7822.5000      8.8039     38.8174      0.0466      2.3974     22.1769     79.4705    -50.3889      5.1298      7.4101     17.8384 
  7823.0000      8.8130     38.2868      0.0473      2.4089     22.2390     79.4792    -50.4471      5.0083      7.1472     16.9630 
  7823.5000      8.8283     38.1054      0.0578      2.4264     22.3329     79.5776    -50.5336      4.8068      6.9638     15.6110 
  7824.0000      8.8436     37.9241      0.0462      2.4009     22.5339     79.7550    -50.6115      4.5392      6.5923     15.0668 
  7824.5000      8.8557     37.7427      0.0486      2.3851     22.7457     78.5162    -50.6639      4.4331      6.2339     15.0287 
  7825.0000      8.8580     37.5614      0.0576      2.3943     23.0873     77.3097    -50.7278      4.2101      5.8869     14.8735 
  7825.5000      8.8604     38.1058      0.0711      2.3951     23.0801     76.6104    -51.3073      4.0099      5.5828     13.8988 
  7826.0000      8.8627     39.1581      0.0608      2.3768     22.8850     76.9083    -51.8563      3.8774      5.2992     12.6735 
  7826.5000      8.8650     41.5108      0.0529      2.3856     22.6814     77.9899    -51.9770      3.7568      5.0300     11.9509 
  7827.0000      8.8673     43.8635      0.0568      2.3879     22.3129     78.7019    -51.7494      3.6820      4.9217     11.7578 
  7827.5000      8.8697     46.8273      0.0614      2.4010     21.9082     79.1254    -51.2259      3.6452      4.8349     11.8285 
  7828.0000      8.8720     50.6269      0.0665      2.4249     21.4344     79.5075    -50.1038      3.6717      4.8018     11.9390 
  7828.5000      8.8743     56.9582      0.0517      2.4496     20.5910     77.9479    -48.9599      3.7579      4.7999     11.8700 
  7829.0000      8.8766     65.1638      0.0613      2.4925     19.9200     75.4302    -47.3892      3.8819      4.9156     11.7119 
  7829.5000      8.8790     73.6782      0.0739      2.5019     20.2044     74.4068    -45.4652      4.0668      5.3128     12.0903 
  7830.0000      8.8888     81.7498      0.0644      2.5020     20.7575     73.2271    -42.8787      4.3487      5.7269     14.0412 
  7830.5000      8.9109     87.8497      0.0645      2.5068     21.4824     74.0049    -40.1761      4.5656      6.0046     16.5350 
  7831.0000      8.9222     89.1143      0.0710      2.5363     21.8271     74.5063    -37.6560      4.8733      6.1884     16.9555 
  7831.5000      8.9335     83.4873      0.0813      2.5993     21.4362     74.0342    -34.6953      5.1752      6.6367     16.7965 
  7832.0000      8.9508     77.5670      0.0674      2.6186     21.2951     72.4581    -31.1244      5.4719      6.7487     15.7213 
