~VERSION INFORMATION
 VERS.                      2.00:        CWLS LOG ASCII STANDARD - VERSION 2.00
 WRAP.                        NO:        ONE LINE PER DEPTH STEP
~WELL INFORMATION
#MNEM.UNIT               DATA            INFORMATION
#----------          ------------        ------------------------------
 STRT.F                  40.0000:        START DEPTH
 STOP.F                9893.0000:        STOP DEPTH
 STEP.F                   0.5000:        STEP VALUE
 NULL.                 -999.2500:        NULL VALUE
 COMP.                 U.S. NAVY:        COMPANY  
 WELL.    CAPE HALKETT #16N-2W-1:        WELL     
 FLD .                   WILDCAT:        FIELD    
 LOC .               5  16N   2W:        LOCATION   
 CNTY.               NORTH SLOPE:        COUNTY  
 STAT.                    ALASKA:        STATE   
 CTRY.                       USA:        COUNTRY 
 DATE.                    4/9/75:        LOG DATE 
 API .              500000000000:        UNIQUE WELL IDENTIFIER 
 OPER.                 U.S. NAVY:        OPERATOR  
 SRVC.              Schlumberger:        SERVICE COMPANY 
 UWI .              500000000000:        UNIQUE WELL ID 
 LAT .                    0.0000:        LATITUDE
 LON .                    0.0000:        LONGITUDE
 DIGS.          Center Line Data:        DIGITIZING COMPANY 
~CURVE INFORMATION      
#MNEM.UNIT            API CODE           CURVE DESCRIPTION
#---------          -------------        ------------------------------
 DEPT.F                         :        1  DEPTH
 SP  .MV                        :        2
 ILD .OHMM                      :        3
 ILM .OHMM                      :        4
 LL8 .OHMM                      :        5
 CALI.IN                        :        6
 GR  .GAPI                      :        7
 DRHO.G/C3                      :        8
 RHOB.G/C3                      :        9
 NPHI.%                         :       10
 DPHI.%                         :       11
 DT  .US/F                      :       12
~PARAMETER INFORMATION       
#MNEM.UNIT              VALUE            DESCRIPTION OF MNEMONIC
#---------          -------------        ------------------------------
 EKB .F                  39.5000:        KELLY BUSHING
 TD  .F                7867.0000:        TOTAL DEPTH
 BHT .F                  60.0000:        BOTTOM HOLE TEMPERATURE
 BS  .                   18.5000:        BIT SIZE
 FD  .                   10.5000:        FLUID DENSITY
 CSIZ.                   20.0000:        CASING SIZE
 CBD .F                 492.0000:        CASING DRILLER 1
 CBL .F                 493.0000:        CASING LOGGER 1
 DFT .             Miscellaneous:        TYPE FLUID IN HOLE
 DFV .                  200.0000:        VISCOSITY
 DFPH.                   10.0000:        PH
 DFL .                    9.2000:        FLUID LOSS
 RMS .                    2.1500:        RM
 MST .F                  57.0000:        RM MEAS. TEMP.
 RMF .                    2.2000:        RMF
 MFST.F                  40.0000:        RMF MEAS. TEMP.
 RMC .                    0.0000:        RMC
 MCST.F                   0.0000:        RMC MEAS. TEMP.
 UWI .              500000000000:        UNIQUE WELL ID
~OTHER INFORMATION
~A    DEPTH          SP         ILD         ILM         LL8        CALI          GR        DRHO        RHOB        NPHI        DPHI          DT  
# ...
  6392.5000    -17.7250      5.5182      5.6169      6.8095     13.1798     91.7610      0.0954      2.5753     35.1611   -999.2500     89.1446  
  6393.0000    -17.6534      5.5207      5.6195      6.7185     13.1920     91.4150      0.0981      2.5770     35.1138   -999.2500     87.8492  
  6393.5000    -17.6057      5.4501      5.5551      6.6853     13.1877     92.0241      0.0963      2.5798     34.5741   -999.2500     87.2015  
  6394.0000    -17.6993      5.3740      5.4746      6.5610     13.1811     93.8266      0.0797      2.5648     33.8923   -999.2500     87.5113  
  6394.5000    -17.7645      5.3006      5.3997      6.4026     13.1781     95.3387      0.0751      2.5599     33.1866   -999.2500     87.6745  
  6395.0000    -17.7645      5.2281      5.3259      6.3180     13.1844     95.7102      0.0736      2.5653     32.7243   -999.2500     88.2224  
  6395.5000    -17.7645      5.1640      5.2565      6.2656     13.1796     95.8641      0.0794      2.5637     31.6723   -999.2500     88.5606  
  6396.0000    -17.8355      5.1671      5.2603      6.3341     13.1657     95.7058      0.0866      2.5678     30.7414   -999.2500     88.8685  
  6396.5000    -17.9126      5.2035      5.2986      6.4295     13.1621     95.0583      0.0922      2.5633     31.4592   -999.2500     89.3399  
  6397.0000    -17.9641      5.2849      5.3866      6.4005     13.1491     94.4109      0.0967      2.5598     32.2707   -999.2500     90.2486  
  6397.5000    -17.9641      5.3872      5.4852      6.5138     13.1598     93.8319      0.1012      2.5473     33.4305   -999.2500     89.0588  
  6398.0000    -17.9820      5.4926      5.5854      6.7449     13.2107     92.6577      0.0976      2.5314     34.3141   -999.2500     89.5013  
  6398.5000    -17.9773      5.5945      5.6874      6.9457     13.1564     91.4798      0.0757      2.5098     35.2614   -999.2500     89.8336  
  6399.0000    -18.0637      5.6851      5.7913      7.0385     13.0969     90.0560      0.0812      2.5100     35.6552   -999.2500     89.5082  
  6399.5000    -18.1465      5.7527      5.8967      7.3661     13.0990     89.3320      0.0991      2.5448     36.0837   -999.2500     88.8008  
  6400.0000    -18.1606      5.8127      6.0016      7.6124     13.0814     90.1882      0.0956      2.5701     35.4389   -999.2500     87.9114  
  6400.5000    -18.1675      5.8649      6.0689      7.3204     13.0472     90.7891      0.0780      2.5513     34.8838   -999.2500     86.7157  
  6401.0000    -18.1769      5.9177      6.1109      6.8951     13.1222     90.2047      0.0778      2.5517     34.9491   -999.2500     85.9125  
  6401.5000    -18.1928      5.9710      6.1298      6.8564     13.1872     89.3779      0.0875      2.5701     34.2658   -999.2500     85.3687  
  6402.0000    -18.3221      5.9447      6.1007      7.1791     13.2140     88.8678      0.0931      2.5721     32.9365   -999.2500     85.2320  
  6402.5000    -18.4717      5.7769      6.0521      7.6973     13.2243     88.6900      0.0716      2.5600     32.2337   -999.2500     85.6971  
  6403.0000    -18.6004      5.6138      5.9740      7.5048     13.2245     89.1751      0.0940      2.5762     32.0584   -999.2500     86.2186  
  6403.5000    -18.5405      5.5109      5.8861      7.0846     13.2122     89.8219      0.1007      2.5798     31.5588   -999.2500     86.1950  
  6404.0000    -18.3855      5.4150      5.7714      6.5527     13.2023     90.4687      0.1035      2.5765     30.3107   -999.2500     85.5548  
  6404.5000    -18.3633      5.3206      5.6589      6.1200     13.2011     91.0251      0.0937      2.5682     30.1098   -999.2500     84.5155  
  6405.0000    -18.3633      5.2713      5.6043      6.0698     13.2067     91.1295      0.0798      2.5486     31.1821   -999.2500     84.7278  
  6405.5000    -18.3633      5.2601      5.5964      6.1469     13.2146     90.7994      0.0717      2.5342     31.1929   -999.2500     86.0039  
  6406.0000    -18.3673      5.2404      5.6299      6.5201     13.2252     91.4685      0.0812      2.5513     30.8848   -999.2500     88.9156  
  6406.5000    -18.4077      5.1837      5.6294      6.8677     13.2424     93.2402      0.1046      2.5762     29.9746   -999.2500     90.3926  
  6407.0000    -18.5193      5.0701      5.5854      7.0793     13.2688     95.0108      0.1205      2.5919     30.2278   -999.2500     91.0425  
  6407.5000    -18.5579      4.9590      5.3844      6.9500     13.2715     95.7622      0.1183      2.5840     32.3951   -999.2500     90.9296  
  6408.0000    -18.5400      4.9185      5.1820      6.1259     13.2725     96.5154      0.1012      2.5585     34.3068   -999.2500     87.7762  
  6408.5000    -18.5426      4.8728      5.0216      5.6377     13.2451     96.7277      0.0929      2.5390     35.8099   -999.2500     86.5470  
  6409.0000    -18.4598      4.8109      4.9735      5.3533     13.1950     95.9821      0.0846      2.5384     35.8776   -999.2500     85.5937  
  6409.5000    -18.3774      4.6994      4.9260      5.2450     13.1610     95.4532      0.0747      2.5262     35.0483   -999.2500     86.6769  
  6410.0000    -18.2620      4.5931      4.8736      5.6283     13.1232     95.6796      0.0871      2.5357     33.4225   -999.2500     87.9725  
  6410.5000    -18.1209      4.5119      4.8290      6.1076     13.0995     96.2174      0.1177      2.5577     32.3383   -999.2500     92.1678  
  6411.0000    -17.9826      4.5337      4.7932      6.1540     13.1136     97.3818      0.1254      2.5483     31.1846   -999.2500     93.8296  
  6411.5000    -17.8894      4.5702      4.7845      6.1423     13.1410     98.5236      0.1304      2.5455     31.7039   -999.2500     93.8738  
  6412.0000    -17.8732      4.6274      4.8200      6.1119     13.1943     98.9949      0.1508      2.5613     34.1981   -999.2500     93.3491  
  6412.5000    -17.8285      4.6377      4.8558      6.0058     13.2355     98.5974      0.1443      2.5508     36.9751   -999.2500     91.2788  
  6413.0000    -17.9273      4.6174      4.8919      5.8276     13.2604     97.6913      0.1342      2.5505     38.5197   -999.2500     90.1054  
  6413.5000    -18.0337      4.5979      4.9156      5.7904     13.3140     96.7639      0.1258      2.5660     38.2531   -999.2500     89.8219  
  6414.0000    -18.0130      4.5979      4.9086      5.9067     13.3451     96.0699      0.1177      2.5514     36.6312   -999.2500     90.2218  
  6414.5000    -18.0079      4.6423      4.9051      6.0650     13.3421     95.4672      0.1094      2.5441     35.6071   -999.2500     90.5358  
  6415.0000    -18.0813      4.7632      4.9096      6.2244     13.3478     94.8645      0.0935      2.5182     35.4183   -999.2500     90.7658  
  6415.5000    -18.1548      4.8133      4.9141      6.3022     13.3261     94.3465      0.0813      2.5130     34.7964   -999.2500     90.6466  
  6416.0000    -18.2629      4.9023      4.9288      6.0782     13.3019     94.1309      0.0905      2.5303     34.1709   -999.2500     90.4320  
  6416.5000    -18.4250      4.9970      4.9829      5.8623     13.2860     94.5181      0.0929      2.5301     33.9559   -999.2500     90.2085  
  6417.0000    -18.6310      5.0935      5.1450      6.0392     13.2641     95.6566      0.0844      2.5311     34.3410   -999.2500     89.7753  
  6417.5000    -18.7117      5.1919      5.2719      7.1405     13.2269     96.8461      0.0940      2.5547     34.9475   -999.2500     90.0607  
  6418.0000    -18.6436      5.2314      5.3300      8.3303     13.2388     97.1507      0.0863      2.5420     35.4535   -999.2500     90.8885  
  6418.5000    -18.5128      5.2314      5.3648      7.2568     13.2574     97.3333      0.0769      2.5358     35.8256   -999.2500     90.8267  
  6419.0000    -18.2677      5.2314      5.3974      6.3708     13.2586     97.1572      0.0839      2.5355     35.9528   -999.2500     89.9979  
  6419.5000    -18.0554      5.2314      5.4099      6.0757     13.2714     95.5910      0.0821      2.5320     36.1694   -999.2500     87.3150  
