~VERSION INFORMATION
 VERS.                      2.00:        CWLS LOG ASCII STANDARD - VERSION 2.00
 WRAP.                        NO:        ONE LINE PER DEPTH STEP
~WELL INFORMATION
#MNEM.UNIT               DATA            INFORMATION
#----------          ------------        ------------------------------
 STRT.F                 438.0000:        START DEPTH
 STOP.F               11532.0000:        STOP DEPTH
 STEP.F                   0.5000:        STEP VALUE
 NULL.                 -999.2500:        NULL VALUE
 COMP.      HUSKY-NPR OPERATIONS:        COMPANY  
 WELL.          ATIGARU POINT #1:        WELL     
 FLD .                   WILDCAT:        FIELD    
 LOC .              19  14N   2E:        LOCATION   
 CNTY.               NORTH SLOPE:        COUNTY  
 STAT.                     ALSKA:        STATE   
 CTRY.                       USA:        COUNTRY 
 DATE.                    1/ /77:        LOG DATE 
 API .              501032000800:        UNIQUE WELL IDENTIFIER 
 OPER.      HUSKY-NPR OPERATIONS:        OPERATOR  
 SRVC.              Schlumberger:        SERVICE COMPANY 
 UWI .              501032000800:        UNIQUE WELL ID 
 LAT .                    0.0000:        LATITUDE
 LON .                    0.0000:        LONGITUDE
 DIGS.          Center Line Data:        DIGITIZING COMPANY 
~CURVE INFORMATION      
#MNEM.UNIT            API CODE           CURVE DESCRIPTION
#---------          -------------        ------------------------------
 DEPT.F                         :        1  DEPTH
 SP  .MV                        :        2
 ILD .OHMM                      :        3
 ILM .OHMM                      :        4
 LL8 .OHMM                      :        5
 CALI.IN                        :        6
 GR  .GAPI                      :        7
 DRHO.G/C3                      :        8
 RHOB.G/C3                      :        9
 NPHI.%                         :       10
 DT  .US/F                      :       11
~PARAMETER INFORMATION       
#MNEM.UNIT              VALUE            DESCRIPTION OF MNEMONIC
#---------          -------------        ------------------------------
 EKB .F                  25.0000:        KELLY BUSHING
 TD  .F               11534.0000:        TOTAL DEPTH
 BHT .F                   0.0000:        BOTTOM HOLE TEMPERATURE
 BS  .                   17.5000:        BIT SIZE
 FD  .                    9.3000:        FLUID DENSITY
 CSIZ.                   20.0000:        CASING SIZE
 CBD .F                 447.0000:        CASING DRILLER 1
 CBL .F                 443.0000:        CASING LOGGER 1
 DFT .                       Gel:        TYPE FLUID IN HOLE
 DFV .                   47.0000:        VISCOSITY
 DFPH.                   14.6000:        PH
 DFL .                    8.0000:        FLUID LOSS
 RMS .                    1.9300:        RM
 MST .F                  63.0000:        RM MEAS. TEMP.
 RMF .                    1.6900:        RMF
 MFST.F                  52.0000:        RMF MEAS. TEMP.
 RMC .                    1.6500:        RMC
 MCST.F                  60.0000:        RMC MEAS. TEMP.
 UWI .              501032000800:        UNIQUE WELL ID
~OTHER INFORMATION
~A    DEPTH          SP         ILD         ILM         LL8        CALI          GR        DRHO        RHOB        NPHI          DT  
# ...
  9288.0000   -148.5837      6.2833      6.4136      6.7985     10.7433     64.1048      0.1137      2.6748     21.7218     76.4666  
  9288.5000   -148.8265      6.4491      6.6559      6.8527     10.7367     64.0242      0.1092      2.6694     21.1330     76.2178  
  9289.0000   -149.0357      6.4849      6.6786      6.7550     10.7361     64.2202      0.0882      2.6541     21.3812     75.9450  
  9289.5000   -149.1815      6.4530      6.6548      6.9570     10.7354     64.0210      0.1125      2.6652     21.5935     76.8284  
  9290.0000   -149.5066      6.4212      6.6311      7.3707     10.7347     63.2679      0.1444      2.6536     21.1426     76.9193  
  9290.5000   -149.8941      6.4148      6.7472      7.4064     10.7350     62.5459      0.1537      2.6225     20.8842     77.0027  
  9291.0000   -150.0593      6.4726      6.9125      7.2262     10.7364     62.9375      0.1461      2.6201     20.6976     77.0706  
  9291.5000   -150.3009      6.5309      6.8483      7.0504     10.7365     63.5627      0.1685      2.6926     20.3843     76.8486  
  9292.0000   -150.7406      6.5851      6.7846      6.8789     10.7352     63.7532      0.1718      2.7256     20.1710     76.5059  
  9292.5000   -151.1876      6.6004      6.7215      6.8003     10.7340     62.9678      0.1227      2.7088     20.2479     76.1594  
  9293.0000   -151.4039      6.5740      6.6590      7.3725     10.7327     62.3014      0.0838      2.6996     20.6565     75.7476  
  9293.5000   -151.5228      6.5476      6.6657      8.0011     10.7315     62.8049      0.1169      2.7460     21.4276     75.7180  
  9294.0000   -151.8419      6.5576      6.7610      7.8811     10.7302     62.9982      0.1163      2.7482     22.2399     76.0154  
  9294.5000   -152.1332      6.6519      6.8577      7.6942     10.7289     63.1798      0.1413      2.7535     21.9044     76.6349  
  9295.0000   -152.3689      6.7477      6.9558      7.5117     10.7277     63.5062      0.1633      2.7760     21.4836     76.7206  
  9295.5000   -152.5453      6.8448      7.0350      7.3767     10.7264     63.4298      0.1442      2.7459     20.9156     76.6916  
  9296.0000   -152.8778      6.7665      6.9474      7.3242     10.7252     61.8778      0.1352      2.7302     20.0818     77.2178  
  9296.5000   -153.1664      6.6510      6.8609      7.2720     10.7259     60.7108      0.1696      2.7311     20.2732     77.4031  
  9297.0000   -153.3048      6.5374      6.7754      7.2202     10.7272     61.2185      0.1601      2.7306     20.3237     77.4703  
  9297.5000   -153.3389      6.4258      6.6911      7.1688     10.7285     62.7021      0.1521      2.7448     20.2482     76.8810  
  9298.0000   -153.5314      6.5112      6.8182      7.2649     10.7297     63.9644      0.1384      2.7446     20.5301     76.2917  
  9298.5000   -153.7873      6.6443      7.0531      7.5633     10.7318     63.8989      0.1175      2.6888     20.9087     76.0033  
  9299.0000   -153.9355      6.7801      7.2962      7.6525     10.7385     62.3255      0.1223      2.6976     20.8678     76.9247  
  9299.5000   -154.0838      6.7968      7.2062      7.3777     10.7451     61.3142      0.1433      2.7231     20.8913     76.6092  
  9300.0000   -154.2320      6.7009      7.0713      7.4105     10.7517     60.4007      0.1529      2.7772     21.1918     77.4692  
  9300.5000   -154.3803      6.6063      7.1417      7.5798     10.7583     60.5546      0.1534      2.7493     21.9835     78.1384  
  9301.0000   -154.5285      6.5131      7.3955      7.7529     10.7650     61.3490      0.1522      2.7764     22.9011     77.3875  
  9301.5000   -154.6768      6.4211      7.1701      7.5249     10.7716     62.2116      0.1399      2.7637     23.8727     78.2455  
  9302.0000   -154.9442      6.3305      6.8955      7.1949     10.7782     63.5549      0.1294      2.7121     24.1644     76.9719  
  9302.5000   -155.1894      6.2411      6.6314      6.8793     10.7848     64.6369      0.1417      2.7094     23.4627     77.5251  
  9303.0000   -155.4572      6.1944      6.3774      6.6741     10.7915     64.6719      0.1723      2.7453     21.7863     77.0491  
  9303.5000   -155.4550      6.2454      6.2957      6.8335     10.7981     63.8326      0.1728      2.7476     20.7684     76.7722  
  9304.0000   -155.4513      6.2969      6.3940      6.9968     10.8047     63.8080      0.1598      2.7308     20.6666     77.7841  
  9304.5000   -155.4477      6.3496      6.6004      7.1639     10.8093     64.2619      0.1466      2.7360     21.3758     77.2190  
  9305.0000   -155.4440      6.5387      6.8134      7.3345     10.7757     64.3361      0.1315      2.7371     22.0850     76.2324  
  9305.5000   -155.4404      6.7335      7.0334      7.4886     10.7411     63.8382      0.1412      2.7542     22.1149     76.6377  
  9306.0000   -155.4368      6.9340      7.2604      7.6460     10.7084     61.9862      0.1170      2.7164     20.8475     75.8793  
  9306.5000   -155.4712      7.1294      7.3548      7.8066     10.6756     59.9353      0.1237      2.6825     19.9479     75.2563  
  9307.0000   -155.5984      7.2032      7.4289      7.9707     10.6429     58.9059      0.1359      2.6687     20.1540     74.8933  
  9307.5000   -155.5888      7.2778      7.5052      8.1382     10.6102     58.7972      0.1357      2.6383     21.5382     73.3142  
  9308.0000   -155.6379      7.3532      7.5881      8.1259     10.5774     60.9119      0.1679      2.6538     23.9222     75.1204  
  9308.5000   -155.7137      7.3557      7.6719      7.9078     10.6010     63.3449      0.1522      2.6186     24.7925     77.8991  
  9309.0000   -155.7020      7.1732      7.5256      7.6957     10.6575     65.8735      0.1549      2.6313     24.7113     77.6487  
  9309.5000   -155.6641      6.9953      7.3184      7.4892     10.7140     68.0371      0.1720      2.6464     24.1043     79.4866  
  9310.0000   -155.6263      6.8218      7.1169      7.2882     10.7704     69.7840      0.1710      2.6799     23.2558     78.9561  
  9310.5000   -155.5884      6.6525      6.9209      7.0927     10.8255     69.0272      0.1236      2.6683     22.6941     77.3388  
  9311.0000   -155.5505      6.4875      6.7520      6.9024     10.8216     68.7730      0.1263      2.7075     22.0784     78.3800  
  9311.5000   -155.5127      6.4119      6.5904      6.8094     10.8176     69.1927      0.1391      2.7362     21.6145     78.0885  
  9312.0000   -155.4748      6.3734      6.4327      6.8486     10.8137     68.2681      0.1291      2.7148     21.7711     77.7906  
  9312.5000   -155.4370      6.3352      6.4168      6.8879     10.8098     66.9014      0.1567      2.6983     21.1322     78.1958  
  9313.0000   -155.4045      6.5164      6.5557      7.0082     10.8058     66.2730      0.1903      2.6951     21.2619     78.1027  
  9313.5000   -155.3064      6.7357      6.7620      7.1864     10.8019     66.1948      0.1148      2.6474     21.0192     77.4544  
  9314.0000   -155.3624      6.9623      6.9831      7.3691     10.7980     66.0202      0.1485      2.6918     20.6422     76.8881  
  9314.5000   -155.3928      7.1732      7.2115      7.5564     10.7940     64.7915      0.1260      2.6517     20.2707     76.1852  
  9315.0000   -155.0892      7.3464      7.4288      7.7395     10.7901     63.5499      0.1209      2.6616     20.4728     75.3750  
  9315.5000   -154.9530      7.4890      7.4125      7.7757     10.7862     63.3394      0.1581      2.6875     21.0129     75.1343  
  9316.0000   -154.9732      7.4682      7.3962      7.8121     10.7822     63.3656      0.1422      2.6918     21.6631     75.9424  
  9316.5000   -154.8384      7.4474      7.3800      7.8487     10.7783     63.3558      0.1409      2.7013     21.5076     75.7029  
  9317.0000   -154.7037      7.3213      7.3637      7.8514     10.7744     63.5137      0.1072      2.6776     21.4144     76.2671  
  9317.5000   -154.5689      7.1171      7.2160      7.7890     10.7776     64.0450      0.1105      2.6655     20.5310     75.3025  
