~VERSION INFORMATION
 VERS.                      2.00:        CWLS LOG ASCII STANDARD - VERSION 2.00
 WRAP.                        NO:        ONE LINE PER DEPTH STEP
~WELL INFORMATION
#MNEM.UNIT               DATA            INFORMATION
#----------          ------------        ------------------------------
 STRT.F                  40.0000:        START DEPTH
 STOP.F                9893.0000:        STOP DEPTH
 STEP.F                   0.5000:        STEP VALUE
 NULL.                 -999.2500:        NULL VALUE
 COMP.                 U.S. NAVY:        COMPANY  
 WELL.    CAPE HALKETT #16N-2W-1:        WELL     
 FLD .                   WILDCAT:        FIELD    
 LOC .               5  16N   2W:        LOCATION   
 CNTY.               NORTH SLOPE:        COUNTY  
 STAT.                    ALASKA:        STATE   
 CTRY.                       USA:        COUNTRY 
 DATE.                    4/9/75:        LOG DATE 
 API .              500000000000:        UNIQUE WELL IDENTIFIER 
 OPER.                 U.S. NAVY:        OPERATOR  
 SRVC.              Schlumberger:        SERVICE COMPANY 
 UWI .              500000000000:        UNIQUE WELL ID 
 LAT .                    0.0000:        LATITUDE
 LON .                    0.0000:        LONGITUDE
 DIGS.          Center Line Data:        DIGITIZING COMPANY 
~CURVE INFORMATION      
#MNEM.UNIT            API CODE           CURVE DESCRIPTION
#---------          -------------        ------------------------------
 DEPT.F                         :        1  DEPTH
 SP  .MV                        :        2
 ILD .OHMM                      :        3
 ILM .OHMM                      :        4
 LL8 .OHMM                      :        5
 CALI.IN                        :        6
 GR  .GAPI                      :        7
 DRHO.G/C3                      :        8
 RHOB.G/C3                      :        9
 NPHI.%                         :       10
 DPHI.%                         :       11
 DT  .US/F                      :       12
~PARAMETER INFORMATION       
#MNEM.UNIT              VALUE            DESCRIPTION OF MNEMONIC
#---------          -------------        ------------------------------
 EKB .F                  39.5000:        KELLY BUSHING
 TD  .F                7867.0000:        TOTAL DEPTH
 BHT .F                  60.0000:        BOTTOM HOLE TEMPERATURE
 BS  .                   18.5000:        BIT SIZE
 FD  .                   10.5000:        FLUID DENSITY
 CSIZ.                   20.0000:        CASING SIZE
 CBD .F                 492.0000:        CASING DRILLER 1
 CBL .F                 493.0000:        CASING LOGGER 1
 DFT .             Miscellaneous:        TYPE FLUID IN HOLE
 DFV .                  200.0000:        VISCOSITY
 DFPH.                   10.0000:        PH
 DFL .                    9.2000:        FLUID LOSS
 RMS .                    2.1500:        RM
 MST .F                  57.0000:        RM MEAS. TEMP.
 RMF .                    2.2000:        RMF
 MFST.F                  40.0000:        RMF MEAS. TEMP.
 RMC .                    0.0000:        RMC
 MCST.F                   0.0000:        RMC MEAS. TEMP.
 UWI .              500000000000:        UNIQUE WELL ID
~OTHER INFORMATION
~A    DEPTH          SP         ILD         ILM         LL8        CALI          GR        DRHO        RHOB        NPHI        DPHI          DT  
# ...
  6887.5000    -30.8711      4.0312      4.1782      5.3808     13.2616     98.6778      0.0542      2.5381     32.0099   -999.2500     85.4724  
  6888.0000    -30.7920      3.8200      3.8966      4.6274     13.2845    100.6415      0.0672      2.5415     31.2954   -999.2500     86.1291  
  6888.5000    -30.5909      3.6100      3.7341      4.4484     13.2839    102.6465      0.0793      2.5448     30.8621   -999.2500     87.0054  
  6889.0000    -30.4658      3.4097      3.5908      4.2879     13.2775    104.4418      0.0877      2.5479     30.5335   -999.2500     88.6054  
  6889.5000    -30.3373      3.2988      3.4696      4.2227     13.2654    107.6605      0.0901      2.5463     30.4073   -999.2500     91.5877  
  6890.0000    -30.2952      3.1938      3.3729      4.2855     13.2587    113.7828      0.1273      2.5434     30.5870   -999.2500     95.2608  
  6890.5000    -30.1966      3.1133      3.2671      4.4115     13.3048    119.5450      0.1823      2.5730     32.7297   -999.2500     99.2761  
  6891.0000    -30.1997      3.0849      3.2290      4.3372     13.4065    123.6860      0.1883      2.5517     33.8802   -999.2500    100.8457  
  6891.5000    -30.2088      3.0777      3.2190      4.2615     13.5152    126.7460      0.1651      2.5165     36.8267   -999.2500    101.2570  
  6892.0000    -30.3569      3.1039      3.2552      4.2871     13.5319    127.7255      0.1333      2.4723     39.8200   -999.2500    100.3697  
  6892.5000    -30.5067      3.1480      3.2952      4.3231     13.5201    127.1647      0.1101      2.4750     40.6021   -999.2500     99.7263  
  6893.0000    -30.4478      3.1899      3.3423      4.4039     13.4732    125.6991      0.0973      2.4848     40.6463   -999.2500     99.8256  
  6893.5000    -30.5679      3.2281      3.3807      4.6160     13.4490    124.7809      0.1213      2.5011     40.9646   -999.2500    100.1906  
  6894.0000    -30.5623      3.2308      3.3795      4.7752     13.4380    124.6758      0.1378      2.5240     42.7591   -999.2500    100.2006  
  6894.5000    -30.3520      3.2206      3.3686      4.8796     13.4315    121.6537      0.1314      2.5109     42.8881   -999.2500    100.1563  
  6895.0000    -30.2489      3.2079      3.3565      4.7273     13.4368    118.8066      0.1245      2.4931     42.4365   -999.2500     99.5276  
  6895.5000    -30.1457      3.1756      3.3268      4.5276     13.4024    118.5265      0.1179      2.5017     42.5744   -999.2500     97.8845  
  6896.0000    -30.0798      3.1255      3.2785      4.3995     13.3128    119.3891      0.1108      2.5109     42.9816   -999.2500     96.4666  
  6896.5000    -30.1201      3.0747      3.2242      4.3324     13.2547    120.3290      0.1044      2.5216     42.5338   -999.2500     95.2689  
  6897.0000    -30.1142      3.0009      3.1618      4.3309     13.2245    121.1505      0.1156      2.5274     41.0576   -999.2500     95.7548  
  6897.5000    -30.1082      2.9254      3.0769      4.3294     13.1965    121.1457      0.1179      2.5261     39.7043   -999.2500     97.6257  
  6898.0000    -29.9900      2.8795      3.0167      4.1970     13.1889    123.6219      0.1208      2.5191     38.9743   -999.2500    100.1412  
  6898.5000    -29.9224      2.8457      2.9789      4.0290     13.1742    126.3546      0.1423      2.5210     39.7649   -999.2500    101.5616  
  6899.0000    -29.8041      2.8330      2.9650      3.9608     13.1889    127.9977      0.1725      2.5457     40.5555   -999.2500    101.1934  
  6899.5000    -29.6929      2.8168      2.9462      3.9593     13.2231    128.3627      0.1743      2.5366     41.2564   -999.2500    100.7472  
  6900.0000    -29.6854      2.8162      2.9454      4.0397     13.2684    128.2936      0.1498      2.5104     41.2193   -999.2500    100.4160  
  6900.5000    -30.1078      2.8123      2.9422      4.1160     13.3069    128.0573      0.1097      2.4822     41.2925   -999.2500     99.2364  
  6901.0000    -30.2356      2.8162      2.9469      4.1213     13.3121    127.3434      0.1243      2.4805     41.4736   -999.2500     98.5581  
  6901.5000    -30.3355      2.8144      2.9438      4.0931     13.2864    127.0425      0.1422      2.4955     41.6200   -999.2500     98.6783  
  6902.0000    -30.3618      2.8059      2.9349      4.0713     13.3433    126.2265      0.1371      2.4924     42.5217   -999.2500     98.6551  
  6902.5000    -30.4344      2.8080      2.9375      4.0648     13.4650    124.9730      0.1238      2.4824     43.6212   -999.2500     98.6283  
  6903.0000    -30.5502      2.7793      2.9095      4.0706     13.4444    124.0142      0.1154      2.4925     42.7818   -999.2500     99.0857  
  6903.5000    -30.6909      2.7541      2.8831      4.0474     13.4084    123.6986      0.1404      2.5121     42.4092   -999.2500     99.5852  
  6904.0000    -30.8378      2.7291      2.8570      3.9928     13.4373    123.1743      0.1617      2.5222     42.5584   -999.2500     99.8655  
  6904.5000    -30.7827      2.7536      2.8830      3.9258     13.5030    120.0823      0.1807      2.5326     42.8033   -999.2500    100.1743  
  6905.0000    -30.6872      2.7765      2.9041      3.8850     13.6574    119.5590      0.1767      2.5283     43.8993   -999.2500    100.4759  
  6905.5000    -30.7111      2.7865      2.9160      3.8904     13.5149    119.0357      0.1602      2.5164     44.6804   -999.2500    100.8064  
  6906.0000    -30.5944      2.8304      2.9751      4.0278     13.3707    118.5124      0.1510      2.5031     43.8264   -999.2500    101.2913  
  6906.5000    -30.5056      2.8970      3.0543      4.2453     13.2619    117.9891      0.1487      2.4935     43.2536   -999.2500    101.7785  
  6907.0000    -30.4168      2.9793      3.1424      4.3708     13.2585    118.2023      0.1520      2.5022     42.2637   -999.2500    101.9844  
  6907.5000    -30.3280      3.0675      3.2369      4.5185     13.2634    119.0421      0.1361      2.4961     41.6509   -999.2500    101.8000  
  6908.0000    -30.2391      3.1598      3.3375      4.6442     13.2628    120.2271      0.1350      2.4882     42.2097   -999.2500    101.2301  
  6908.5000    -30.0693      3.2549      3.4551      4.7960     13.2680    121.4120      0.1342      2.4840     42.6008   -999.2500    100.2158  
  6909.0000    -29.9611      3.3528      3.5769      4.9725     13.2992    121.6840      0.1399      2.4855     41.6270   -999.2500     99.3884  
  6909.5000    -29.9561      3.4537      3.7030      5.1275     13.3678    120.3463      0.1493      2.4888     41.3023   -999.2500     98.6715  
  6910.0000    -29.8027      3.5422      3.7623      5.2027     13.4315    118.2666      0.1856      2.5097     41.3897   -999.2500     98.0709  
  6910.5000    -29.9000      3.5874      3.8154      5.2474     13.4538    116.6179      0.1857      2.5247     41.6212   -999.2500     96.8483  
  6911.0000    -29.9657      3.6284      3.8634      5.2656     13.4188    116.2481      0.1636      2.5142     41.8959   -999.2500     94.8389  
  6911.5000    -29.9928      3.6519      3.8634      5.2515     13.3970    115.5471      0.1387      2.5072     40.9218   -999.2500     94.1144  
  6912.0000    -29.9751      3.6563      3.8634      5.1717     13.3646    114.5109      0.1249      2.5002     38.2792   -999.2500     93.7892  
  6912.5000    -29.9432      3.6558      3.8359      5.0861     13.3374    112.7244      0.1129      2.5163     35.5464   -999.2500     93.5966  
  6913.0000    -29.9112      3.6214      3.7874      4.9914     13.3194    111.4920      0.1158      2.5207     38.0817   -999.2500     93.6004  
  6913.5000    -29.8793      3.5874      3.7162      4.9484     13.3070    110.3565      0.1312      2.5288     38.3722   -999.2500     93.5603  
  6914.0000    -29.8474      3.5536      3.6464      4.9713     13.2888    109.5626      0.1484      2.5354     39.2010   -999.2500     93.6485  
  6914.5000    -29.8494      3.5265      3.5779      5.0315     13.2898    109.7799      0.1702      2.5425     39.5520   -999.2500     93.9694  
