~VERSION INFORMATION
 VERS.                      2.00:        CWLS LOG ASCII STANDARD - VERSION 2.00
 WRAP.                        NO:        ONE LINE PER DEPTH STEP
~WELL INFORMATION
#MNEM.UNIT               DATA            INFORMATION
#----------          ------------        ------------------------------
 STRT.F                 438.0000:        START DEPTH
 STOP.F               11532.0000:        STOP DEPTH
 STEP.F                   0.5000:        STEP VALUE
 NULL.                 -999.2500:        NULL VALUE
 COMP.      HUSKY-NPR OPERATIONS:        COMPANY  
 WELL.          ATIGARU POINT #1:        WELL     
 FLD .                   WILDCAT:        FIELD    
 LOC .              19  14N   2E:        LOCATION   
 CNTY.               NORTH SLOPE:        COUNTY  
 STAT.                     ALSKA:        STATE   
 CTRY.                       USA:        COUNTRY 
 DATE.                    1/ /77:        LOG DATE 
 API .              501032000800:        UNIQUE WELL IDENTIFIER 
 OPER.      HUSKY-NPR OPERATIONS:        OPERATOR  
 SRVC.              Schlumberger:        SERVICE COMPANY 
 UWI .              501032000800:        UNIQUE WELL ID 
 LAT .                    0.0000:        LATITUDE
 LON .                    0.0000:        LONGITUDE
 DIGS.          Center Line Data:        DIGITIZING COMPANY 
~CURVE INFORMATION      
#MNEM.UNIT            API CODE           CURVE DESCRIPTION
#---------          -------------        ------------------------------
 DEPT.F                         :        1  DEPTH
 SP  .MV                        :        2
 ILD .OHMM                      :        3
 ILM .OHMM                      :        4
 LL8 .OHMM                      :        5
 CALI.IN                        :        6
 GR  .GAPI                      :        7
 DRHO.G/C3                      :        8
 RHOB.G/C3                      :        9
 NPHI.%                         :       10
 DT  .US/F                      :       11
~PARAMETER INFORMATION       
#MNEM.UNIT              VALUE            DESCRIPTION OF MNEMONIC
#---------          -------------        ------------------------------
 EKB .F                  25.0000:        KELLY BUSHING
 TD  .F               11534.0000:        TOTAL DEPTH
 BHT .F                   0.0000:        BOTTOM HOLE TEMPERATURE
 BS  .                   17.5000:        BIT SIZE
 FD  .                    9.3000:        FLUID DENSITY
 CSIZ.                   20.0000:        CASING SIZE
 CBD .F                 447.0000:        CASING DRILLER 1
 CBL .F                 443.0000:        CASING LOGGER 1
 DFT .                       Gel:        TYPE FLUID IN HOLE
 DFV .                   47.0000:        VISCOSITY
 DFPH.                   14.6000:        PH
 DFL .                    8.0000:        FLUID LOSS
 RMS .                    1.9300:        RM
 MST .F                  63.0000:        RM MEAS. TEMP.
 RMF .                    1.6900:        RMF
 MFST.F                  52.0000:        RMF MEAS. TEMP.
 RMC .                    1.6500:        RMC
 MCST.F                  60.0000:        RMC MEAS. TEMP.
 UWI .              501032000800:        UNIQUE WELL ID
~OTHER INFORMATION
~A    DEPTH          SP         ILD         ILM         LL8        CALI          GR        DRHO        RHOB        NPHI          DT  
# ...
  1188.0000    -70.3794      2.2627      2.2469      2.7681   -999.2500     64.4429   -999.2500   -999.2500   -999.2500    154.3525  
  1188.5000    -72.3504      2.2642      2.2012      2.7541   -999.2500     65.6572   -999.2500   -999.2500   -999.2500    154.2803  
  1189.0000    -73.5839      2.2656      2.1564      2.7214   -999.2500     67.2582   -999.2500   -999.2500   -999.2500    154.5096  
  1189.5000    -73.5641      2.2671      2.1125      2.6719   -999.2500     68.0102   -999.2500   -999.2500   -999.2500    154.8107  
  1190.0000    -72.3842      2.2685      2.1323      2.6607   -999.2500     67.9435   -999.2500   -999.2500   -999.2500    155.0718  
  1190.5000    -71.4245      2.2700      2.2223      2.8035   -999.2500     68.0330   -999.2500   -999.2500   -999.2500    155.0953  
  1191.0000    -71.4940      2.3304      2.3160      2.9539   -999.2500     68.5218   -999.2500   -999.2500   -999.2500    154.5467  
  1191.5000    -71.6687      2.4199      2.4136      3.1123   -999.2500     68.0270   -999.2500   -999.2500   -999.2500    153.8468  
  1192.0000    -71.6849      2.4523      2.5154      3.2285   -999.2500     67.5067   -999.2500   -999.2500   -999.2500    153.0875  
  1192.5000    -71.2862      2.4445      2.4405      3.2240   -999.2500     66.7085   -999.2500   -999.2500   -999.2500    152.9113  
  1193.0000    -70.7934      2.4051      2.3198      3.0995   -999.2500     66.2577   -999.2500   -999.2500   -999.2500    154.6053  
  1193.5000    -70.3005      2.3087      2.2050      2.8792   -999.2500     65.7053   -999.2500   -999.2500   -999.2500    156.5995  
  1194.0000    -70.7175      2.1680      2.0959      2.6022   -999.2500     64.9940   -999.2500   -999.2500   -999.2500    157.4476  
  1194.5000    -73.3492      2.0037      1.9922      2.4187   -999.2500     64.3187   -999.2500   -999.2500   -999.2500    156.8471  
  1195.0000    -76.4526      1.8694      1.8936      2.4582   -999.2500     63.9202   -999.2500   -999.2500   -999.2500    154.6577  
  1195.5000    -79.6662      1.7953      1.7999      2.5165   -999.2500     63.7388   -999.2500   -999.2500   -999.2500    152.2175  
  1196.0000    -80.9400      1.7431      1.7109      2.5231   -999.2500     63.5587   -999.2500   -999.2500   -999.2500    150.1042  
  1196.5000    -80.3218      1.6924      1.6262      2.5041   -999.2500     63.2247   -999.2500   -999.2500   -999.2500    149.1886  
  1197.0000    -78.2363      1.6432      1.6124      2.4595   -999.2500     62.3692   -999.2500   -999.2500   -999.2500    147.7914  
  1197.5000    -75.0864      1.6466      1.6103      2.3996   -999.2500     61.0582   -999.2500   -999.2500   -999.2500    148.4915  
  1198.0000    -71.9700      1.6592      1.6291      2.3617   -999.2500     59.7582   -999.2500   -999.2500   -999.2500    151.3254  
  1198.5000    -71.4457      1.6873      1.6481      2.3683   -999.2500     57.4335   -999.2500   -999.2500   -999.2500    155.8271  
  1199.0000    -72.7058      1.7411      1.6800      2.4173   -999.2500     56.4621   -999.2500   -999.2500   -999.2500    161.1687  
  1199.5000    -74.2677      1.7966      1.7191      2.3630   -999.2500     56.5380   -999.2500   -999.2500   -999.2500    165.6361  
  1200.0000    -74.6011      1.8539      1.7591      2.2984   -999.2500     56.4918   -999.2500   -999.2500   -999.2500    170.6370  
  1200.5000    -73.6909      1.9129      1.8000      2.3662   -999.2500     56.5201   -999.2500   -999.2500   -999.2500    173.7347  
  1201.0000    -72.5109      1.9739      1.8419      2.4360   -999.2500     56.6030   -999.2500   -999.2500   -999.2500    174.3445  
  1201.5000    -71.2733      2.0331      1.8847      2.5357   -999.2500     56.8798   -999.2500   -999.2500   -999.2500    174.2827  
  1202.0000    -70.7448      2.0260      1.9045      2.6976   -999.2500     58.3498   -999.2500   -999.2500   -999.2500    172.8067  
  1202.5000    -70.2552      2.0190      1.9171      2.6770   -999.2500     60.4182   -999.2500   -999.2500   -999.2500    170.4218  
  1203.0000    -69.8834      1.9740      1.8636      2.5440   -999.2500     61.6983   -999.2500   -999.2500   -999.2500    167.2519  
  1203.5000    -69.7614      1.8897      1.8110      2.4176   -999.2500     62.7439   -999.2500   -999.2500   -999.2500    163.9973  
  1204.0000    -70.1629      1.8090      1.7598      2.3438   -999.2500     63.5726   -999.2500   -999.2500   -999.2500    161.8307  
  1204.5000    -71.0146      1.7283      1.7101      2.3266   -999.2500     63.3154   -999.2500   -999.2500   -999.2500    159.8812  
  1205.0000    -72.2827      1.6670      1.6618      2.3399   -999.2500     63.0826   -999.2500   -999.2500   -999.2500    154.6206  
  1205.5000    -73.3112      1.6194      1.6149      2.3516   -999.2500     63.6789   -999.2500   -999.2500   -999.2500    143.4895  
  1206.0000    -73.4208      1.6110      1.5951      2.3535   -999.2500     64.8354   -999.2500   -999.2500   -999.2500    143.3662  
  1206.5000    -73.4937      1.6151      1.5892      2.3595   -999.2500     65.6900   -999.2500   -999.2500   -999.2500    143.5467  
  1207.0000    -73.5237      1.6150      1.6111      2.4136   -999.2500     65.5204   -999.2500   -999.2500   -999.2500    146.9419  
  1207.5000    -73.5277      1.6417      1.6396      2.4989   -999.2500     65.0661   -999.2500   -999.2500   -999.2500    151.7289  
  1208.0000    -73.5316      1.6803      1.6687      2.4872   -999.2500     64.6715   -999.2500   -999.2500   -999.2500    154.1361  
  1208.5000    -71.2823      1.7063      1.6982      2.3814   -999.2500     64.3428   -999.2500   -999.2500   -999.2500    155.5668  
  1209.0000    -68.9819      1.7235      1.7282      2.3196   -999.2500     64.0456   -999.2500   -999.2500   -999.2500    160.5332  
  1209.5000    -67.8570      1.7409      1.7588      2.3078   -999.2500     64.9853   -999.2500   -999.2500   -999.2500    165.4213  
  1210.0000    -67.8560      1.7584      1.7899      2.3232   -999.2500     68.3291   -999.2500   -999.2500   -999.2500    169.1202  
  1210.5000    -68.0602      1.7762      1.8133      2.3608   -999.2500     66.1197   -999.2500   -999.2500   -999.2500    170.7377  
  1211.0000    -68.2656      1.7941      1.8174      2.4023   -999.2500     63.4802   -999.2500   -999.2500   -999.2500    170.5279  
  1211.5000    -68.0073      1.8122      1.8214      2.4121   -999.2500     63.5941   -999.2500   -999.2500   -999.2500    170.6250  
  1212.0000    -67.6057      1.8305      1.8255      2.3900   -999.2500     64.7341   -999.2500   -999.2500   -999.2500    171.6695  
  1212.5000    -67.4731      1.8489      1.8198      2.3861   -999.2500     65.8804   -999.2500   -999.2500   -999.2500    172.7389  
  1213.0000    -67.8387      1.8676      1.8081      2.4138   -999.2500     68.2390   -999.2500   -999.2500   -999.2500    173.5025  
  1213.5000    -68.3169      1.8604      1.7954      2.4341   -999.2500     68.3608   -999.2500   -999.2500   -999.2500    172.8762  
  1214.0000    -68.7596      1.8267      1.7770      2.4012   -999.2500     65.7009   -999.2500   -999.2500   -999.2500    171.9467  
  1214.5000    -69.1475      1.7935      1.7587      2.3625   -999.2500     64.4667   -999.2500   -999.2500   -999.2500    171.5368  
  1215.0000    -69.7453      1.7652      1.7407      2.3276   -999.2500     63.6796   -999.2500   -999.2500   -999.2500    171.7639  
  1215.5000    -70.8427      1.7429      1.7228      2.3211   -999.2500     61.8951   -999.2500   -999.2500   -999.2500    171.8474  
  1216.0000    -72.1135      1.7332      1.7052      2.3762   -999.2500     60.3024   -999.2500   -999.2500   -999.2500    170.9012  
  1216.5000    -73.1995      1.7289      1.6877      2.4405   -999.2500     59.6362   -999.2500   -999.2500   -999.2500    167.9417  
  1217.0000    -73.0870      1.7172      1.6703      2.4173   -999.2500     59.5451   -999.2500   -999.2500   -999.2500    165.5761  
  1217.5000    -71.7714      1.7297      1.6967      2.3616   -999.2500     59.9671   -999.2500   -999.2500   -999.2500    163.5415  
