~VERSION INFORMATION
 VERS.                      2.00:        CWLS LOG ASCII STANDARD - VERSION 2.00
 WRAP.                        NO:        ONE LINE PER DEPTH STEP
~WELL INFORMATION
#MNEM.UNIT               DATA            INFORMATION
#----------          ------------        ------------------------------
 STRT.F                 438.0000:        START DEPTH
 STOP.F               11532.0000:        STOP DEPTH
 STEP.F                   0.5000:        STEP VALUE
 NULL.                 -999.2500:        NULL VALUE
 COMP.      HUSKY-NPR OPERATIONS:        COMPANY  
 WELL.          ATIGARU POINT #1:        WELL     
 FLD .                   WILDCAT:        FIELD    
 LOC .              19  14N   2E:        LOCATION   
 CNTY.               NORTH SLOPE:        COUNTY  
 STAT.                     ALSKA:        STATE   
 CTRY.                       USA:        COUNTRY 
 DATE.                    1/ /77:        LOG DATE 
 API .              501032000800:        UNIQUE WELL IDENTIFIER 
 OPER.      HUSKY-NPR OPERATIONS:        OPERATOR  
 SRVC.              Schlumberger:        SERVICE COMPANY 
 UWI .              501032000800:        UNIQUE WELL ID 
 LAT .                    0.0000:        LATITUDE
 LON .                    0.0000:        LONGITUDE
 DIGS.          Center Line Data:        DIGITIZING COMPANY 
~CURVE INFORMATION      
#MNEM.UNIT            API CODE           CURVE DESCRIPTION
#---------          -------------        ------------------------------
 DEPT.F                         :        1  DEPTH
 SP  .MV                        :        2
 ILD .OHMM                      :        3
 ILM .OHMM                      :        4
 LL8 .OHMM                      :        5
 CALI.IN                        :        6
 GR  .GAPI                      :        7
 DRHO.G/C3                      :        8
 RHOB.G/C3                      :        9
 NPHI.%                         :       10
 DT  .US/F                      :       11
~PARAMETER INFORMATION       
#MNEM.UNIT              VALUE            DESCRIPTION OF MNEMONIC
#---------          -------------        ------------------------------
 EKB .F                  25.0000:        KELLY BUSHING
 TD  .F               11534.0000:        TOTAL DEPTH
 BHT .F                   0.0000:        BOTTOM HOLE TEMPERATURE
 BS  .                   17.5000:        BIT SIZE
 FD  .                    9.3000:        FLUID DENSITY
 CSIZ.                   20.0000:        CASING SIZE
 CBD .F                 447.0000:        CASING DRILLER 1
 CBL .F                 443.0000:        CASING LOGGER 1
 DFT .                       Gel:        TYPE FLUID IN HOLE
 DFV .                   47.0000:        VISCOSITY
 DFPH.                   14.6000:        PH
 DFL .                    8.0000:        FLUID LOSS
 RMS .                    1.9300:        RM
 MST .F                  63.0000:        RM MEAS. TEMP.
 RMF .                    1.6900:        RMF
 MFST.F                  52.0000:        RMF MEAS. TEMP.
 RMC .                    1.6500:        RMC
 MCST.F                  60.0000:        RMC MEAS. TEMP.
 UWI .              501032000800:        UNIQUE WELL ID
~OTHER INFORMATION
~A    DEPTH          SP         ILD         ILM         LL8        CALI          GR        DRHO        RHOB        NPHI          DT  
# ...
 10038.0000    -87.1391    108.5992    147.9520    170.2640      9.3693     19.6331      0.0606      2.8582      0.2218     52.0310  
 10038.5000    -86.2232    105.7303    126.4822    282.4098      9.3700     18.6046      0.0586      2.8744      0.2557     52.4435  
 10039.0000    -84.8165    102.9372    102.5436    145.7306      9.3736     18.8106      0.0207      2.8420      0.2896     52.0272  
 10039.5000    -83.4098    102.5690     90.8601     90.3720      9.3790     19.3932      0.0180      2.8203      0.3235     51.8432  
 10040.0000    -81.9918    103.4400    104.8118     80.9613      9.3843     20.6624      0.0498      2.8294      0.3574     51.6454  
 10040.5000    -80.7984    104.3186    120.9058    116.9630      9.3897     21.5700      0.0816      2.8396      0.3913     50.9720  
 10041.0000    -79.9058    105.2045    139.4712    204.4523      9.3950     21.6065      0.0622      2.8233      0.4252     50.4299  
 10041.5000    -78.9736    106.0980    151.3804    305.7585      9.4004     21.5191      0.0399      2.8071      0.4592     50.6180  
 10042.0000    -78.1110    106.8884    151.2443    380.0535      9.4033     21.8049      0.0406      2.7909      0.4942     50.8061  
 10042.5000    -77.3478    106.9715    131.7869    291.5731      9.3973     22.3200      0.0483      2.8001      0.5447     51.6054  
 10043.0000    -76.3432    107.0546    114.8328    167.9785      9.3913     22.8469      0.0421      2.8067      0.5952     52.1923  
 10043.5000    -75.4475     90.6846     97.9502    110.5150      9.3853     23.4846      0.0338      2.7876      0.6308     52.8608  
 10044.0000    -74.5698     74.7503     81.6171     79.3574      9.3794     24.2496      0.0373      2.7871      0.6645     53.9426  
 10044.5000    -73.8086     60.8832     68.0075     77.8678      9.3734     24.6841      0.0505      2.8050      0.7131     54.2722  
 10045.0000    -73.2256     49.3913     56.6673     79.4606      9.3674     23.4879      0.0541      2.8228      0.7682     53.4448  
 10045.5000    -72.7320     40.5261     55.6919    111.6094      9.3615     21.6123      0.0541      2.8367      1.4625     52.6173  
 10046.0000    -72.2177     34.6858     50.2309    261.9403      9.3555     22.9985      0.0550      2.8312      2.6086     53.5215  
 10046.5000    -71.5797     29.3237     38.6641    226.7043      9.3495     26.2838      0.0503      2.8153      5.0572     56.2981  
 10047.0000    -71.1938     24.7906     29.7609     40.4252      9.3435     29.5690      0.0616      2.8298      5.7751     61.3473  
 10047.5000    -71.2790     23.5911     26.8545     22.5716      9.3376     32.2426      0.0728      2.8289      5.7963     64.7025  
 10048.0000    -71.6689     25.7570     26.0994     26.9623      9.3316     29.8332      0.0716      2.8152      4.1836     62.9508  
 10048.5000    -72.3518     24.5846     26.0710     51.4278      9.3256     27.4238      0.0684      2.8213      1.9097     59.1487  
 10049.0000    -73.1190     23.4655     26.0951    107.8694      9.3196     25.8462      0.0731      2.8257      1.7460     55.7151  
 10049.5000    -73.7765     22.3974     29.4391     65.8129      9.3137     26.0715      0.0683      2.8271      1.3113     57.5118  
 10050.0000    -74.5764     23.7904     33.7637     32.7093      9.3077     26.6451      0.0520      2.8095      0.7964     56.4604  
 10050.5000    -75.3379     32.0683     38.7235     31.6007      9.3017     22.0555      0.0358      2.7867      0.2814     55.5085  
 10051.0000    -75.6539     45.1317     52.4777     55.5958      9.2957     16.8810      0.0409      2.7638      0.0856     53.6983  
 10051.5000    -75.7042     63.5165     71.5761    330.9877      9.2898     13.3844      0.0460      2.7483      0.0878     50.1772  
 10052.0000    -75.5768     89.3907     97.6251    610.0338      9.2864     12.5673      0.0511      2.7483      0.0899     49.8067  
 10052.5000    -75.4222    114.1414    144.3027    557.8059      9.2920     11.7503      0.0561      2.7549      0.0921     49.6495  
 10053.0000    -75.3752    191.6130    213.3997    541.3030      9.2975     11.0611      0.0595      2.7667      0.0942     49.5056  
 10053.5000    -75.5834    249.5094    315.5826    546.3547      9.3030     11.4346      0.0589      2.7785      0.0964     49.3852  
 10054.0000    -75.8020    300.1915    414.6644    545.5029      9.3085     11.8080      0.0582      2.7773      0.0985     49.6060  
 10054.5000    -76.1316    333.0413    543.5727    411.9638      9.3125     12.1814      0.0570      2.7601      0.1007     49.8779  
 10055.0000    -76.5011    289.2607    712.5555    331.0291      9.3146     12.5549      0.0559      2.7688      0.1050     50.3106  
 10055.5000    -77.0495    257.9899    632.4568    321.0331      9.3166     12.7591      0.0548      2.7786      0.1212     50.3125  
 10056.0000    -77.4368    239.4396    557.8981    379.0727      9.3187     12.5000      0.0536      2.7885      0.1373     50.1520  
 10056.5000    -77.9810    223.8003    507.0327    515.8393      9.3208     12.4528      0.0525      2.7867      0.1534     50.0176  
 10057.0000    -78.4967    219.5971    486.6439    511.4113      9.3228     13.0489      0.0526      2.7542      0.1695     50.0240  
 10057.5000    -78.8650    218.9506    473.3817    323.8936      9.3249     13.7774      0.0520      2.7305      0.1857     50.4476  
 10058.0000    -79.5902    218.3059    464.9736    203.7776      9.3270     14.2385      0.0497      2.7335      0.2018     50.9438  
 10058.5000    -80.8365    205.4495    496.9161    194.0117      9.3291     14.3943      0.0475      2.7554      0.2179     50.7463  
 10059.0000    -81.5144    182.4181    554.8065    253.4770      9.3311     14.1989      0.0442      2.7774      0.2340     50.5377  
 10059.5000    -82.2880    160.9232    600.1361    315.5506      9.3332     14.1647      0.0404      2.7978      0.2553     50.4508  
 10060.0000    -82.8050    122.8649    423.8745    326.2692      9.3353     14.6571      0.0366      2.8008      0.6439     50.7155  
 10060.5000    -83.1304     92.2667    277.9431    324.0776      9.3373     15.2988      0.0329      2.7929      1.0326     50.9992  
 10061.0000    -83.4599     75.2632    181.9926    324.7028      9.3394     16.2299      0.0292      2.7850      1.4213     51.6266  
 10061.5000    -83.4660     60.3467    114.5805    285.0051      9.3415     17.7320      0.0305      2.7792      1.8601     52.2323  
 10062.0000    -83.4449     51.0653     72.1386    147.0371      9.3436     20.7567      0.0471      2.7915      2.3341     54.6320  
 10062.5000    -83.2616     43.6773     49.1844     62.0728      9.3456     23.4777      0.0648      2.8076      2.3228     56.9576  
 10063.0000    -82.8900     37.3582     39.7718     37.9932      9.3477     25.3427      0.0651      2.8226      1.8558     56.5200  
 10063.5000    -82.5788     31.9534     32.1605     45.8418      9.3501     25.6380      0.0517      2.8132      1.4246     55.5388  
 10064.0000    -82.4525     28.3090     29.2630     72.3433      9.3519     24.2219      0.0698      2.8122      1.2915     55.5570  
 10064.5000    -81.9165     25.9228     27.4396     61.0303      9.3522     23.0819      0.0880      2.8220      0.9442     56.1081  
 10065.0000    -81.4810     27.8885     27.5918     28.2591      9.3525     23.8057      0.0632      2.8110      0.7303     56.7295  
 10065.5000    -81.3127     31.0667     29.6665     25.1727      9.3528     23.5538      0.0363      2.7972      0.5164     56.2088  
 10066.0000    -81.4601     34.6072     32.9799     62.9097      9.3531     21.1970      0.0304      2.7834      0.4408     53.0074  
 10066.5000    -81.6480     38.5511     36.6634    197.6672      9.3534     19.4807      0.0486      2.7921      0.4434     50.9066  
 10067.0000    -81.6296     39.8557     40.7583    231.7862      9.3538     19.8801      0.0412      2.8055      0.4461     51.1354  
 10067.5000    -81.8298     40.0070     45.3105    137.2610      9.3541     21.2994      0.0337      2.8086      0.4487     53.5407  
