~VERSION INFORMATION
 VERS.                      2.00:        CWLS LOG ASCII STANDARD - VERSION 2.00
 WRAP.                        NO:        ONE LINE PER DEPTH STEP
~WELL INFORMATION
#MNEM.UNIT               DATA            INFORMATION
#----------          ------------        ------------------------------
 STRT.F                 490.0000:        START DEPTH
 STOP.F               10659.0000:        STOP DEPTH
 STEP.F                   0.5000:        STEP VALUE
 NULL.                 -999.2500:        NULL VALUE
 COMP. HUSKY OIL NPR OPERATIONS,:        COMPANY  
 WELL.         EAST TESHEKPUK #1:        WELL     
 FLD .   U.S. NAVY NPR-4 WILDCAT:        FIELD    
 LOC .              16  14N   4W:        LOCATION   
 CNTY.                  N. SLOPE:        COUNTY  
 STAT.                    ALASKA:        STATE   
 CTRY.                       USA:        COUNTRY 
 DATE.                   4/11/76:        LOG DATE 
 API .              502790000000:        UNIQUE WELL IDENTIFIER 
 OPER. HUSKY OIL NPR OPERATIONS,:        OPERATOR  
 SRVC.              Schlumberger:        SERVICE COMPANY 
 UWI .              502790000000:        UNIQUE WELL ID 
 LAT .                    0.0000:        LATITUDE
 LON .                    0.0000:        LONGITUDE
 DIGS.          Center Line Data:        DIGITIZING COMPANY 
~CURVE INFORMATION      
#MNEM.UNIT            API CODE           CURVE DESCRIPTION
#---------          -------------        ------------------------------
 DEPT.F                         :        1  DEPTH
 SP  .MV                        :        2
 LL8 .OHMM                      :        3
 ILM .OHMM                      :        4
 ILD .OHMM                      :        5
 CALI.IN                        :        6
 GR  .GAPI                      :        7
 RHOB.G/C3                      :        8
 DRHO.G/C3                      :        9
 NPHI.%                         :       10
 DT  .US/F                      :       11
~PARAMETER INFORMATION       
#MNEM.UNIT              VALUE            DESCRIPTION OF MNEMONIC
#---------          -------------        ------------------------------
 EKB .F                  27.6000:        KELLY BUSHING
 TD  .F               10664.0000:        TOTAL DEPTH
 BHT .F                 172.0000:        BOTTOM HOLE TEMPERATURE
 BS  .                   13.5000:        BIT SIZE
 FD  .                   10.2000:        FLUID DENSITY
 CSIZ.                   16.0000:        CASING SIZE
 CBD .F                2578.0000:        CASING DRILLER 1
 CBL .F                2572.0000:        CASING LOGGER 1
 DFT . Salt Water-Lignosulfonate:        TYPE FLUID IN HOLE
 DFV .                   51.0000:        VISCOSITY
 DFPH.                   10.6000:        PH
 DFL .                    3.5000:        FLUID LOSS
 RMS .                    2.2600:        RM
 MST .F                  64.0000:        RM MEAS. TEMP.
 RMF .                    1.8900:        RMF
 MFST.F                  58.0000:        RMF MEAS. TEMP.
 RMC .                    2.5400:        RMC
 MCST.F                  58.0000:        RMC MEAS. TEMP.
 UWI .              502790000000:        UNIQUE WELL ID
~OTHER INFORMATION
~A    DEPTH          SP         LL8         ILM         ILD        CALI          GR        RHOB        DRHO        NPHI          DT  
# ...
  5230.0000    -33.9255      5.0268      4.8338      5.0356     14.2120     74.4392   -999.2500   -999.2500   -999.2500     92.5380  
  5230.5000    -33.6772      5.0341      4.8321      5.0339     14.2106     73.3275   -999.2500   -999.2500   -999.2500     91.7566  
  5231.0000    -33.5039      5.1053      4.8224      5.1050     14.2042     73.8837   -999.2500   -999.2500   -999.2500     91.5160  
  5231.5000    -33.3480      5.1312      4.9251      5.1310     14.2001     76.4369   -999.2500   -999.2500   -999.2500     90.7905  
  5232.0000    -33.2783      5.1493      4.9420      5.1491     14.2042     77.6626   -999.2500   -999.2500   -999.2500     89.3376  
  5232.5000    -33.2494      5.1693      4.9612      5.1691     14.2080     77.2965   -999.2500   -999.2500   -999.2500     90.8081  
  5233.0000    -33.4335      5.1893      4.9804      5.1891     14.2108     77.0062   -999.2500   -999.2500   -999.2500     89.6451  
  5233.5000    -33.6934      5.2094      4.9997      5.2092     14.2134     77.1548   -999.2500   -999.2500   -999.2500     87.6852  
  5234.0000    -33.7253      5.2296      5.0191      5.2294     14.2161     77.1590   -999.2500   -999.2500   -999.2500     88.0950  
  5234.5000    -33.7165      5.2499      5.0385      5.2496     14.2171     77.2774   -999.2500   -999.2500   -999.2500     88.7459  
  5235.0000    -33.9076      5.2702      5.0581      5.2700     14.2134     78.1351   -999.2500   -999.2500   -999.2500     88.7514  
  5235.5000    -34.0092      5.2906      5.0777      5.2904     14.2101     77.7572   -999.2500   -999.2500   -999.2500     88.4654  
  5236.0000    -34.0823      5.3111      5.0973      5.3109     14.2098     76.0770   -999.2500   -999.2500   -999.2500     88.7610  
  5236.5000    -34.2981      5.3317      5.1171      5.3315     14.2161     74.5418   -999.2500   -999.2500   -999.2500     89.1208  
  5237.0000    -34.4980      5.3524      5.1369      5.3522     14.2226     76.4920   -999.2500   -999.2500   -999.2500     88.8939  
  5237.5000    -34.2248      5.3731      5.1568      5.3729     14.2112     78.9595   -999.2500   -999.2500   -999.2500     88.7797  
  5238.0000    -33.7642      5.3939      5.1768      5.3937     14.2120     79.7709   -999.2500   -999.2500   -999.2500     88.9605  
  5238.5000    -33.4948      5.4148      5.1969      5.4146     14.2127     80.1026   -999.2500   -999.2500   -999.2500     89.0910  
  5239.0000    -33.4544      5.4358      5.2170      5.4356     14.2145     80.9290   -999.2500   -999.2500   -999.2500     89.1454  
  5239.5000    -33.5628      5.4569      5.2372      5.4567     14.2113     82.1322   -999.2500   -999.2500   -999.2500     89.6699  
  5240.0000    -33.6880      5.4780      5.2575      5.4778     14.2132     82.7317   -999.2500   -999.2500   -999.2500     89.2796  
  5240.5000    -33.7576      5.4993      5.2779      5.4990     14.2155     82.9133   -999.2500   -999.2500   -999.2500     88.4762  
  5241.0000    -33.5652      5.4977      5.2767      5.4975     14.2117     82.3635   -999.2500   -999.2500   -999.2500     88.9083  
  5241.5000    -33.2863      5.4833      5.2629      5.4831     14.1517     80.9712   -999.2500   -999.2500   -999.2500     88.4239  
  5242.0000    -33.4568      5.4690      5.2492      5.4688     14.1381     80.5774   -999.2500   -999.2500   -999.2500     87.5072  
  5242.5000    -33.7974      5.4547      5.2354      5.4545     14.1571     81.8712   -999.2500   -999.2500   -999.2500     87.2140  
  5243.0000    -34.5239      5.4404      5.2218      5.4402     14.1779     83.2817   -999.2500   -999.2500   -999.2500     87.5905  
  5243.5000    -34.8734      5.4262      5.2081      5.4260     14.1987     84.3454   -999.2500   -999.2500   -999.2500     88.1622  
  5244.0000    -34.5336      5.4120      5.1945      5.4118     14.2135     82.3399   -999.2500   -999.2500   -999.2500     89.3645  
  5244.5000    -34.2624      5.3979      5.1810      5.3977     14.2233     79.6486   -999.2500   -999.2500   -999.2500     89.9651  
  5245.0000    -34.2713      5.3838      5.1674      5.3836     14.2178     78.1753   -999.2500   -999.2500   -999.2500     89.3036  
  5245.5000    -34.3226      5.3762      5.1606      5.3760     14.2123     78.4153   -999.2500   -999.2500   -999.2500     89.2292  
  5246.0000    -34.3955      5.3737      5.1582      5.3735     14.2068     79.6307   -999.2500   -999.2500   -999.2500     88.1804  
  5246.5000    -34.3439      5.3712      5.1558      5.3710     14.2088     81.1615   -999.2500   -999.2500   -999.2500     87.4375  
  5247.0000    -34.0660      5.3688      5.1534      5.3685     14.2116     82.0965   -999.2500   -999.2500   -999.2500     88.1400  
  5247.5000    -34.2367      5.3663      5.1511      5.3661     14.2139     81.9308   -999.2500   -999.2500   -999.2500     89.6175  
  5248.0000    -34.7755      5.3638      5.1487      5.3636     14.2140     81.9038   -999.2500   -999.2500   -999.2500     91.2234  
  5248.5000    -35.0677      5.3614      5.1463      5.3611     14.2137     82.5244   -999.2500   -999.2500   -999.2500     91.9286  
  5249.0000    -34.5955      5.3639      5.1488      5.3637     14.2150     83.6762   -999.2500   -999.2500   -999.2500     90.5879  
  5249.5000    -33.8858      5.3699      5.1545      5.3697     14.2151     84.5684   -999.2500   -999.2500   -999.2500     88.2031  
  5250.0000    -33.6605      5.3759      5.1602      5.3757     14.2158     83.9400   -999.2500   -999.2500   -999.2500     85.6444  
  5250.5000    -33.5836      5.3819      5.1660      5.3817     14.2166     82.8814   -999.2500   -999.2500   -999.2500     83.9282  
  5251.0000    -33.5376      5.3879      5.1718      5.3877     14.2136     81.9986   -999.2500   -999.2500   -999.2500     84.8470  
  5251.5000    -33.1724      5.3985      5.1808      5.3983     14.2136     80.8339   -999.2500   -999.2500   -999.2500     89.1249  
  5252.0000    -32.9271      5.4248      5.2067      5.3849     14.2136     78.1873   -999.2500   -999.2500   -999.2500     90.8380  
  5252.5000    -32.8026      5.4441      5.2141      5.3568     14.2136     76.6847   -999.2500   -999.2500   -999.2500     90.8623  
  5253.0000    -32.8312      5.4634      5.1953      5.3288     14.1933     77.1812   -999.2500   -999.2500   -999.2500     90.2279  
  5253.5000    -32.9179      5.4829      5.1765      5.3009     14.1599     79.6601   -999.2500   -999.2500   -999.2500     87.7692  
  5254.0000    -33.2586      5.5024      5.1578      5.2732     14.1271     81.9682   -999.2500   -999.2500   -999.2500     86.0541  
  5254.5000    -33.3730      5.5219      5.1392      5.2457     14.1228     82.0884   -999.2500   -999.2500   -999.2500     86.8465  
  5255.0000    -33.0832      5.5416      5.1206      5.2220     14.1501     81.0645   -999.2500   -999.2500   -999.2500     88.5569  
  5255.5000    -32.8976      5.5613      5.1022      5.2199     14.1773     80.6349   -999.2500   -999.2500   -999.2500     89.1623  
  5256.0000    -32.7415      5.5810      5.0837      5.2179     14.2450     80.8149   -999.2500   -999.2500   -999.2500     89.8500  
  5256.5000    -32.7291      5.6009      5.0654      5.2159     14.2162     80.3297   -999.2500   -999.2500   -999.2500     90.7875  
  5257.0000    -32.9339      5.5941      5.0471      5.2139     14.1873     77.7996   -999.2500   -999.2500   -999.2500     89.8679  
  5257.5000    -33.2068      5.5791      5.0406      5.2118     14.1724     74.9624   -999.2500   -999.2500   -999.2500     88.7688  
  5258.0000    -33.4355      5.5641      5.0386      5.2147     14.1680     75.6824   -999.2500   -999.2500   -999.2500     87.9272  
  5258.5000    -33.6522      5.5491      5.0366      5.2184     14.1640     77.6596   -999.2500   -999.2500   -999.2500     87.1956  
  5259.0000    -33.6955      5.5342      5.0346      5.2221     14.1545     78.1026   -999.2500   -999.2500   -999.2500     87.3049  
  5259.5000    -33.6810      5.5193      5.0327      5.2308     14.1498     76.7576   -999.2500   -999.2500   -999.2500     88.0783  
