~VERSION INFORMATION
 VERS.                           2.00:        CWLS LOG ASCII STANDARD - VERSION 2.00
 WRAP.                             NO:        ONE LINE PER DEPTH STEP
~WELL INFORMATION
#MNEM.UNIT                   DATA             INFORMATION
#----------             --------------        ------------------------------
 STRT.F                       66.0000:        START DEPTH
 STOP.F                    11266.0000:        STOP DEPTH
 STEP.F                        0.5000:        STEP VALUE
 NULL.                      -999.2500:        NULL VALUE
 COMP.              HUSKY OIL COMPANY:        COMPANY
 LOC .                       6 12N 2E:        LOCATION
 DATE.                       12/24/76:        LOG DATE
 WELL.          SOUTH HARRISON BAY #1:        WELL
 UWI .                   501032000700:        UNIQUE WELL ID
 API .                   501032000700:        UNIQUE WELL IDENTIFIER
 FLD .                        WILDCAT:        FIELD
 CNTY.                    NORTH SLOPE:        COUNTY
 STAT.                         ALASKA:        STATE
 CTRY.                            USA:        COUNTRY
 OPER.              HUSKY OIL COMPANY:        OPERATOR
 SRVC.                   SCHLUMBERGER:        SERVICE COMPANY
 LAT .                         0.0000:        LATITUDE
 LON .                         0.0000:        LONGITUDE
 DIGS.               CENTER LINE DATA:        DIGITIZING COMPANY
~CURVE INFORMATION      
#MNEM        .UNIT         API CODE           CURVE DESCRIPTION
#-----------------      --------------        ------------------------------
 DEPT        .F                      :        1  DEPTH
 GR          .GAPI                   :        2  
 CALI        .IN                     :        3  
 DRHO        .G/C3                   :        4  
 RHOB        .G/C3                   :        5  
 NPHI        .%                      :        6  
 DT          .US/F                   :        7  
 SP          .MV                     :        8  
 ILD         .OHMM                   :        9  
 ILM         .OHMM                   :        10 
 LL8         .OHMM                   :        11 
~PARAMETER INFORMATION
#MNEM.UNIT                  VALUE             DESCRIPTION OF MNEMONIC
#---------             ---------------        ------------------------------
 EKB .F                       45.0000:        KELLY BUSHING
 TD  .F                    11290.0000:        TOTAL DEPTH
 BHT .F                      174.0000:        BOTTOM HOLE TEMPERATURE
 BS  .                        12.2500:        BIT SIZE
 FD  .                        10.7000:        FLUID DENSITY
 CSIZ.                        13.3750:        CASING SIZE
 CBD .F                     2600.0000:        CASING DRILLER 1
 CBL .F                     2600.0000:        CASING LOGGER 1
 DFT .                  MISCELLANEOUS:        TYPE FLUID IN HOLE
 DFV .                        52.0000:        VISCOSITY
 DFPH.                         8.2000:        PH
 DFL .                         6.0000:        FLUID LOSS
 RMS .                         1.3900:        RM
 MST .F                       60.0000:        RM MEAS. TEMP.
 RMF .                         1.0200:        RMF
 MFST.F                       60.0000:        RMF MEAS. TEMP.
 RMC .                         1.3800:        RMC
 MCST.F                       60.0000:        RMC MEAS. TEMP.
~OTHER INFORMATION
~A    DEPTH          GR        CALI        DRHO        RHOB        NPHI          DT          SP         ILD         ILM         LL8 
# ...
  9734.5000     77.0908      8.8447      0.0595      2.6019     22.6749     71.8110    -29.2279      7.7461      7.8518      8.9939 
  9735.0000     75.0085      8.8035      0.0693      2.6246     22.3389     71.7339    -29.0300      7.7229      7.8265      8.9688 
  9735.5000     73.4828      8.6514      0.0985      2.6233     21.7044     71.7975    -29.1188      7.7750      7.8144      9.3616 
  9736.0000     71.1811      8.6723      0.1518      2.5914     20.0736     71.6264    -29.1319      7.6426      7.8411      9.6879 
  9736.5000     70.1786      8.9568      0.2378      2.6265     18.1255     71.0884    -28.9918      7.8662      8.0056      9.9407 
  9737.0000     70.7692     10.3489      0.2806      2.6638     16.2993     70.2386    -28.8518      8.1615      8.2698     10.2677 
  9737.5000     72.6247     10.4819      0.2591      2.6767     14.8895     69.7569    -28.7118      8.5662      8.5515     10.6092 
  9738.0000     75.3651     10.5197      0.2524      2.6643     13.9142     69.0824    -28.5718      9.1895      9.0993     11.2160 
  9738.5000     78.5950     10.5533      0.2571      2.6596     14.1830     67.8427    -28.4318      9.8582      9.6821     12.2965 
  9739.0000     80.1389     10.5806      0.2535      2.6606     14.8081     66.5085    -28.3794     10.4025     10.3023     14.2421 
  9739.5000     81.9254     10.5949      0.2559      2.6617     15.2807     66.1716    -28.4636     11.0339     10.9622     16.0064 
  9740.0000     83.5377     10.6059      0.2480      2.6498     16.6257     66.1372    -28.5478     11.5026     11.5414     15.8421 
  9740.5000     84.6196     10.6327      0.2250      2.5958     18.2238     66.1790    -28.6965     11.6555     11.5620     15.7319 
  9741.0000     85.4417     10.7305      0.1894      2.5338     20.6497     66.6054    -28.7765     11.1437     11.0355     16.3653 
  9741.5000     85.0182     10.9145      0.1592      2.4889     23.3357     67.1813    -28.3766     10.3170     10.1928     16.4985 
  9742.0000     85.4959     10.8060      0.1382      2.4927     25.2623     68.6628    -27.9767      9.4020      9.4144     13.6164 
  9742.5000     86.9989     10.2163      0.1171      2.5543     26.7933     71.0474    -27.7501      8.5682      8.6954     11.3479 
  9743.0000     88.3318      9.9659      0.0785      2.6232     26.9235     72.7821    -27.5499      7.8083      8.0314      9.3698 
  9743.5000     88.6693      9.7217      0.0377      2.6529     26.8903     74.1098    -27.3744      7.3439      7.5036      8.5965 
  9744.0000     88.8919      8.9903      0.0508      2.6896     27.4812     74.9160    -27.4381      7.0283      7.1097      7.7787 
  9744.5000     89.7198      8.8111      0.0409      2.6864     28.2364     74.8957    -27.3991      6.7263      6.7366      7.7934 
  9745.0000     91.4530      8.6515      0.0455      2.7005     28.7586     74.4171    -27.5302      6.3786      6.3830      7.9535 
  9745.5000     92.8324      8.6610      0.0312      2.7061     28.5081     75.1439    -27.5960      6.2306      6.2591      8.0494 
  9746.0000     94.3082      8.6676      0.0187      2.7005     28.1832     75.4942    -27.6100      6.1027      6.1542      8.0791 
  9746.5000     95.0633      8.6842      0.0142      2.6959     27.4629     75.7142    -27.7071      6.0720      6.2298      8.0569 
  9747.0000     94.4789      8.5941      0.0195      2.7055     26.6322     74.8289    -27.8298      6.1312      6.3063      8.0455 
  9747.5000     93.4635      8.5450      0.0209      2.7137     25.6246     74.3312    -28.0005      6.2053      6.3876      8.0341 
  9748.0000     92.6526      8.5576      0.0226      2.7109     24.8138     75.0973    -28.1769      6.4103      6.5248      8.0413 
  9748.5000     91.9409      8.5658      0.0247      2.7018     24.1022     75.9913    -28.3641      6.6341      6.6650      8.2378 
  9749.0000     90.3020      8.5633      0.0158      2.6910     23.5731     73.9733    -28.5534      6.7761      6.8082      8.6927 
  9749.5000     86.7437      8.5824      0.0072      2.6725     23.8002     73.4425    -29.1730      6.8581      6.9545      9.0502 
  9750.0000     79.1389      8.6047      0.0105      2.6909     24.2670     71.6013    -29.3766      7.1162      7.1039      9.8848 
  9750.5000     67.4328      8.5909      0.0265      2.6729     24.6254     71.6778    -29.5028      7.3503      7.3420     10.2618 
  9751.0000     56.1957      8.4426      0.0023      2.6468     24.1853     71.9487    -29.5744      7.6424      7.7452     10.1429 
  9751.5000     45.5747      8.4374      0.0080      2.6447     20.9640     72.9170    -29.7973      8.1803      8.1706      9.8170 
  9752.0000     39.3242      8.4322      0.0155      2.6473     17.8084     74.3062    -31.0082      9.2940      9.2179      9.5858 
  9752.5000     37.1945      8.4354      0.0136      2.6334     14.7859     73.8897    -32.3351     10.4409     10.4908     10.1823 
  9753.0000     38.6241      8.4482      0.0162      2.6158     13.1278     71.4683    -33.2373     11.7293     11.9395     12.6335 
  9753.5000     40.7113      8.4577      0.0246      2.6108     12.6966     66.8467    -33.8921     13.1768     13.5882     24.6051 
  9754.0000     43.1395      8.4550      0.0158      2.6172     12.4222     64.7831    -34.3722     14.8028     15.3179     34.5231 
  9754.5000     45.0740      8.4556      0.0075      2.5999     12.5693     63.9745    -34.8174     17.5707     17.1918     37.0223 
  9755.0000     47.7216      8.4653      0.0069      2.5917     13.3126     65.4080    -35.7287     21.1345     20.3677     39.9355 
  9755.5000     48.9033      8.4749      0.0080      2.5750     14.0908     64.2759    -36.9987     23.5619     24.1303     44.7614 
  9756.0000     49.8190      8.4846      0.0116      2.5387     14.8172     63.6018    -37.8946     26.7165     28.1083     43.1819 
  9756.5000     50.7348      8.4942      0.0328      2.5496     15.4049     63.9106    -38.2186     28.0812     28.2789     42.2749 
  9757.0000     50.6697      8.3982      0.0530      2.5750     15.2488     63.5583    -38.2060     26.4106     25.9250     42.6852 
  9757.5000     49.2168      8.1533      0.0469      2.5966     14.1187     64.3792    -38.0639     22.9945     22.8607     44.8550 
  9758.0000     47.7638      8.1375      0.0387      2.6015     12.6953     66.7476    -37.6056     21.9773     19.9571     37.2881 
  9758.5000     46.3109      8.2134      0.0305      2.5890     11.7308     68.5865    -37.6024     21.1408     17.3437     25.5427 
  9759.0000     46.8495      8.3031      0.0450      2.6013     11.9272     69.4119    -38.6779     22.4753     19.3079     19.5823 
  9759.5000     50.6814      8.3929      0.0326      2.5979     12.3855     69.2214    -41.2372     24.2129     21.8010     24.4705 
  9760.0000     54.5085      8.4658      0.0159      2.5873     13.5284     66.5319    -42.9003     27.8061     24.1356     46.1389 
  9760.5000     58.3230      8.4767      0.0143      2.5835     14.9229     64.9292    -43.5201     24.4740     23.4807     59.9689 
  9761.0000     61.8790      8.4840      0.0277      2.6034     15.9376     64.6790    -43.0974     20.3436     22.3593     52.8910 
  9761.5000     65.8034      8.4903      0.0384      2.6324     16.2152     64.9397    -42.2421     20.7458     20.5314     40.6659 
  9762.0000     69.6413      8.5352      0.0487      2.6709     15.9587     65.5277    -40.9840     21.1560     18.6444     32.6457 
  9762.5000     72.4562      8.5854      0.0433      2.6652     16.5726     67.0042    -39.2606     21.5742     17.4770     26.6148 
  9763.0000     72.2869      8.5454      0.0771      2.6434     17.7458     67.6971    -37.6251     19.5467     16.6006     22.9998 
  9763.5000     69.3975      8.5645      0.1227      2.6482     19.2039     68.1582    -35.7356     17.6653     15.8740     20.7069 
  9764.0000     65.5577      8.5522      0.0399      2.5892     19.8022     68.4641    -34.2811     15.9649     15.1793     22.4230 
  9764.5000     62.2250      8.4819      0.0379      2.5635     19.6369     68.0335    -33.3739     14.4615     14.0848     24.0288 
