~VERSION INFORMATION
 VERS.                           2.00:        CWLS LOG ASCII STANDARD - VERSION 2.00
 WRAP.                             NO:        ONE LINE PER DEPTH STEP
~WELL INFORMATION
#MNEM.UNIT                   DATA             INFORMATION
#----------             --------------        ------------------------------
 STRT.F                       94.0000:        START DEPTH
 STOP.F                    11429.0000:        STOP DEPTH
 STEP.F                        0.5000:        STEP VALUE
 NULL.                      -999.2500:        NULL VALUE
 COMP. U.S. NAVY (HUSKY OIL CO.-OPER.:        COMPANY
 LOC .                      11 11N 1W:        LOCATION
 DATE.                        2/17/77:        LOG DATE
 WELL.             WEST FISH CREEK #1:        WELL
 UWI .                   500232001400:        UNIQUE WELL ID
 API .                   500232001400:        UNIQUE WELL IDENTIFIER
 FLD .                        WILDCAT:        FIELD
 CNTY.                    NORTH SLOPE:        COUNTY
 STAT.                         ALASKA:        STATE
 CTRY.                            USA:        COUNTRY
 OPER. U.S. NAVY (HUSKY OIL CO.-OPER.:        OPERATOR
 SRVC.                   SCHLUMBERGER:        SERVICE COMPANY
 LAT .                         0.0000:        LATITUDE
 LON .                         0.0000:        LONGITUDE
 DIGS.               CENTER LINE DATA:        DIGITIZING COMPANY
~CURVE INFORMATION      
#MNEM        .UNIT         API CODE           CURVE DESCRIPTION
#-----------------      --------------        ------------------------------
 DEPT        .F                      :        1  DEPTH
 SP          .MV                     :        2  
 ILD         .OHMM                   :        3  
 ILM         .OHMM                   :        4  
 LL8         .OHMM                   :        5  
 CALI        .IN                     :        6  
 RHOB        .G/C3                   :        7  
 DRHO        .G/C3                   :        8  
 NPHI        .%                      :        9  
 GR          .GAPI                   :        10 
 DT          .US/F                   :        11 
~PARAMETER INFORMATION
#MNEM.UNIT                  VALUE             DESCRIPTION OF MNEMONIC
#---------             ---------------        ------------------------------
 EKB .F                      113.0000:        KELLY BUSHING
 TD  .F                    11429.0000:        TOTAL DEPTH
~OTHER INFORMATION
~A    DEPTH          SP         ILD         ILM         LL8        CALI        RHOB        DRHO        NPHI          GR          DT 
# ...
  9305.0000   -105.8090     16.8069     16.5312     24.5921     11.3743      2.6824      0.3264     33.9145    101.4247     74.1515 
  9305.5000    -99.3542     14.0164     15.0864     23.1773     11.3533      2.6952      0.3326     33.3899    102.5049     71.9964 
  9306.0000    -95.8490     11.6165     12.5500     23.4277     11.3764      2.6698      0.3379     33.4031    112.6697     69.6982 
  9306.5000    -94.7394      9.7490      9.9331     23.2944     11.3995      2.6340      0.3426     32.8284    131.4523     68.1548 
  9307.0000    -94.2948      8.2051      8.0584     19.7037     11.4304      2.6469      0.3445     32.5153    157.0340     69.6032 
  9307.5000    -94.1918      6.9057      7.1552     12.9778     11.4781      2.6755      0.3430     31.9276    182.6156     70.9504 
  9308.0000    -94.5785      5.8633      6.3532      9.5536     11.6399      2.6749      0.3253     31.1648    249.9065     73.7652 
  9308.5000    -95.1857      5.3189      5.9935      8.5819     11.7928      2.6609      0.2902     31.0081    232.6163     77.7790 
  9309.0000    -96.7806      5.1796      5.7700      8.3339     11.8952      2.6017      0.2655     32.4423    199.4195     81.6697 
  9309.5000    -98.1788      5.4867      5.7772      8.3941     11.9976      2.5995      0.2569     35.3522    168.2790     85.2429 
  9310.0000    -98.3506      5.8121      6.2869      9.2143     12.1000      2.6377      0.2517     37.4934    165.9822     86.2093 
  9310.5000    -97.9219      6.5328      6.9615     11.6252     12.1684      2.6571      0.2367     38.0473    164.8482     78.9125 
  9311.0000    -97.2872      7.4076      7.8498     14.0400     12.1117      2.6428      0.2245     38.7004    162.6320     75.7436 
  9311.5000    -96.1039      8.5369      9.0231     15.9398     11.9177      2.6048      0.2304     39.6935    162.5829     74.6821 
  9312.0000    -94.8522     10.3044     10.3718     17.5640     11.7237      2.6081      0.2386     40.9668    165.0649     76.1370 
  9312.5000    -94.1559     11.7734     11.5380     18.6786     11.8593      2.6290      0.2467     40.8622    169.2523     76.6885 
  9313.0000    -94.2703     12.9673     12.4403     19.9985     11.7201      2.6306      0.2495     39.8955    173.8615     76.8246 
  9313.5000    -94.4707     13.7892     13.4133     21.9182     11.5091      2.6366      0.2524     39.3928    177.9706     77.4953 
  9314.0000    -94.5945     14.6240     14.4624     22.1212     11.5643      2.6555      0.2539     39.1632    181.4253     76.2287 
  9314.5000    -94.2844     15.5093     15.5830     20.4202     11.4520      2.6139      0.2556     38.9423    184.6907     74.5361 
  9315.0000    -93.2344     16.4483     16.6611     20.2452     11.3027      2.6102      0.2573     38.8293    181.2776     74.2353 
  9315.5000    -91.7930     17.4440     17.8139     22.4789     11.3285      2.6171      0.2608     38.7091    181.2793     73.1681 
  9316.0000    -91.4904     18.0557     19.3257     25.1178     11.6261      2.6229      0.2743     38.8046    184.2340     69.6822 
  9316.5000    -91.3720     18.3049     20.9493     30.3443     11.4226      2.6287      0.2879     38.7877    187.7448     67.3931 
  9317.0000    -90.4075     18.1885     21.5981     35.5820     11.3081      2.6427      0.3008     38.0842    191.8349     66.6505 
  9317.5000    -89.1462     17.9459     20.5115     38.5105     11.2242      2.6402      0.3164     36.4805    194.4453     65.9905 
  9318.0000    -88.2449     17.5699     18.4871     29.7765     10.9807      2.6125      0.3330     35.3923    198.5285     68.8341 
  9318.5000    -90.0174     17.1718     17.3452     25.2919     10.6886      2.6211      0.3476     34.4092    202.4090     72.8000 
  9319.0000    -91.0814     16.7827     16.2739     24.2140     10.5595      2.6331      0.3365     32.6920    201.2915     74.6682 
  9319.5000    -92.2090     16.7759     15.6029     23.3377     10.5436      2.6422      0.3101     31.4229    199.8330     75.5810 
  9320.0000    -94.2141     17.5235     16.3486     22.7990     10.5230      2.6720      0.2903     32.4624    205.3096     74.4600 
  9320.5000    -96.5150     18.3043     18.1085     23.6643     10.5366      2.6730      0.2765     35.1021    213.1047     71.3386 
  9321.0000    -97.2202     20.6043     21.6017     28.3071     10.5672      2.6754      0.2820     36.8981    221.6205     67.5722 
  9321.5000    -96.7456     24.4879     26.0844     43.2239     10.6092      2.6598      0.2975     37.6676    224.8220     64.2116 
  9322.0000    -95.6284     31.3314     31.3602     68.3753     10.6572      2.6684      0.3178     38.0947    234.8641     61.5398 
  9322.5000    -95.2471     37.1503     37.4904     94.7729     10.4985      2.6721      0.3596     36.9878    244.7881     59.3098 
  9323.0000    -95.8416     47.7023     44.8188    108.8931     10.2877      2.6676      0.3963     35.5824    227.8687     58.3763 
  9323.5000    -96.2016     63.4417     51.2311    138.4545     10.0770      2.6584      0.4353     33.2412    199.6636     58.1663 
  9324.0000    -96.0322     77.6045     56.6762    156.8639      9.9650      2.6557      0.4640     29.7866    168.0640     57.1426 
  9324.5000    -95.0078     92.9503     62.0274    165.5899      9.9517      2.6509      0.4802     26.6173    152.0694     57.0016 
  9325.0000    -94.2151    101.3493     65.2534    176.7523      9.9384      2.6355      0.4926     24.5462    136.0747     56.8750 
  9325.5000    -93.9970    106.3514     67.5341    181.1313      9.9394      2.6331      0.5063     22.8309    126.5618     55.9835 
  9326.0000    -93.5898    108.9238     69.7879    176.4760      9.9183      2.6492      0.5165     21.8563    139.6292     55.7516 
  9326.5000    -93.1773    111.5584     71.9000    172.1776      9.9259      2.6413      0.5150     20.7050    152.3872     55.9209 
  9327.0000    -92.4603    110.3123     73.5078    176.9929      9.9335      2.6338      0.5147     20.4423    165.4174     55.7417 
  9327.5000    -90.3503    106.5526     74.0416    192.6882      9.9395      2.6534      0.5154     20.2463    169.8256     56.0608 
  9328.0000    -88.8336    104.2963     71.3271    201.7941      9.9534      2.6532      0.5136     19.9604    188.3209     56.3767 
  9328.5000    -87.9400    100.0052     66.2519    167.2597      9.9607      2.6460      0.5106     19.9281    225.4684     57.0066 
  9329.0000    -87.8017     94.2277     62.3758    139.8805      9.9432      2.6343      0.5065     20.1014    262.6159     58.3729 
  9329.5000    -87.8017     87.5928     59.1068    136.6589      9.9581      2.6454      0.5006     20.2748    270.1906     58.4742 
  9330.0000    -87.7681     79.1707     55.5709    151.9047      9.9536      2.6589      0.4948     20.5283    252.2859     59.2473 
  9330.5000    -87.6347     72.5959     52.0447    133.4508      9.9556      2.6716      0.4877     20.8466    231.7030     58.5848 
  9331.0000    -87.9524     67.0910     48.7423    117.1530      9.9741      2.6892      0.4778     21.0279    234.6421     57.6657 
  9331.5000    -88.6515     62.7406     46.6618    109.9753      9.9782      2.7007      0.4745     21.5473    214.7960     59.4839 
  9332.0000    -89.6102     60.7896     46.2244     98.9549     10.0145      2.7180      0.4721     22.4068    194.9500     60.0136 
  9332.5000    -90.6081     58.8992     45.9413     89.4712     10.0177      2.7148      0.4671     22.8226    186.8565     58.5787 
  9333.0000    -90.9535     57.5859     46.0576     89.2168      9.9938      2.6840      0.4592     22.7102    183.4874     60.4947 
  9333.5000    -89.8222     56.6735     46.6634     97.2248     10.0519      2.7018      0.4524     22.8975    167.6964     59.5563 
  9334.0000    -87.5501     57.0767     47.3998    115.0264     10.0268      2.7280      0.4455     24.0642    152.5498     58.4057 
  9334.5000    -85.9121     58.8140     47.9258    128.3659      9.9077      2.7174      0.4481     24.7349    137.4032     58.5898 
  9335.0000    -85.0205     63.2325     49.2892    112.3203      9.8884      2.7006      0.4503     25.1736    148.2635     58.8206 
