~VERSION INFORMATION
 VERS.                      2.00:        CWLS LOG ASCII STANDARD - VERSION 2.00
 WRAP.                        NO:        ONE LINE PER DEPTH STEP
~WELL INFORMATION
#MNEM.UNIT               DATA            INFORMATION
#----------          ------------        ------------------------------
 STRT.F                 490.0000:        START DEPTH
 STOP.F               10659.0000:        STOP DEPTH
 STEP.F                   0.5000:        STEP VALUE
 NULL.                 -999.2500:        NULL VALUE
 COMP. HUSKY OIL NPR OPERATIONS,:        COMPANY  
 WELL.         EAST TESHEKPUK #1:        WELL     
 FLD .   U.S. NAVY NPR-4 WILDCAT:        FIELD    
 LOC .              16  14N   4W:        LOCATION   
 CNTY.                  N. SLOPE:        COUNTY  
 STAT.                    ALASKA:        STATE   
 CTRY.                       USA:        COUNTRY 
 DATE.                   4/11/76:        LOG DATE 
 API .              502790000000:        UNIQUE WELL IDENTIFIER 
 OPER. HUSKY OIL NPR OPERATIONS,:        OPERATOR  
 SRVC.              Schlumberger:        SERVICE COMPANY 
 UWI .              502790000000:        UNIQUE WELL ID 
 LAT .                    0.0000:        LATITUDE
 LON .                    0.0000:        LONGITUDE
 DIGS.          Center Line Data:        DIGITIZING COMPANY 
~CURVE INFORMATION      
#MNEM.UNIT            API CODE           CURVE DESCRIPTION
#---------          -------------        ------------------------------
 DEPT.F                         :        1  DEPTH
 SP  .MV                        :        2
 LL8 .OHMM                      :        3
 ILM .OHMM                      :        4
 ILD .OHMM                      :        5
 CALI.IN                        :        6
 GR  .GAPI                      :        7
 RHOB.G/C3                      :        8
 DRHO.G/C3                      :        9
 NPHI.%                         :       10
 DT  .US/F                      :       11
~PARAMETER INFORMATION       
#MNEM.UNIT              VALUE            DESCRIPTION OF MNEMONIC
#---------          -------------        ------------------------------
 EKB .F                  27.6000:        KELLY BUSHING
 TD  .F               10664.0000:        TOTAL DEPTH
 BHT .F                 172.0000:        BOTTOM HOLE TEMPERATURE
 BS  .                   13.5000:        BIT SIZE
 FD  .                   10.2000:        FLUID DENSITY
 CSIZ.                   16.0000:        CASING SIZE
 CBD .F                2578.0000:        CASING DRILLER 1
 CBL .F                2572.0000:        CASING LOGGER 1
 DFT . Salt Water-Lignosulfonate:        TYPE FLUID IN HOLE
 DFV .                   51.0000:        VISCOSITY
 DFPH.                   10.6000:        PH
 DFL .                    3.5000:        FLUID LOSS
 RMS .                    2.2600:        RM
 MST .F                  64.0000:        RM MEAS. TEMP.
 RMF .                    1.8900:        RMF
 MFST.F                  58.0000:        RMF MEAS. TEMP.
 RMC .                    2.5400:        RMC
 MCST.F                  58.0000:        RMC MEAS. TEMP.
 UWI .              502790000000:        UNIQUE WELL ID
~OTHER INFORMATION
~A    DEPTH          SP         LL8         ILM         ILD        CALI          GR        RHOB        DRHO        NPHI          DT  
# ...
  5770.0000    -33.9322      5.8669      5.1357      5.7205     14.0746     88.8557   -999.2500   -999.2500   -999.2500     86.0736  
  5770.5000    -33.8008      5.8399      5.1334      5.6941     14.0704     88.0316   -999.2500   -999.2500   -999.2500     85.4600  
  5771.0000    -33.7314      5.8717      5.1310      5.7240     14.0440     87.1108   -999.2500   -999.2500   -999.2500     85.2176  
  5771.5000    -33.7333      5.9147      5.1287      5.7660     14.0205     84.9212   -999.2500   -999.2500   -999.2500     85.4452  
  5772.0000    -33.7924      5.9315      5.1264      5.7837     14.0016     82.8295   -999.2500   -999.2500   -999.2500     85.8014  
  5772.5000    -33.9471      5.9096      5.1240      5.7624     13.9892     82.3203   -999.2500   -999.2500   -999.2500     86.4199  
  5773.0000    -34.2337      5.8879      5.1217      5.7412     13.9952     83.4018   -999.2500   -999.2500   -999.2500     86.4726  
  5773.5000    -34.5509      5.8662      5.1194      5.7200     13.9882     84.5484   -999.2500   -999.2500   -999.2500     86.3078  
  5774.0000    -34.9324      5.8446      5.1171      5.6989     13.9812     85.3670   -999.2500   -999.2500   -999.2500     86.6272  
  5774.5000    -35.1978      5.8230      5.1147      5.6779     13.9741     84.9414   -999.2500   -999.2500   -999.2500     86.8398  
  5775.0000    -34.9534      5.8016      5.1197      5.6569     13.9701     83.6023   -999.2500   -999.2500   -999.2500     87.1208  
  5775.5000    -34.6129      5.7802      5.1670      5.6361     13.9680     83.5795   -999.2500   -999.2500   -999.2500     87.6145  
  5776.0000    -34.3614      5.8243      5.2147      5.6661     13.9660     83.7715   -999.2500   -999.2500   -999.2500     86.4412  
  5776.5000    -34.2852      5.9415      5.2629      5.7800     13.9639     84.0420   -999.2500   -999.2500   -999.2500     85.2692  
  5777.0000    -34.3613      6.0610      5.3116      5.8963     13.9605     85.6536   -999.2500   -999.2500   -999.2500     84.7407  
  5777.5000    -34.4753      6.2337      5.3607      6.0475     13.9565     87.1284   -999.2500   -999.2500   -999.2500     83.8141  
  5778.0000    -34.6062      6.4259      5.3643      6.2340     13.9510     87.3066   -999.2500   -999.2500   -999.2500     84.0775  
  5778.5000    -34.7062      6.2915      5.3643      6.0636     13.9448     86.6497   -999.2500   -999.2500   -999.2500     84.9486  
  5779.0000    -34.8151      5.9865      5.3848      5.7697     13.9396     85.8797   -999.2500   -999.2500   -999.2500     85.8495  
  5779.5000    -34.5340      5.9173      5.4136      5.7676     13.9445     84.6339   -999.2500   -999.2500   -999.2500     86.0323  
  5780.0000    -34.5890      5.9681      5.4427      5.8173     13.9583     84.2900   -999.2500   -999.2500   -999.2500     84.8620  
  5780.5000    -34.8772      6.1119      5.4244      5.8702     13.9820     84.2938   -999.2500   -999.2500   -999.2500     84.1656  
  5781.0000    -35.0917      6.4706      5.3614      6.2144     13.9980     83.7623   -999.2500   -999.2500   -999.2500     83.5893  
  5781.5000    -34.8509      6.2491      5.2992      6.0485     14.0139     83.3845   -999.2500   -999.2500   -999.2500     84.1087  
  5782.0000    -34.5427      6.0174      5.2376      5.8242     14.0235     83.4685   -999.2500   -999.2500   -999.2500     86.0902  
  5782.5000    -34.0958      5.7942      5.1768      5.6081     14.0294     84.1354   -999.2500   -999.2500   -999.2500     86.8000  
  5783.0000    -33.7760      5.8368      5.1235      5.6787     14.0353     84.9177   -999.2500   -999.2500   -999.2500     86.8093  
  5783.5000    -33.8561      5.9536      5.1256      5.7924     14.0358     85.8044   -999.2500   -999.2500   -999.2500     85.9038  
  5784.0000    -33.8412      6.0002      5.1278      5.8394     14.0360     87.0872   -999.2500   -999.2500   -999.2500     84.6772  
  5784.5000    -33.9187      5.8907      5.1299      5.7329     14.0436     88.3632   -999.2500   -999.2500   -999.2500     85.5459  
  5785.0000    -33.9341      5.7832      5.0556      5.6283     14.0512     89.5162   -999.2500   -999.2500   -999.2500     85.9731  
  5785.5000    -33.9495      5.6777      4.9724      5.5256     14.0589     90.3277   -999.2500   -999.2500   -999.2500     86.0294  
  5786.0000    -33.8630      5.5741      4.8905      5.4248     14.0803     89.6909   -999.2500   -999.2500   -999.2500     86.0837  
  5786.5000    -33.7323      5.4724      4.8100      5.3258     14.1043     89.5745   -999.2500   -999.2500   -999.2500     86.2664  
  5787.0000    -33.7670      5.3725      4.7308      5.2286     14.1316     90.2660   -999.2500   -999.2500   -999.2500     86.4482  
  5787.5000    -33.8094      5.3170      4.6529      5.1828     14.1623     90.9667   -999.2500   -999.2500   -999.2500     87.6424  
  5788.0000    -33.9550      5.2740      4.5763      5.1409     14.1930     91.1377   -999.2500   -999.2500   -999.2500     88.6697  
  5788.5000    -34.1154      5.2271      4.5263      5.0942     14.2036     90.9812   -999.2500   -999.2500   -999.2500     88.7049  
  5789.0000    -34.3185      5.1759      4.5370      5.0443     14.2113     90.1218   -999.2500   -999.2500   -999.2500     88.5723  
  5789.5000    -34.4878      5.1251      4.5477      4.9948     14.2189     89.2745   -999.2500   -999.2500   -999.2500     87.7583  
  5790.0000    -34.7937      5.1045      4.5346      4.9775     14.2150     88.2998   -999.2500   -999.2500   -999.2500     86.8344  
  5790.5000    -34.9225      5.0945      4.4705      4.9678     14.2063     86.9770   -999.2500   -999.2500   -999.2500     86.5100  
  5791.0000    -34.7643      5.0672      4.4073      4.9365     14.1975     86.3698   -999.2500   -999.2500   -999.2500     87.3005  
  5791.5000    -34.7307      5.0027      4.3449      4.8736     14.1888     86.5299   -999.2500   -999.2500   -999.2500     87.9712  
  5792.0000    -34.8361      4.9390      4.2843      4.8116     14.1800     86.3821   -999.2500   -999.2500   -999.2500     88.9509  
  5792.5000    -34.8337      4.8761      4.2247      4.7504     14.1630     86.6956   -999.2500   -999.2500   -999.2500     90.5299  
  5793.0000    -34.7195      4.8141      4.1882      4.6899     14.1655     87.3750   -999.2500   -999.2500   -999.2500     91.3633  
  5793.5000    -34.6478      4.7528      4.1767      4.6302     14.1952     86.8971   -999.2500   -999.2500   -999.2500     91.0079  
  5794.0000    -34.2748      4.6923      4.1652      4.5713     14.1999     84.3782   -999.2500   -999.2500   -999.2500     90.0326  
  5794.5000    -33.9969      4.6326      4.1538      4.5131     14.1956     82.4569   -999.2500   -999.2500   -999.2500     88.4021  
  5795.0000    -34.0682      4.5965      4.1424      4.4816     14.2104     83.0413   -999.2500   -999.2500   -999.2500     87.0208  
  5795.5000    -34.4035      4.6183      4.1310      4.5029     14.2138     83.7011   -999.2500   -999.2500   -999.2500     88.0106  
  5796.0000    -34.9297      4.6402      4.1222      4.5243     14.2063     85.4515   -999.2500   -999.2500   -999.2500     89.3807  
  5796.5000    -35.0923      4.6623      4.1201      4.5458     14.2073     87.7899   -999.2500   -999.2500   -999.2500     90.5167  
  5797.0000    -34.5793      4.6866      4.1180      4.5691     14.2083     88.5210   -999.2500   -999.2500   -999.2500     90.9450  
  5797.5000    -34.3150      4.7156      4.1159      4.5974     14.1989     88.0937   -999.2500   -999.2500   -999.2500     91.2273  
  5798.0000    -34.6354      4.7448      4.1138      4.6258     14.2009     88.2549   -999.2500   -999.2500   -999.2500     89.7425  
  5798.5000    -34.8772      4.7742      4.1117      4.6545     14.2029     89.6455   -999.2500   -999.2500   -999.2500     88.7564  
  5799.0000    -34.8057      4.7830      4.0849      4.6633     14.2049     90.3942   -999.2500   -999.2500   -999.2500     89.8615  
  5799.5000    -34.5794      4.7566      4.0289      4.6375     14.2069     90.7751   -999.2500   -999.2500   -999.2500     89.8620  
