~VERSION INFORMATION
 VERS.                      2.00:        CWLS LOG ASCII STANDARD - VERSION 2.00
 WRAP.                        NO:        ONE LINE PER DEPTH STEP
~WELL INFORMATION
#MNEM.UNIT               DATA            INFORMATION
#----------          ------------        ------------------------------
 STRT.F                 490.0000:        START DEPTH
 STOP.F               10659.0000:        STOP DEPTH
 STEP.F                   0.5000:        STEP VALUE
 NULL.                 -999.2500:        NULL VALUE
 COMP. HUSKY OIL NPR OPERATIONS,:        COMPANY  
 WELL.         EAST TESHEKPUK #1:        WELL     
 FLD .   U.S. NAVY NPR-4 WILDCAT:        FIELD    
 LOC .              16  14N   4W:        LOCATION   
 CNTY.                  N. SLOPE:        COUNTY  
 STAT.                    ALASKA:        STATE   
 CTRY.                       USA:        COUNTRY 
 DATE.                   4/11/76:        LOG DATE 
 API .              502790000000:        UNIQUE WELL IDENTIFIER 
 OPER. HUSKY OIL NPR OPERATIONS,:        OPERATOR  
 SRVC.              Schlumberger:        SERVICE COMPANY 
 UWI .              502790000000:        UNIQUE WELL ID 
 LAT .                    0.0000:        LATITUDE
 LON .                    0.0000:        LONGITUDE
 DIGS.          Center Line Data:        DIGITIZING COMPANY 
~CURVE INFORMATION      
#MNEM.UNIT            API CODE           CURVE DESCRIPTION
#---------          -------------        ------------------------------
 DEPT.F                         :        1  DEPTH
 SP  .MV                        :        2
 LL8 .OHMM                      :        3
 ILM .OHMM                      :        4
 ILD .OHMM                      :        5
 CALI.IN                        :        6
 GR  .GAPI                      :        7
 RHOB.G/C3                      :        8
 DRHO.G/C3                      :        9
 NPHI.%                         :       10
 DT  .US/F                      :       11
~PARAMETER INFORMATION       
#MNEM.UNIT              VALUE            DESCRIPTION OF MNEMONIC
#---------          -------------        ------------------------------
 EKB .F                  27.6000:        KELLY BUSHING
 TD  .F               10664.0000:        TOTAL DEPTH
 BHT .F                 172.0000:        BOTTOM HOLE TEMPERATURE
 BS  .                   13.5000:        BIT SIZE
 FD  .                   10.2000:        FLUID DENSITY
 CSIZ.                   16.0000:        CASING SIZE
 CBD .F                2578.0000:        CASING DRILLER 1
 CBL .F                2572.0000:        CASING LOGGER 1
 DFT . Salt Water-Lignosulfonate:        TYPE FLUID IN HOLE
 DFV .                   51.0000:        VISCOSITY
 DFPH.                   10.6000:        PH
 DFL .                    3.5000:        FLUID LOSS
 RMS .                    2.2600:        RM
 MST .F                  64.0000:        RM MEAS. TEMP.
 RMF .                    1.8900:        RMF
 MFST.F                  58.0000:        RMF MEAS. TEMP.
 RMC .                    2.5400:        RMC
 MCST.F                  58.0000:        RMC MEAS. TEMP.
 UWI .              502790000000:        UNIQUE WELL ID
~OTHER INFORMATION
~A    DEPTH          SP         LL8         ILM         ILD        CALI          GR        RHOB        DRHO        NPHI          DT  
# ...
  2560.0000   -999.2500   -999.2500   -999.2500   -999.2500   -999.2500     62.5225   -999.2500   -999.2500   -999.2500    103.5604  
  2560.5000   -999.2500   -999.2500   -999.2500   -999.2500   -999.2500     62.9138   -999.2500   -999.2500   -999.2500    103.3737  
  2561.0000   -999.2500   -999.2500   -999.2500   -999.2500   -999.2500     63.8369   -999.2500   -999.2500   -999.2500    103.4109  
  2561.5000   -999.2500   -999.2500   -999.2500   -999.2500   -999.2500     64.5799   -999.2500   -999.2500   -999.2500    103.2238  
  2562.0000   -999.2500   -999.2500   -999.2500   -999.2500   -999.2500     65.6365   -999.2500   -999.2500   -999.2500    103.0914  
  2562.5000   -999.2500   -999.2500   -999.2500   -999.2500   -999.2500     67.2060   -999.2500   -999.2500   -999.2500    103.0973  
  2563.0000   -999.2500   -999.2500   -999.2500   -999.2500   -999.2500     69.6046   -999.2500   -999.2500   -999.2500    102.8861  
  2563.5000   -999.2500   -999.2500   -999.2500   -999.2500   -999.2500     71.3478   -999.2500   -999.2500   -999.2500    103.1349  
  2564.0000   -999.2500   -999.2500   -999.2500   -999.2500   -999.2500     70.9592   -999.2500   -999.2500   -999.2500    105.3745  
  2564.5000   -999.2500   -999.2500   -999.2500   -999.2500   -999.2500     71.3873   -999.2500   -999.2500   -999.2500    106.9954  
  2565.0000   -999.2500   -999.2500   -999.2500   -999.2500   -999.2500     72.4853   -999.2500   -999.2500   -999.2500    108.4652  
  2565.5000   -999.2500   -999.2500   -999.2500   -999.2500   -999.2500     73.7625   -999.2500   -999.2500   -999.2500    108.7427  
  2566.0000   -999.2500   -999.2500   -999.2500   -999.2500   -999.2500     73.7736   -999.2500   -999.2500   -999.2500    105.9222  
  2566.5000   -999.2500   -999.2500   -999.2500   -999.2500   -999.2500     73.2490   -999.2500   -999.2500   -999.2500    104.0028  
  2567.0000   -999.2500   -999.2500   -999.2500   -999.2500   -999.2500     71.7886   -999.2500   -999.2500   -999.2500    102.4797  
  2567.5000   -999.2500   -999.2500   -999.2500   -999.2500   -999.2500     69.7703   -999.2500   -999.2500   -999.2500    101.3831  
  2568.0000   -999.2500   -999.2500   -999.2500   -999.2500   -999.2500     66.6982   -999.2500   -999.2500   -999.2500     96.4381  
  2568.5000   -999.2500   -999.2500   -999.2500   -999.2500   -999.2500     63.8875   -999.2500   -999.2500   -999.2500     88.9193  
  2569.0000   -999.2500   -999.2500   -999.2500   -999.2500   -999.2500     61.2929   -999.2500   -999.2500     45.5828     62.1146  
  2569.5000   -999.2500   -999.2500   -999.2500   -999.2500   -999.2500     59.9690   -999.2500   -999.2500     42.6584     58.5514  
  2570.0000   -999.2500   -999.2500   -999.2500   -999.2500   -999.2500     41.9941   -999.2500   -999.2500     40.1905     57.4598  
  2570.5000   -999.2500   -999.2500   -999.2500   -999.2500   -999.2500     41.2739   -999.2500   -999.2500     38.2495     58.3778  
  2571.0000   -999.2500   -999.2500   -999.2500   -999.2500   -999.2500     40.4130   -999.2500   -999.2500     37.9345     58.3258  
  2571.5000   -999.2500   -999.2500   -999.2500   -999.2500   -999.2500     40.0163   -999.2500   -999.2500     39.3499     57.0250  
  2572.0000    -37.7449      0.6125      1.4560     10.2051   -999.2500     41.0856   -999.2500   -999.2500     42.4601     56.9900  
  2572.5000    -44.8771      1.0427      1.2792     10.2111   -999.2500     43.6840   -999.2500   -999.2500     44.9581     58.0096  
  2573.0000    -51.8060      2.1634      1.3703     10.2171   -999.2500     45.9956   -999.2500   -999.2500     47.3786     61.0301  
  2573.5000    -58.0362      3.8653      1.6758     10.2232   -999.2500     48.4229   -999.2500   -999.2500     49.5697     69.2642  
  2574.0000    -61.9941      4.7564      2.2711     10.2292     15.2271     52.2811      2.3791     -0.2631     49.7691     71.6091  
  2574.5000    -64.2734      4.9537      2.6829      3.0953     15.0309     58.9121      2.3631     -0.1108     49.2932     72.2069  
  2575.0000    -65.8891      4.8044      2.5947      2.2881     14.9908     66.3349      2.3655      0.0415     46.4730     80.4275  
  2575.5000    -66.8968      4.7581      2.5094      2.2340     14.9897     69.8236      2.4238      0.1762     44.2775     93.3360  
  2576.0000    -68.1451      5.0580      3.0801      3.0853     15.0308     69.5940      2.3448      0.1577     44.2447    110.1708  
  2576.5000    -69.7449      5.4523      2.8591      4.6179     15.1201     70.0056      2.3256      0.1495     45.4621    126.3789  
  2577.0000    -71.6113      5.8977      3.0145      6.2305     15.2015     72.2343      2.3065      0.1426     46.5770    133.0187  
  2577.5000    -73.8778      5.7777      3.3262      5.5172     15.0072     74.4329      2.3183      0.1574     46.3887    138.3898  
  2578.0000    -77.0420      5.3710      3.1636      4.1790     14.9787     76.4057      2.3056      0.1303     46.3908    135.5074  
  2578.5000    -80.2697      5.0245      2.7107      3.8628     15.0184     78.5551      2.3211      0.1458     46.6377    131.3651  
  2579.0000    -82.5639      4.7004      2.5789      3.8265     15.0537     79.9962      2.3466      0.1623     46.3192    130.0148  
  2579.5000    -83.2451      4.3973      2.8473      4.0440     15.0844     79.3746      2.3505      0.1682     46.4565    129.1926  
  2580.0000    -82.7161      4.1702      3.2851      4.2608     15.1688     77.7598      2.3319      0.1587     47.0018    129.2617  
  2580.5000    -80.5804      4.1095      3.5977      4.4842     15.2307     77.3660      2.3205      0.1577     47.5891    129.9381  
  2581.0000    -77.8326      4.0498      3.8856      4.5483     15.3245     77.7645      2.3322      0.1808     48.2957    131.5122  
  2581.5000    -75.8690      4.0234      3.7526      4.5969     15.3797     78.0652      2.3458      0.1940     49.0418    133.6234  
  2582.0000    -75.4235      4.1107      3.6147      4.6211     15.3982     78.5575      2.3177      0.1797     49.5262    134.6580  
  2582.5000    -75.6856      4.1999      3.7250      4.6485     15.5161     78.9841      2.2903      0.1687     49.1114    131.2478  
  2583.0000    -75.4407      4.2981      3.8381      4.7015     15.8470     78.4384      2.2576      0.1457     48.5981    128.8982  
  2583.5000    -74.6047      4.4263      3.9486      4.7552     16.4790     77.3783      2.2439      0.1415     48.7240    134.4583  
  2584.0000    -73.8161      4.5583      4.0551      4.8101     17.1442     76.0747      2.2323      0.1383     48.0929    146.4663  
  2584.5000    -73.4224      4.6573      4.1258      4.8656     17.6668     74.7910      2.2284      0.1443     46.7512    153.5332  
  2585.0000    -73.7998      4.6996      4.1959      4.9219     17.6806     73.9244      2.2311      0.1502     44.8876    155.1126  
  2585.5000    -74.5575      4.7338      4.1779      4.9787     17.7060     72.3586      2.2347      0.1399     43.9045    153.9770  
  2586.0000    -75.3588      4.7502      4.1600      4.9813     17.7063     70.3999      2.2499      0.1363     43.9856    147.0097  
  2586.5000    -75.9073      4.7667      4.1422      4.9551     17.6595     71.5929      2.2621      0.1540     44.8317    135.4326  
  2587.0000    -75.9918      4.7755      4.1245      4.9217     17.6381     72.5799      2.2521      0.1322     45.7694    127.7915  
  2587.5000    -76.1274      4.7766      4.1069      4.8883     17.7760     72.4004      2.2630      0.1304     45.3785    123.9399  
  2588.0000    -76.5714      4.7442      4.0893      4.8551     17.1577     71.7949      2.2876      0.1462     45.4630    121.1929  
  2588.5000    -77.0876      4.6911      4.0794      4.7946     17.0691     71.9969      2.2800      0.1521     44.9910    122.1869  
  2589.0000    -77.4880      4.6385      4.0698      4.7301     17.1635     71.9470      2.2652      0.1289     43.7926    122.7230  
  2589.5000    -77.5437      4.5865      4.0602      4.6665     17.0352     72.1957      2.2631      0.1262     42.6403    118.3400  
