~VERSION INFORMATION
 VERS.                      2.00:        CWLS LOG ASCII STANDARD - VERSION 2.00
 WRAP.                        NO:        ONE LINE PER DEPTH STEP
~WELL INFORMATION
#MNEM.UNIT               DATA            INFORMATION
#----------          ------------        ------------------------------
 STRT.F                  40.0000:        START DEPTH
 STOP.F                9893.0000:        STOP DEPTH
 STEP.F                   0.5000:        STEP VALUE
 NULL.                 -999.2500:        NULL VALUE
 COMP.                 U.S. NAVY:        COMPANY  
 WELL.    CAPE HALKETT #16N-2W-1:        WELL     
 FLD .                   WILDCAT:        FIELD    
 LOC .               5  16N   2W:        LOCATION   
 CNTY.               NORTH SLOPE:        COUNTY  
 STAT.                    ALASKA:        STATE   
 CTRY.                       USA:        COUNTRY 
 DATE.                    4/9/75:        LOG DATE 
 API .              500000000000:        UNIQUE WELL IDENTIFIER 
 OPER.                 U.S. NAVY:        OPERATOR  
 SRVC.              Schlumberger:        SERVICE COMPANY 
 UWI .              500000000000:        UNIQUE WELL ID 
 LAT .                    0.0000:        LATITUDE
 LON .                    0.0000:        LONGITUDE
 DIGS.          Center Line Data:        DIGITIZING COMPANY 
~CURVE INFORMATION      
#MNEM.UNIT            API CODE           CURVE DESCRIPTION
#---------          -------------        ------------------------------
 DEPT.F                         :        1  DEPTH
 SP  .MV                        :        2
 ILD .OHMM                      :        3
 ILM .OHMM                      :        4
 LL8 .OHMM                      :        5
 CALI.IN                        :        6
 GR  .GAPI                      :        7
 DRHO.G/C3                      :        8
 RHOB.G/C3                      :        9
 NPHI.%                         :       10
 DPHI.%                         :       11
 DT  .US/F                      :       12
~PARAMETER INFORMATION       
#MNEM.UNIT              VALUE            DESCRIPTION OF MNEMONIC
#---------          -------------        ------------------------------
 EKB .F                  39.5000:        KELLY BUSHING
 TD  .F                7867.0000:        TOTAL DEPTH
 BHT .F                  60.0000:        BOTTOM HOLE TEMPERATURE
 BS  .                   18.5000:        BIT SIZE
 FD  .                   10.5000:        FLUID DENSITY
 CSIZ.                   20.0000:        CASING SIZE
 CBD .F                 492.0000:        CASING DRILLER 1
 CBL .F                 493.0000:        CASING LOGGER 1
 DFT .             Miscellaneous:        TYPE FLUID IN HOLE
 DFV .                  200.0000:        VISCOSITY
 DFPH.                   10.0000:        PH
 DFL .                    9.2000:        FLUID LOSS
 RMS .                    2.1500:        RM
 MST .F                  57.0000:        RM MEAS. TEMP.
 RMF .                    2.2000:        RMF
 MFST.F                  40.0000:        RMF MEAS. TEMP.
 RMC .                    0.0000:        RMC
 MCST.F                   0.0000:        RMC MEAS. TEMP.
 UWI .              500000000000:        UNIQUE WELL ID
~OTHER INFORMATION
~A    DEPTH          SP         ILD         ILM         LL8        CALI          GR        DRHO        RHOB        NPHI        DPHI          DT  
# ...
  9857.5000    -43.3712     68.3995     75.1862    148.6761      8.8611     88.3057      0.0413   -999.2500     16.4146     -2.7818     60.1694  
  9858.0000    -43.3872     68.2287     72.1264    150.8374      8.8564     86.4882      0.0359   -999.2500     15.9135     -0.2629     59.3056  
  9858.5000    -43.3418     67.8291     69.1632    138.8255      8.8518     86.7343      0.0268   -999.2500     15.3533     -0.4402     58.5720  
  9859.0000    -43.2256     67.2592     68.1784    128.1607      8.8569     87.1296      0.0256   -999.2500     15.0381      0.1073     58.5128  
  9859.5000    -43.1194     66.4731     67.2433    126.1693      8.8739     88.0388      0.0159   -999.2500     14.7967      0.5267     59.0584  
  9860.0000    -42.7190     64.6910     68.1061    129.3652      8.8909     88.9368      0.0032   -999.2500     14.4200      0.8858     59.2510  
  9860.5000    -42.2812     62.8313     69.1316    132.3882      8.8650     89.7682      0.0079   -999.2500     14.0656      0.5604     59.4634  
  9861.0000    -41.7168     62.2263     70.2189    133.8593      8.8639     89.9787      0.0132   -999.2500     14.1115      0.9228     59.5294  
  9861.5000    -41.5333     61.6271     71.0206    134.1639      8.8628     89.1514      0.0139   -999.2500     14.4533      1.6546     59.4020  
  9862.0000    -41.5273     61.1701     74.9220    134.5295      8.8584     88.4386      0.0234   -999.2500     14.7600      0.3491     59.2201  
  9862.5000    -41.1567     61.1560     81.2902    136.2540      8.8474     87.9736      0.0323   -999.2500     15.0326      0.5298     59.0604  
  9863.0000    -40.5933     62.4146     89.9779    142.3155      8.8292     87.8492      0.0295   -999.2500     15.2771      0.8872     58.9193  
  9863.5000    -40.0390     63.8670     96.2669    150.2947      8.8162     87.4259      0.0218   -999.2500     15.5077      0.2351     58.6467  
  9864.0000    -39.1323     65.3532    101.5670    159.6076      8.8360     86.3280      0.0223   -999.2500     15.5510      0.6049     58.4663  
  9864.5000    -37.9364     66.8739    107.0720    166.2245      8.8558     85.2346      0.0218   -999.2500     15.4529      0.3842     58.3902  
  9865.0000    -36.8406     68.4301    108.3223    162.5948      8.8465     84.8434      0.0340   -999.2500     15.1429     -0.7760     58.2855  
  9865.5000    -36.1492     69.8669    100.9011    156.8286      8.7715     84.6856      0.0691   -999.2500     14.8330     -1.0409     58.1426  
  9866.0000    -35.5256     70.9660     92.6847    147.1537      8.7410     85.0273      0.0832   -999.2500     14.5764     -1.1799     57.9099  
  9866.5000    -34.8737     71.6113     85.7664    138.5906      8.7511     85.6176      0.0761   -999.2500     14.4674      1.6039     57.6443  
  9867.0000    -33.9328     71.4301     81.9642    134.9334      8.8000     85.8559      0.0260   -999.2500     14.3910      3.3785     57.3311  
  9867.5000    -32.9071     71.1255     81.8353    134.2262      8.8693     86.1019     -0.0062   -999.2500     14.4671      1.9922     57.4668  
  9868.0000    -32.3201     71.2569     83.6478    139.9211      8.8848     86.9054      0.0063   -999.2500     14.8999      1.2001     58.0979  
  9868.5000    -31.8283     71.3885     82.8836    152.1310      8.8424     88.0367      0.0248   -999.2500     15.9307     -0.3077     58.5449  
  9869.0000    -31.1830     72.7932     84.1634    172.1462      8.7642     89.0392      0.0451   -999.2500     17.0460     -0.7705     58.3734  
  9869.5000    -30.8698     74.2068     89.1930    185.2957      8.7765     89.4475      0.0726   -999.2500     17.8921     -0.6991     58.5111  
  9870.0000    -30.3680     75.4820     98.9356    171.7515      8.7909     89.7441      0.0647   -999.2500     17.6676     -0.3869     58.7569  
  9870.5000    -29.8312     76.7793    111.7113    158.9859      8.8052     89.9986      0.0497   -999.2500     17.4020      0.0385     59.0352  
  9871.0000    -29.4779     78.0987    119.0172    148.5996      8.7878     88.7368      0.0413   -999.2500     17.1036      0.1754     59.1834  
  9871.5000    -29.1606     79.2822    118.5528    150.4576      8.7702     86.9475      0.0557   -999.2500     16.8846      0.3705     58.4054  
  9872.0000    -28.9480     79.5054    107.2517    159.1871      8.6999     86.0845      0.0738   -999.2500     16.8426      0.9480     57.6752  
  9872.5000    -28.8256     79.7293     93.6136    168.3750      8.6175     86.0222      0.0792   -999.2500     16.9074      1.7626     58.1586  
  9873.0000    -28.9992     79.8762     76.0522    172.6811      8.5854     84.8359      0.0700   -999.2500     16.4363      2.0286     59.2317  
  9873.5000    -29.3683     79.5168     76.7922    169.6175      8.6067     83.1878      0.0536   -999.2500     15.8000      0.7107     60.2327  
  9874.0000    -29.4323     79.1591     84.7810    153.3634      8.6561     82.7568      0.0645   -999.2500     15.8790     -0.7274     61.1557  
  9874.5000    -29.5386     78.8016     96.9515    137.8185      8.6966     83.7532      0.0786   -999.2500     16.3294     -0.6707     61.6467  
  9875.0000    -29.9525     78.2161     90.8978    149.6903      8.7347     86.1521      0.0815   -999.2500     16.8804     -1.7782     60.5413  
  9875.5000    -30.3146     77.6348     73.7912    169.3211      8.7380     88.4192      0.0880   -999.2500     16.6328     -0.8896     58.9206  
  9876.0000    -30.6569     78.1364     72.4549    182.5684      8.7593     90.3467      0.0642   -999.2500     15.7215      0.9293     58.5027  
  9876.5000    -31.1669     81.1492     80.8413    174.9653      8.7807     90.7252      0.0318   -999.2500     15.3446      3.7710     58.6500  
  9877.0000    -31.8856     84.2791    102.9315    150.5611      8.8046     89.8610      0.0176   -999.2500     15.2493      5.5267     58.4986  
  9877.5000    -33.0197     87.5298    128.2086    134.3550      8.7889     88.7941      0.0060   -999.2500     15.3293      6.4747     58.0180  
  9878.0000    -34.1675     89.8397    141.9604    129.9051      8.7204     88.1424      0.0060   -999.2500     15.4070      8.1515     57.6329  
  9878.5000    -34.8768     89.2437    132.6679    146.2476      8.6689     87.5759      0.0119   -999.2500     15.3969      9.9679     57.6404  
  9879.0000    -35.3721     87.2250    118.8022    154.7474      8.6962     87.9532      0.0042   -999.2500     15.1849      8.7819     57.8350  
  9879.5000    -36.3349     84.3847    102.7281    143.8802      8.7461     88.5340     -0.0023   -999.2500     15.1655      5.7314     58.0674  
  9880.0000    -37.1938     80.5036     80.4739    125.8667      8.7961     88.3023      0.0023   -999.2500     15.1656      3.9892     58.3778  
  9880.5000    -37.9977     77.6592     62.2574    144.0949      8.7898     88.3954      0.0098   -999.2500     15.2262      1.8950     58.4958  
  9881.0000    -38.7169     78.0037     64.2632    171.7305      8.7964     89.0143      0.0259   -999.2500     15.2911      1.4165     58.2840  
  9881.5000    -39.5326     78.6537     84.5202    189.4805      8.8030     89.3940      0.0242   -999.2500     15.4147      1.8173     58.0123  
  9882.0000    -40.8073     78.8474     94.8504    196.2534      8.7981     88.4452      0.0195   -999.2500     15.5941      1.7465     58.1703  
  9882.5000    -41.1374     77.9335    107.0142    201.5323      8.7945     87.5223      0.0182   -999.2500     15.7358      2.8553     58.3765  
  9883.0000    -41.0320     76.7110    148.3923    217.2148      8.8056     87.0781      0.0105   -999.2500     15.7734      3.4843     58.4411  
  9883.5000    -41.4025     75.6405    203.3712    242.7000      8.8170     87.3629      0.0033   -999.2500     15.7903      3.2768     58.5015  
  9884.0000    -42.0483     75.6671    209.3927    239.2836      8.8290     88.2613      0.0130   -999.2500     15.5319      1.1514     58.4958  
  9884.5000    -42.3074     77.1979    141.5893    227.5803      8.8410     89.1662      0.0385   -999.2500     15.1966     -1.0522   -999.2500  
