~VERSION INFORMATION
 VERS.                      2.00:        CWLS LOG ASCII STANDARD - VERSION 2.00
 WRAP.                        NO:        ONE LINE PER DEPTH STEP
~WELL INFORMATION
#MNEM.UNIT               DATA            INFORMATION
#----------          ------------        ------------------------------
 STRT.F                 438.0000:        START DEPTH
 STOP.F               11532.0000:        STOP DEPTH
 STEP.F                   0.5000:        STEP VALUE
 NULL.                 -999.2500:        NULL VALUE
 COMP.      HUSKY-NPR OPERATIONS:        COMPANY  
 WELL.          ATIGARU POINT #1:        WELL     
 FLD .                   WILDCAT:        FIELD    
 LOC .              19  14N   2E:        LOCATION   
 CNTY.               NORTH SLOPE:        COUNTY  
 STAT.                     ALSKA:        STATE   
 CTRY.                       USA:        COUNTRY 
 DATE.                    1/ /77:        LOG DATE 
 API .              501032000800:        UNIQUE WELL IDENTIFIER 
 OPER.      HUSKY-NPR OPERATIONS:        OPERATOR  
 SRVC.              Schlumberger:        SERVICE COMPANY 
 UWI .              501032000800:        UNIQUE WELL ID 
 LAT .                    0.0000:        LATITUDE
 LON .                    0.0000:        LONGITUDE
 DIGS.          Center Line Data:        DIGITIZING COMPANY 
~CURVE INFORMATION      
#MNEM.UNIT            API CODE           CURVE DESCRIPTION
#---------          -------------        ------------------------------
 DEPT.F                         :        1  DEPTH
 SP  .MV                        :        2
 ILD .OHMM                      :        3
 ILM .OHMM                      :        4
 LL8 .OHMM                      :        5
 CALI.IN                        :        6
 GR  .GAPI                      :        7
 DRHO.G/C3                      :        8
 RHOB.G/C3                      :        9
 NPHI.%                         :       10
 DT  .US/F                      :       11
~PARAMETER INFORMATION       
#MNEM.UNIT              VALUE            DESCRIPTION OF MNEMONIC
#---------          -------------        ------------------------------
 EKB .F                  25.0000:        KELLY BUSHING
 TD  .F               11534.0000:        TOTAL DEPTH
 BHT .F                   0.0000:        BOTTOM HOLE TEMPERATURE
 BS  .                   17.5000:        BIT SIZE
 FD  .                    9.3000:        FLUID DENSITY
 CSIZ.                   20.0000:        CASING SIZE
 CBD .F                 447.0000:        CASING DRILLER 1
 CBL .F                 443.0000:        CASING LOGGER 1
 DFT .                       Gel:        TYPE FLUID IN HOLE
 DFV .                   47.0000:        VISCOSITY
 DFPH.                   14.6000:        PH
 DFL .                    8.0000:        FLUID LOSS
 RMS .                    1.9300:        RM
 MST .F                  63.0000:        RM MEAS. TEMP.
 RMF .                    1.6900:        RMF
 MFST.F                  52.0000:        RMF MEAS. TEMP.
 RMC .                    1.6500:        RMC
 MCST.F                  60.0000:        RMC MEAS. TEMP.
 UWI .              501032000800:        UNIQUE WELL ID
~OTHER INFORMATION
~A    DEPTH          SP         ILD         ILM         LL8        CALI          GR        DRHO        RHOB        NPHI          DT  
# ...
  7068.0000    -41.8649      7.8362      7.5297      7.1837     12.5336     67.3425      0.0001      2.5433     28.3673     81.2876  
  7068.5000    -41.8049      7.6108      7.3454      7.6653     12.5004     65.4208     -0.0018      2.5418     27.6252     82.0467  
  7069.0000    -41.6120      7.3919      7.1656      7.9410     12.4671     67.0795      0.0077      2.5526     26.1161     81.8237  
  7069.5000    -41.4197      7.1793      6.9903      7.3836     12.4507     70.8285      0.0171      2.5596     23.8208     80.2877  
  7070.0000    -41.5342      6.9728      6.8192      7.0978     12.4778     73.5785      0.0307      2.5830     24.2827     78.3967  
  7070.5000    -41.3921      6.9091      6.6524      6.9241     12.4871     73.0936      0.0433      2.6035     25.2946     77.0880  
  7071.0000    -41.2365      6.9091      6.4896      7.0093     12.4714     71.1068      0.0422      2.5964     26.3066     78.0647  
  7071.5000    -41.3841      6.9848      6.5371      7.2226     12.4752     70.9155      0.0387      2.5869     26.8293     79.1690  
  7072.0000    -41.6745      7.2264      6.7023      7.4521     12.4814     72.3647      0.0280      2.5786     26.8658     79.5388  
  7072.5000    -41.8246      7.4764      7.0398      7.6889     12.4876     71.8655      0.0250      2.5853     27.4144     78.8666  
  7073.0000    -41.7844      7.7351      7.1162      7.9682     12.4780     70.6505      0.0207      2.5898     28.4944     78.5071  
  7073.5000    -41.7442      8.0027      7.1704      8.2735     12.4771     69.6921      0.0168      2.5705     29.0198     78.7589  
  7074.0000    -41.7040      8.2796      7.2917      8.2485     12.4643     67.4043      0.0188      2.5670     28.6838     79.7297  
  7074.5000    -41.6637      8.5660      7.7730      8.2235     12.4474     64.8995      0.0203      2.5542     28.2905     81.1016  
  7075.0000    -41.6235      8.7266      8.1587      8.6573     12.4306     63.3935      0.0327      2.5590     27.6136     80.3499  
  7075.5000    -41.5833      8.8618      8.3087      9.9389     12.4137     61.7891      0.0372      2.5683     26.6021     79.5267  
  7076.0000    -41.5431      8.3341      7.8233     10.0619     12.4317     61.2208      0.0464      2.5532     26.0059     79.0495  
  7076.5000    -41.5028      7.7807      7.3663      8.8621     12.4580     60.6774      0.0632      2.5651     25.6104     79.1539  
  7077.0000    -41.4626      7.2640      6.9359      7.8054     12.4894     59.9127      0.0730      2.5868     25.8468     77.6570  
  7077.5000    -41.4224      6.7817      6.5307      6.8747     12.5241     59.1711      0.0378      2.5587     26.4958     77.7399  
  7078.0000    -41.3822      6.3313      6.1492      6.4654     12.5588     59.6703      0.0208      2.5072     27.4506     78.6835  
  7078.5000    -41.3419      6.1680      5.9485      6.3190     12.5850     63.1583      0.0597      2.5255     26.0344     78.4729  
  7079.0000    -41.3017      6.1398      5.9398      6.4177     12.5780     66.7882      0.1216      2.5557     24.4539     76.2500  
  7079.5000    -41.2615      6.1244      5.9311      6.5179     12.6394     68.8294      0.1416      2.5693     25.3731     75.1910  
  7080.0000    -41.2213      6.1562      5.9224      6.6197     12.7065     69.6061      0.1202      2.5046     28.6272     74.0706  
  7080.5000    -41.1810      6.1974      5.9137      6.7231     12.8123     70.3829      0.1482      2.4652     30.9760     75.7200  
  7081.0000    -41.1408      6.2389      5.9051      6.8280     12.9238     71.1368      0.1711      2.4260     32.2719     78.9334  
  7081.5000    -41.1006      6.2806      5.9142      6.9347     12.9914     71.8901      0.1288      2.3756     33.7189     81.7639  
  7082.0000    -41.0604      6.3227      5.9309      6.9369     12.9582     72.6434      0.0584      2.4193     34.8596     83.8253  
  7082.5000    -41.0201      6.3650      5.9475      6.8378     12.9249     72.9960      0.0610      2.5408     34.1113     84.5653  
  7083.0000    -40.9799      6.3386      5.9643      6.7402     12.8965     73.0574      0.0728      2.5783     32.0710     84.4505  
  7083.5000    -40.9397      6.2923      5.9810      6.6439     12.8684     73.2436      0.0643      2.5717     30.6675     82.6397  
  7084.0000    -40.8995      6.2463      5.9979      6.5251     12.8403     73.8968      0.0435      2.5436     29.6806     79.1335  
  7084.5000    -40.8803      6.2006      6.0147      6.3008     12.8245     74.1797      0.0723      2.5655     30.1734     77.1678  
  7085.0000    -40.9119      6.1553      5.9851      6.0842     12.8993     72.9793      0.1017      2.5964     30.8323     77.1191  
  7085.5000    -40.9366      6.1104      5.9308      6.1913     13.0770     72.0083      0.0872      2.5747     31.5124     77.6499  
  7086.0000    -40.9452      6.0657      5.8769      6.4114     13.3362     72.0759      0.0777      2.5556     31.5464     78.0172  
  7086.5000    -40.7677      6.0214      5.8236      6.2467     13.1980     72.4882      0.0781      2.5383     31.5854     78.2910  
  7087.0000    -40.9693      6.0887      5.7707      5.9968     13.0778     71.7349      0.1202      2.5591     31.8889     78.4021  
  7087.5000    -41.1758      6.0857      5.7183      5.7570     13.1223     71.6151      0.1593      2.5880     32.0807     79.0700  
  7088.0000    -41.4662      5.9653      5.6664      5.8902     12.9730     71.9180      0.1756      2.5966     31.6269     79.3079  
  7088.5000    -41.3035      5.9112      5.6149      6.0733     13.0666     73.3328      0.1476      2.5745     31.0816     79.4072  
  7089.0000    -41.1513      6.0329      5.5871      6.1876     13.1858     74.0947      0.1488      2.5611     30.5418     79.5522  
  7089.5000    -41.2333      6.1571      5.6225      6.2590     13.0136     74.1531      0.1653      2.5478     30.1389     79.7961  
  7090.0000    -41.4002      6.1520      5.6581      6.0072     13.2803     73.9649      0.2303      2.5666     30.3081     80.0969  
  7090.5000    -41.3383      6.1017      5.6940      5.9700     13.6867     72.1028      0.2525      2.5869     30.6913     80.6164  
  7091.0000    -41.5069      6.0594      5.6865      6.1076     13.8012     70.6623      0.2374      2.5683     31.0725     80.7016  
  7091.5000    -41.7466      6.1469      5.6589      6.2485     13.3362     70.6611      0.2199      2.5447     31.2176     81.2310  
  7092.0000    -42.0040      6.2350      5.6315      6.0825     13.0212     71.8639      0.1892      2.5350     30.6964     81.7065  
  7092.5000    -41.7494      6.1008      5.6252      5.7898     13.2301     73.0728      0.1503      2.5094     30.1897     80.3225  
  7093.0000    -41.4215      5.9694      5.6252      5.8144     13.3851     73.0311      0.1063      2.4788     30.6675     79.9364  
  7093.5000    -41.1706      5.9783      5.6252      6.0843     13.1846     71.8836      0.0815      2.4944     31.3777     78.8342  
  7094.0000    -41.1919      6.0676      5.6340      6.2227     13.0829     71.6008      0.1557      2.5438     32.2125     78.2170  
  7094.5000    -41.1294      6.1390      5.6500      5.9523     13.1987     72.0283      0.1675      2.5370     32.6827     78.7145  
  7095.0000    -41.0275      6.0521      5.7980      5.9971     13.3144     72.8572      0.1344      2.5198     32.9146     78.5365  
  7095.5000    -41.0337      5.9665      5.9345      6.2400     13.2292     73.7710      0.1030      2.5161     33.2255     79.2192  
  7096.0000    -41.0468      5.8946      5.6082      5.9282     12.9754     73.6757      0.0774      2.5031     33.6210     79.3173  
  7096.5000    -41.0600      5.9263      5.7551      5.9490     12.9044     73.2209      0.0665      2.5294     33.6172     79.5755  
  7097.0000    -41.0731      5.9582      5.8703      6.2276     13.0127     72.8921      0.0630      2.5623     32.3065     80.2429  
  7097.5000    -41.0863      5.9605      5.6609      6.2528     13.1014     71.8984      0.0602      2.5721     31.4888     81.0476  
