~VERSION INFORMATION
 VERS.                           2.00:        CWLS LOG ASCII STANDARD - VERSION 2.00
 WRAP.                             NO:        ONE LINE PER DEPTH STEP
~WELL INFORMATION
#MNEM.UNIT                   DATA             INFORMATION
#----------             --------------        ------------------------------
 STRT.F                       66.0000:        START DEPTH
 STOP.F                    11266.0000:        STOP DEPTH
 STEP.F                        0.5000:        STEP VALUE
 NULL.                      -999.2500:        NULL VALUE
 COMP.              HUSKY OIL COMPANY:        COMPANY
 LOC .                       6 12N 2E:        LOCATION
 DATE.                       12/24/76:        LOG DATE
 WELL.          SOUTH HARRISON BAY #1:        WELL
 UWI .                   501032000700:        UNIQUE WELL ID
 API .                   501032000700:        UNIQUE WELL IDENTIFIER
 FLD .                        WILDCAT:        FIELD
 CNTY.                    NORTH SLOPE:        COUNTY
 STAT.                         ALASKA:        STATE
 CTRY.                            USA:        COUNTRY
 OPER.              HUSKY OIL COMPANY:        OPERATOR
 SRVC.                   SCHLUMBERGER:        SERVICE COMPANY
 LAT .                         0.0000:        LATITUDE
 LON .                         0.0000:        LONGITUDE
 DIGS.               CENTER LINE DATA:        DIGITIZING COMPANY
~CURVE INFORMATION      
#MNEM        .UNIT         API CODE           CURVE DESCRIPTION
#-----------------      --------------        ------------------------------
 DEPT        .F                      :        1  DEPTH
 GR          .GAPI                   :        2  
 CALI        .IN                     :        3  
 DRHO        .G/C3                   :        4  
 RHOB        .G/C3                   :        5  
 NPHI        .%                      :        6  
 DT          .US/F                   :        7  
 SP          .MV                     :        8  
 ILD         .OHMM                   :        9  
 ILM         .OHMM                   :        10 
 LL8         .OHMM                   :        11 
~PARAMETER INFORMATION
#MNEM.UNIT                  VALUE             DESCRIPTION OF MNEMONIC
#---------             ---------------        ------------------------------
 EKB .F                       45.0000:        KELLY BUSHING
 TD  .F                    11290.0000:        TOTAL DEPTH
 BHT .F                      174.0000:        BOTTOM HOLE TEMPERATURE
 BS  .                        12.2500:        BIT SIZE
 FD  .                        10.7000:        FLUID DENSITY
 CSIZ.                        13.3750:        CASING SIZE
 CBD .F                     2600.0000:        CASING DRILLER 1
 CBL .F                     2600.0000:        CASING LOGGER 1
 DFT .                  MISCELLANEOUS:        TYPE FLUID IN HOLE
 DFV .                        52.0000:        VISCOSITY
 DFPH.                         8.2000:        PH
 DFL .                         6.0000:        FLUID LOSS
 RMS .                         1.3900:        RM
 MST .F                       60.0000:        RM MEAS. TEMP.
 RMF .                         1.0200:        RMF
 MFST.F                       60.0000:        RMF MEAS. TEMP.
 RMC .                         1.3800:        RMC
 MCST.F                       60.0000:        RMC MEAS. TEMP.
~OTHER INFORMATION
~A    DEPTH          GR        CALI        DRHO        RHOB        NPHI          DT          SP         ILD         ILM         LL8 
# ...
 10497.0000     52.3851      8.5947      0.0332      2.7073      1.8571     50.9913    -47.8419     93.3297     88.4501    177.2567 
 10497.5000     59.0046      8.6162      0.0505      2.6733      3.3220     50.1473    -45.9861     49.1567     49.0092    133.4733 
 10498.0000     66.0652      8.6140      0.0753      2.6141      5.9757     49.7713    -44.4498     30.9648     35.2793     94.5542 
 10498.5000     68.1922      8.6341      0.1005      2.5339      8.8702     49.6956    -43.4567     22.0013     25.3958     63.7002 
 10499.0000     70.0916      8.9108      0.1099      2.4909     13.1654     51.0944    -42.6091     18.4358     18.2811     36.6983 
 10499.5000     71.7388      8.9617      0.0684      2.4336     16.8206     55.6189    -42.1073     16.7134     15.6751     18.8965 
 10500.0000     72.9279      8.7788      0.0854      2.4958     17.3441     59.9469    -42.1230     12.2232     13.5466     14.5905 
 10500.5000     73.6965      8.9839      0.1133      2.5822     17.6013     65.4585    -41.5338     11.8867     11.9071     15.8013 
 10501.0000     73.6613      9.0699      0.1053      2.6075     17.7306     68.5383    -41.2935     10.9724     11.6904     16.3118 
 10501.5000     73.1039      8.8489      0.1380      2.6762     17.7222     69.9006    -41.6662      9.5629     11.1143     16.7058 
 10502.0000     72.2843      9.1971      0.1582      2.6585     17.4187     68.4275    -42.2425      9.2154     10.3404     17.4013 
 10502.5000     71.5417      9.3836      0.1255      2.5847     17.1153     68.9132    -43.0052      9.1478     10.0257     16.3532 
 10503.0000     70.6537      9.7415      0.0778      2.5265     16.4298     69.1771    -43.5278      9.3229      9.9080     14.4657 
 10503.5000     69.8160     10.0111      0.0251      2.5457     15.4703     68.7933    -43.5078      9.5905      9.9618     12.9492 
 10504.0000     69.3352      9.7082      0.0135      2.6042     15.0216     69.3926    -43.1551      9.8658     10.3582     12.4769 
 10504.5000     68.9278      9.7327      0.0281      2.6598     14.8190     69.9049    -42.5525     10.1490     11.0366     13.1743 
 10505.0000     67.9934      9.4509      0.0307      2.6881     14.8013     70.3339    -41.9952     10.4397     11.5931     13.8393 
 10505.5000     67.5827      8.6655      0.0100      2.6620     14.4886     69.8825    -41.5406     10.7373     11.7880     14.4510 
 10506.0000     67.3431      8.6272      0.0005      2.6505     14.2796     68.9314    -41.1316     11.0433     11.9861     15.4541 
 10506.5000     67.1436      8.6130      0.0199      2.6426     14.2401     68.4946    -40.5248     11.2531     12.2872     16.0443 
 10507.0000     67.1299      8.6020      0.0580      2.6417     14.6543     67.8634    -39.9892     11.4083     12.5960     16.3646 
 10507.5000     67.3972      8.6043      0.1107      2.6390     15.7881     66.9270    -39.5017     11.5656     12.2682     16.6948 
 10508.0000     67.7090      8.6227      0.1479      2.6102     17.2017     66.0868    -39.1152     11.6029     11.7539     17.3153 
 10508.5000     65.2366      8.6887      0.1458      2.5499     19.0030     65.9235    -38.7793     10.8242     11.1911     15.7260 
 10509.0000     63.1131      8.9699      0.1500      2.5183     20.1097     66.3477    -38.4845     10.3487     10.6552     13.7422 
 10509.5000     59.2528      9.1975      0.1562      2.4994     20.3610     67.6018    -38.2812     10.0508     10.1450     12.4441 
 10510.0000     53.7470      8.9749      0.1364      2.4746     19.6081     68.6376    -38.2337      9.7180      9.8349     12.1571 
 10510.5000     44.7647      9.2490      0.1485      2.4759     18.4741     69.4111    -38.3373      9.4106      9.7089     12.4359 
 10511.0000     36.2601      9.5450      0.1391      2.4744     17.3449     70.2307    -38.6494      9.4598      9.5846     12.5809 
 10511.5000     30.0552      8.9863      0.1969      2.4972     14.9223     70.6659    -39.0155      9.9436      9.7897     12.4328 
 10512.0000     26.8655      8.9781      0.1188      2.5224     10.1528     70.7922    -39.3342     10.9714     11.0291     12.7358 
 10512.5000     25.2607      9.0822      0.0598      2.5624      5.3833     70.3532    -39.9867     14.6793     14.8602     13.5720 
 10513.0000     24.3288      8.6177      0.0241      2.6256      1.5930     69.6358    -40.5652     21.5164     22.2267     14.9152 
 10513.5000     24.9020      8.4376      0.0130      2.7135      0.8481     68.2980    -41.1549     38.9240     35.5910     17.8637 
 10514.0000     26.8800      8.4312      0.0018      2.6924      0.5939     64.5582    -41.8040     72.5849     62.2127     27.2209 
 10514.5000     28.0056      8.4336      0.0032      2.6684      0.4903     59.6103    -42.3561    136.5015    108.7473     31.8168 
 10515.0000     27.3903      8.4363      0.0064      2.6583      0.4221     54.7695    -42.8384    218.3519    190.0893     45.6686 
 10515.5000     25.4454      8.4358      0.0142      2.6488      0.3539     51.3347    -43.1586    255.0479    241.6463     59.4535 
 10516.0000     23.4075      8.4266      0.0155      2.6318      0.2857     50.3656    -43.4281    210.6283    214.3272     78.4798 
 10516.5000     22.0969      8.4188      0.0173      2.6288      0.2662     51.0790    -43.6426    180.3792    190.0967    128.7927 
 10517.0000     22.3099      8.4526      0.0084      2.6327      0.3284     51.5424    -43.9050    225.2422    171.6190    216.9853 
 10517.5000     22.7284      8.5876      0.0084      2.6275      0.3297     52.5001    -44.1674    266.1604    157.3978    366.3391 
 10518.0000     22.4587      8.9525      0.0084      2.6163      0.4965     52.0593    -44.7526    232.0091    133.0955    456.6524 
 10518.5000     20.6119      9.1051      0.0084      2.6255      0.5338     51.1289    -45.3496    102.6218    102.2122    428.5956 
 10519.0000     18.1211      9.0435      0.0138      2.6458      0.7367     51.0905    -45.9214     80.1533     78.4950    299.0626 
 10519.5000     16.6208      8.7321      0.0190      2.6760      0.9588     51.5221    -46.3204     71.2099     68.8889    145.7735 
 10520.0000     15.3226      8.4594      0.0231      2.7153      0.8660     52.0189    -46.4057     66.7932     62.9046    102.7976 
 10520.5000     14.0256      8.5328      0.0258      2.7372      0.7732     53.7043    -46.4776     62.6505     60.9783     92.2947 
 10521.0000     13.8642      8.5646      0.0287      2.7546      0.6803     54.8754    -46.8683     59.8769     59.1109    112.2066 
 10521.5000     14.7973      8.5848      0.0247      2.7730      0.4965     55.4767    -47.5062     60.4608     57.3008    132.6447 
 10522.0000     16.0219      8.5951      0.0155      2.7587      0.4612     55.3061    -48.4803     70.5372     65.8492    181.2740 
 10522.5000     17.1405      8.5986      0.0070      2.7490      0.4880     55.1356    -49.4027     80.5768     76.1981    298.4523 
 10523.0000     18.6956      8.5773      0.0041      2.7362      0.6835     52.4296    -50.5781     91.6754     86.5697    467.7866 
 10523.5000     20.4022      8.5484      0.0140      2.7170      0.8963     51.3974    -51.3893     95.7934     95.5266    478.3347 
 10524.0000     21.9087      8.5234      0.0305      2.7042      1.1719     50.4681    -51.5040     99.4097     89.0382    438.7180 
 10524.5000     23.0673      8.5215      0.0451      2.7068      1.4914     50.4833    -50.6551     96.7756     71.6190    341.3250 
 10525.0000     23.4687      8.5196      0.0207      2.7011      1.7145     50.8402    -50.0725     85.3865     57.4939    206.5034 
 10525.5000     23.5762      8.5034      0.0036      2.7036      1.6966     51.1636    -50.3181     80.5395     47.6538     95.2946 
 10526.0000     23.7185      8.4987      0.0160      2.7279      1.3201     51.8861    -50.4832     74.3511     53.9798     77.8221 
 10526.5000     21.9025      8.5117      0.0118      2.7248      1.1743     52.8659    -49.8616     69.2643     60.2208     95.2412 
 10527.0000     20.4409      8.5235      0.0029      2.7246      1.1231     53.9565    -49.1223     69.3615     61.5579    138.7315 
