~VERSION INFORMATION
 VERS.                           2.00:        CWLS LOG ASCII STANDARD - VERSION 2.00
 WRAP.                             NO:        ONE LINE PER DEPTH STEP
~WELL INFORMATION
#MNEM.UNIT                   DATA             INFORMATION
#----------             --------------        ------------------------------
 STRT.F                       94.0000:        START DEPTH
 STOP.F                    11429.0000:        STOP DEPTH
 STEP.F                        0.5000:        STEP VALUE
 NULL.                      -999.2500:        NULL VALUE
 COMP. U.S. NAVY (HUSKY OIL CO.-OPER.:        COMPANY
 LOC .                      11 11N 1W:        LOCATION
 DATE.                        2/17/77:        LOG DATE
 WELL.             WEST FISH CREEK #1:        WELL
 UWI .                   500232001400:        UNIQUE WELL ID
 API .                   500232001400:        UNIQUE WELL IDENTIFIER
 FLD .                        WILDCAT:        FIELD
 CNTY.                    NORTH SLOPE:        COUNTY
 STAT.                         ALASKA:        STATE
 CTRY.                            USA:        COUNTRY
 OPER. U.S. NAVY (HUSKY OIL CO.-OPER.:        OPERATOR
 SRVC.                   SCHLUMBERGER:        SERVICE COMPANY
 LAT .                         0.0000:        LATITUDE
 LON .                         0.0000:        LONGITUDE
 DIGS.               CENTER LINE DATA:        DIGITIZING COMPANY
~CURVE INFORMATION      
#MNEM        .UNIT         API CODE           CURVE DESCRIPTION
#-----------------      --------------        ------------------------------
 DEPT        .F                      :        1  DEPTH
 SP          .MV                     :        2  
 ILD         .OHMM                   :        3  
 ILM         .OHMM                   :        4  
 LL8         .OHMM                   :        5  
 CALI        .IN                     :        6  
 RHOB        .G/C3                   :        7  
 DRHO        .G/C3                   :        8  
 NPHI        .%                      :        9  
 GR          .GAPI                   :        10 
 DT          .US/F                   :        11 
~PARAMETER INFORMATION
#MNEM.UNIT                  VALUE             DESCRIPTION OF MNEMONIC
#---------             ---------------        ------------------------------
 EKB .F                      113.0000:        KELLY BUSHING
 TD  .F                    11429.0000:        TOTAL DEPTH
~OTHER INFORMATION
~A    DEPTH          SP         ILD         ILM         LL8        CALI        RHOB        DRHO        NPHI          GR          DT 
# ...
   826.0000    -51.4997      2.5385      2.4545      3.5749   -999.2500   -999.2500   -999.2500   -999.2500    103.4321    161.7306 
   826.5000    -51.4364      2.5497      2.4651      3.3172   -999.2500   -999.2500   -999.2500   -999.2500    106.0104    160.2550 
   827.0000    -50.7231      2.5609      2.4813      3.1299   -999.2500   -999.2500   -999.2500   -999.2500    109.5006    158.9273 
   827.5000    -50.2396      2.5721      2.4999      3.0866   -999.2500   -999.2500   -999.2500   -999.2500    111.9494    162.2016 
   828.0000    -50.9330      2.5835      2.4966      3.2184   -999.2500   -999.2500   -999.2500   -999.2500    111.7566    170.0168 
   828.5000    -50.1444      2.5948      2.4933      3.3603   -999.2500   -999.2500   -999.2500   -999.2500    110.5069    157.6389 
   829.0000    -46.7731      2.6062      2.4900      3.3853   -999.2500   -999.2500   -999.2500   -999.2500    109.0106    158.0410 
   829.5000    -44.1039      2.6044      2.4868      3.3161   -999.2500   -999.2500   -999.2500   -999.2500    108.6126    158.4395 
   830.0000    -41.8445      2.5993      2.4835      3.1953   -999.2500   -999.2500   -999.2500   -999.2500    110.7695    159.1242 
   830.5000    -39.8501      2.5942      2.4802      3.3308   -999.2500   -999.2500   -999.2500   -999.2500    113.3439    160.2578 
   831.0000    -40.4672      2.5891      2.4769      3.5158   -999.2500   -999.2500   -999.2500   -999.2500    116.3821    158.8214 
   831.5000    -42.6364      2.5828      2.4728      3.5944   -999.2500   -999.2500   -999.2500   -999.2500    118.4801    157.5189 
   832.0000    -44.8903      2.5729      2.4638      3.5462   -999.2500   -999.2500   -999.2500   -999.2500    118.8101    156.8836 
   832.5000    -45.6731      2.5630      2.4548      3.5118   -999.2500   -999.2500   -999.2500   -999.2500    115.3879    157.6965 
   833.0000    -45.0764      2.5531      2.4606      3.5115   -999.2500   -999.2500   -999.2500   -999.2500    111.3903    170.2353 
   833.5000    -44.5793      2.5552      2.4806      3.4326   -999.2500   -999.2500   -999.2500   -999.2500    109.0058    157.4140 
   834.0000    -44.8914      2.5741      2.5020      3.2509   -999.2500   -999.2500   -999.2500   -999.2500    106.9278    156.6555 
   834.5000    -45.6062      2.5962      2.5552      3.1466   -999.2500   -999.2500   -999.2500   -999.2500    105.4633    155.5981 
   835.0000    -44.9326      2.6138      2.5896      3.3279   -999.2500   -999.2500   -999.2500   -999.2500    104.0720    155.0831 
   835.5000    -44.3866      2.6128      2.5885      3.5741   -999.2500   -999.2500   -999.2500   -999.2500    102.9860    154.5778 
   836.0000    -44.5082      2.6146      2.5752      3.6538   -999.2500   -999.2500   -999.2500   -999.2500    102.2953    154.0739 
   836.5000    -45.2425      2.6071      2.5427      3.6584   -999.2500   -999.2500   -999.2500   -999.2500    102.1694    155.4480 
   837.0000    -46.0809      2.5997      2.5106      3.7089   -999.2500   -999.2500   -999.2500   -999.2500    103.4452    157.5747 
   837.5000    -46.5278      2.5735      2.4789      3.8894   -999.2500   -999.2500   -999.2500   -999.2500    105.5068    156.6738 
   838.0000    -47.0492      2.5357      2.4485      3.5011   -999.2500   -999.2500   -999.2500   -999.2500    105.4862    155.7953 
   838.5000    -48.3509      2.5039      2.4282      3.1996   -999.2500   -999.2500   -999.2500   -999.2500    104.4512    154.6030 
   839.0000    -49.2376      2.4886      2.4199      3.1153   -999.2500   -999.2500   -999.2500   -999.2500    103.8265    151.2998 
   839.5000    -49.7043      2.4974      2.4241      3.0644   -999.2500   -999.2500   -999.2500   -999.2500    103.3553    149.6928 
   840.0000    -50.5209      2.5017      2.4324      3.1099   -999.2500   -999.2500   -999.2500   -999.2500    103.0825    149.3364 
   840.5000    -51.3653      2.4906      2.4720      3.1881   -999.2500   -999.2500   -999.2500   -999.2500    103.8735    151.5079 
   841.0000    -51.7544      2.5493      2.5106      3.3023   -999.2500   -999.2500   -999.2500   -999.2500    104.4574    157.5036 
   841.5000    -51.0220      2.6094      2.5523      3.3820   -999.2500   -999.2500   -999.2500   -999.2500    104.5770    161.9429 
   842.0000    -47.2029      2.6709      2.6284      3.3547   -999.2500   -999.2500   -999.2500   -999.2500    103.8346    163.6666 
   842.5000    -45.2229      2.7268      2.6592      3.3264   -999.2500   -999.2500   -999.2500   -999.2500    102.7573    162.1097 
   843.0000    -43.9467      2.7816      2.6622      3.5604   -999.2500   -999.2500   -999.2500   -999.2500    103.9138    157.7299 
   843.5000    -42.9819      2.8099      2.6652      4.1350   -999.2500   -999.2500   -999.2500   -999.2500    107.1668    153.3490 
   844.0000    -39.9046      2.8099      2.6683      4.1849   -999.2500   -999.2500   -999.2500   -999.2500    110.7194    150.1543 
   844.5000    -32.9529      2.8099      2.6707      3.6144   -999.2500   -999.2500   -999.2500   -999.2500    112.4370    148.7439 
   845.0000    -27.2405      2.8099      2.6721      3.2532   -999.2500   -999.2500   -999.2500   -999.2500    111.6061    151.3271 
   845.5000    -25.6024      2.8099      2.6735      3.2348   -999.2500   -999.2500   -999.2500   -999.2500    110.8739    165.2956 
   846.0000    -26.0171      2.8099      2.6749      3.2903   -999.2500   -999.2500   -999.2500   -999.2500    112.3569    145.5096 
   846.5000    -28.6272      2.8099      2.6763      3.3466   -999.2500   -999.2500   -999.2500   -999.2500    114.7763    143.9251 
   847.0000    -31.8048      2.8099      2.6777      3.4205   -999.2500   -999.2500   -999.2500   -999.2500    117.1200    151.4339 
   847.5000    -34.6786      2.8141      2.6906      3.4824   -999.2500   -999.2500   -999.2500   -999.2500    118.1910    158.9427 
   848.0000    -37.8489      2.8248      2.7040      3.5534   -999.2500   -999.2500   -999.2500   -999.2500    114.4519    162.9391 
   848.5000    -39.8373      2.8525      2.7174      3.6135   -999.2500   -999.2500   -999.2500   -999.2500    110.6086    161.2738 
   849.0000    -41.2555      2.8726      2.7310      3.6080   -999.2500   -999.2500   -999.2500   -999.2500    107.4735    163.7551 
   849.5000    -42.7843      2.8696      2.7446      3.5119   -999.2500   -999.2500   -999.2500   -999.2500    106.6788    162.5198 
   850.0000    -41.4160      2.8666      2.7583      3.4295   -999.2500   -999.2500   -999.2500   -999.2500    106.7218    163.0713 
   850.5000    -40.7552      2.8636      2.7608      3.3524   -999.2500   -999.2500   -999.2500   -999.2500    106.5867    163.4443 
   851.0000    -40.6518      2.8585      2.7333      3.3433   -999.2500   -999.2500   -999.2500   -999.2500    106.3739    163.0308 
   851.5000    -38.7829      2.8470      2.7062      3.3837   -999.2500   -999.2500   -999.2500   -999.2500    106.6324    167.0001 
   852.0000    -37.3112      2.8354      2.6793      3.3576   -999.2500   -999.2500   -999.2500   -999.2500    107.3190    163.0243 
   852.5000    -38.6261      2.8169      2.6485      3.2990   -999.2500   -999.2500   -999.2500   -999.2500    107.8684    157.3572 
   853.0000    -40.9901      2.7926      2.6030      3.2271   -999.2500   -999.2500   -999.2500   -999.2500    108.0923    165.0030 
   853.5000    -41.7716      2.7685      2.5636      3.2137   -999.2500   -999.2500   -999.2500   -999.2500    108.5354    181.3606 
   854.0000    -42.6234      2.7446      2.5502      3.2004   -999.2500   -999.2500   -999.2500   -999.2500    109.5408    182.1901 
   854.5000    -43.2835      2.7235      2.5369      3.1871   -999.2500   -999.2500   -999.2500   -999.2500    109.8253    182.0900 
   855.0000    -45.0647      2.7032      2.5237      3.1739   -999.2500   -999.2500   -999.2500   -999.2500    107.9981    170.4414 
   855.5000    -44.8493      2.6807      2.4994      3.1608   -999.2500   -999.2500   -999.2500   -999.2500    105.9684    167.0751 
   856.0000    -44.5642      2.6534      2.4706      3.1210   -999.2500   -999.2500   -999.2500   -999.2500    105.2851    169.8140 
