~VERSION INFORMATION
 VERS.                      2.00:        CWLS LOG ASCII STANDARD - VERSION 2.00
 WRAP.                        NO:        ONE LINE PER DEPTH STEP
~WELL INFORMATION
#MNEM.UNIT               DATA            INFORMATION
#----------          ------------        ------------------------------
 STRT.F                  40.0000:        START DEPTH
 STOP.F                9893.0000:        STOP DEPTH
 STEP.F                   0.5000:        STEP VALUE
 NULL.                 -999.2500:        NULL VALUE
 COMP.                 U.S. NAVY:        COMPANY  
 WELL.    CAPE HALKETT #16N-2W-1:        WELL     
 FLD .                   WILDCAT:        FIELD    
 LOC .               5  16N   2W:        LOCATION   
 CNTY.               NORTH SLOPE:        COUNTY  
 STAT.                    ALASKA:        STATE   
 CTRY.                       USA:        COUNTRY 
 DATE.                    4/9/75:        LOG DATE 
 API .              500000000000:        UNIQUE WELL IDENTIFIER 
 OPER.                 U.S. NAVY:        OPERATOR  
 SRVC.              Schlumberger:        SERVICE COMPANY 
 UWI .              500000000000:        UNIQUE WELL ID 
 LAT .                    0.0000:        LATITUDE
 LON .                    0.0000:        LONGITUDE
 DIGS.          Center Line Data:        DIGITIZING COMPANY 
~CURVE INFORMATION      
#MNEM.UNIT            API CODE           CURVE DESCRIPTION
#---------          -------------        ------------------------------
 DEPT.F                         :        1  DEPTH
 SP  .MV                        :        2
 ILD .OHMM                      :        3
 ILM .OHMM                      :        4
 LL8 .OHMM                      :        5
 CALI.IN                        :        6
 GR  .GAPI                      :        7
 DRHO.G/C3                      :        8
 RHOB.G/C3                      :        9
 NPHI.%                         :       10
 DPHI.%                         :       11
 DT  .US/F                      :       12
~PARAMETER INFORMATION       
#MNEM.UNIT              VALUE            DESCRIPTION OF MNEMONIC
#---------          -------------        ------------------------------
 EKB .F                  39.5000:        KELLY BUSHING
 TD  .F                7867.0000:        TOTAL DEPTH
 BHT .F                  60.0000:        BOTTOM HOLE TEMPERATURE
 BS  .                   18.5000:        BIT SIZE
 FD  .                   10.5000:        FLUID DENSITY
 CSIZ.                   20.0000:        CASING SIZE
 CBD .F                 492.0000:        CASING DRILLER 1
 CBL .F                 493.0000:        CASING LOGGER 1
 DFT .             Miscellaneous:        TYPE FLUID IN HOLE
 DFV .                  200.0000:        VISCOSITY
 DFPH.                   10.0000:        PH
 DFL .                    9.2000:        FLUID LOSS
 RMS .                    2.1500:        RM
 MST .F                  57.0000:        RM MEAS. TEMP.
 RMF .                    2.2000:        RMF
 MFST.F                  40.0000:        RMF MEAS. TEMP.
 RMC .                    0.0000:        RMC
 MCST.F                   0.0000:        RMC MEAS. TEMP.
 UWI .              500000000000:        UNIQUE WELL ID
~OTHER INFORMATION
~A    DEPTH          SP         ILD         ILM         LL8        CALI          GR        DRHO        RHOB        NPHI        DPHI          DT  
# ...
  5870.0000    -26.0355      4.4588      4.5471      5.3611     13.1374     97.3200      0.0988      2.4780     39.5464   -999.2500     96.2075  
  5870.5000    -26.1145      4.4001      4.4788      5.4099     13.1274     96.0729      0.0906      2.4829     40.2195   -999.2500     96.5216  
  5871.0000    -26.1656      4.3767      4.4555      5.4268     13.1363     95.8559      0.0760      2.4821     40.3139   -999.2500     96.8382  
  5871.5000    -26.1653      4.3631      4.4411      5.3408     13.1444     96.2342      0.0838      2.4807     40.3043   -999.2500     97.1456  
  5872.0000    -26.0037      4.3837      4.4636      5.2437     13.1324     96.1902      0.1059      2.4879     40.6104   -999.2500     96.0510  
  5872.5000    -25.8158      4.3995      4.4807      5.1963     13.1272     95.6033      0.1180      2.4971     40.7011   -999.2500     95.7405  
  5873.0000    -25.7172      4.3493      4.4296      5.3347     13.1813     95.8641      0.1248      2.5144     40.1543   -999.2500     97.3567  
  5873.5000    -25.6275      4.2788      4.3627      5.4762     13.2176     96.3455      0.1271      2.5173     39.8527   -999.2500     97.2236  
  5874.0000    -25.7484      4.1923      4.2745      5.3122     13.1708     97.4551      0.1294      2.5111     40.2074   -999.2500     96.3169  
  5874.5000    -25.8883      4.1267      4.2013      5.0164     13.1060     98.5516      0.1324      2.5158     40.5235   -999.2500     95.8809  
  5875.0000    -26.0206      4.1070      4.1807      4.9582     13.0894     99.1832      0.1485      2.5297     40.5478   -999.2500     95.7010  
  5875.5000    -26.0885      4.0789      4.1519      4.9056     13.0843     98.2440      0.1422      2.5294     39.8727   -999.2500     96.0903  
  5876.0000    -26.0910      4.0913      4.1648      4.8824     13.1081     97.1196      0.1239      2.5152     39.6377   -999.2500     97.3027  
  5876.5000    -26.0685      4.1042      4.1776      4.9853     13.1412     96.5160      0.1207      2.5138     40.0251   -999.2500     99.0387  
  5877.0000    -25.9272      4.1106      4.1868      5.0881     13.1377     96.0693      0.1370      2.5091     39.7347   -999.2500     99.8108  
  5877.5000    -25.7818      4.1434      4.2177      5.2038     13.1083     96.5361      0.1087      2.4563     39.5951   -999.2500     99.5422  
  5878.0000    -25.7030      4.1857      4.2665      5.3170     13.0812     98.1404      0.0712      2.4211     40.4579   -999.2500     98.9250  
  5878.5000    -25.6505      4.2616      4.3385      5.3790     13.0657     99.7447      0.0803      2.4249     42.0078   -999.2500     98.0166  
  5879.0000    -25.5836      4.2940      4.3729      5.3748     13.0817    100.1978      0.1020      2.4441     42.2980   -999.2500     96.7571  
  5879.5000    -25.5325      4.3410      4.4208      5.3401     13.1304     99.2653      0.1002      2.4497     41.8751   -999.2500     96.0850  
  5880.0000    -25.5757      4.3885      4.4692      5.4637     13.1933     97.6632      0.1067      2.4791     40.8727   -999.2500     95.8419  
  5880.5000    -25.6294      4.3933      4.4719      5.7572     13.2004     96.0612      0.1156      2.5017     40.0001   -999.2500     96.1673  
  5881.0000    -25.6735      4.3953      4.4740      5.6512     13.1788     96.6870      0.1240      2.5209     39.9916   -999.2500     96.3407  
  5881.5000    -25.6656      4.3731      4.4518      5.2996     13.1275     97.7971      0.1337      2.5310     40.0113   -999.2500     95.3127  
  5882.0000    -25.6558      4.3503      4.4287      5.1614     13.1310     96.9539      0.1205      2.5152     39.5846   -999.2500     94.4007  
  5882.5000    -25.6172      4.3277      4.4056      5.3179     13.1344     95.4149      0.1109      2.5055     38.9225   -999.2500     93.5706  
  5883.0000    -25.5385      4.2863      4.3657      5.3413     13.1418     94.5611      0.0992      2.4986     38.5658   -999.2500     93.5319  
  5883.5000    -25.6086      4.2584      4.3346      5.2977     13.1657     94.8737      0.0837      2.4932     38.4235   -999.2500     95.9223  
  5884.0000    -25.7315      4.2512      4.3279      5.2952     13.1853     95.8732      0.0976      2.5075     37.9240   -999.2500     96.5659  
  5884.5000    -25.8068      4.2334      4.3092      5.2173     13.2014     97.0961      0.1164      2.5057     37.9010   -999.2500     97.1573  
  5885.0000    -25.7968      4.2401      4.3168      5.1730     13.2035     98.6879      0.1237      2.4977     39.2385   -999.2500     97.2529  
  5885.5000    -25.7869      4.2678      4.3449      5.1472     13.2005     98.8428      0.1166      2.4994     41.0323   -999.2500     97.2911  
  5886.0000    -25.7769      4.3125      4.3906      5.2253     13.1936     98.6122      0.0977      2.4901     41.5528   -999.2500     98.7549  
  5886.5000    -25.8421      4.2825      4.3600      5.3505     13.1878     98.4920      0.0888      2.4794     41.3158   -999.2500     96.8977  
  5887.0000    -25.9647      4.2548      4.3317      5.4050     13.1716     98.5546      0.0863      2.4703     40.7227   -999.2500     96.9803  
  5887.5000    -26.0873      4.2452      4.3212      5.2537     13.1514     98.5316      0.0998      2.4752     40.1297   -999.2500     97.2413  
  5888.0000    -26.1355      4.2721      4.3488      5.1098     13.0889     98.2165      0.1208      2.4956     40.8270   -999.2500     97.0464  
  5888.5000    -26.0084      4.2887      4.3657      5.0550     13.0387     98.2823      0.1371      2.5182     41.8057   -999.2500     96.7582  
  5889.0000    -25.7389      4.3053      4.3826      5.2753     13.0272     99.4087      0.1202      2.5210     41.2913   -999.2500     96.9103  
  5889.5000    -25.6118      4.3221      4.3997      5.5014     13.0235     99.8464      0.0960      2.4933     41.1598   -999.2500     97.0827  
  5890.0000    -25.6364      4.3389      4.4168      5.5230     13.0355     98.3476      0.0953      2.4667     41.0643   -999.2500     98.5212  
  5890.5000    -25.7010      4.3558      4.4340      5.3799     13.0630     99.8153      0.1164      2.4968     39.3781   -999.2500     97.3084  
  5891.0000    -25.7776      4.3713      4.4497      5.3086     13.0613    101.7840      0.1212      2.5036     37.5783   -999.2500     96.0643  
  5891.5000    -25.8502      4.3786      4.4570      5.2414     13.0522    101.4715      0.1055      2.4800     38.6794   -999.2500     95.4145  
  5892.0000    -25.8566      4.3688      4.4471      5.3198     13.0798     99.2847      0.0967      2.4788     38.4420   -999.2500     94.7774  
  5892.5000    -25.8451      4.3542      4.4335      5.3913     13.1297     96.7489      0.0931      2.4867     38.0641   -999.2500     96.3554  
  5893.0000    -25.7832      4.3151      4.3941      5.3523     13.1754     96.1263      0.1114      2.5125     38.9052   -999.2500     96.5655  
  5893.5000    -25.7399      4.2723      4.3505      5.2742     13.1731     96.2606      0.0943      2.4903     39.4476   -999.2500     96.7779  
  5894.0000    -25.8008      4.2405      4.3173      5.2853     13.1577     98.1003      0.0806      2.4657     40.3413   -999.2500     96.4045  
  5894.5000    -25.8068      4.2112      4.2866      5.3022     13.1447     99.7404      0.0919      2.4664     40.7796   -999.2500     95.6911  
  5895.0000    -25.7968      4.2018      4.2770      5.2795     13.1408     99.9808      0.1164      2.4923     40.5716   -999.2500     97.4086  
  5895.5000    -25.7869      4.1924      4.2674      5.2299     13.1323     99.1885      0.1173      2.4975     38.9934   -999.2500     96.5284  
  5896.0000    -25.7868      4.2046      4.2799      5.1963     13.1308     98.3562      0.1163      2.4873     38.3887   -999.2500     96.3704  
  5896.5000    -25.9211      4.2176      4.2932      5.1683     13.1290     97.5934      0.1184      2.4721     38.4771   -999.2500     96.5826  
  5897.0000    -26.0158      4.2440      4.3208      5.1326     13.1288     96.8003      0.1262      2.4825     38.8054   -999.2500     95.8508  
