~VERSION INFORMATION
 VERS.                      2.00:        CWLS LOG ASCII STANDARD - VERSION 2.00
 WRAP.                        NO:        ONE LINE PER DEPTH STEP
~WELL INFORMATION
#MNEM.UNIT               DATA            INFORMATION
#----------          ------------        ------------------------------
 STRT.F                 438.0000:        START DEPTH
 STOP.F               11532.0000:        STOP DEPTH
 STEP.F                   0.5000:        STEP VALUE
 NULL.                 -999.2500:        NULL VALUE
 COMP.      HUSKY-NPR OPERATIONS:        COMPANY  
 WELL.          ATIGARU POINT #1:        WELL     
 FLD .                   WILDCAT:        FIELD    
 LOC .              19  14N   2E:        LOCATION   
 CNTY.               NORTH SLOPE:        COUNTY  
 STAT.                     ALSKA:        STATE   
 CTRY.                       USA:        COUNTRY 
 DATE.                    1/ /77:        LOG DATE 
 API .              501032000800:        UNIQUE WELL IDENTIFIER 
 OPER.      HUSKY-NPR OPERATIONS:        OPERATOR  
 SRVC.              Schlumberger:        SERVICE COMPANY 
 UWI .              501032000800:        UNIQUE WELL ID 
 LAT .                    0.0000:        LATITUDE
 LON .                    0.0000:        LONGITUDE
 DIGS.          Center Line Data:        DIGITIZING COMPANY 
~CURVE INFORMATION      
#MNEM.UNIT            API CODE           CURVE DESCRIPTION
#---------          -------------        ------------------------------
 DEPT.F                         :        1  DEPTH
 SP  .MV                        :        2
 ILD .OHMM                      :        3
 ILM .OHMM                      :        4
 LL8 .OHMM                      :        5
 CALI.IN                        :        6
 GR  .GAPI                      :        7
 DRHO.G/C3                      :        8
 RHOB.G/C3                      :        9
 NPHI.%                         :       10
 DT  .US/F                      :       11
~PARAMETER INFORMATION       
#MNEM.UNIT              VALUE            DESCRIPTION OF MNEMONIC
#---------          -------------        ------------------------------
 EKB .F                  25.0000:        KELLY BUSHING
 TD  .F               11534.0000:        TOTAL DEPTH
 BHT .F                   0.0000:        BOTTOM HOLE TEMPERATURE
 BS  .                   17.5000:        BIT SIZE
 FD  .                    9.3000:        FLUID DENSITY
 CSIZ.                   20.0000:        CASING SIZE
 CBD .F                 447.0000:        CASING DRILLER 1
 CBL .F                 443.0000:        CASING LOGGER 1
 DFT .                       Gel:        TYPE FLUID IN HOLE
 DFV .                   47.0000:        VISCOSITY
 DFPH.                   14.6000:        PH
 DFL .                    8.0000:        FLUID LOSS
 RMS .                    1.9300:        RM
 MST .F                  63.0000:        RM MEAS. TEMP.
 RMF .                    1.6900:        RMF
 MFST.F                  52.0000:        RMF MEAS. TEMP.
 RMC .                    1.6500:        RMC
 MCST.F                  60.0000:        RMC MEAS. TEMP.
 UWI .              501032000800:        UNIQUE WELL ID
~OTHER INFORMATION
~A    DEPTH          SP         ILD         ILM         LL8        CALI          GR        DRHO        RHOB        NPHI          DT  
# ...
  7818.0000    -31.8077      2.3780      2.3291      2.8640     12.4451     79.8312      0.0079      2.5736     26.6577     86.8566  
  7818.5000    -31.7447      2.3934      2.3511      2.9168     12.5296     81.7009      0.0213      2.6019     27.6043     87.8446  
  7819.0000    -31.6589      2.4089      2.3733      3.0144     12.5675     82.9630      0.0212      2.5795     28.9066     89.9049  
  7819.5000    -31.7074      2.4245      2.3958      3.1474     12.5881     83.0102      0.0322      2.5689     30.2589     91.9664  
  7820.0000    -31.7448      2.4402      2.4184      3.2306     12.5896     82.0759      0.0401      2.5783     31.1022     93.7078  
  7820.5000    -31.5861      2.4270      2.3653      3.2068     12.5983     80.8302      0.0274      2.5723     31.5041     94.0934  
  7821.0000    -31.5000      2.3391      2.3062      3.0374     12.6239     78.9954      0.0326      2.5775     31.1289     92.6739  
  7821.5000    -31.4817      2.2544      2.2487      2.7711     12.6334     77.0797      0.0121      2.5580     30.1859     90.0122  
  7822.0000    -31.5126      2.1727      2.1925      2.5533     12.4662     77.5585      0.0282      2.5659     30.2870     88.3640  
  7822.5000    -31.3687      2.0940      2.1378      2.4838     12.4565     80.3307      0.0500      2.5799     29.7733     86.7999  
  7823.0000    -31.1637      2.0855      2.0844      2.5262     12.4551     80.2131      0.0847      2.5859     29.6649     87.0014  
  7823.5000    -31.2660      2.0910      2.0998      2.7025     12.4537     79.6148      0.1371      2.6051     31.0203     89.1143  
  7824.0000    -31.6696      2.0965      2.1166      2.8893     12.4524     81.8231      0.1894      2.6230     33.1235     92.1817  
  7824.5000    -31.6362      2.1021      2.1336      3.0309     12.5110     82.9428      0.1526      2.5994     35.6576     95.5353  
  7825.0000    -31.5535      2.1119      2.1508      3.0884     12.6115     81.7472      0.0952      2.5161     37.1882     97.1433  
  7825.5000    -31.5572      2.1663      2.1680      3.0406     12.6822     79.7866      0.0432      2.4881     37.5623     96.7746  
  7826.0000    -31.5998      2.2221      2.2028      2.9730     12.5917     79.9636      0.0244      2.5047     35.8088     94.6423  
  7826.5000    -31.2966      2.2794      2.2488      2.6963     12.5715     79.9776      0.0426      2.5280     33.6360     92.2865  
  7827.0000    -31.0781      2.3381      2.2958      2.5468     12.5364     78.5049      0.0408      2.5272     31.5513     89.5464  
  7827.5000    -31.0005      2.3390      2.2701      2.8161     12.3925     81.2114      0.0544      2.5252     31.6173     88.9329  
  7828.0000    -31.0107      2.3174      2.2427      3.1074     12.3606     82.9747      0.1275      2.5762     32.2723     89.5061  
  7828.5000    -31.0209      2.2960      2.2156      3.1020     12.4557     81.4482      0.1465      2.5867     33.4467     93.2059  
  7829.0000    -31.0784      2.2748      2.1888      3.0483     12.5938     79.7375      0.1238      2.5590     34.5495     95.6358  
  7829.5000    -31.2432      2.2768      2.2098      2.9284     12.5461     77.6733      0.1005      2.5504     34.8505     95.0188  
  7830.0000    -31.3370      2.3188      2.2615      2.8722     12.3669     76.3564      0.1065      2.5941     32.8785     93.8513  
  7830.5000    -31.2488      2.3586      2.3145      2.8615     12.2554     76.3899      0.1108      2.6060     31.2665     91.3008  
  7831.0000    -31.1271      2.3770      2.3686      2.9150     12.1519     78.0939      0.1125      2.5766     30.5960     90.3279  
  7831.5000    -31.1172      2.3934      2.4241      3.0342     12.1385     79.2252      0.1004      2.5368     30.8294     91.5434  
  7832.0000    -31.1236      2.4332      2.4320      3.1744     12.1828     79.3983      0.1169      2.5739     31.7564     91.8423  
  7832.5000    -30.7924      2.4349      2.4290      3.2319     12.2639     79.2077      0.1247      2.6094     32.7818     93.5755  
  7833.0000    -30.7878      2.4446      2.4261      3.1937     12.3257     78.4281      0.1185      2.6185     33.5036     94.5411  
  7833.5000    -30.7124      2.4524      2.4232      3.1217     12.3779     76.9038      0.1009      2.5974     33.8818     94.1189  
  7834.0000    -30.7044      2.4518      2.4202      2.9831     12.4358     76.2999      0.0628      2.5628     33.7443     93.1011  
  7834.5000    -30.7102      2.4492      2.4173      2.9301     12.4803     77.3446      0.0292      2.5453     32.2749     90.8627  
  7835.0000    -30.6649      2.4465      2.4144      3.0231     12.4914     79.7283      0.0340      2.5674     31.7186     89.6456  
  7835.5000    -30.6181      2.4508      2.4114      3.1076     12.5025     81.4267      0.0535      2.5884     31.3946     88.4617  
  7836.0000    -30.4822      2.4222      2.4085      3.1102     12.5136     82.4032      0.0721      2.6031     31.6926     91.2193  
  7836.5000    -30.4472      2.3989      2.4056      3.0564     12.5552     82.7019      0.0907      2.6054     32.1497     93.3494  
  7837.0000    -30.5252      2.4170      2.4027      2.9851     12.6019     80.9110      0.0759      2.5734     33.2898     93.6049  
  7837.5000    -30.6032      2.4221      2.4034      2.8665     12.6395     78.2601      0.0697      2.5430     33.4172     93.0142  
  7838.0000    -30.5293      2.4234      2.4077      3.0471     12.5375     76.6894      0.0959      2.5559     32.7083     92.1058  
  7838.5000    -30.4176      2.4399      2.4120      3.1610     12.4431     77.0269      0.1115      2.5745     31.8074     91.2189  
  7839.0000    -30.3006      2.4447      2.4163      3.1790     12.4277     77.8335      0.1034      2.5776     32.3223     92.1511  
  7839.5000    -30.2297      2.4418      2.4206      3.1469     12.4175     79.0810      0.0807      2.5790     33.0129     94.4237  
  7840.0000    -30.2325      2.4512      2.4249      3.0857     12.3591     77.8543      0.0575      2.5825     33.5347     93.1048  
  7840.5000    -30.1651      2.4709      2.4292      3.0258     12.3038     77.4260      0.0508      2.5724     32.9915     91.5714  
  7841.0000    -30.0540      2.4782      2.4335      3.0435     12.3392     79.2988      0.0391      2.5567     32.8759     90.2148  
  7841.5000    -30.1429      2.4816      2.4379      3.1389     12.4234     80.3637      0.0228      2.5321     31.5740     89.8732  
  7842.0000    -30.1307      2.4773      2.4422      3.3195     12.4026     80.7715      0.0402      2.5593     31.3402     91.2022  
  7842.5000    -30.0393      2.4481      2.4368      3.3082     12.3956     80.1532      0.0530      2.5728     32.5938     93.6580  
  7843.0000    -30.1071      2.4231      2.4166      3.1807     12.3705     78.7225      0.0434      2.5593     33.4678     94.8860  
  7843.5000    -30.3328      2.4016      2.3966      3.0297     12.3454     77.5871      0.0306      2.5335     32.3093     93.3269  
  7844.0000    -30.3340      2.4169      2.3767      2.8966     12.3709     77.0422      0.0177      2.5174     30.8078     90.8471  
  7844.5000    -30.3828      2.4231      2.3570      2.8583     12.4020     77.8629      0.0347      2.5288     30.0239     89.9377  
  7845.0000    -30.1951      2.4184      2.3375      2.9765     12.4330     81.9819      0.0630      2.5414     29.7895     89.3685  
  7845.5000    -30.0126      2.4225      2.3181      3.1380     12.4487     88.2587      0.1461      2.6044     30.1220     89.7211  
  7846.0000    -30.0446      2.3654      2.2989      3.1727     12.4492     86.9091      0.1400      2.6135     31.3899     92.2826  
  7846.5000    -30.0805      2.3452      2.2973      3.1100     12.4818     84.9823      0.1040      2.5728     32.8353     94.9233  
  7847.0000    -30.1972      2.3532      2.2962      3.0019     12.5638     81.1591      0.0861      2.5638     32.9754     95.1168  
  7847.5000    -30.1789      2.3763      2.2952      2.9202     12.5566     77.6045      0.0594      2.5477     32.2690     93.8449  
