~VERSION INFORMATION
 VERS.                           2.00:        CWLS LOG ASCII STANDARD - VERSION 2.00
 WRAP.                             NO:        ONE LINE PER DEPTH STEP
~WELL INFORMATION
#MNEM.UNIT                   DATA             INFORMATION
#----------             --------------        ------------------------------
 STRT.F                       94.0000:        START DEPTH
 STOP.F                    11429.0000:        STOP DEPTH
 STEP.F                        0.5000:        STEP VALUE
 NULL.                      -999.2500:        NULL VALUE
 COMP. U.S. NAVY (HUSKY OIL CO.-OPER.:        COMPANY
 LOC .                      11 11N 1W:        LOCATION
 DATE.                        2/17/77:        LOG DATE
 WELL.             WEST FISH CREEK #1:        WELL
 UWI .                   500232001400:        UNIQUE WELL ID
 API .                   500232001400:        UNIQUE WELL IDENTIFIER
 FLD .                        WILDCAT:        FIELD
 CNTY.                    NORTH SLOPE:        COUNTY
 STAT.                         ALASKA:        STATE
 CTRY.                            USA:        COUNTRY
 OPER. U.S. NAVY (HUSKY OIL CO.-OPER.:        OPERATOR
 SRVC.                   SCHLUMBERGER:        SERVICE COMPANY
 LAT .                         0.0000:        LATITUDE
 LON .                         0.0000:        LONGITUDE
 DIGS.               CENTER LINE DATA:        DIGITIZING COMPANY
~CURVE INFORMATION      
#MNEM        .UNIT         API CODE           CURVE DESCRIPTION
#-----------------      --------------        ------------------------------
 DEPT        .F                      :        1  DEPTH
 SP          .MV                     :        2  
 ILD         .OHMM                   :        3  
 ILM         .OHMM                   :        4  
 LL8         .OHMM                   :        5  
 CALI        .IN                     :        6  
 RHOB        .G/C3                   :        7  
 DRHO        .G/C3                   :        8  
 NPHI        .%                      :        9  
 GR          .GAPI                   :        10 
 DT          .US/F                   :        11 
~PARAMETER INFORMATION
#MNEM.UNIT                  VALUE             DESCRIPTION OF MNEMONIC
#---------             ---------------        ------------------------------
 EKB .F                      113.0000:        KELLY BUSHING
 TD  .F                    11429.0000:        TOTAL DEPTH
~OTHER INFORMATION
~A    DEPTH          SP         ILD         ILM         LL8        CALI        RHOB        DRHO        NPHI          GR          DT 
# ...
  5706.0000    -13.7818      5.0642      4.5807      4.8286     13.5473      2.5378      0.0965     34.8849     47.5671     93.3936 
  5706.5000    -13.8383      5.0473      4.5685      4.8124     13.5553      2.5573      0.1089     35.2358     47.7146     93.4647 
  5707.0000    -13.7027      5.0303      4.5563      4.7963     13.5634      2.5550      0.1127     35.7958     47.5775     93.8067 
  5707.5000    -13.6080      5.0077      4.5546      4.7732     13.5714      2.5360      0.0869     36.3558     47.9624     94.1486 
  5708.0000    -13.5043      4.9756      4.5626      4.7425     13.5959      2.5323      0.0834     36.7723     48.4458     96.3614 
  5708.5000    -13.5204      4.9436      4.5470      4.7120     13.6216      2.5495      0.1209     36.5383     49.5724     94.1804 
  5709.0000    -13.6300      4.9159      4.5161      4.6871     13.6407      2.5524      0.1385     36.9576     50.2579     92.8139 
  5709.5000    -13.7396      4.8980      4.4494      4.6701     13.6598      2.5211      0.1089     37.3770     50.5862     93.2689 
  5710.0000    -13.8178      4.8802      4.3773      4.6501     13.6739      2.5080      0.0931     37.1509     50.1583     93.3375 
  5710.5000    -13.8576      4.8250      4.3063      4.5943     13.6814      2.4919      0.0829     35.9889     49.0922     95.5945 
  5711.0000    -13.8656      4.7671      4.2365      4.5420     13.6889      2.4928      0.0647     36.0369     48.2216     96.6187 
  5711.5000    -13.9341      4.7300      4.1857      4.5080     13.6960      2.5039      0.0573     36.4045     47.8884     95.1628 
  5712.0000    -14.0174      4.6946      4.1571      4.4659     13.6960      2.5154      0.0663     37.0745     48.0300     94.4591 
  5712.5000    -14.0728      4.6275      4.1321      4.4114     13.6960      2.5233      0.0855     36.6536     48.5769     96.3852 
  5713.0000    -14.0748      4.6883      4.1119      4.4496     13.6874      2.5125      0.0748     36.2277     49.1950     94.1185 
  5713.5000    -14.0420      4.7459      4.1485      4.5186     13.6729      2.5075      0.0499     35.5978     49.6624     93.6400 
  5714.0000    -13.9909      4.8011      4.2014      4.5714     13.6582      2.5295      0.0766     34.7226     49.7215     94.4135 
  5714.5000    -14.0013      4.8569      4.3367      4.6248     13.6436      2.5295      0.1015     35.1701     49.5699     91.5662 
  5715.0000    -14.0642      4.9637      4.4263      4.6789     13.6290      2.5062      0.1039     35.8262     49.3842     91.7641 
  5715.5000    -14.0384      4.9717      4.4901      4.7411     13.6295      2.4871      0.0833     36.2504     49.4810     93.1248 
  5716.0000    -14.1172      4.9797      4.4838      4.7487     13.6664      2.4807      0.0612     36.6746     49.8352     92.6860 
  5716.5000    -14.3794      4.9878      4.4446      4.7564     13.7032      2.4994      0.0645     36.5476     49.5274     94.6647 
  5717.0000    -14.5536      4.9907      4.4057      4.7593     13.7330      2.5016      0.0653     36.1866     48.8821     96.1261 
  5717.5000    -14.6123      4.9907      4.3953      4.7593     13.7538      2.5016      0.0643     35.7118     48.2792     93.5902 
  5718.0000    -14.4875      4.9907      4.3905      4.7593     13.7747      2.5296      0.0893     34.6218     47.9999     93.8608 
  5718.5000    -14.4325      4.9699      4.3997      4.7384     13.7672      2.5406      0.0996     34.0116     48.0336     95.2254 
  5719.0000    -14.6255      4.9468      4.4443      4.7164     13.7546      2.5343      0.0885     33.9454     48.1953     94.7863 
  5719.5000    -14.8226      4.9239      4.4038      4.6945     13.7421      2.5363      0.0933     34.1909     48.1635     94.8596 
  5720.0000    -14.9796      4.8980      4.3530      4.6694     13.7164      2.5493      0.1122     34.6072     48.0652     94.0029 
  5720.5000    -15.0753      4.8714      4.3159      4.6441     13.6907      2.5399      0.1290     34.5207     48.1648     93.3548 
  5721.0000    -15.1308      4.8772      4.2947      4.6506     13.6788      2.5351      0.1157     34.3028     48.5706     93.9850 
  5721.5000    -15.3158      4.8907      4.3255      4.6635     13.6788      2.5369      0.1201     34.0681     48.6567     93.2310 
  5722.0000    -15.6008      4.9057      4.3755      4.6764     13.6727      2.5168      0.0823     33.6793     48.5407     95.5312 
  5722.5000    -16.0198      5.0288      4.4531      4.7535     13.5932      2.5199      0.0562     33.1690     47.4733     93.4238 
  5723.0000    -16.4083      5.1723      4.5738      4.8943     13.5138      2.5311      0.0464     32.6114     45.6328     93.3271 
  5723.5000    -16.9664      5.3242      4.7799      5.0289     13.4343      2.5315      0.0345     29.7891     44.2913     92.5177 
  5724.0000    -17.5138      5.6499      5.0748      5.2284     13.3548      2.5278      0.0260     26.0984     42.9890     91.8535 
  5724.5000    -18.2800      6.0307      5.3946      5.5528     13.2753      2.5206      0.0234     24.1621     41.2275     90.7074 
  5725.0000    -18.9363      6.6514      5.7535      5.9284     13.2029      2.5186      0.0209     22.8856     39.4791     84.6294 
  5725.5000    -19.7016      7.3751      6.2628      6.5629     13.1314      2.5247      0.0185     22.8160     37.0179     80.5986 
  5726.0000    -20.8768      7.9614      6.5289      7.2769     13.0684      2.5208      0.0180     23.2421     35.1478     77.0915 
  5726.5000    -22.2039      8.2096      6.8062      7.7539     13.0438      2.5182      0.0214     23.1394     34.4654     76.5143 
  5727.0000    -23.2783      8.2416      6.9678      7.8586     13.0191      2.5239      0.0258     22.9745     34.9792     77.2102 
  5727.5000    -24.0715      8.2678      7.0835      7.8836     12.9799      2.5217      0.0301     22.8551     35.8283     77.3863 
  5728.0000    -24.7123      8.2514      7.1198      7.8681     12.9241      2.5080      0.0345     22.8904     36.5873     77.6716 
  5728.5000    -25.1787      8.2277      7.1547      7.8455     12.8683      2.4939      0.0217     23.4530     36.5862     78.1580 
  5729.0000    -25.5806      8.1895      7.1730      7.8075     12.8125      2.4791      0.0053     23.5175     35.7719     78.7589 
  5729.5000    -26.0571      8.1477      7.1592      7.7677     12.7570      2.4697      0.0117     23.0615     35.0076     79.1530 
  5730.0000    -26.7446      8.1016      7.1449      7.7228     12.7299      2.4774      0.0173     23.2216     35.4202     79.6223 
  5730.5000    -27.5410      8.0521      7.1307      7.6756     12.7029      2.4984      0.0127     23.5359     36.2580     79.9629 
  5731.0000    -28.1501      7.9784      7.1164      7.5988     12.6934      2.5018      0.0054     23.6915     36.7480     80.1305 
  5731.5000    -28.4314      7.9206      7.0650      7.5531     12.7015      2.4969      0.0154     23.5835     36.3008     80.2735 
  5732.0000    -28.7127      7.9333      7.0017      7.5653     12.7097      2.5035      0.0096     22.9201     35.8966     80.3612 
  5732.5000    -28.9940      7.9461      6.9390      7.5775     12.7179      2.5212      0.0145     22.4536     35.6937     80.3715 
  5733.0000    -29.2489      7.9589      6.9267      7.5897     12.7256      2.5387      0.0254     22.4100     35.4738     80.2246 
  5733.5000    -29.2613      7.9717      6.9183      7.6019     12.7109      2.5441      0.0320     22.6287     35.1711     80.0837 
  5734.0000    -29.0543      7.9846      6.9244      7.6142     12.6962      2.5165      0.0225     22.9357     35.5015     79.6766 
  5734.5000    -28.8872      7.9974      6.9403      7.6264     12.6815      2.5108      0.0181     23.1752     36.4068     79.2227 
  5735.0000    -28.6271      8.0103      6.9577      7.6387     12.6668      2.5142      0.0192     24.0409     36.8843     78.9212 
  5735.5000    -28.3989      8.0298      6.9836      7.6565     12.6522      2.5118      0.0234     23.5740     37.0282     78.5580 
  5736.0000    -28.3226      8.0576      7.0095      7.6830     12.6297      2.5035      0.0316     23.3131     36.8783     78.4691 
