~VERSION INFORMATION
 VERS.                           2.00:        CWLS LOG ASCII STANDARD - VERSION 2.00
 WRAP.                             NO:        ONE LINE PER DEPTH STEP
~WELL INFORMATION
#MNEM.UNIT                   DATA             INFORMATION
#----------             --------------        ------------------------------
 STRT.F                      112.0000:        START DEPTH
 STOP.F                    10176.0000:        STOP DEPTH
 STEP.F                        0.5000:        STEP VALUE
 NULL.                      -999.2500:        NULL VALUE
 COMP.                      HUSKY OIL:        COMPANY  
 LOC .                   36  11N   4W:        LOCATION   
 DATE.                        2/16/81:        LOG DATE 
 WELL.            NORTH INIGOK TEST 1:        WELL     
 UWI .                   501032001700:        UNIQUE WELL ID 
 API .                   501032001700:        UNIQUE WELL IDENTIFIER 
 FLD .                        WILDCAT:        FIELD    
 CNTY.                    NORTH SLOPE:        COUNTY  
 STAT.                         ALASKA:        STATE   
 CTRY.                            USA:        COUNTRY 
 OPER.                      HUSKY OIL:        OPERATOR  
 SRVC.                            440:        SERVICE COMPANY 
 LAT .                         0.0000:        LATITUDE
 LON .                         0.0000:        LONGITUDE
 DIGS.                             65:        DIGITIZING COMPANY 
~CURVE INFORMATION      
#MNEM.UNIT                 API CODE           CURVE DESCRIPTION
#---------              --------------        ------------------------------
 DEPT.F                              :        1  DEPTH
 SP  .MV                             :        2
 SFL .OHMM                           :        3
 ILD .OHMM                           :        4
 ILM .OHMM                           :        5
 NPHI.%                              :        6
 CALI.IN                             :        7
 GR  .GAPI                           :        8
 RHOB.G/C3                           :        9
 DRHO.G/C3                           :       10
 DT  .US/F                           :       11
~PARAMETER INFORMATION       
#MNEM.UNIT                  VALUE             DESCRIPTION OF MNEMONIC
#---------             ---------------        ------------------------------
 EKB .F                      166.0000:        KELLY BUSHING
 TD  .F                    10167.0000:        TOTAL DEPTH
~OTHER INFORMATION
~A    DEPTH          SP         SFL         ILD         ILM        NPHI        CALI          GR        RHOB        DRHO          DT  
# ...
  1462.0000    -67.6387      4.9140      5.6735      5.5291     54.1598     19.1883     60.8875      2.3043      0.0261    124.2092  
  1462.5000    -67.3608      4.8610      5.6657      5.5184     54.4155     19.1480     60.3724      2.3192      0.0538    124.6566  
  1463.0000    -67.0026      4.9012      5.6579      5.5059     53.2858     19.1511     59.9321      2.3197      0.0592    123.1006  
  1463.5000    -66.6310      5.0667      5.6502      5.4934     52.7522     19.0679     58.4891      2.3107      0.0493    120.5564  
  1464.0000    -66.1669      5.3373      5.6424      5.4809     52.6796     18.9934     58.2007      2.3062      0.0379    119.0460  
  1464.5000    -65.7090      5.4146      5.6246      5.4766     52.2007     18.9852     60.3853      2.2946      0.0297    118.7692  
  1465.0000    -65.3485      5.4397      5.5941      5.4780     52.2753     19.0164     63.1813      2.2873      0.0213    121.0438  
  1465.5000    -64.9205      5.2730      5.5638      5.4794     52.6836     19.0627     63.9941      2.2889      0.0208    122.6490  
  1466.0000    -64.6089      5.0334      5.5337      5.4808     53.1134     19.0831     64.4918      2.3012      0.0348    123.5149  
  1466.5000    -64.4020      4.9502      5.5214      5.4823     53.2239     19.0790     65.6507      2.3163      0.0476    122.8077  
  1467.0000    -64.2249      4.9573      5.5202      5.4837     54.7322     19.1034     65.8642      2.3242      0.0577    122.7530  
  1467.5000    -64.0479      5.0104      5.5424      5.4858     55.2986     19.1455     65.7772      2.3103      0.0520    122.8332  
  1468.0000    -63.7537      5.0944      5.5776      5.4882     55.5306     19.1582     65.7201      2.3006      0.0467    123.3696  
  1468.5000    -63.4375      5.1799      5.6157      5.4905     55.5961     19.2612     65.3240      2.3187      0.0663    122.6927  
  1469.0000    -63.0724      5.3098      5.6543      5.4928     53.7440     19.2906     64.9674      2.3155      0.0676    121.7521  
  1469.5000    -62.6562      5.4920      5.6792      5.4912     51.5249     19.2174     64.5739      2.3086      0.0547    122.0067  
  1470.0000    -62.1858      5.5344      5.6909      5.4851     49.9127     19.1212     64.9050      2.2863      0.0408    123.0428  
  1470.5000    -61.6300      5.5473      5.7009      5.4791     48.6573     19.0981     65.4808      2.2923      0.0432    126.0701  
  1471.0000    -61.2108      5.2929      5.6983      5.4731     49.6266     19.1842     66.1543      2.3002      0.0634    127.5947  
  1471.5000    -60.8221      5.2130      5.6956      5.4671     51.8154     19.2169     67.8269      2.3180      0.0741    128.1201  
  1472.0000    -60.3861      5.2372      5.6930      5.4612     52.6218     19.2249     69.1246      2.3075      0.0510    127.2922  
  1472.5000    -59.9826      5.2733      5.6985      5.4619     53.7064     19.2437     69.7619      2.3099      0.0528    126.0749  
  1473.0000    -59.4987      5.2595      5.7507      5.5121     54.5145     19.3094     69.3381      2.3242      0.0574    125.5217  
  1473.5000    -59.1223      5.2648      5.8035      5.5627     53.7837     19.2432     68.2054      2.3278      0.0570    124.1682  
  1474.0000    -58.7647      5.3555      5.8567      5.6137     52.1486     19.2133     67.0249      2.3155      0.0531    122.9888  
  1474.5000    -58.5108      5.3888      5.9104      5.6653     50.9615     19.2215     67.0143      2.3085      0.0440    124.0769  
  1475.0000    -58.0764      5.4222      5.9647      5.7173     50.9086     19.1705     67.1886      2.3060      0.0408    125.5663  
  1475.5000    -57.4980      5.4753      6.0194      5.7698     51.0383     19.1688     67.8033      2.3014      0.0475    125.1213  
  1476.0000    -56.9482      5.5883      6.0670      5.8190     52.6587     19.1447     68.7322      2.3094      0.0607    123.6948  
  1476.5000    -56.4239      5.8278      6.0945      5.8453     54.1722     19.0945     69.6304      2.3197      0.0650    121.0661  
  1477.0000    -56.0097      5.9235      6.1220      5.8717     54.6360     19.1244     70.5285      2.3233      0.0665    120.4380  
  1477.5000    -55.6748      5.8562      6.1400      5.8900     52.0637     19.1728     71.4267      2.3152      0.0418    121.4723  
  1478.0000    -55.2663      5.7711      6.1325      5.8828     50.1655     19.1768     72.4268      2.2794      0.0169    122.6469  
  1478.5000    -54.8453      5.7104      6.1250      5.8756     49.8101     19.1414     72.7021      2.2958      0.0376    123.7254  
  1479.0000    -54.4326      5.6553      6.1155      5.8664     51.3920     19.1074     72.9369      2.3196      0.0590    124.2217  
  1479.5000    -54.1765      5.6084      6.1032      5.8545     52.1246     19.1333     73.9155      2.3496      0.0911    125.1358  
  1480.0000    -53.9755      5.6605      6.1548      5.8979     52.2181     19.2146     73.8996      2.3407      0.0724    125.6759  
  1480.5000    -53.7445      5.7132      6.2210      5.9614     52.3564     19.2002     72.9450      2.2995      0.0327    126.8446  
  1481.0000    -53.4543      5.7655      6.2710      6.0151     52.1949     19.1856     71.6852      2.3118      0.0536    127.0524  
  1481.5000    -53.0598      5.8182      6.2930      6.0362     50.4035     19.2538     70.4255      2.3418      0.0768    126.6697  
  1482.0000    -52.4818      5.8624      6.3151      6.0573     50.6511     19.3748     70.0018      2.3536      0.0890    126.8556  
  1482.5000    -51.9674      5.8657      6.3372      6.0785     52.1091     19.4082     69.9617      2.3503      0.1040    126.3813  
  1483.0000    -51.5033      5.8690      6.3577      6.0988     53.4922     19.2868     69.6103      2.3718      0.1099    126.1550  
  1483.5000    -50.9662      5.8723      6.3668      6.1075     53.7732     19.2484     69.3507      2.3516      0.1000    126.3192  
  1484.0000    -50.3554      5.8339      6.3356      6.0676     53.3751     19.2708     70.5753      2.3408      0.0883    126.2884  
  1484.5000    -49.8864      5.7685      6.2518      5.9873     53.4729     19.2932     72.6448      2.3213      0.0767    126.3626  
  1485.0000    -49.5693      5.7089      6.1561      5.9042     53.6913     19.3030     73.5324      2.3082      0.0765    126.8465  
  1485.5000    -49.2778      5.6240      6.1349      5.8846     52.0954     19.2948     73.9610      2.3340      0.0941    126.2371  
  1486.0000    -49.0097      5.5403      6.1232      5.8723     49.5491     19.2839     73.6524      2.3456      0.1096    125.7487  
  1486.5000    -48.7416      5.5813      6.1575      5.9051     49.8022     19.2105     71.8399      2.3303      0.0896    125.0522  
  1487.0000    -48.4525      5.6758      6.1919      5.9381     51.1078     19.2321     69.9131      2.3242      0.0715    124.9202  
  1487.5000    -48.1072      5.7257      6.2265      5.9713     53.1769     19.2452     70.3982      2.3472      0.0808    126.2500  
  1488.0000    -47.7031      5.7421      6.2614      6.0047     54.7513     19.1205     70.6174      2.3490      0.0840    125.9240  
  1488.5000    -47.2293      5.7625      6.2958      6.0378     55.9438     19.2191     68.9831      2.3510      0.0836    125.1202  
  1489.0000    -46.8068      5.7843      6.3303      6.0709     55.7894     19.2149     67.1128      2.3531      0.0811    125.6345  
  1489.5000    -46.4651      5.8061      6.3649      6.1041     54.5848     19.2731     67.3645      2.3529      0.0889    132.9972  
  1490.0000    -45.9755      5.8154      6.3636      6.1044     53.8430     19.3273     69.1588      2.3431      0.0901    125.2649  
  1490.5000    -45.4728      5.8247      6.3501      6.0899     53.6741     19.2953     70.9001      2.3421      0.0879    123.2276  
  1491.0000    -44.9310      5.8340      6.3157      6.0578     54.0546     19.1816     71.0155      2.3428      0.0796    123.3308  
  1491.5000    -44.4570      5.7558      6.3130      6.0560     54.8947     19.1764     70.9832      2.3610      0.0859    124.9185  
