~VERSION INFORMATION
 VERS.                           2.00:        CWLS LOG ASCII STANDARD - VERSION 2.00
 WRAP.                             NO:        ONE LINE PER DEPTH STEP
~WELL INFORMATION
#MNEM.UNIT                   DATA             INFORMATION
#----------             --------------        ------------------------------
 STRT.F                       66.0000:        START DEPTH
 STOP.F                    11266.0000:        STOP DEPTH
 STEP.F                        0.5000:        STEP VALUE
 NULL.                      -999.2500:        NULL VALUE
 COMP.              HUSKY OIL COMPANY:        COMPANY
 LOC .                       6 12N 2E:        LOCATION
 DATE.                       12/24/76:        LOG DATE
 WELL.          SOUTH HARRISON BAY #1:        WELL
 UWI .                   501032000700:        UNIQUE WELL ID
 API .                   501032000700:        UNIQUE WELL IDENTIFIER
 FLD .                        WILDCAT:        FIELD
 CNTY.                    NORTH SLOPE:        COUNTY
 STAT.                         ALASKA:        STATE
 CTRY.                            USA:        COUNTRY
 OPER.              HUSKY OIL COMPANY:        OPERATOR
 SRVC.                   SCHLUMBERGER:        SERVICE COMPANY
 LAT .                         0.0000:        LATITUDE
 LON .                         0.0000:        LONGITUDE
 DIGS.               CENTER LINE DATA:        DIGITIZING COMPANY
~CURVE INFORMATION      
#MNEM        .UNIT         API CODE           CURVE DESCRIPTION
#-----------------      --------------        ------------------------------
 DEPT        .F                      :        1  DEPTH
 GR          .GAPI                   :        2  
 CALI        .IN                     :        3  
 DRHO        .G/C3                   :        4  
 RHOB        .G/C3                   :        5  
 NPHI        .%                      :        6  
 DT          .US/F                   :        7  
 SP          .MV                     :        8  
 ILD         .OHMM                   :        9  
 ILM         .OHMM                   :        10 
 LL8         .OHMM                   :        11 
~PARAMETER INFORMATION
#MNEM.UNIT                  VALUE             DESCRIPTION OF MNEMONIC
#---------             ---------------        ------------------------------
 EKB .F                       45.0000:        KELLY BUSHING
 TD  .F                    11290.0000:        TOTAL DEPTH
 BHT .F                      174.0000:        BOTTOM HOLE TEMPERATURE
 BS  .                        12.2500:        BIT SIZE
 FD  .                        10.7000:        FLUID DENSITY
 CSIZ.                        13.3750:        CASING SIZE
 CBD .F                     2600.0000:        CASING DRILLER 1
 CBL .F                     2600.0000:        CASING LOGGER 1
 DFT .                  MISCELLANEOUS:        TYPE FLUID IN HOLE
 DFV .                        52.0000:        VISCOSITY
 DFPH.                         8.2000:        PH
 DFL .                         6.0000:        FLUID LOSS
 RMS .                         1.3900:        RM
 MST .F                       60.0000:        RM MEAS. TEMP.
 RMF .                         1.0200:        RMF
 MFST.F                       60.0000:        RMF MEAS. TEMP.
 RMC .                         1.3800:        RMC
 MCST.F                       60.0000:        RMC MEAS. TEMP.
~OTHER INFORMATION
~A    DEPTH          GR        CALI        DRHO        RHOB        NPHI          DT          SP         ILD         ILM         LL8 
# ...
  3055.0000    101.6136     16.6957      0.0086      2.2286     35.9667    116.6844    -21.6334      3.8809      3.0044      3.7248 
  3055.5000     99.9302     16.6844     -0.0058      2.2229     36.2685    119.5725    -21.4502      3.5596      2.8228      3.4438 
  3056.0000     99.8834     16.7292     -0.0060      2.2338     36.9378    121.3603    -21.3268      3.3943      2.6506      3.3087 
  3056.5000     99.9174     16.5538     -0.0004      2.2326     37.6348    119.5102    -20.9251      3.2348      2.4889      3.1364 
  3057.0000     99.9513     16.7358      0.0052      2.2261     37.6336    120.8202    -20.5440      3.0538      2.3370      2.9608 
  3057.5000    100.5587     16.8359      0.0107      2.2253     37.7170    122.1503    -20.6167      2.8879      2.1944      2.6144 
  3058.0000    102.8510     16.8773      0.0104      2.2239     39.5324    119.8859    -20.2628      2.7527      2.1346      2.1927 
  3058.5000    101.2801     16.8096      0.0007      2.2235     40.2838    119.0780    -19.9745      2.6238      2.1245      2.1246 
  3059.0000     98.6774     16.4573     -0.0071      2.2217     39.4860    123.2804    -20.0066      2.5009      2.1351      2.3025 
  3059.5000     95.3941     16.2021     -0.0075      2.2320     38.6994    124.0355    -19.8916      2.4284      2.1397      2.4954 
  3060.0000     95.5067     16.6281     -0.0057      2.2305     37.5125    122.5376    -19.5923      2.3672      2.1005      2.4359 
  3060.5000     95.9542     16.8634     -0.0033      2.2192     37.3301    122.4364    -19.4812      2.3076      2.0335      2.3242 
  3061.0000     95.7964     16.8342     -0.0025      2.2311     38.0759    119.9796    -19.5344      2.2831      1.9490      2.2891 
  3061.5000     95.9414     16.8168      0.0004      2.2481     38.3746    117.7621    -19.4169      2.2612      1.8680      2.2248 
  3062.0000     97.6168     16.8168      0.0061      2.2500     39.0817    118.2278    -18.9849      2.2284      1.7855      2.1450 
  3062.5000    100.2003     16.8168      0.0185      2.2432     39.5448    112.7715    -18.7474      2.0607      1.6991      1.9906 
  3063.0000    100.6795     16.8198      0.0238      2.2368     40.0827    114.9118    -18.1322      1.9178      1.6501      1.8484 
  3063.5000    102.8677     16.8227      0.0155      2.2105     41.1827    119.2986    -17.8260      1.8181      1.6026      1.7789 
  3064.0000    105.2449     16.8117      0.0102      2.1899     42.2249    120.8820    -17.7400      1.7365      1.5564      1.6797 
  3064.5000    108.5265     16.8109      0.0060      2.1715     43.1297    124.7329    -17.6361      1.6567      1.5116      1.6231 
  3065.0000    109.9620     16.8188      0.0070      2.1702     43.6186    127.2476    -17.7543      1.6470      1.5130      1.6156 
  3065.5000    110.7976     16.8205      0.0092      2.1676     43.5643    128.7605    -17.9219      1.6332      1.5479      1.5985 
  3066.0000    110.7128     16.8164      0.0104      2.1625     42.8065    129.5594    -17.8956      1.6488      1.5836      1.6173 
  3066.5000    109.4507     16.8111      0.0081      2.1567     42.0825    129.3139    -17.8169      1.6804      1.6202      1.6445 
  3067.0000    106.5055     16.8191      0.0020      2.1634     42.3866    129.8168    -18.1182      1.7091      1.6576      1.6733 
  3067.5000    103.2062     16.8066     -0.0045      2.1694     41.2896    129.9169    -18.5033      1.7643      1.6959      1.7230 
  3068.0000    100.6209     16.8142     -0.0098      2.1787     40.3562    128.5492    -18.7086      1.8150      1.7350      1.7683 
  3068.5000     98.7094     16.8233     -0.0089      2.1890     39.6048    126.9209    -18.7637      1.8671      1.7751      1.8113 
  3069.0000     98.0975     16.8269     -0.0043      2.1977     40.4911    124.6945    -18.4393      1.9207      1.7882      1.8554 
  3069.5000     98.3033     16.8271      0.0000      2.1993     41.2509    122.8717    -18.4186      1.9758      1.8002      1.9005 
  3070.0000     98.4962     16.8269      0.0019      2.2164     40.9787    122.9114    -18.9279      1.9968      1.8122      1.9175 
  3070.5000     98.8827     16.8268      0.0003      2.2113     40.6859    124.5157    -19.4147      2.0137      1.8243      1.9334 
  3071.0000     99.3320     16.8247      0.0091      2.2115     39.4116    124.9040    -19.5222      2.0383      1.8365      1.9494 
  3071.5000     99.4751     16.8221      0.0099      2.2093     37.7391    122.8475    -19.5419      2.0590      1.8488      1.9645 
  3072.0000     99.5564     16.8225      0.0049      2.2077     37.2021    122.2171    -19.5384      2.0635      1.8723      1.9782 
  3072.5000    100.4179     16.8234      0.0002      2.2092     36.7155    118.9931    -19.4972      2.0791      1.9027      2.0171 
  3073.0000    100.0993     16.8242     -0.0039      2.2116     36.7514    117.1259    -19.2696      2.1709      1.9335      2.0832 
  3073.5000     98.1808     16.8250     -0.0059      2.2144     36.4331    114.7972    -19.4388      2.2667      1.9648      2.0636 
  3074.0000     96.9955     16.8127     -0.0058      2.2348     35.9973    116.2782    -19.6242      2.3668      2.0132      2.0894 
  3074.5000     98.7489     16.7926     -0.0047      2.2501     35.4442    118.0852    -19.5916      2.4713      2.1033      2.3705 
  3075.0000    101.5246     16.7470      0.0016      2.2697     34.0283    121.7451    -19.4156      2.4683      2.1973      2.2569 
  3075.5000    104.3003     16.5264      0.0078      2.2702     32.7787    118.4176    -19.5864      2.2841      2.1818      2.2841 
  3076.0000    110.9640     16.3960      0.0082      2.2658     32.8680    114.1788    -19.4819      2.1136      1.8121      2.4636 
  3076.5000    120.2115     16.3002      0.0048      2.2577     33.1469    111.2659    -19.5288      1.9558      1.5035      2.6163 
  3077.0000    132.5806     16.5347      0.0051      2.2361     32.8224    109.2796    -19.2404      1.8269      1.3352      2.2275 
  3077.5000    142.8174     16.5139      0.0203      2.2197     33.5453    107.2137    -18.9344      1.7066      1.2909      1.6436 
  3078.0000    148.0704     16.0453      0.0466      2.1787     36.5173    107.5607    -18.6284      1.5942      1.2599      1.3041 
  3078.5000    145.7918     15.5088      0.0376      2.1106     41.4247    114.7789    -18.4306      1.5132      1.3256      1.3119 
  3079.0000    139.5918     15.3176      0.0288      2.0847     45.1566    126.5098    -18.6718      1.5312      1.4477      1.4772 
  3079.5000    130.7477     15.1869      0.0212      2.0849     46.9232    136.1320    -18.8753      1.7573      1.6190      1.6229 
  3080.0000    117.0505     15.1964      0.0144      2.1098     45.9458    144.2707    -19.3875      2.1537      1.8966      1.9675 
  3080.5000    100.3169     15.1884      0.0279      2.1377     45.0520    146.6186    -20.3513      2.5156      2.2218      2.3629 
  3081.0000     83.5833     15.1302      0.0151      2.1864     42.3917    134.9608    -21.8388      2.8193      2.6027      2.7368 
  3081.5000     74.2335     15.0608      0.0024      2.2511     37.0878    119.6411    -23.5754      3.0467      3.0490      4.7399 
  3082.0000     71.4832     15.1787     -0.0012      2.2911     30.5807    105.2998    -25.1020      3.2925      2.9424      5.1675 
  3082.5000     75.9519     15.5296     -0.0009      2.3164     26.7241     94.2201    -25.7447      3.5067      2.7487      4.6381 
  3083.0000     80.7740     15.6010      0.0109      2.3247     25.9732     87.4624    -25.2696      3.5134      2.4822      3.9184 
  3083.5000     87.3970     15.6724      0.0394      2.3391     27.4384     93.6305    -24.3831      3.4350      2.3593      3.1792 
  3084.0000     94.2378     15.8278      0.0463      2.2951     30.7878     98.1636    -23.4703      3.3264      2.4190      2.2405 
  3084.5000    100.1670     16.1946      0.0367      2.2537     35.2181    104.2452    -23.1827      3.1837      2.6340      1.9166 
  3085.0000     97.7695     16.6211      0.0252      2.2258     38.0889    117.1980    -24.0572      3.0109      2.6837      2.4237 
