~VERSION INFORMATION
 VERS.                           2.00:        CWLS LOG ASCII STANDARD - VERSION 2.00
 WRAP.                             NO:        ONE LINE PER DEPTH STEP
~WELL INFORMATION
#MNEM.UNIT                   DATA             INFORMATION
#----------             --------------        ------------------------------
 STRT.F                       66.0000:        START DEPTH
 STOP.F                    11266.0000:        STOP DEPTH
 STEP.F                        0.5000:        STEP VALUE
 NULL.                      -999.2500:        NULL VALUE
 COMP.              HUSKY OIL COMPANY:        COMPANY
 LOC .                       6 12N 2E:        LOCATION
 DATE.                       12/24/76:        LOG DATE
 WELL.          SOUTH HARRISON BAY #1:        WELL
 UWI .                   501032000700:        UNIQUE WELL ID
 API .                   501032000700:        UNIQUE WELL IDENTIFIER
 FLD .                        WILDCAT:        FIELD
 CNTY.                    NORTH SLOPE:        COUNTY
 STAT.                         ALASKA:        STATE
 CTRY.                            USA:        COUNTRY
 OPER.              HUSKY OIL COMPANY:        OPERATOR
 SRVC.                   SCHLUMBERGER:        SERVICE COMPANY
 LAT .                         0.0000:        LATITUDE
 LON .                         0.0000:        LONGITUDE
 DIGS.               CENTER LINE DATA:        DIGITIZING COMPANY
~CURVE INFORMATION      
#MNEM        .UNIT         API CODE           CURVE DESCRIPTION
#-----------------      --------------        ------------------------------
 DEPT        .F                      :        1  DEPTH
 GR          .GAPI                   :        2  
 CALI        .IN                     :        3  
 DRHO        .G/C3                   :        4  
 RHOB        .G/C3                   :        5  
 NPHI        .%                      :        6  
 DT          .US/F                   :        7  
 SP          .MV                     :        8  
 ILD         .OHMM                   :        9  
 ILM         .OHMM                   :        10 
 LL8         .OHMM                   :        11 
~PARAMETER INFORMATION
#MNEM.UNIT                  VALUE             DESCRIPTION OF MNEMONIC
#---------             ---------------        ------------------------------
 EKB .F                       45.0000:        KELLY BUSHING
 TD  .F                    11290.0000:        TOTAL DEPTH
 BHT .F                      174.0000:        BOTTOM HOLE TEMPERATURE
 BS  .                        12.2500:        BIT SIZE
 FD  .                        10.7000:        FLUID DENSITY
 CSIZ.                        13.3750:        CASING SIZE
 CBD .F                     2600.0000:        CASING DRILLER 1
 CBL .F                     2600.0000:        CASING LOGGER 1
 DFT .                  MISCELLANEOUS:        TYPE FLUID IN HOLE
 DFV .                        52.0000:        VISCOSITY
 DFPH.                         8.2000:        PH
 DFL .                         6.0000:        FLUID LOSS
 RMS .                         1.3900:        RM
 MST .F                       60.0000:        RM MEAS. TEMP.
 RMF .                         1.0200:        RMF
 MFST.F                       60.0000:        RMF MEAS. TEMP.
 RMC .                         1.3800:        RMC
 MCST.F                       60.0000:        RMC MEAS. TEMP.
~OTHER INFORMATION
~A    DEPTH          GR        CALI        DRHO        RHOB        NPHI          DT          SP         ILD         ILM         LL8 
# ...
  8270.5000     90.6614     14.6293      0.1222      2.2225     42.1771    103.2845    -21.7406      1.7458      1.9008      2.7407 
  8271.0000     92.7650     14.6091      0.1213      2.1937     41.1322    103.5709    -21.6675      1.7505      1.8761      2.7517 
  8271.5000     91.9020     14.0338      0.1227      2.2003     40.1901    104.1896    -21.3483      1.7477      1.8518      2.7627 
  8272.0000     89.1313     13.5663      0.1209      2.2187     40.8539    103.9141    -19.7105      1.7450      1.8611      2.7345 
  8272.5000     87.2716     13.8125      0.0924      2.2267     41.5329    104.2888    -19.5384      1.7423      1.8914      2.6921 
  8273.0000     86.9354     14.3875      0.0665      2.2287     41.6071    104.3685    -20.2904      1.7657      1.9226      2.7128 
  8273.5000     87.9248     13.3359      0.1055      2.2705     41.4503    102.8874    -20.4210      1.8076      1.9651      2.7984 
  8274.0000     89.3122     13.0832      0.1125      2.2356     42.1736    100.3625    -19.8953      1.8506      1.9897      2.8952 
  8274.5000     89.9431     13.1721      0.0690      2.2175     43.0614    100.0082    -19.7485      1.8945      2.0145      3.0090 
  8275.0000     91.4055     12.6056      0.1315      2.2616     42.4020     98.2119    -20.2827      1.9396      2.0397      3.0931 
  8275.5000     93.0490     13.5770      0.1415      2.2182     41.6295     95.8216    -19.9545      1.9667      2.0652      3.0988 
  8276.0000     93.5968     13.8275      0.1372      2.2374     42.2211     98.2229    -20.2391      1.9422      2.0451      3.2029 
  8276.5000     93.9295     13.8209      0.1342      2.2477     41.9909     98.9377    -21.1885      1.9176      2.0009      3.3920 
  8277.0000     94.2169     14.1539      0.1313      2.2690     40.9788    102.5660    -21.6373      1.8731      1.9577      2.9547 
  8277.5000     94.9934     13.8514      0.1258      2.2807     40.4660    105.9769    -22.0082      1.8296      1.9154      2.7044 
  8278.0000     94.2279     14.0879      0.1199      2.2802     40.9405    104.2952    -21.6544      1.7871      1.8846      2.6891 
  8278.5000     93.0976     14.3136      0.1140      2.2810     40.7248    102.9076    -21.2053      1.7456      1.8639      2.7180 
  8279.0000     92.5058     14.1817      0.1307      2.2954     40.8957    100.5104    -21.0528      1.7113      1.8435      2.7778 
  8279.5000     92.1484     14.3422      0.1386      2.2975     41.7705    101.6745    -20.8540      1.6851      1.8233      2.7797 
  8280.0000     92.3753     14.6027      0.1445      2.2931     42.1335    103.0260    -21.6303      1.6592      1.8219      2.7605 
  8280.5000     92.7776     14.3176      0.1496      2.2765     41.0316    103.5773    -22.1893      1.6790      1.8265      2.7562 
  8281.0000     92.7282     14.5299      0.1264      2.2523     40.4673    103.5049    -21.7636      1.7039      1.8562      2.7357 
  8281.5000     92.3384     14.0822      0.1258      2.2518     40.8351    103.7443    -21.5765      1.7453      1.8864      2.7067 
  8282.0000     91.8464     13.3276      0.1368      2.2747     41.1460    103.4262    -21.3994      1.7596      1.9171      2.7113 
  8282.5000     93.9632     12.8539      0.1783      2.3260     40.9610    102.3943    -21.4113      1.7722      1.9483      2.7390 
  8283.0000     96.9573     13.5198      0.1932      2.2696     40.5436    100.6325    -21.7038      1.7849      1.9646      2.8284 
  8283.5000     96.5764     14.1957      0.1631      2.2278     40.5227    100.3063    -21.4185      1.7977      1.9612      2.9978 
  8284.0000     95.4898     13.8992      0.1370      2.2734     40.8465    100.6956    -21.6795      1.8105      1.9521      3.2059 
  8284.5000     95.1573     13.4502      0.1036      2.3434     41.1539    101.7012    -22.0108      1.8215      1.9418      3.0489 
  8285.0000     94.6225     13.0227      0.1164      2.4295     41.2108    103.0567    -22.2528      1.8090      1.9315      2.8690 
  8285.5000     93.5854     13.0827      0.1248      2.4437     41.2538    102.1219    -21.8527      1.7966      1.9213      2.7492 
  8286.0000     93.0387     13.2066      0.1325      2.4359     41.4881    101.8138    -20.6594      1.7843      1.9050      2.7180 
  8286.5000     93.5113     13.0781      0.1069      2.4196     42.1611    102.0431    -19.4939      1.7649      1.8838      2.7848 
  8287.0000     92.8294     12.8044      0.0608      2.4135     42.5765    102.0891    -19.3509      1.7345      1.8628      2.7379 
  8287.5000     93.2097     12.5529      0.0694      2.4580     42.5982    101.9594    -20.1992      1.7046      1.8421      2.6697 
  8288.0000     97.1235     12.6964      0.1146      2.5086     41.9568    100.0193    -21.4559      1.6752      1.8217      2.6435 
  8288.5000     98.8430     12.9282      0.1017      2.4534     41.0926     98.9370    -20.5952      1.6463      1.8014      2.7578 
  8289.0000     99.3991     12.6225      0.0744      2.4254     41.5916     98.7586    -20.2858      1.6373      1.7928      2.8217 
  8289.5000     99.2342     12.4949      0.0487      2.4304     40.9895     98.7234    -20.4376      1.6373      1.7922      2.8060 
  8290.0000     98.9703     12.4992      0.0827      2.4891     39.8107    100.5971    -21.1139      1.6373      1.7907      2.6686 
  8290.5000     98.7064     12.6215      0.1099      2.4754     39.1044     99.9582    -22.1058      1.6373      1.7908      2.5589 
  8291.0000     98.0835     12.7719      0.1015      2.4478     39.4975     99.9171    -21.9781      1.6441      1.7948      2.6891 
  8291.5000     99.4407     12.9735      0.0659      2.3945     40.3849    100.1283    -21.4016      1.6523      1.7989      2.8050 
  8292.0000    100.3587     12.7581      0.0267      2.3880     39.5800    102.3293    -20.9093      1.6606      1.8030      2.7327 
  8292.5000    101.2767     12.4574      0.0362      2.3969     38.7751    103.4397    -20.8066      1.6689      1.8071      2.6755 
  8293.0000    102.1948     12.4319      0.0645      2.4074     37.5138    103.0818    -21.7084      1.6772      1.8112      2.6212 
  8293.5000    103.8765     12.3936      0.0783      2.3865     37.6239    102.7321    -21.4108      1.6761      1.8093      2.6445 
  8294.0000    101.7812     12.2067      0.1019      2.3899     39.2517    102.1870    -20.5841      1.6718      1.8004      2.7268 
  8294.5000    100.6880     12.2577      0.1002      2.3884     40.1908    101.8330    -20.9005      1.6675      1.7915      2.7668 
  8295.0000     99.5949     12.3628      0.0713      2.3551     41.7584    103.6220    -21.6157      1.6632      1.7827      2.7155 
  8295.5000     98.5017     12.4459      0.0484      2.3355     43.0622    104.3177    -21.2545      1.6589      1.7739      2.6867 
  8296.0000     97.2162     12.5571      0.0201      2.3279     43.4475    104.3925    -20.4084      1.6547      1.7651      2.6827 
  8296.5000     98.4865     12.4399      0.0306      2.3571     43.5994    103.8309    -21.4145      1.6522      1.7646      2.6675 
  8297.0000     99.1684     12.2614      0.0604      2.3991     43.4584    103.6743    -20.8838      1.6578      1.7667      2.6576 
  8297.5000     99.6682     12.2939      0.0644      2.4128     43.0940    103.5567    -20.0058      1.6634      1.7853      2.6423 
  8298.0000    100.4144     12.2837      0.0638      2.3979     43.0967    103.3877    -20.1296      1.6690      1.8337      2.6598 
  8298.5000    101.1605     12.2735      0.1101      2.4376     43.3860    102.0195    -20.5753      1.6749      1.9191      2.6981 
  8299.0000    101.8738     12.2585      0.0453      2.3802     44.0893    101.3215    -21.2875      1.6998      1.9721      2.7792 
  8299.5000    101.6499     12.2752      0.0094      2.3985     44.7961    101.4004    -21.3713      1.7251      1.9597      2.9779 
  8300.0000    102.0099     12.3037      0.0082      2.4482     43.8603    100.7599    -21.5577      1.7508      1.9341      3.2310 
  8300.5000    102.3700     12.3322      0.0250      2.4757     43.1379    102.1861    -21.6775      1.7768      1.9089      2.9557 
