~VERSION INFORMATION
 VERS.                           2.00:        CWLS LOG ASCII STANDARD - VERSION 2.00
 WRAP.                             NO:        ONE LINE PER DEPTH STEP
~WELL INFORMATION
#MNEM.UNIT                   DATA             INFORMATION
#----------             --------------        ------------------------------
 STRT.F                      112.0000:        START DEPTH
 STOP.F                    10176.0000:        STOP DEPTH
 STEP.F                        0.5000:        STEP VALUE
 NULL.                      -999.2500:        NULL VALUE
 COMP.                      HUSKY OIL:        COMPANY  
 LOC .                   36  11N   4W:        LOCATION   
 DATE.                        2/16/81:        LOG DATE 
 WELL.            NORTH INIGOK TEST 1:        WELL     
 UWI .                   501032001700:        UNIQUE WELL ID 
 API .                   501032001700:        UNIQUE WELL IDENTIFIER 
 FLD .                        WILDCAT:        FIELD    
 CNTY.                    NORTH SLOPE:        COUNTY  
 STAT.                         ALASKA:        STATE   
 CTRY.                            USA:        COUNTRY 
 OPER.                      HUSKY OIL:        OPERATOR  
 SRVC.                            440:        SERVICE COMPANY 
 LAT .                         0.0000:        LATITUDE
 LON .                         0.0000:        LONGITUDE
 DIGS.                             65:        DIGITIZING COMPANY 
~CURVE INFORMATION      
#MNEM.UNIT                 API CODE           CURVE DESCRIPTION
#---------              --------------        ------------------------------
 DEPT.F                              :        1  DEPTH
 SP  .MV                             :        2
 SFL .OHMM                           :        3
 ILD .OHMM                           :        4
 ILM .OHMM                           :        5
 NPHI.%                              :        6
 CALI.IN                             :        7
 GR  .GAPI                           :        8
 RHOB.G/C3                           :        9
 DRHO.G/C3                           :       10
 DT  .US/F                           :       11
~PARAMETER INFORMATION       
#MNEM.UNIT                  VALUE             DESCRIPTION OF MNEMONIC
#---------             ---------------        ------------------------------
 EKB .F                      166.0000:        KELLY BUSHING
 TD  .F                    10167.0000:        TOTAL DEPTH
~OTHER INFORMATION
~A    DEPTH          SP         SFL         ILD         ILM        NPHI        CALI          GR        RHOB        DRHO          DT  
# ...
 10132.0000    -36.1061      1.7291      4.9829      5.0354     26.0315      8.3908    269.0315      2.6106     -0.0118     93.0176  
 10132.5000    -35.7880      3.3963      4.8828      5.0966     26.9973      8.3509    218.9100      2.5843     -0.0026     95.2570  
 10133.0000    -35.4698      5.1566      5.4701      5.7112     27.7098      8.3343    201.0955      2.5928     -0.0197     94.4614  
 10133.5000    -35.1516      5.8696      6.1281      6.6426     27.0708      8.3336    190.0845      2.5976     -0.0264     91.3085  
 10134.0000    -34.8334      4.6284      7.1124      7.7260     26.4318      8.3329    185.1338      2.5912     -0.0252     91.1116  
 10134.5000    -34.5691      4.6185      8.3607      8.6732     26.4757      8.3322    191.0929      2.5804     -0.0216     91.1514  
 10135.0000    -34.3859      6.0047      9.0492      9.4457     26.0256      8.3315    202.2109      2.5648     -0.0191     90.1849  
 10135.5000    -34.1178      7.6685     10.0573     10.2870     24.4428      8.3308    212.7671      2.5663     -0.0169     88.3316  
 10136.0000    -33.6663     11.0222     11.3172     11.5311     23.4317      8.3235    217.3738      2.5817     -0.0148     84.9328  
 10136.5000    -33.5963     13.6550     12.8261     13.3654     21.8463      8.3265    209.5681      2.5904     -0.0120     83.3465  
 10137.0000    -33.3271     13.6142     14.5892     14.0991     20.5892      8.3285    206.3142      2.5948     -0.0023     83.8574  
 10137.5000    -33.1483     10.4395     14.1673     14.4560     20.2074      8.3206    206.6051      2.5842      0.0062     85.7597  
 10138.0000    -32.6381      8.1750     13.9588     15.2253     21.3944      8.2985    214.2188      2.5926      0.0128     85.8692  
 10138.5000    -32.5827      8.8597     15.6141     16.8805     22.6542      8.2707    231.2860      2.6061      0.0024     83.9909  
 10139.0000    -32.5150     16.0261     20.9170     20.9155     22.1087      8.2478    241.6048      2.6167     -0.0004     80.4916  
 10139.5000    -32.3289     19.0990     33.9915     34.2040     19.1690      8.2168    245.8401      2.6004      0.0032     77.6052  
 10140.0000    -32.2368     21.3920     68.5319     74.0286     14.7091      8.1943    219.6220      2.5895     -0.0012     74.6048  
 10140.5000    -32.0384     37.6280     92.3692     89.3853     13.1769      8.2055    184.9073      2.5714     -0.0078     74.2320  
 10141.0000    -31.8519     53.2504    118.9849    133.0050     12.8035      8.2167    176.4458      2.5799     -0.0063     73.3719  
 10141.5000    -31.6655     35.9075    187.9763    184.5308     11.5336      8.2279    182.1442      2.5813     -0.0048     71.9685  
 10142.0000    -31.4791     26.0211    254.8400    236.9016     10.4017      8.2391    178.7574      2.5686     -0.0026     72.4605  
 10142.5000    -31.2926     30.5678    229.6608    236.1280     10.7347      8.2503   -999.2500      2.5635     -0.0014     72.9060  
 10143.0000    -31.1062     45.0926    214.2623    210.3349     11.0812      8.2615   -999.2500      2.5604     -0.0035     72.6598  
 10143.5000    -30.9198     42.5346    152.4366    153.1531     11.0527      8.2726   -999.2500      2.5607     -0.0070     72.9936  
 10144.0000    -30.7774     18.1015    118.3332    123.9567     10.7864      8.2667   -999.2500      2.5636     -0.0024     72.5420  
 10144.5000    -30.7949     12.0747    109.1884    108.9583     10.9752      8.2567   -999.2500      2.5693      0.0040     72.1021  
 10145.0000    -30.9119     18.3054    121.3422    125.6741     11.2175      8.2585   -999.2500      2.5765     -0.0052     71.6718  
 10145.5000    -31.0879     23.4513    168.4514    178.6534     10.6921      8.2501   -999.2500      2.5995     -0.0019     69.3000  
 10146.0000    -31.1445     19.3660    385.2625    372.8387      9.2310      8.2591   -999.2500      2.5984     -0.0103     68.3483  
 10146.5000    -31.2221     20.2999    502.5150    453.7055      8.3457      8.2771   -999.2500      2.6004     -0.0101     69.6510  
 10147.0000    -31.2817     22.9695    285.1674    271.3383      8.5496      8.2526   -999.2500      2.5985     -0.0055     71.2130  
 10147.5000    -31.2540     26.0499    174.3897    171.0155      9.1497      8.2459   -999.2500      2.5883     -0.0050     72.6470  
 10148.0000    -31.2302     24.3630    110.2583    113.0196     10.5956      8.2500   -999.2500      2.5809     -0.0094     73.9685  
 10148.5000    -31.1958     21.6715     99.1272    101.1572     11.3364      8.2489   -999.2500      2.5813     -0.0091     73.1736  
 10149.0000    -31.4654     34.1424    106.6656    103.9297     11.2456      8.2381   -999.2500      2.5799     -0.0106     71.7897  
 10149.5000    -31.6621     39.5521     83.8251     85.3516     11.0060      8.2489   -999.2500      2.5850     -0.0130     73.3253  
 10150.0000    -31.7422     25.9986     61.7842     65.7204     11.3614      8.2984   -999.2500      2.5785     -0.0039     75.0581  
 10150.5000    -31.7909     16.4684     50.2501     52.0014     12.3382      8.2761   -999.2500      2.5637      0.0076     77.7890  
 10151.0000    -31.7295     16.0570     38.7810     45.1395     14.0132      8.2486   -999.2500      2.5614      0.0149     79.1675  
 10151.5000    -31.6954     19.6535     37.7142     46.8618     15.7000      8.2508   -999.2500      2.5637      0.0107     78.9004  
 10152.0000    -31.6127     20.9476     37.0065     40.8446     14.1869      8.2512   -999.2500      2.5594      0.0052     78.6223  
 10152.5000    -31.5348     16.1304     30.8488     35.5462     11.0047      8.2524   -999.2500      2.5664      0.0055     79.0328  
 10153.0000    -31.2019     15.2520     28.5705     32.2519      7.4028      8.2321   -999.2500      2.5601      0.0032     79.5326  
 10153.5000    -30.9093     23.4864     37.5849     39.8062      2.3742      8.2259   -999.2500      2.5588     -0.0050     78.6080  
 10154.0000    -31.0998     50.6329     49.4350     53.9086      0.0501      8.2131   -999.2500      2.5712     -0.0103     76.4935  
 10154.5000    -31.1008     42.0670     64.8945     68.8756      0.0457      8.2088   -999.2500      2.5842     -0.0017     73.8971  
 10155.0000    -30.9649     24.9686     61.4789     73.0195      0.0413      8.2072   -999.2500      2.5992      0.0064     72.8923  
 10155.5000    -30.8290     29.1649     61.7925     71.3724      0.0370      8.2127   -999.2500      2.5960     -0.0029     73.1482  
 10156.0000    -30.7251     43.1568     60.2546     69.8554      0.0326      8.2067   -999.2500      2.5849      0.0050     73.3365  
 10156.5000    -30.6050     57.6185     57.7384     69.8839      0.0283      8.1987   -999.2500      2.5706     -0.0049     72.9288  
 10157.0000    -30.4935     55.8958     58.5158     69.8545      0.0239      8.1814   -999.2500      2.5452     -0.0087     72.6219  
 10157.5000    -30.4025     59.1696     60.6807     69.4206      0.0195      8.1845   -999.2500      2.5577      0.0036     72.9900  
 10158.0000    -30.3115     51.0518     59.9447     68.9895      0.0152      8.1822   -999.2500      2.5685      0.0114     73.3749  
 10158.5000    -30.2205     38.1264     58.9718     68.5610      0.0108      8.1642   -999.2500      2.5779      0.0193     73.7435  
 10159.0000    -30.1296     20.0949     57.8399     68.1886      0.0065      8.1252   -999.2500      2.5580      0.0105     73.9140  
 10159.5000    -30.0386     17.7245     57.2842     69.1620      0.0021      8.1140   -999.2500      2.5343      0.0061     75.9646  
 10160.0000    -29.9476     14.8313     57.6400     68.7546     -0.0023      8.1315   -999.2500      2.5349     -0.0016     78.7462  
 10160.5000    -29.8566     16.6119     57.7638     68.3278     -0.0066      8.0679   -999.2500      2.5227     -0.0005     79.6497  
 10161.0000    -29.8918     30.0046     57.8878     68.2355     -0.0110      7.9983   -999.2500      2.5216      0.0006     78.8497  
 10161.5000    -29.9699     38.5713     57.8985     67.8725     -0.0153      8.0279   -999.2500      2.5251     -0.0001     77.5748  
