~VERSION INFORMATION
 VERS.                           2.00:        CWLS LOG ASCII STANDARD - VERSION 2.00
 WRAP.                             NO:        ONE LINE PER DEPTH STEP
~WELL INFORMATION
#MNEM.UNIT                   DATA             INFORMATION
#----------             --------------        ------------------------------
 STRT.F                       94.0000:        START DEPTH
 STOP.F                    11429.0000:        STOP DEPTH
 STEP.F                        0.5000:        STEP VALUE
 NULL.                      -999.2500:        NULL VALUE
 COMP. U.S. NAVY (HUSKY OIL CO.-OPER.:        COMPANY
 LOC .                      11 11N 1W:        LOCATION
 DATE.                        2/17/77:        LOG DATE
 WELL.             WEST FISH CREEK #1:        WELL
 UWI .                   500232001400:        UNIQUE WELL ID
 API .                   500232001400:        UNIQUE WELL IDENTIFIER
 FLD .                        WILDCAT:        FIELD
 CNTY.                    NORTH SLOPE:        COUNTY
 STAT.                         ALASKA:        STATE
 CTRY.                            USA:        COUNTRY
 OPER. U.S. NAVY (HUSKY OIL CO.-OPER.:        OPERATOR
 SRVC.                   SCHLUMBERGER:        SERVICE COMPANY
 LAT .                         0.0000:        LATITUDE
 LON .                         0.0000:        LONGITUDE
 DIGS.               CENTER LINE DATA:        DIGITIZING COMPANY
~CURVE INFORMATION      
#MNEM        .UNIT         API CODE           CURVE DESCRIPTION
#-----------------      --------------        ------------------------------
 DEPT        .F                      :        1  DEPTH
 SP          .MV                     :        2  
 ILD         .OHMM                   :        3  
 ILM         .OHMM                   :        4  
 LL8         .OHMM                   :        5  
 CALI        .IN                     :        6  
 RHOB        .G/C3                   :        7  
 DRHO        .G/C3                   :        8  
 NPHI        .%                      :        9  
 GR          .GAPI                   :        10 
 DT          .US/F                   :        11 
~PARAMETER INFORMATION
#MNEM.UNIT                  VALUE             DESCRIPTION OF MNEMONIC
#---------             ---------------        ------------------------------
 EKB .F                      113.0000:        KELLY BUSHING
 TD  .F                    11429.0000:        TOTAL DEPTH
~OTHER INFORMATION
~A    DEPTH          SP         ILD         ILM         LL8        CALI        RHOB        DRHO        NPHI          GR          DT 
# ...
 11409.5000    -23.3067     10.0984     10.7446     15.0451      8.5584      2.6201      0.2339     38.9119   -999.2500   -999.2500 
 11410.0000    -22.7761     10.6980     12.1720     14.7585      8.6310      2.6143      0.2340     38.9238   -999.2500   -999.2500 
 11410.5000    -22.0785     11.3789     13.3014     16.6708      8.7036      2.6215      0.2340     38.8932   -999.2500   -999.2500 
 11411.0000    -21.4372     12.1031     13.7374     19.0675      8.7376      2.6480      0.2341     38.8626   -999.2500   -999.2500 
 11411.5000    -20.9735     12.6094     13.8630     19.8698      8.7005      2.6787      0.2342     38.8321   -999.2500   -999.2500 
 11412.0000    -20.3524     13.2031     13.9107     19.9282      8.6542      2.7053      0.2345     38.8593   -999.2500   -999.2500 
 11412.5000    -19.7451     13.7252     14.0069     19.9540      8.6011      2.6826      0.2348     38.9154   -999.2500   -999.2500 
 11413.0000    -19.4056     14.0407     14.3409     20.4851      8.5480      2.6563      0.2351     38.9714   -999.2500   -999.2500 
 11413.5000    -19.0891     14.3635     14.8854     21.2338      8.4950      2.6265      0.2354     38.9940   -999.2500   -999.2500 
 11414.0000    -18.7969     14.6937     15.4098     21.9081      8.4937      2.6125      0.2357     38.9805   -999.2500   -999.2500 
 11414.5000    -18.5054     14.7450     15.6986     20.9223      8.5547      2.6226      0.2360     38.9506   -999.2500   -999.2500 
 11415.0000    -18.3359     14.7382     15.7363     19.9832      8.6158      2.6460      0.2367     39.0434   -999.2500   -999.2500 
 11415.5000    -18.2735     14.6586     15.6587     19.5748      8.5441      2.6360      0.2375     39.2093   -999.2500   -999.2500 
 11416.0000    -18.2595     14.5102     15.3754     19.5811      8.3476      2.6109      0.2583     39.3759   -999.2500   -999.2500 
 11416.5000    -18.2872     14.3504     15.1178     19.5404      8.1511      2.5965      0.2834     39.4801   -999.2500   -999.2500 
 11417.0000    -18.5277     14.1859     14.8646     19.7377      7.8143      2.5326      0.3200     39.3226   -999.2500   -999.2500 
 11417.5000    -18.6548     14.0234     14.6156     20.1662      7.3134      2.5151      0.4356     38.3411   -999.2500   -999.2500 
 11418.0000    -18.8509     13.9724     14.3780     20.3741      7.1958      2.5365      0.4869     32.5542   -999.2500   -999.2500 
 11418.5000    -19.0654     13.9609     14.3016     19.7892      7.2523      2.5399      0.5149     20.5188   -999.2500   -999.2500 
 11419.0000    -19.2812     13.9494     14.2455     18.3343      7.2109      2.4639      0.5163     18.9175   -999.2500   -999.2500 
 11419.5000    -19.3581     14.0556     14.2656     16.8201      7.1062      2.3421      0.5152     19.6146   -999.2500   -999.2500 
 11420.0000    -19.4350     14.5351     14.5912     16.2059      7.0046      2.2768      0.5141     19.9471   -999.2500   -999.2500 
 11420.5000    -19.4742     18.2917     14.9241     15.5425      6.3951      2.2787      0.5130     20.2529   -999.2500   -999.2500 
 11421.0000    -19.4013     28.4151     15.2646     14.9819      6.1012      2.2655      0.5131     20.5125   -999.2500   -999.2500 
 11421.5000    -19.0947     33.4528     15.1918     14.4746      6.0081      2.2530      0.5144     21.0788   -999.2500   -999.2500 
 11422.0000    -18.6333     24.2654     14.4566     13.2950      6.0091      2.2850      0.5153     21.4058   -999.2500   -999.2500 
 11422.5000    -18.1719     15.1937     13.8702     11.5746   -999.2500      2.1678      0.5144     21.7617   -999.2500   -999.2500 
 11423.0000    -17.7105     10.9700     13.7114      9.8791   -999.2500      2.1558      0.5136     22.5603   -999.2500   -999.2500 
 11423.5000    -17.2876     10.0966     13.6683      9.6438   -999.2500      2.1597      0.5127     22.9717   -999.2500   -999.2500 
 11424.0000    -17.0474      9.9217     13.7116      9.4439   -999.2500      2.1803      0.5119     23.1669   -999.2500   -999.2500 
 11424.5000   -999.2500   -999.2500   -999.2500   -999.2500   -999.2500      2.1714      0.5118     23.2686   -999.2500   -999.2500 
 11425.0000   -999.2500   -999.2500   -999.2500   -999.2500   -999.2500      2.1734      0.5118     23.1418   -999.2500   -999.2500 
 11425.5000   -999.2500   -999.2500   -999.2500   -999.2500   -999.2500      2.1757      0.5118     22.9554   -999.2500   -999.2500 
 11426.0000   -999.2500   -999.2500   -999.2500   -999.2500   -999.2500      2.1539      0.5118     22.8448   -999.2500   -999.2500 
 11426.5000   -999.2500   -999.2500   -999.2500   -999.2500   -999.2500      2.1469      0.5117     22.7787   -999.2500   -999.2500 
 11427.0000   -999.2500   -999.2500   -999.2500   -999.2500   -999.2500      2.1499      0.5116     22.8156   -999.2500   -999.2500 
 11427.5000   -999.2500   -999.2500   -999.2500   -999.2500   -999.2500      2.1596      0.5116     22.9731   -999.2500   -999.2500 
 11428.0000   -999.2500   -999.2500   -999.2500   -999.2500   -999.2500      2.1734      0.5115     23.1098   -999.2500   -999.2500 
 11428.5000   -999.2500   -999.2500   -999.2500   -999.2500   -999.2500      2.1715      0.5121     23.3172   -999.2500   -999.2500 
 11429.0000   -999.2500   -999.2500   -999.2500   -999.2500   -999.2500      2.1646      0.5131     23.4444   -999.2500   -999.2500 
