~VERSION INFORMATION
 VERS.                      2.00:        CWLS LOG ASCII STANDARD - VERSION 2.00
 WRAP.                        NO:        ONE LINE PER DEPTH STEP
~WELL INFORMATION
#MNEM.UNIT               DATA            INFORMATION
#----------          ------------        ------------------------------
 STRT.F                  40.0000:        START DEPTH
 STOP.F                9893.0000:        STOP DEPTH
 STEP.F                   0.5000:        STEP VALUE
 NULL.                 -999.2500:        NULL VALUE
 COMP.                 U.S. NAVY:        COMPANY  
 WELL.    CAPE HALKETT #16N-2W-1:        WELL     
 FLD .                   WILDCAT:        FIELD    
 LOC .               5  16N   2W:        LOCATION   
 CNTY.               NORTH SLOPE:        COUNTY  
 STAT.                    ALASKA:        STATE   
 CTRY.                       USA:        COUNTRY 
 DATE.                    4/9/75:        LOG DATE 
 API .              500000000000:        UNIQUE WELL IDENTIFIER 
 OPER.                 U.S. NAVY:        OPERATOR  
 SRVC.              Schlumberger:        SERVICE COMPANY 
 UWI .              500000000000:        UNIQUE WELL ID 
 LAT .                    0.0000:        LATITUDE
 LON .                    0.0000:        LONGITUDE
 DIGS.          Center Line Data:        DIGITIZING COMPANY 
~CURVE INFORMATION      
#MNEM.UNIT            API CODE           CURVE DESCRIPTION
#---------          -------------        ------------------------------
 DEPT.F                         :        1  DEPTH
 SP  .MV                        :        2
 ILD .OHMM                      :        3
 ILM .OHMM                      :        4
 LL8 .OHMM                      :        5
 CALI.IN                        :        6
 GR  .GAPI                      :        7
 DRHO.G/C3                      :        8
 RHOB.G/C3                      :        9
 NPHI.%                         :       10
 DPHI.%                         :       11
 DT  .US/F                      :       12
~PARAMETER INFORMATION       
#MNEM.UNIT              VALUE            DESCRIPTION OF MNEMONIC
#---------          -------------        ------------------------------
 EKB .F                  39.5000:        KELLY BUSHING
 TD  .F                7867.0000:        TOTAL DEPTH
 BHT .F                  60.0000:        BOTTOM HOLE TEMPERATURE
 BS  .                   18.5000:        BIT SIZE
 FD  .                   10.5000:        FLUID DENSITY
 CSIZ.                   20.0000:        CASING SIZE
 CBD .F                 492.0000:        CASING DRILLER 1
 CBL .F                 493.0000:        CASING LOGGER 1
 DFT .             Miscellaneous:        TYPE FLUID IN HOLE
 DFV .                  200.0000:        VISCOSITY
 DFPH.                   10.0000:        PH
 DFL .                    9.2000:        FLUID LOSS
 RMS .                    2.1500:        RM
 MST .F                  57.0000:        RM MEAS. TEMP.
 RMF .                    2.2000:        RMF
 MFST.F                  40.0000:        RMF MEAS. TEMP.
 RMC .                    0.0000:        RMC
 MCST.F                   0.0000:        RMC MEAS. TEMP.
 UWI .              500000000000:        UNIQUE WELL ID
~OTHER INFORMATION
~A    DEPTH          SP         ILD         ILM         LL8        CALI          GR        DRHO        RHOB        NPHI        DPHI          DT  
# ...
  7877.5000    -36.8309      8.6962     10.3501     11.5435      9.3755     50.7432      0.0774   -999.2500      8.9165      7.2019     69.6822  
  7878.0000    -36.9342      8.9616     10.4739     10.7985      9.3686     50.3587      0.0658   -999.2500      9.0438      8.7359     71.2821  
  7878.5000    -36.9805      9.4067     10.6377     10.6830      9.3616     50.0304      0.0292   -999.2500      9.3200      9.9380     72.4701  
  7879.0000    -37.2856      9.8740     10.8357     11.6999      9.3547     50.1795      0.0064   -999.2500      9.2185      9.9270     72.1223  
  7879.5000    -38.0944     10.1703     11.0208     13.9880      9.3595     50.8302      0.0240   -999.2500      8.2213     10.1710     69.6513  
  7880.0000    -38.4566     10.3369     11.1637     15.6812      9.3718     50.4355      0.0580   -999.2500      7.6572     10.3505     66.8615  
  7880.5000    -37.2594     10.3996     11.2593     16.9825      9.3841     49.6264      0.0186   -999.2500      7.7443     10.2002     65.7242  
  7881.0000    -36.0752     10.4288     11.3389     16.2095      9.3965     47.2376      0.0041   -999.2500      7.8534      9.1868     65.6335  
  7881.5000    -35.3188     10.6280     11.4722     12.6261      9.4068     45.8718     -0.0023   -999.2500      7.1073      8.1554     66.4338  
  7882.0000    -34.8276     10.9354     11.7145      9.5779      9.4160     46.5204     -0.0093   -999.2500      7.3969      8.1008     68.1733  
  7882.5000    -34.5205     11.3094     12.3509     10.6306      9.4251     47.7509     -0.0138   -999.2500      8.0806      9.3425     69.8566  
  7883.0000    -34.6484     11.6962     13.2055     13.9369      9.4411     49.0705     -0.0007   -999.2500      8.2349      8.6792     70.8933  
  7883.5000    -34.5576     12.0962     14.1057     20.0369      9.4732     50.9124      0.0115   -999.2500      9.1727      7.2145     71.6907  
  7884.0000    -34.6093     12.3757     14.2778     26.0582      9.5053     51.8858      0.0585   -999.2500     10.0241      6.2411     71.3162  
  7884.5000    -34.7832     12.6196     14.4520     24.1694      9.5340     53.3201      0.0865   -999.2500     10.3214      7.2688     69.9424  
  7885.0000    -34.8344     12.7311     14.6509     19.0952      9.5381     52.7887      0.0960   -999.2500     10.4035      9.0088     68.4660  
  7885.5000    -34.7250     12.6046     14.3684     18.2336      9.5422     51.5903      0.0832   -999.2500     10.0961     10.0732     67.4515  
  7886.0000    -34.6861     12.2796     13.7395     16.6105      9.5462     50.6349      0.0638   -999.2500      9.3540      9.3911     68.5956  
  7886.5000    -34.6335     11.8429     13.0877     13.9300      9.5503     50.4084      0.0412   -999.2500      8.6119      8.6717     69.9236  
  7887.0000    -34.5953     11.6380     12.7121     12.7351      9.5544     51.3194      0.0389   -999.2500      8.0772      8.2305     72.5346  
  7887.5000    -34.4147     11.4824     12.5227     12.6170      9.5584     52.9025      0.0251   -999.2500      8.3334      8.2349     74.5300  
  7888.0000    -33.5956     11.3338     12.6081     13.4774      9.5778     55.6153      0.0182   -999.2500     10.1776      8.4923     75.3240  
  7888.5000    -32.8317     11.1871     12.8237     16.0282      9.6085     58.9016      0.0114   -999.2500     11.5368      8.5744     75.2801  
  7889.0000    -32.4998     11.0220     12.9692     19.0174      9.6203     59.8622      0.0146   -999.2500     12.0375      8.4503     73.4661  
  7889.5000    -32.2776     10.8420     12.2300     21.1949      9.6297     58.5549      0.0157   -999.2500     12.4056      8.9396     70.6394  
  7890.0000    -32.2899     10.6649     11.3580     17.2853      9.6325     56.3074      0.0097   -999.2500     12.0230      8.0616     69.2183  
  7890.5000    -32.3987     10.4759     10.9456     14.2135      9.6290     55.3512      0.0066   -999.2500     11.4358      6.8598     71.6591  
  7891.0000    -32.5778     10.2798     10.9057     11.8150      9.6255     54.6417      0.0060   -999.2500     10.7386      6.8390     74.7613  
  7891.5000    -32.6575     10.1177     11.0340     10.7434      9.6220     55.7066      0.0040   -999.2500     11.1496      7.3062     80.1686  
  7892.0000    -32.9340      9.9927     11.2131     10.8064      9.6185     60.4487     -0.0016   -999.2500     12.5680      8.6848     88.6733  
  7892.5000    -33.2016      9.8695     11.2381     12.2045      9.6436     65.9065      0.0018   -999.2500     15.7298     10.2798     92.6936  
  7893.0000    -32.8706      9.7231     11.2090     14.5628      9.6687     69.3397      0.0038   -999.2500     19.3978     11.6220     89.7118  
  7893.5000    -32.5396      9.2750     11.0639     15.7826      9.6958     70.7482      0.0132   -999.2500     23.4137     12.1118     85.0097  
  7894.0000    -32.3216      8.5978     10.3125     15.3711      9.6910     68.9624      0.0280   -999.2500     26.2028     13.0638     76.8895  
  7894.5000    -32.2037      7.8994      9.1186     14.2747      9.6662     62.3064      0.0477   -999.2500     23.2775     14.0588     71.5863  
  7895.0000    -32.5065      7.2105      8.1685     12.2222      9.6415     57.0945      0.0917   -999.2500     16.8168     14.7616     72.6493  
  7895.5000    -33.1846      6.8847      7.3174      9.0557      9.6167     55.8146      0.0572   -999.2500     12.0342     11.4992     73.7870  
  7896.0000    -34.0299      6.5736      6.9528      6.3973      9.6142     59.4587      0.0067   -999.2500     10.9002      7.9901     72.2069  
  7896.5000    -34.6762      6.3516      7.4649      5.3789      9.6228     61.4244      0.0056   -999.2500     11.7238      7.2848     71.1849  
  7897.0000    -34.6668      6.4398      8.2185      7.5909      9.6312     61.6224      0.0048   -999.2500     12.6748      7.0063     71.5281  
  7897.5000    -34.1816      6.6447      8.2852     13.8561      9.6392     60.9898      0.0041   -999.2500     12.1255      6.8511     71.8857  
  7898.0000    -33.2070      6.9394      8.0289     17.4887      9.6472     59.8913      0.0038   -999.2500     11.5762      6.5506     72.5511  
  7898.5000    -31.9842      7.2634      7.9638     11.4026      9.6553     58.6937      0.0050   -999.2500     11.2605      6.3603     73.1785  
  7899.0000    -31.7053      7.8273      8.3470     10.1349      9.6633     58.2689      0.0077   -999.2500     11.4655      6.2526     73.4494  
  7899.5000    -31.6010      8.3696      8.8380     10.6845      9.6713     58.1479      0.0087   -999.2500     11.6703      6.4255     73.3619  
  7900.0000    -31.5983      8.7758      9.0271     12.4121      9.6793     58.8357      0.0112   -999.2500     11.5386      6.4299     72.6053  
  7900.5000    -31.6647      8.8461      8.9901     13.3159      9.6873     59.3897      0.0115   -999.2500     11.4082      5.9786     71.5599  
  7901.0000    -32.4693      8.7951      8.8832     11.8107      9.6953     59.2953      0.0109   -999.2500     11.3443      5.6787     70.2817  
  7901.5000    -33.3521      8.6965      8.7909     10.5794      9.7033     58.8245      0.0100   -999.2500     10.7145      5.6462     69.7423  
  7902.0000    -33.3276      8.4579      8.7182     11.3180      9.7238     58.3667      0.0075   -999.2500     10.0562      5.7299     70.4611  
  7902.5000    -33.1466      8.2917      8.6994     10.7688      9.7470     58.1450      0.0127   -999.2500      9.5739      5.3122     71.6742  
  7903.0000    -32.8903      8.3747      8.8113      9.7004      9.7702     58.0427      0.0212   -999.2500      9.2855      5.1326     73.6038  
  7903.5000    -32.5829      8.6318      9.2322      9.3115      9.7934     58.9266      0.0304   -999.2500      9.5971      4.9442     75.1353  
  7904.0000    -32.6262      8.7365      9.5422     11.0935      9.8166     60.9626      0.0452   -999.2500     10.6402      5.0421     75.7688  
  7904.5000    -32.9731      8.7325      9.6882     12.7568      9.8412     63.9634      0.0598   -999.2500     12.1315      6.7791     75.4531  
