~VERSION INFORMATION
 VERS.                           2.00:        CWLS LOG ASCII STANDARD - VERSION 2.00
 WRAP.                             NO:        ONE LINE PER DEPTH STEP
~WELL INFORMATION
#MNEM.UNIT                   DATA             INFORMATION
#----------             --------------        ------------------------------
 STRT.F                      116.0000:        START DEPTH
 STOP.F                     8861.0000:        STOP DEPTH
 STEP.F                        0.5000:        STEP VALUE
 NULL.                      -999.2500:        NULL VALUE
 COMP.                     U.S. NAAVY:        COMPANY
 LOC .                 [33^13 17N 2W:        LOCATION
 DATE.                        3/30/77:        LOG DATE
 WELL.                    WT FORAN #1:        WELL
 UWI .                   501032001000:        UNIQUE WELL ID
 API .                   501032001000:        UNIQUE WELL IDENTIFIER
 FLD .                        WILDCAT:        FIELD
 CNTY.                    NORTH SLOPE:        COUNTY
 STAT.                         ALASKA:        STATE
 CTRY.                            USA:        COUNTRY
 OPER.                     U.S. NAAVY:        OPERATOR
 SRVC.                   SCHLUMBERGER:        SERVICE COMPANY
 LAT .                         0.0000:        LATITUDE
 LON .                         0.0000:        LONGITUDE
 DIGS.               CENTER LINE DATA:        DIGITIZING COMPANY
~CURVE INFORMATION      
#MNEM        .UNIT         API CODE           CURVE DESCRIPTION
#-----------------      --------------        ------------------------------
 DEPT        .F                      :        1  DEPTH
 CALI        .IN                     :        2  
 GR          .GAPI                   :        3  
 DRHO        .G/C3                   :        4  
 RHOB        .G/C3                   :        5  
 NPHI        .%                      :        6  
 DT          .US/F                   :        7  
 SP          .MV                     :        8  
 ILD         .OHMM                   :        9  
 ILM         .OHMM                   :        10 
 LL8         .OHMM                   :        11 
~PARAMETER INFORMATION
#MNEM.UNIT                  VALUE             DESCRIPTION OF MNEMONIC
#---------             ---------------        ------------------------------
 EKB .F                       39.0000:        KELLY BUSHING
 TD  .F                     8864.0000:        TOTAL DEPTH
 BHT .F                      152.0000:        BOTTOM HOLE TEMPERATURE
 BS  .                        14.2500:        BIT SIZE
 FD  .                        10.2000:        FLUID DENSITY
 CSIZ.                        16.0000:        CASING SIZE
 CBD .F                     1458.0000:        CASING DRILLER 1
 CBL .F                        0.0000:        CASING LOGGER 1
 DFT .                  MISCELLANEOUS:        TYPE FLUID IN HOLE
 DFV .                        45.0000:        VISCOSITY
 DFPH.                        10.5000:        PH
 DFL .                         5.5000:        FLUID LOSS
 RMS .                         2.4000:        RM
 MST .F                       54.0000:        RM MEAS. TEMP.
 RMF .                         2.3000:        RMF
 MFST.F                       56.0000:        RMF MEAS. TEMP.
 RMC .                         2.7000:        RMC
 MCST.F                       54.0000:        RMC MEAS. TEMP.
~OTHER INFORMATION
~A    DEPTH        CALI          GR        DRHO        RHOB        NPHI          DT          SP         ILD         ILM         LL8 
# ...
  4691.0000     17.9391    104.9259      0.1547      2.4167     38.4929    116.4157    -23.4585      2.9741      2.8433      3.6049 
  4691.5000     17.9391    104.2402      0.1502      2.4153     39.2481    116.5519    -23.4586      2.9710      2.8415      3.5878 
  4692.0000     17.9391    103.1341      0.1479      2.4158     39.3389    116.9829    -23.6484      2.9679      2.8397      3.5578 
  4692.5000     17.9391    102.2932      0.1465      2.4151     38.2929    117.7580    -23.8614      2.9649      2.8451      3.5568 
  4693.0000     17.9391    101.7521      0.1439      2.4106     37.4250    118.2163    -24.0324      2.9618      2.8587      3.5813 
  4693.5000     17.9391    101.6793      0.1404      2.4019     36.7993    118.2155    -24.1555      2.9575      2.8725      3.5581 
  4694.0000     17.9391    102.4014      0.1378      2.3988     37.5599    118.3627    -24.1829      2.9819      2.8862      3.5799 
  4694.5000     17.9392    102.9899      0.1460      2.4129     38.2200    117.5640    -24.2464      3.0099      2.9001      3.6018 
  4695.0000     17.9392    103.1948      0.1576      2.4197     38.7771    116.5689    -24.4677      3.0448      2.9140      3.6239 
  4695.5000     17.9392    102.6443      0.1726      2.4308     38.0199    115.5793    -24.7108      3.0801      2.9269      3.6462 
  4696.0000     17.9392    102.0207      0.1673      2.4385     36.9917    114.8527    -24.8251      3.1158      2.9377      3.6593 
  4696.5000     17.9392    101.4920      0.1536      2.4297     35.9636    114.4934    -24.8802      3.1519      2.9486      3.6683 
  4697.0000     17.9392    101.0207      0.1580      2.4243     35.9481    114.9834    -25.0048      3.1884      2.9595      3.6756 
  4697.5000     17.9392    100.1214      0.1762      2.4291     36.5226    115.7414    -25.0051      3.2254      2.9704      3.6828 
  4698.0000     17.9392     98.1171      0.1627      2.4254     36.4140    116.5712    -24.9462      3.2596      2.9814      3.6901 
  4698.5000     17.9392     95.7873      0.1524      2.4214     35.8303    116.8539    -24.7828      3.2815      2.9922      3.6973 
  4699.0000     17.9392     95.0794      0.1402      2.4181     35.2342    116.5421    -24.5756      3.3034      3.0027      3.7046 
  4699.5000     17.9392     96.2248      0.1463      2.4170     34.5510    115.7105    -24.6374      3.3256      3.0197      3.7144 
  4700.0000     17.9392     97.5470      0.1647      2.4249     33.8308    115.3155    -24.5790      3.3479      3.0537      3.7255 
  4700.5000     17.9392     98.3465      0.1580      2.4296     33.5928    116.2280    -24.4826      3.3703      3.0881      3.7367 
  4701.0000     17.9392     98.0502      0.1513      2.4221     33.6960    115.8987    -24.6104      3.3929      3.1229      3.7480 
  4701.5000     17.9392     96.6452      0.1355      2.4144     34.1784    115.8072    -24.7770      3.4157      3.1581      3.7631 
  4702.0000     17.9392     95.6245      0.1431      2.4132     34.5571    115.7077    -24.8993      3.4385      3.1931      3.7791 
  4702.5000     17.9392     95.3372      0.1248      2.4315     34.8214    113.8488    -24.9444      3.4616      3.2283      3.7952 
  4703.0000     17.9392     94.6367      0.1072      2.4092     34.3366    111.8143    -24.9329      3.4848      3.2640      3.8114 
  4703.5000     17.9393     94.3824      0.0933      2.3981     33.8107    111.1022    -24.9215      3.5082      3.3000      3.8276 
  4704.0000     17.9393     95.1642      0.1117      2.4184     33.5967    109.4505    -24.8519      3.5417      3.3365      3.8439 
  4704.5000     17.9393     95.6711      0.1058      2.4175     33.5360    109.8264    -24.7701      3.5913      3.3746      3.8602 
  4705.0000     17.9393     95.7408      0.1009      2.4088     33.6625    110.1586    -24.7880      3.6415      3.4139      3.8767 
  4705.5000     17.9393     96.5228      0.1071      2.4143     34.1317    109.8653    -24.9036      3.6872      3.4479      3.8932 
  4706.0000     17.9393     97.7195      0.1118      2.4113     34.6873    109.8703    -25.1027      3.7158      3.4421      3.9098 
  4706.5000     17.9393     98.3327      0.0954      2.3966     35.2429    110.1463    -24.9043      3.7349      3.4332      3.9264 
  4707.0000     17.9393     98.4368      0.0835      2.3913     35.8109    110.3637    -24.6861      3.7349      3.4240      3.9431 
  4707.5000     17.9393     97.7280      0.1032      2.4114     36.2933    109.8477    -24.6429      3.7349      3.4108      3.9294 
  4708.0000     17.9393     95.9467      0.1180      2.4320     36.8806    110.8341    -24.6037      3.7247      3.3938      3.9024 
  4708.5000     17.9393     95.2202      0.1300      2.4497     37.7328    111.4753    -24.3670      3.6675      3.3606      3.8755 
  4709.0000     17.9393     95.7146      0.1367      2.4627     38.7216    111.9920    -24.1478      3.6112      3.3277      3.8473 
  4709.5000     17.9393     97.1772      0.1394      2.4626     38.9903    113.5543    -24.0601      3.5557      3.2951      3.8179 
  4710.0000     17.9393     97.2480      0.1204      2.4334     37.9637    113.6513    -24.1952      3.5044      3.2628      3.7887 
  4710.5000     17.9393     97.1874      0.0987      2.4032     37.1194    114.6287    -24.4043      3.4589      3.2309      3.7598 
  4711.0000     17.9393     98.2997      0.1228      2.4276     36.5240    115.5219    -24.4768      3.4140      3.1992      3.7310 
  4711.5000     17.9393     99.3951      0.1326      2.4388     36.6129    116.3772    -24.3385      3.3697      3.1679      3.7025 
  4712.0000     17.9393     98.6151      0.1254      2.4335     36.8025    116.2933    -24.4133      3.3259      3.1369      3.6742 
  4712.5000     17.9394     96.4460      0.1136      2.4245     37.0572    115.9486    -24.7347      3.2828      3.1061      3.6461 
  4713.0000     17.9394     95.4958      0.1126      2.4238     37.1897    115.6587    -24.9165      3.2401      3.0757      3.6182 
  4713.5000     17.9394     95.4858      0.1003      2.4091     37.2722    115.7159    -24.8020      3.1981      3.0456      3.5992 
  4714.0000     17.9394     97.0952      0.1171      2.4255     38.6549    116.5137    -24.5727      3.1565      3.0158      3.5810 
  4714.5000     17.9394    101.2549      0.1241      2.4397     38.3407    116.9599    -24.1996      3.1218      3.0000      3.5630 
  4715.0000     17.9394    105.0436      0.1192      2.4278     37.2902    117.2998    -23.9891      3.0959      2.9962      3.5479 
  4715.5000     17.9394    105.9920      0.1256      2.4413     36.2519    117.9709    -23.9195      3.0701      2.9924      3.5329 
  4716.0000     17.9394    105.9513      0.1094      2.4071     35.5578    117.7505    -23.6912      3.0446      2.9886      3.5179 
  4716.5000     17.9394    104.8288      0.1001      2.3975     35.5453    117.5332    -23.5535      3.0567      2.9848      3.5286 
  4717.0000     17.9394    103.6569      0.1015      2.3980     35.8058    116.6170    -23.7205      3.0724      2.9810      3.5559 
  4717.5000     17.9394    102.4850      0.1079      2.4063     36.2576    116.7617    -23.8951      3.0881      2.9866      3.5664 
  4718.0000     17.9394    101.5437      0.1203      2.4189     36.2897    116.9322    -23.7084      3.1039      2.9947      3.5995 
  4718.5000     17.9394    102.3184      0.1397      2.4335     35.9656    116.1115    -23.3745      3.1197      3.0021      3.6250 
  4719.0000     17.9394    102.8180      0.1281      2.4184     35.1009    115.7999    -23.1823      3.1314      3.0021      3.6404 
  4719.5000     17.9394    101.4144      0.1343      2.4204     35.3951    115.9658    -23.1412      3.1224      2.9963      3.6620 
  4720.0000     17.9394     99.9213      0.1419      2.4188     36.7120    116.4085    -23.0121      3.1135      2.9787      3.6505 
  4720.5000     17.9394     99.1169      0.1539      2.4302     37.9998    117.6969    -22.8754      3.1046      2.9612      3.6270 
  4721.0000     17.9394     99.7664      0.1658      2.4426     38.8202    118.2483    -22.8997      3.0958      2.9438      3.5900 
