~VERSION INFORMATION
 VERS.                      2.00:        CWLS LOG ASCII STANDARD - VERSION 2.00
 WRAP.                        NO:        ONE LINE PER DEPTH STEP
~WELL INFORMATION
#MNEM.UNIT               DATA            INFORMATION
#----------          ------------        ------------------------------
 STRT.F                 490.0000:        START DEPTH
 STOP.F               10659.0000:        STOP DEPTH
 STEP.F                   0.5000:        STEP VALUE
 NULL.                 -999.2500:        NULL VALUE
 COMP. HUSKY OIL NPR OPERATIONS,:        COMPANY  
 WELL.         EAST TESHEKPUK #1:        WELL     
 FLD .   U.S. NAVY NPR-4 WILDCAT:        FIELD    
 LOC .              16  14N   4W:        LOCATION   
 CNTY.                  N. SLOPE:        COUNTY  
 STAT.                    ALASKA:        STATE   
 CTRY.                       USA:        COUNTRY 
 DATE.                   4/11/76:        LOG DATE 
 API .              502790000000:        UNIQUE WELL IDENTIFIER 
 OPER. HUSKY OIL NPR OPERATIONS,:        OPERATOR  
 SRVC.              Schlumberger:        SERVICE COMPANY 
 UWI .              502790000000:        UNIQUE WELL ID 
 LAT .                    0.0000:        LATITUDE
 LON .                    0.0000:        LONGITUDE
 DIGS.          Center Line Data:        DIGITIZING COMPANY 
~CURVE INFORMATION      
#MNEM.UNIT            API CODE           CURVE DESCRIPTION
#---------          -------------        ------------------------------
 DEPT.F                         :        1  DEPTH
 SP  .MV                        :        2
 LL8 .OHMM                      :        3
 ILM .OHMM                      :        4
 ILD .OHMM                      :        5
 CALI.IN                        :        6
 GR  .GAPI                      :        7
 RHOB.G/C3                      :        8
 DRHO.G/C3                      :        9
 NPHI.%                         :       10
 DT  .US/F                      :       11
~PARAMETER INFORMATION       
#MNEM.UNIT              VALUE            DESCRIPTION OF MNEMONIC
#---------          -------------        ------------------------------
 EKB .F                  27.6000:        KELLY BUSHING
 TD  .F               10664.0000:        TOTAL DEPTH
 BHT .F                 172.0000:        BOTTOM HOLE TEMPERATURE
 BS  .                   13.5000:        BIT SIZE
 FD  .                   10.2000:        FLUID DENSITY
 CSIZ.                   16.0000:        CASING SIZE
 CBD .F                2578.0000:        CASING DRILLER 1
 CBL .F                2572.0000:        CASING LOGGER 1
 DFT . Salt Water-Lignosulfonate:        TYPE FLUID IN HOLE
 DFV .                   51.0000:        VISCOSITY
 DFPH.                   10.6000:        PH
 DFL .                    3.5000:        FLUID LOSS
 RMS .                    2.2600:        RM
 MST .F                  64.0000:        RM MEAS. TEMP.
 RMF .                    1.8900:        RMF
 MFST.F                  58.0000:        RMF MEAS. TEMP.
 RMC .                    2.5400:        RMC
 MCST.F                  58.0000:        RMC MEAS. TEMP.
 UWI .              502790000000:        UNIQUE WELL ID
~OTHER INFORMATION
~A    DEPTH          SP         LL8         ILM         ILD        CALI          GR        RHOB        DRHO        NPHI          DT  
# ...
  7930.0000    -32.8574      2.8455      2.1155      2.1412     14.2455    104.2763      2.6263      0.2105     35.2827     92.3832  
  7930.5000    -32.8556      2.8660      2.1043      2.1297     14.6479    104.8004      2.6148      0.1871     34.7277     92.6150  
  7931.0000    -32.7492      2.8372      2.0822      2.1074     15.1995    115.7185      2.5910      0.1679     34.0262     92.7572  
  7931.5000    -32.6838      2.8305      2.0761      2.1019     14.6193    109.8552      2.5996      0.1836     34.1367     92.9475  
  7932.0000    -32.7952      2.8350      2.0676      2.0933     14.0391    107.2160      2.6259      0.2145     34.0033     92.7934  
  7932.5000    -32.8902      2.8582      2.0472      2.0721     14.0622    107.0449      2.5999      0.1999     33.5072     92.6568  
  7933.0000    -32.7092      2.8618      2.0245      2.0490     14.1384    106.8737      2.5468      0.1614     32.7872     92.7642  
  7933.5000    -32.4428      2.8620      2.0305      2.0551     14.1731    106.2259      2.5573      0.1419     32.6323     92.7681  
  7934.0000    -32.3407      2.8541      2.0362      2.0612     14.3566    105.4258      2.5686      0.1278     33.4640     92.8793  
  7934.5000    -32.3543      2.8750      2.0266      2.0511     14.6968    104.6256      2.5819      0.1397     34.0640     93.1864  
  7935.0000    -32.2125      2.8758      2.0395      2.0645     14.7580    104.2067      2.5829      0.1482     33.8399     93.0938  
  7935.5000    -32.0303      2.8587      2.0354      2.0603     14.5232    104.7764      2.5495      0.1175     34.1414     92.9441  
  7936.0000    -32.0069      2.8309      2.0475      2.0729     14.2916    104.9021      2.5362      0.1121     34.7554     92.8320  
  7936.5000    -32.0397      2.8381      2.0472      2.0739     14.1964    104.1455      2.5552      0.1368     35.3135     92.6824  
  7937.0000    -31.8131      2.8731      2.0650      2.0901     14.3288    103.9147      2.5506      0.1272     35.4702     92.3149  
  7937.5000    -31.6532      2.9152      2.0988      2.1271     14.3523    102.9146      2.5529      0.1266     35.0231     91.7907  
  7938.0000    -31.6458      2.9757      2.1404      2.1665     14.1483    101.4121      2.5660      0.1470     34.6022     91.6254  
  7938.5000    -31.8297      3.0155      2.1378      2.1643     14.1449    100.1573      2.5983      0.1888     34.5588     91.3350  
  7939.0000    -32.0078      3.0255      2.1429      2.1691     14.1416     99.7637      2.5980      0.1586     35.0217     90.7463  
  7939.5000    -31.8653      3.0167      2.1503      2.1763     14.2348     99.5013      2.5863      0.1437     34.6008     90.3262  
  7940.0000    -31.3767      2.9942      2.1535      2.1795     14.3286    100.7436      2.6026      0.1393     34.0545     89.8401  
  7940.5000    -31.0587      2.9718      2.1527      2.1791     14.4223    102.1152      2.6153      0.1489     33.6011     89.7867  
  7941.0000    -31.0173      2.9449      2.1533      2.1794     14.4361    103.9944      2.6174      0.1578     33.3175     90.0108  
  7941.5000    -31.0965      2.9399      2.1609      2.1870     14.3820    105.1714      2.6201      0.1667     32.7463     90.1489  
  7942.0000    -31.4258      2.9489      2.1537      2.1799     14.3160    105.1812      2.6190      0.1638     31.9877     90.2610  
  7942.5000    -31.4849      2.9607      2.1565      2.1828     14.1881    104.4993      2.6188      0.1491     31.4685     90.1766  
  7943.0000    -31.3873      2.9711      2.1628      2.1895     14.0603    103.2779      2.6082      0.1211     32.0293     89.9744  
  7943.5000    -31.1883      2.9871      2.1785      2.2048     14.0721    102.9610      2.6067      0.1086     32.1230     89.7001  
  7944.0000    -31.0941      3.0537      2.1931      2.2206     14.0979    102.8321      2.6158      0.1189     31.6837     89.2762  
  7944.5000    -30.6418      3.0847      2.2004      2.2271     14.0115    104.2233      2.6076      0.1119     31.4546     88.8579  
  7945.0000    -30.3997      3.1042      2.2301      2.2580     13.9848    105.0656      2.6054      0.1153     31.6624     88.6553  
  7945.5000    -30.1551      3.0903      2.2152      2.2422     14.0246    105.6732      2.6049      0.1065     31.5919     89.0088  
  7946.0000    -29.4139      3.0703      2.2218      2.2486     14.0848    104.1982      2.6260      0.1142     31.2321     89.1910  
  7946.5000    -28.9297      3.0330      2.2356      2.2643     14.0137    101.7192      2.6145      0.1111     30.9164     89.2807  
  7947.0000    -28.1754      3.0262      2.2160      2.2437     14.1028     99.0707      2.6136      0.1035     30.7355     89.5133  
  7947.5000    -27.3345      3.0380      2.2241      2.2510     14.2483     95.6168      2.6093      0.1046     30.9765     89.6401  
  7948.0000    -26.3056      3.0515      2.2317      2.2593     14.1673     94.5682      2.6132      0.1244     30.8792     89.8754  
  7948.5000    -25.4913      3.0516      2.2411      2.2683     14.0863     93.5196      2.6260      0.1398     30.4678     90.2390  
  7949.0000    -25.1021      3.0634      2.2532      2.2809     14.0053     92.4711      2.6193      0.1208     30.7639     90.4668  
  7949.5000    -24.7313      3.1386      2.2880      2.3167     13.9372     92.4008      2.6138      0.1138     31.3377     90.0615  
  7950.0000    -23.7736      3.3786      2.3208      2.3489     13.9481     93.5950      2.6376      0.1183     32.2218     88.5786  
  7950.5000    -22.7828      3.3984      2.3521      2.3814     14.0384     96.2822      2.6415      0.1254     32.4476     86.9598  
  7951.0000    -22.1595      3.4200      2.3598      2.3885     14.1326     98.1042      2.6058      0.1151     31.8003     86.5100  
  7951.5000    -21.5584      3.3144      2.3591      2.3880     14.4575     97.8482      2.5902      0.0973     30.7632     86.9775  
  7952.0000    -21.2386      3.1473      2.3560      2.3846     14.2622     97.8379      2.6184      0.0989     30.2708     88.4140  
  7952.5000    -20.7362      3.0591      2.3565      2.3851     14.0647     99.1347      2.6561      0.1273     30.1710     89.1438  
  7953.0000    -20.7188      3.1127      2.3526      2.3811     14.0231    100.5582      2.6635      0.1003     30.1793     88.5433  
  7953.5000    -20.8382      3.1912      2.3435      2.3728     14.0106    101.1645      2.6044      0.0687     30.0478     87.0701  
  7954.0000    -20.6071      3.2585      2.3218      2.3500     13.9429    101.7483      2.6112      0.0981     30.6426     85.4261  
  7954.5000    -20.0217      3.2898      2.3082      2.3361     13.9470    101.7325      2.6045      0.1202     31.5465     85.5717  
  7955.0000    -19.1977      3.2561      2.3105      2.3421     14.0814    101.4934      2.5764      0.1306     31.9707     86.6534  
  7955.5000    -18.8263      3.1589      2.2774      2.3050     14.2158    100.1402      2.5520      0.1555     31.9024     87.4017  
  7956.0000    -18.4979      3.0518      2.2660      2.2935     13.9649     99.2991      2.5555      0.2045     31.8073     88.4177  
  7956.5000    -18.1696      2.9798      2.2587      2.2859     13.7850    100.1308      2.5384      0.2147     32.3594     89.4570  
  7957.0000    -17.8412      2.9912      2.2498      2.2771     13.6103    100.4169      2.5612      0.2466     33.1339     89.6927  
  7957.5000    -17.5129      3.0315      2.2490      2.2764     13.7071     99.5180      2.5924      0.2417     33.0345     89.9649  
  7958.0000    -17.1620      3.0622      2.2493      2.2767     13.8557     97.8856      2.5570      0.1928     32.7668     89.9971  
  7958.5000    -16.6515      3.0585      2.2403      2.2693     13.9668     96.6865      2.5721      0.1599     32.4499     89.6885  
  7959.0000    -16.2514      3.0397      2.2404      2.2682     13.9820     96.7141      2.6053      0.1514     32.8324     89.2195  
  7959.5000    -15.9473      3.0626      2.2581      2.2855     14.0353     97.6456      2.6228      0.1286     32.9577     89.0960  
