~VERSION INFORMATION
 VERS.                           2.00:        CWLS LOG ASCII STANDARD - VERSION 2.00
 WRAP.                             NO:        ONE LINE PER DEPTH STEP
~WELL INFORMATION
#MNEM.UNIT                   DATA             INFORMATION
#----------             --------------        ------------------------------
 STRT.F                       66.0000:        START DEPTH
 STOP.F                    11266.0000:        STOP DEPTH
 STEP.F                        0.5000:        STEP VALUE
 NULL.                      -999.2500:        NULL VALUE
 COMP.              HUSKY OIL COMPANY:        COMPANY
 LOC .                       6 12N 2E:        LOCATION
 DATE.                       12/24/76:        LOG DATE
 WELL.          SOUTH HARRISON BAY #1:        WELL
 UWI .                   501032000700:        UNIQUE WELL ID
 API .                   501032000700:        UNIQUE WELL IDENTIFIER
 FLD .                        WILDCAT:        FIELD
 CNTY.                    NORTH SLOPE:        COUNTY
 STAT.                         ALASKA:        STATE
 CTRY.                            USA:        COUNTRY
 OPER.              HUSKY OIL COMPANY:        OPERATOR
 SRVC.                   SCHLUMBERGER:        SERVICE COMPANY
 LAT .                         0.0000:        LATITUDE
 LON .                         0.0000:        LONGITUDE
 DIGS.               CENTER LINE DATA:        DIGITIZING COMPANY
~CURVE INFORMATION      
#MNEM        .UNIT         API CODE           CURVE DESCRIPTION
#-----------------      --------------        ------------------------------
 DEPT        .F                      :        1  DEPTH
 GR          .GAPI                   :        2  
 CALI        .IN                     :        3  
 DRHO        .G/C3                   :        4  
 RHOB        .G/C3                   :        5  
 NPHI        .%                      :        6  
 DT          .US/F                   :        7  
 SP          .MV                     :        8  
 ILD         .OHMM                   :        9  
 ILM         .OHMM                   :        10 
 LL8         .OHMM                   :        11 
~PARAMETER INFORMATION
#MNEM.UNIT                  VALUE             DESCRIPTION OF MNEMONIC
#---------             ---------------        ------------------------------
 EKB .F                       45.0000:        KELLY BUSHING
 TD  .F                    11290.0000:        TOTAL DEPTH
 BHT .F                      174.0000:        BOTTOM HOLE TEMPERATURE
 BS  .                        12.2500:        BIT SIZE
 FD  .                        10.7000:        FLUID DENSITY
 CSIZ.                        13.3750:        CASING SIZE
 CBD .F                     2600.0000:        CASING DRILLER 1
 CBL .F                     2600.0000:        CASING LOGGER 1
 DFT .                  MISCELLANEOUS:        TYPE FLUID IN HOLE
 DFV .                        52.0000:        VISCOSITY
 DFPH.                         8.2000:        PH
 DFL .                         6.0000:        FLUID LOSS
 RMS .                         1.3900:        RM
 MST .F                       60.0000:        RM MEAS. TEMP.
 RMF .                         1.0200:        RMF
 MFST.F                       60.0000:        RMF MEAS. TEMP.
 RMC .                         1.3800:        RMC
 MCST.F                       60.0000:        RMC MEAS. TEMP.
~OTHER INFORMATION
~A    DEPTH          GR        CALI        DRHO        RHOB        NPHI          DT          SP         ILD         ILM         LL8 
# ...
 11229.0000     18.5594      7.9703      0.0028      2.7603      1.7296     49.9525    -56.7062    423.5112    164.5449    581.5134 
 11229.5000     17.4269      7.9578      0.0014      2.7455      1.7421     49.8744    -54.2882    474.7589    193.4577    619.0900 
 11230.0000     16.7646      7.9383      0.0005      2.7307      1.9235     49.9848    -54.7286    518.4116    207.5161    552.3719 
 11230.5000     16.4698      7.9556      0.0000      2.7424      2.3462     49.9767    -55.3449    536.9290    205.0855    481.0135 
 11231.0000     16.6754      7.9717      0.0051      2.7470      3.0101     49.8549    -52.7454    543.1401    195.1410    412.5500 
 11231.5000     16.2462      7.9855      0.0080      2.7479      4.1912     49.9193    -49.7415    549.4232    190.3187    350.8030 
 11232.0000     16.0723      7.9519      0.0050      2.7509      4.9461     50.1366    -49.0262    538.9010    190.0740    314.3199 
 11232.5000     16.0381      7.9569      0.0018      2.7584      5.2395     50.3278    -51.1214    490.8060    204.1779    316.6280 
 11233.0000     16.1660      7.9619      0.0064      2.7722      5.2438     50.3069    -54.6937    415.7656    207.5586    339.4869 
 11233.5000     16.6900      7.9669      0.0118      2.7744      5.2604     50.2114    -59.0838    334.8809    179.4815    418.3755 
 11234.0000     20.7233      7.9719      0.0286      2.7825      5.2879     50.3343    -58.7880    256.1422    131.4081    519.4471 
 11234.5000     32.0932      7.9769      0.0542      2.8082      5.2994     50.7114    -56.4618    200.8798     90.8070    657.9425 
 11235.0000     58.2963      7.9819      0.0647      2.8202      5.2694     51.0716    -54.5683    162.1943     67.2797    475.5989 
 11235.5000   -999.2500      7.9869      0.0572      2.8134      5.2585     51.4624    -53.7005    134.9448     57.5775    295.6353 
 11236.0000   -999.2500      7.9919      0.0489      2.8073      5.3018     51.9791    -53.8473    120.8164     59.7226    215.0609 
 11236.5000   -999.2500      7.9970      0.0325      2.7958      5.3271     52.3085    -52.7288    107.3334     64.0201    184.2945 
 11237.0000   -999.2500      7.9689      0.0183      2.7932      5.3208     52.5424    -52.5268     93.9875     68.0430    138.8416 
 11237.5000   -999.2500      7.7561      0.0204      2.7828      5.1891     52.5723    -54.9460     81.8522     71.8392    102.9814 
 11238.0000   -999.2500      7.6787      0.0309      2.7681      5.1053     51.6809    -56.4218     70.4884     68.0997    104.1359 
 11238.5000   -999.2500      7.8256      0.0380      2.7815      5.1360     52.5392    -55.8202     63.0046     59.5786    139.5837 
 11239.0000   -999.2500      7.8723      0.0343      2.7995      5.4040     53.9064    -54.8299     54.1419     49.5796    159.9965 
 11239.5000   -999.2500      7.8963      0.0249      2.8150      5.7457     55.0118    -53.3036     49.8958     39.7347     99.3429 
 11240.0000   -999.2500      7.9203      0.0197      2.8663      5.8766     55.6222    -51.1276     49.1736     31.8009     52.2825 
 11240.5000   -999.2500      7.9443     -0.0072      2.9541      4.8112     53.5701    -51.2836     52.3051     33.0053     52.8217 
 11241.0000   -999.2500      7.9683     -0.0406      2.9991      3.0653     52.4756    -50.8626     56.5053     35.6678     63.6526 
 11241.5000   -999.2500      7.9923     -0.1521      2.9994      1.6074     51.5008    -48.9366     61.0427     40.3200    136.4743 
 11242.0000   -999.2500      7.9937     -0.2490      2.9996      0.6324     50.7258    -46.8542     66.3772     45.7932    225.9037 
 11242.5000   -999.2500      7.9933     -0.2494      2.9999     -0.0319     51.0244    -45.9535     73.9894     51.1565    255.6904 
 11243.0000   -999.2500      7.9928     -0.2497      3.0002     -0.9252     50.9516    -47.0876     80.4038     56.7759    245.3548 
 11243.5000   -999.2500      7.9924     -0.2501      2.8723     -1.8232     51.4358    -48.4581     83.3634     59.3038    245.5327 
 11244.0000   -999.2500      8.2346     -0.2504      2.7371     -2.6523     54.0498    -49.3544     75.9930     56.4384    188.1740 
 11244.5000   -999.2500      7.7492     -0.2401      2.7822     -3.2987     56.1062    -48.9823     69.2743     50.4215    128.1396 
 11245.0000   -999.2500      8.1041     -0.1699      2.8447     -3.3458     57.6848    -47.5356     62.6287     45.2617     71.3061 
 11245.5000   -999.2500      8.2279     -0.0437      2.7251     -3.3929     57.1707    -47.1234     55.6259     43.9464     53.4233 
 11246.0000   -999.2500      8.2387      0.0301      2.6760     -3.4058     54.8621    -47.2963     49.4062     44.7606     54.9885 
 11246.5000   -999.2500      8.2359      0.0288      2.7014     -3.4110     53.9541    -47.8525     43.8818     45.5898     79.4070 
 11247.0000   -999.2500      8.2393      0.0364      2.7425     -3.4161     54.8315    -48.0939     38.9752     45.0601    125.9157 
 11247.5000   -999.2500      8.2359      0.0352      2.7490     -3.4213     56.7043    -47.7668     33.5737     37.2171    118.6672 
 11248.0000   -999.2500      8.2321      0.0296      2.7467     -3.4264     59.1983    -47.2878     28.8995     30.0143     72.7044 
 11248.5000   -999.2500      8.2292      0.0375      2.7521     -3.4316     61.6427    -46.2781     25.4161     25.4201     50.5143 
 11249.0000   -999.2500      8.2312      0.0398      2.7555     -3.4367     64.3340    -45.3659     24.0728     21.9256     40.2448 
 11249.5000   -999.2500      8.2333      0.0383      2.7494     -3.4353     64.0839    -45.6800     22.9404     19.2473     32.5951 
 11250.0000   -999.2500      8.2353      0.0320      2.7331     -3.4310     62.0371    -46.4639     23.1629     20.2706     26.3014 
 11250.5000   -999.2500   -999.2500   -999.2500   -999.2500   -999.2500     57.6946    -46.2343     24.4169     25.7103     30.5134 
 11251.0000   -999.2500   -999.2500   -999.2500   -999.2500   -999.2500     53.0269    -45.9647     27.2537     32.6097     79.8615 
 11251.5000   -999.2500   -999.2500   -999.2500   -999.2500   -999.2500     51.4273    -47.7584     29.4940     42.2173    209.0181 
 11252.0000   -999.2500   -999.2500   -999.2500   -999.2500   -999.2500     50.7760    -50.0403     32.3459     51.6325    511.9272 
 11252.5000   -999.2500   -999.2500   -999.2500   -999.2500   -999.2500     51.8083    -52.0976     41.6617     59.2621    462.7502 
 11253.0000   -999.2500   -999.2500   -999.2500   -999.2500   -999.2500     52.4083    -52.8773     62.8251     63.5389    312.3749 
 11253.5000   -999.2500   -999.2500   -999.2500   -999.2500   -999.2500     51.9797    -52.2164    123.6459     67.2092    224.6082 
 11254.0000   -999.2500   -999.2500   -999.2500   -999.2500   -999.2500     51.4946    -49.6604    329.1843     69.2318    203.2931 
 11254.5000   -999.2500   -999.2500   -999.2500   -999.2500   -999.2500     51.2488    -47.4332    622.6973     75.3799    239.1229 
 11255.0000   -999.2500   -999.2500   -999.2500   -999.2500   -999.2500     51.0078    -47.9802    517.6082     84.9247    311.4131 
 11255.5000   -999.2500   -999.2500   -999.2500   -999.2500   -999.2500     51.0081    -50.1367    311.3957     92.5117    370.9407 
 11256.0000   -999.2500   -999.2500   -999.2500   -999.2500   -999.2500     51.0083    -48.8364    225.2497     94.4305    372.8211 
 11256.5000   -999.2500   -999.2500   -999.2500   -999.2500   -999.2500     51.0086    -49.2748    191.2839     96.2046    376.4150 
 11257.0000   -999.2500   -999.2500   -999.2500   -999.2500   -999.2500     51.0089    -51.5993    188.0648     88.0560    344.5335 
 11257.5000   -999.2500   -999.2500   -999.2500   -999.2500   -999.2500     51.0525    -53.3404    177.9545     81.7709    233.8294 
 11258.0000   -999.2500   -999.2500   -999.2500   -999.2500   -999.2500     50.9527    -54.6029    152.6925     81.9503    181.1705 
 11258.5000   -999.2500   -999.2500   -999.2500   -999.2500   -999.2500     50.9428    -54.0790    119.3383     82.4961    242.2425 
 11259.0000   -999.2500   -999.2500   -999.2500   -999.2500   -999.2500     50.9759    -53.8934    115.0112     74.4374    376.6271 
