~VERSION INFORMATION
 VERS.                      2.00:        CWLS LOG ASCII STANDARD - VERSION 2.00
 WRAP.                        NO:        ONE LINE PER DEPTH STEP
~WELL INFORMATION
#MNEM.UNIT               DATA            INFORMATION
#----------          ------------        ------------------------------
 STRT.F                 490.0000:        START DEPTH
 STOP.F               10659.0000:        STOP DEPTH
 STEP.F                   0.5000:        STEP VALUE
 NULL.                 -999.2500:        NULL VALUE
 COMP. HUSKY OIL NPR OPERATIONS,:        COMPANY  
 WELL.         EAST TESHEKPUK #1:        WELL     
 FLD .   U.S. NAVY NPR-4 WILDCAT:        FIELD    
 LOC .              16  14N   4W:        LOCATION   
 CNTY.                  N. SLOPE:        COUNTY  
 STAT.                    ALASKA:        STATE   
 CTRY.                       USA:        COUNTRY 
 DATE.                   4/11/76:        LOG DATE 
 API .              502790000000:        UNIQUE WELL IDENTIFIER 
 OPER. HUSKY OIL NPR OPERATIONS,:        OPERATOR  
 SRVC.              Schlumberger:        SERVICE COMPANY 
 UWI .              502790000000:        UNIQUE WELL ID 
 LAT .                    0.0000:        LATITUDE
 LON .                    0.0000:        LONGITUDE
 DIGS.          Center Line Data:        DIGITIZING COMPANY 
~CURVE INFORMATION      
#MNEM.UNIT            API CODE           CURVE DESCRIPTION
#---------          -------------        ------------------------------
 DEPT.F                         :        1  DEPTH
 SP  .MV                        :        2
 LL8 .OHMM                      :        3
 ILM .OHMM                      :        4
 ILD .OHMM                      :        5
 CALI.IN                        :        6
 GR  .GAPI                      :        7
 RHOB.G/C3                      :        8
 DRHO.G/C3                      :        9
 NPHI.%                         :       10
 DT  .US/F                      :       11
~PARAMETER INFORMATION       
#MNEM.UNIT              VALUE            DESCRIPTION OF MNEMONIC
#---------          -------------        ------------------------------
 EKB .F                  27.6000:        KELLY BUSHING
 TD  .F               10664.0000:        TOTAL DEPTH
 BHT .F                 172.0000:        BOTTOM HOLE TEMPERATURE
 BS  .                   13.5000:        BIT SIZE
 FD  .                   10.2000:        FLUID DENSITY
 CSIZ.                   16.0000:        CASING SIZE
 CBD .F                2578.0000:        CASING DRILLER 1
 CBL .F                2572.0000:        CASING LOGGER 1
 DFT . Salt Water-Lignosulfonate:        TYPE FLUID IN HOLE
 DFV .                   51.0000:        VISCOSITY
 DFPH.                   10.6000:        PH
 DFL .                    3.5000:        FLUID LOSS
 RMS .                    2.2600:        RM
 MST .F                  64.0000:        RM MEAS. TEMP.
 RMF .                    1.8900:        RMF
 MFST.F                  58.0000:        RMF MEAS. TEMP.
 RMC .                    2.5400:        RMC
 MCST.F                  58.0000:        RMC MEAS. TEMP.
 UWI .              502790000000:        UNIQUE WELL ID
~OTHER INFORMATION
~A    DEPTH          SP         LL8         ILM         ILD        CALI          GR        RHOB        DRHO        NPHI          DT  
# ...
  9010.0000    -45.6633     29.5427     23.7549     28.3050     11.5453     69.6969      2.6495      0.0135     11.3844     61.4201  
  9010.5000    -45.7664     29.1987     23.4123     26.7252     11.5494     71.5385      2.6314      0.0038     11.0909     61.9066  
  9011.0000    -45.9010     30.0246     22.2916     25.6535     11.5549     69.9297      2.6213      0.0026     10.8686     62.1105  
  9011.5000    -46.0086     30.8195     21.9724     25.3598     11.5603     67.4705      2.6304      0.0044     11.0833     62.1614  
  9012.0000    -46.1034     27.6942     21.9907     25.0695     11.5657     66.3750      2.6284      0.0050     11.5384     62.2039  
  9012.5000    -46.2616     26.2636     23.1089     24.7825     11.5712     69.0100      2.6138      0.0143     11.7728     62.4235  
  9013.0000    -46.5076     26.0102     24.2839     25.0718     11.5766     69.2877      2.6108      0.0226     11.3979     63.1644  
  9013.5000    -46.6888     29.0632     24.9202     25.8139     11.5820     67.0622      2.6271      0.0210     11.0421     63.3934  
  9014.0000    -46.7966     32.4746     24.7287     26.5779     11.5875     63.0056      2.6468      0.0425     11.1872     62.7469  
  9014.5000    -46.8788     35.0453     24.5715     27.2384     11.5929     62.1843      2.6766      0.0746     11.4384     61.8865  
  9015.0000    -46.9452     33.7551     24.4436     27.7916     11.5997     63.8404      2.6764      0.0592     11.9660     61.3921  
  9015.5000    -47.0366     32.2579     24.3585     28.3559     11.6227     65.3718      2.6362      0.0169     12.6549     61.4745  
  9016.0000    -47.1136     30.6323     24.9374     28.9318     11.6458     69.0036      2.6379      0.0053     13.0967     61.9471  
  9016.5000    -47.1860     29.0356     25.3464     29.5989     11.6688     70.9502      2.6560      0.0133     13.1812     62.2840  
  9017.0000    -47.2207     28.4657     26.4581     30.3037     11.6918     69.1720      2.6741      0.0169     12.7727     61.9760  
  9017.5000    -47.3400     29.0310     27.5738     31.0252     11.6879     64.9674      2.6633      0.0038     12.0767     61.4314  
  9018.0000    -47.4692     29.9794     28.7364     31.7640     11.6799     60.9402      2.6631      0.0022     11.4918     60.9640  
  9018.5000    -47.5426     31.2272     29.9481     32.5203     11.6719     58.4321      2.6725      0.0000     10.8993     60.5257  
  9019.0000    -47.6954     32.2618     30.8434     33.2947     11.6639     56.4978      2.6499     -0.0040     10.2993     60.5236  
  9019.5000    -48.0247     34.2277     31.2289     34.7982     11.6658     55.4661      2.6559      0.0018      9.4798     60.5529  
  9020.0000    -48.4357     36.7623     31.1313     36.6076     11.6695     54.4343      2.6660      0.0111      8.3298     60.0987  
  9020.5000    -48.9739     45.3783     29.7049     38.5111     11.6731     53.1444      2.6490      0.0023      7.7811     59.4950  
  9021.0000    -49.2754     49.6707     26.6451     36.9357     11.6768     51.6995      2.6378      0.0187      8.2433     58.5996  
  9021.5000    -49.6345     46.3806     24.0364     34.1897     11.6805     52.3705      2.6468      0.0197      9.6285     57.6750  
  9022.0000    -49.8554     36.0255     22.1830     31.6478     11.6902     56.9776      2.6557      0.0169     11.4946     58.3162  
  9022.5000    -50.0469     28.8331     20.6045     29.2949     11.7055     60.3161      2.6321      0.0098     12.8784     59.9049  
  9023.0000    -50.3310     25.0253     19.9711     27.3939     11.7208     61.1257      2.6177      0.0103     13.6004     61.3030  
  9023.5000    -50.6293     24.5916     19.9569     25.7184     11.7362     58.8501      2.6120      0.0174     13.1511     62.9584  
  9024.0000    -50.9168     23.9188     20.6301     24.2513     11.7571     56.5745      2.5951      0.0254     12.6137     63.5839  
  9024.5000    -51.1380     22.9333     21.5260     23.7155     11.7793     59.4791      2.5721      0.0338     12.0309     63.8232  
  9025.0000    -51.1007     22.7079     22.4608     23.1915     11.8016     60.8858      2.5826      0.0542     11.4669     64.0302  
  9025.5000    -51.0620     23.5405     23.4362     24.7564     11.7966     58.9738      2.5689      0.0308     10.7970     64.5791  
  9026.0000    -51.1196     24.7904     24.5167     26.5410     11.7847     57.0618      2.5852      0.0238      9.8810     64.9357  
  9026.5000    -51.0152     26.5748     26.4125     28.4543     11.7728     55.1039      2.5997      0.0296      8.5600     64.8782  
  9027.0000    -50.8661     29.5086     28.4548     30.4890     11.7609     53.5134      2.6071      0.0324      7.6273     64.3895  
  9027.5000    -50.7273     31.3569     30.2687     32.6678     11.7491     53.1776      2.6088      0.0301      7.1223     63.6396  
  9028.0000    -50.7491     35.6988     30.4097     35.0024     11.7372     53.0477      2.5994      0.0181      7.1448     63.1179  
  9028.5000    -50.5238     37.5783     30.5514     37.5038     11.7253     53.2574      2.5877      0.0210      7.5617     62.5380  
  9029.0000    -50.4654     34.4886     31.3260     40.1840     11.7134     54.1519      2.5836      0.0263      8.2920     62.1203  
  9029.5000    -50.4310     31.6529     32.1386     41.1354     11.7046     54.1915      2.5766      0.0242      8.7347     62.2212  
  9030.0000    -50.4578     34.3062     32.9457     41.6850     11.6980     54.0843      2.5831      0.0147      8.8525     62.4360  
  9030.5000    -50.4612     37.8876     33.6985     42.2419     11.6915     53.9971      2.6155      0.0558      8.4569     62.5348  
  9031.0000    -50.2950     41.1567     33.8024     42.4246     11.6849     54.2696      2.6191      0.0397      8.6263     62.3023  
  9031.5000    -50.0763     41.4988     33.7113     42.5810     11.6783     55.1217      2.6122      0.0283      8.7195     61.7432  
  9032.0000    -49.8888     41.8988     33.6428     42.7379     11.6718     55.4995      2.6431      0.0450      8.8073     61.0470  
  9032.5000    -49.6572     42.5016     33.6600     42.8954     11.6652     55.5420      2.6614      0.0788      8.8692     60.5085  
  9033.0000    -49.5089     41.2929     33.9193     43.0011     11.6587     55.8488      2.6352      0.0817      8.9066     60.1466  
  9033.5000    -49.4616     41.1130     34.1152     41.1398     11.6521     55.8341      2.6166      0.0678      9.1033     59.9038  
  9034.0000    -49.3600     42.3288     33.9025     39.3591     11.6455     56.1717      2.5933      0.0355      9.1076     59.9069  
  9034.5000    -49.2955     40.8114     33.4456     38.1352     11.6390     56.5092      2.5946      0.0111      8.9931     60.0316  
  9035.0000    -49.2025     39.3484     32.5917     37.3845     11.6324     56.8468      2.6145      0.0068      9.0426     60.4544  
  9035.5000    -49.0541     37.9378     29.3228     36.0965     11.6255     57.1843      2.6294      0.0157      9.4179     60.8739  
  9036.0000    -48.7522     36.5367     27.4380     34.3237     11.6184     57.6802      2.6132      0.0109      9.6622     60.9587  
  9036.5000    -48.7842     34.5977     25.1244     32.6380     11.6112     59.2466      2.6058      0.0021      9.9746     60.9512  
  9037.0000    -48.5947     30.8431     22.3647     29.6414     11.6041     60.8129      2.6193      0.0015     10.4099     60.9220  
  9037.5000    -48.3821     27.4296     20.2306     26.4762     11.5969     63.8618      2.6451      0.0114     11.0648     61.0142  
  9038.0000    -48.1872     24.5891     18.2856     23.6491     11.5898     67.0947      2.6710      0.0038     11.7068     61.5102  
  9038.5000    -48.0930     23.1753     16.3110     21.1238     11.5822     70.5697      2.6703     -0.0001     12.3384     61.9923  
  9039.0000    -47.9873     23.1245     15.5749     19.9647     11.5746     73.6675      2.6674      0.0110     12.6874     62.3678  
  9039.5000    -47.8144     22.2323     14.9607     19.5197     11.5595     75.6215      2.6544      0.0030     13.1695     62.7452  
