~VERSION INFORMATION
 VERS.                           2.00:        CWLS LOG ASCII STANDARD - VERSION 2.00
 WRAP.                             NO:        ONE LINE PER DEPTH STEP
~WELL INFORMATION
#MNEM.UNIT                   DATA             INFORMATION
#----------             --------------        ------------------------------
 STRT.F                      112.0000:        START DEPTH
 STOP.F                    10176.0000:        STOP DEPTH
 STEP.F                        0.5000:        STEP VALUE
 NULL.                      -999.2500:        NULL VALUE
 COMP.                      HUSKY OIL:        COMPANY  
 LOC .                   36  11N   4W:        LOCATION   
 DATE.                        2/16/81:        LOG DATE 
 WELL.            NORTH INIGOK TEST 1:        WELL     
 UWI .                   501032001700:        UNIQUE WELL ID 
 API .                   501032001700:        UNIQUE WELL IDENTIFIER 
 FLD .                        WILDCAT:        FIELD    
 CNTY.                    NORTH SLOPE:        COUNTY  
 STAT.                         ALASKA:        STATE   
 CTRY.                            USA:        COUNTRY 
 OPER.                      HUSKY OIL:        OPERATOR  
 SRVC.                            440:        SERVICE COMPANY 
 LAT .                         0.0000:        LATITUDE
 LON .                         0.0000:        LONGITUDE
 DIGS.                             65:        DIGITIZING COMPANY 
~CURVE INFORMATION      
#MNEM.UNIT                 API CODE           CURVE DESCRIPTION
#---------              --------------        ------------------------------
 DEPT.F                              :        1  DEPTH
 SP  .MV                             :        2
 SFL .OHMM                           :        3
 ILD .OHMM                           :        4
 ILM .OHMM                           :        5
 NPHI.%                              :        6
 CALI.IN                             :        7
 GR  .GAPI                           :        8
 RHOB.G/C3                           :        9
 DRHO.G/C3                           :       10
 DT  .US/F                           :       11
~PARAMETER INFORMATION       
#MNEM.UNIT                  VALUE             DESCRIPTION OF MNEMONIC
#---------             ---------------        ------------------------------
 EKB .F                      166.0000:        KELLY BUSHING
 TD  .F                    10167.0000:        TOTAL DEPTH
~OTHER INFORMATION
~A    DEPTH          SP         SFL         ILD         ILM        NPHI        CALI          GR        RHOB        DRHO          DT  
# ...
  7462.0000    -53.6897      3.9674      2.7010      2.8433     43.2296     14.1110    136.0989      2.3662      0.0717    102.7808  
  7462.5000    -53.4095      3.8243      2.7846      2.9243     44.2948     14.1471    140.1848      2.3290      0.0705    103.2116  
  7463.0000    -53.2331      3.8380      2.8708      3.0076     45.3010     14.0061    148.0571      2.2998      0.0523    103.2032  
  7463.5000    -52.2849      3.9605      2.9597      3.1179     45.9891     13.9722    160.0280      2.2987      0.0447    103.3511  
  7464.0000    -52.0148      4.1530      3.0569      3.2373     46.7930     13.9775    171.9729      2.3268      0.0585    104.1465  
  7464.5000    -51.6858      4.4247      3.1592      3.3612     46.1531     13.7841    186.7233      2.3657      0.0782    104.9335  
  7465.0000    -51.6284      4.6735      3.2649      3.4899     46.1443     13.6439    199.6973      2.3830      0.0861    106.7987  
  7465.5000    -51.9165      5.0299      3.3445      3.5204     45.6896     13.3891    199.4351      2.4010      0.0957    106.2406  
  7466.0000    -52.2099      5.6513      3.3557      3.5230     44.0216     13.3958    198.2383      2.3924      0.0653    104.7904  
  7466.5000    -52.4299      5.5675      3.3647      3.5255     42.5676     13.5526    190.0668      2.3984      0.0622    103.1639  
  7467.0000    -52.3631      4.9164      3.3415      3.4953     42.4118     13.8649    185.0940      2.3793      0.0826     98.9402  
  7467.5000    -51.9977      4.5465      3.2973      3.4569     42.7982     14.0849    185.4030      2.3913      0.1091     98.0340  
  7468.0000    -51.6819      4.3336      3.2514      3.4157     43.0891     13.7563    185.3817      2.4187      0.1353    101.3689  
  7468.5000    -51.6023      4.5885      3.1914      3.3600     43.2206     13.5908    183.4599      2.4367      0.1155    100.4373  
  7469.0000    -51.7158      4.9926      3.1325      3.3053     42.1821     13.5522    181.0107      2.4620      0.0981    103.0104  
  7469.5000    -51.6784      5.3147      3.0448      3.2220     41.4165     13.6659    179.9639      2.4601      0.0768    103.7481  
  7470.0000    -51.7594      5.3509      2.9531      3.0927     41.3034     13.7345    179.3808      2.4818      0.0929    100.1766  
  7470.5000    -52.0044      5.1984      2.8641      2.9687     41.1762     13.9269    179.0600      2.4587      0.1250     97.9974  
  7471.0000    -52.2558      5.0826      2.7778      2.8822     40.8281     13.9833    179.8986      2.4212      0.1066     97.3450  
  7471.5000    -52.1796      4.8308      2.6941      2.8296     40.1067     13.9460    180.0976      2.4315      0.0773     97.4388  
  7472.0000    -52.0212      4.2726      2.6330      2.7910     39.4472     13.5581    179.4179      2.4664      0.0572     98.3093  
  7472.5000    -51.8838      3.7253      2.6187      2.7798     39.6853     13.3917    178.0454      2.5026      0.0751     99.6821  
  7473.0000    -51.7703      3.4999      2.6304      2.7757     40.8310     13.7372    175.1398      2.5168      0.1059    100.3329  
  7473.5000    -51.7947      3.6246      2.6553      2.8547     42.2364     13.9003    171.2292      2.5351      0.1384    100.2366  
  7474.0000    -51.8070      4.0683      2.7772      2.9846     43.7242     13.9208    167.6875      2.4990      0.1340    100.1478  
  7474.5000    -51.7619      4.7588      2.9160      3.1330     45.3100     14.0157    163.5069      2.4727      0.1220    100.1785  
  7475.0000    -51.6122      5.1367      3.0617      3.2850     44.9687     13.9263    159.0009      2.4711      0.1181     99.7644  
  7475.5000    -51.4570      5.2304      3.2811      3.4443     45.3831     13.7156    154.3894      2.4576      0.1120     99.2553  
  7476.0000    -51.2915      5.1860      3.4808      3.6113     46.3719     13.9281    148.3958      2.4636      0.1366     98.4377  
  7476.5000    -51.0285      5.1701      3.7020      3.7859     46.8005     13.9015    146.1785      2.4524      0.1317     97.4956  
  7477.0000    -51.0500      5.3633      3.9199      3.9681     45.6813     13.5957    144.9902      2.4362      0.1050     97.1110  
  7477.5000    -51.1103      5.6287      4.0466      4.1591     44.0468     13.5431    144.2999      2.4602      0.1099     96.3576  
  7478.0000    -51.1317      5.9970      4.1774      4.3444     43.1242     13.6830    143.0656      2.4894      0.1467     95.7025  
  7478.5000    -51.1621      6.4609      4.1719      4.3961     42.5179     13.5925    141.7419      2.4820      0.1373     94.8770  
  7479.0000    -51.2391      6.8690      4.1578      4.4051     42.0958     13.4313    140.2900      2.4775      0.1220     93.8615  
  7479.5000    -51.3161      7.1149      4.1437      4.3622     41.9823     13.5909    138.5593      2.4628      0.1022     93.2922  
  7480.0000    -51.3931      6.8879      4.1218      4.3197     42.8029     13.5147    137.8481      2.4540      0.1044     92.8548  
  7480.5000    -51.4701      6.2400      4.0618      4.2331     43.4784     13.6295    138.5329      2.4596      0.1321     92.3697  
  7481.0000    -51.5438      5.5311      3.9707      4.1360     43.7032     14.0761    142.5414      2.4857      0.1669     92.3554  
  7481.5000    -51.4070      5.3399      3.8707      4.0411     43.5086     14.0781    146.5970      2.4478      0.1722     93.0199  
  7482.0000    -51.5495      5.3865      3.7530      3.9484     43.3546     13.8466    148.9189      2.4166      0.1382     93.2717  
  7482.5000    -51.7004      5.3873      3.6536      3.8557     43.2006     13.8255    149.8355      2.3992      0.1315     93.6594  
  7483.0000    -52.0024      5.2987      3.6030      3.7651     42.7882     13.9091    149.8029      2.3992      0.1344     93.7566  
  7483.5000    -52.1847      5.2545      3.5838      3.7076     42.5019     13.6727    148.9043      2.4008      0.1159     93.7465  
  7484.0000    -52.4870      5.2665      3.5940      3.7021     42.2357     13.6093    146.5056      2.4071      0.1021     94.2853  
  7484.5000    -52.7936      5.3008      3.6625      3.7201     42.7016     13.8966    147.7684      2.3855      0.0944     95.0137  
  7485.0000    -52.6582      5.3993      3.7323      3.7389     44.0186     14.1867    151.5272      2.3884      0.1182     95.5294  
  7485.5000    -52.3080      5.4322      3.8035      3.8444     45.3368     13.8587    155.0189      2.3882      0.1280     95.9095  
  7486.0000    -52.0088      5.3290      3.8760      3.9786     46.4726     13.6597    157.4351      2.3979      0.1246     96.4164  
  7486.5000    -51.8698      5.2978      3.9047      4.1175     47.3960     13.9090    158.5113      2.4056      0.1210     96.5891  
  7487.0000    -52.0145      5.6279      3.8961      4.1625     47.5435     13.8374    159.8633      2.4135      0.1208     96.7565  
  7487.5000    -52.2127      6.3429      3.8862      4.1504     46.7199     13.7034    163.1653      2.4123      0.1104     96.9230  
  7488.0000    -52.3564      6.9099      3.8850      4.1331     46.6800     13.4685    165.8913      2.4083      0.1079     96.8316  
  7488.5000    -52.3618      6.4635      3.8927      4.1020     47.1083     13.4084    166.6076      2.4083      0.1234     97.6488  
  7489.0000    -52.3071      5.7330      3.9003      4.0643     45.7144     13.4085    166.9547      2.3893      0.0986     98.4787  
  7489.5000    -52.1444      5.2955      3.9081      4.0269     44.5641     13.4473    168.6690      2.4168      0.0935     99.9800  
  7490.0000    -52.1460      5.8632      3.9160      3.9869     42.3288     13.4258    173.7220      2.4446      0.1110    100.1976  
  7490.5000    -52.3108      6.2622      3.9501      4.0197     39.6046     13.4061    177.2485      2.4246      0.0781    100.1756  
  7491.0000    -52.6560      6.2134      4.0182      4.0723     39.5181     13.5305    179.4265      2.4276      0.0813    100.0964  
  7491.5000    -52.8546      5.9305      4.1512      4.1708     40.9721     13.6716    182.2670      2.4203      0.0804     98.5014  
