~VERSION INFORMATION
 VERS.                      2.00:        CWLS LOG ASCII STANDARD - VERSION 2.00
 WRAP.                        NO:        ONE LINE PER DEPTH STEP
~WELL INFORMATION
#MNEM.UNIT               DATA            INFORMATION
#----------          ------------        ------------------------------
 STRT.F                 490.0000:        START DEPTH
 STOP.F               10659.0000:        STOP DEPTH
 STEP.F                   0.5000:        STEP VALUE
 NULL.                 -999.2500:        NULL VALUE
 COMP. HUSKY OIL NPR OPERATIONS,:        COMPANY  
 WELL.         EAST TESHEKPUK #1:        WELL     
 FLD .   U.S. NAVY NPR-4 WILDCAT:        FIELD    
 LOC .              16  14N   4W:        LOCATION   
 CNTY.                  N. SLOPE:        COUNTY  
 STAT.                    ALASKA:        STATE   
 CTRY.                       USA:        COUNTRY 
 DATE.                   4/11/76:        LOG DATE 
 API .              502790000000:        UNIQUE WELL IDENTIFIER 
 OPER. HUSKY OIL NPR OPERATIONS,:        OPERATOR  
 SRVC.              Schlumberger:        SERVICE COMPANY 
 UWI .              502790000000:        UNIQUE WELL ID 
 LAT .                    0.0000:        LATITUDE
 LON .                    0.0000:        LONGITUDE
 DIGS.          Center Line Data:        DIGITIZING COMPANY 
~CURVE INFORMATION      
#MNEM.UNIT            API CODE           CURVE DESCRIPTION
#---------          -------------        ------------------------------
 DEPT.F                         :        1  DEPTH
 SP  .MV                        :        2
 LL8 .OHMM                      :        3
 ILM .OHMM                      :        4
 ILD .OHMM                      :        5
 CALI.IN                        :        6
 GR  .GAPI                      :        7
 RHOB.G/C3                      :        8
 DRHO.G/C3                      :        9
 NPHI.%                         :       10
 DT  .US/F                      :       11
~PARAMETER INFORMATION       
#MNEM.UNIT              VALUE            DESCRIPTION OF MNEMONIC
#---------          -------------        ------------------------------
 EKB .F                  27.6000:        KELLY BUSHING
 TD  .F               10664.0000:        TOTAL DEPTH
 BHT .F                 172.0000:        BOTTOM HOLE TEMPERATURE
 BS  .                   13.5000:        BIT SIZE
 FD  .                   10.2000:        FLUID DENSITY
 CSIZ.                   16.0000:        CASING SIZE
 CBD .F                2578.0000:        CASING DRILLER 1
 CBL .F                2572.0000:        CASING LOGGER 1
 DFT . Salt Water-Lignosulfonate:        TYPE FLUID IN HOLE
 DFV .                   51.0000:        VISCOSITY
 DFPH.                   10.6000:        PH
 DFL .                    3.5000:        FLUID LOSS
 RMS .                    2.2600:        RM
 MST .F                  64.0000:        RM MEAS. TEMP.
 RMF .                    1.8900:        RMF
 MFST.F                  58.0000:        RMF MEAS. TEMP.
 RMC .                    2.5400:        RMC
 MCST.F                  58.0000:        RMC MEAS. TEMP.
 UWI .              502790000000:        UNIQUE WELL ID
~OTHER INFORMATION
~A    DEPTH          SP         LL8         ILM         ILD        CALI          GR        RHOB        DRHO        NPHI          DT  
# ...
 10090.0000    -23.0007     53.6151     46.5114     54.7455     10.1125     47.4970      2.7481     -0.0005      6.2322     54.8316  
 10090.5000    -22.9584     84.4143     46.5411     49.9633     10.1184     49.8756      2.7283     -0.0015      6.2912     55.1354  
 10091.0000    -22.9161    130.7370     46.5707     47.5480     10.1243     49.4671      2.7151     -0.0020      5.4624     54.0767  
 10091.5000    -22.9057    127.8976     47.2189     46.1673     10.1301     45.8814      2.7394     -0.0017      4.5317     52.4732  
 10092.0000    -22.8850     84.8851     50.1318     50.5055     10.1360     40.5820      2.7616     -0.0010      4.1302     51.6304  
 10092.5000    -22.8383     56.3378     57.6854     61.1530     10.1419     38.2665      2.7310     -0.0003      4.8917     52.2351  
 10093.0000    -22.8991     73.1409     71.1449     78.1986     10.1478     40.7002      2.7156      0.0011      5.5021     53.9446  
 10093.5000    -23.0181    107.0438     87.7450     86.6929     10.1443     41.3457      2.7359      0.0031      5.2262     54.8689  
 10094.0000    -23.1560    230.1775    108.2183     95.8170     10.1371     39.0489      2.7563      0.0145      3.9888     53.6796  
 10094.5000    -23.2681    257.6352    123.1223    112.0179     10.1299     31.0744      2.7167      0.0254      2.4104     51.9170  
 10095.0000    -23.2479    235.8122    132.2544    140.1405     10.1227     24.2266      2.6609      0.0346      2.1406     50.5051  
 10095.5000    -23.2007    208.6669    142.0638    175.3235     10.1155     20.6743      2.6573      0.0438      2.2377     50.5561  
 10096.0000    -23.1143    184.7610    150.4986    250.1863     10.1083     19.9993      2.6638      0.0442      2.3599     50.7334  
 10096.5000    -23.0053    166.1627    156.3104    324.5337     10.1284     19.5453      2.6623      0.0435      2.4813     50.8475  
 10097.0000    -22.9440    162.7769    160.7968    377.3912     10.1421     19.3227      2.6630      0.0428      2.5486     51.0778  
 10097.5000    -22.7604    167.1120    158.2319    339.3682     10.1531     19.2602      2.6649      0.0422      2.4491     51.2756  
 10098.0000    -22.5951    194.2141    152.6378    279.2554     10.1641     19.1978      2.6697      0.0425      2.3189     51.3320  
 10098.5000    -22.4497    212.1832    143.9954    230.5977     10.1751     20.4972      2.6857      0.0428      2.1887     51.2750  
 10099.0000    -22.2720    224.7491    131.9715    190.0427     10.1861     21.9574      2.6998      0.0421      2.1484     51.1435  
 10099.5000    -22.1147    224.0080    120.2846    167.0193     10.1971     22.7601      2.7088      0.0383      2.1386     50.9183  
 10100.0000    -22.0686    190.8944    110.3557    146.4651     10.2081     24.9714      2.7137      0.0345      2.2971     50.7526  
 10100.5000    -21.9946    139.2979    101.2464    124.2980     10.2191     27.5407      2.7176      0.0308      2.8040     50.7694  
 10101.0000    -21.7214    113.0226     92.8890    109.0846     10.2301     30.1101      2.7225      0.0270      3.2947     51.2032  
 10101.5000    -21.5966     97.4000     84.4826    101.4809     10.2411     32.4607      2.7289      0.0233      4.0267     51.9171  
 10102.0000    -21.6953     84.3601     76.8026     94.4072     10.2167     34.8105      2.7151      0.0195      4.4807     52.9567  
 10102.5000    -21.2651     85.1818     69.8207     87.8266     10.1822     37.1603      2.6966      0.0171      4.7817     53.6818  
 10103.0000    -21.0586    110.4734     65.1560     81.7563     10.1477     37.3453      2.7102      0.0149      4.7962     53.2868  
 10103.5000    -20.9035    144.3210     61.7811     76.2776     10.1132     36.0241      2.7111      0.0128      4.4985     52.4829  
 10104.0000    -20.7644    131.1107     58.5811     71.6138     10.1069     34.3433      2.7149      0.0106      4.1656     51.7439  
 10104.5000    -20.2870     89.1692     55.5467     78.4526     10.1046     32.6626      2.7241      0.0084      3.9943     51.3262  
 10105.0000    -19.8886     63.3856     58.1502     85.9445     10.1023     33.9807      2.7332      0.0062      4.5984     52.1722  
 10105.5000    -19.5331     56.0258     64.9363     94.1518     10.1000     36.6497      2.7290      0.0040      5.2634     53.3063  
 10106.0000    -19.1341     83.7248     74.4578     83.3535     10.0978     39.0483      2.7269      0.0018      5.7267     53.6286  
 10106.5000    -18.8596    146.8029     68.3436     71.9522     10.0961     38.0744      2.7256      0.0015      5.5449     53.2380  
 10107.0000    -18.5904    206.6877     56.7933     63.5208     10.0951     35.2161      2.7222      0.0026      4.6827     52.2223  
 10107.5000    -18.3333    182.7130     45.9712     55.1880     10.0941     31.7426      2.7254      0.0037      4.0187     50.9201  
 10108.0000    -17.9982    132.3639     36.4435     47.9484     10.0930     31.0680      2.7301      0.0048      4.0330     50.5513  
 10108.5000    -17.9867     75.6704     27.7648     41.6584     10.0920     35.2285      2.7348      0.0069      4.5140     51.6783  
 10109.0000    -17.8085     45.3605     23.1560     35.9173     10.0910     41.1607      2.7326      0.0106      5.4391     54.2038  
 10109.5000    -17.6092     35.9409     18.6149     28.4850     10.1017     51.0865      2.7214      0.0143      6.8544     56.9526  
 10110.0000    -17.2403     30.3771     16.1590     23.7794     10.1240     63.2501      2.7097      0.0180      8.4774     59.9045  
 10110.5000    -17.1507     28.1315     14.9971     19.8673     10.1464     72.1499      2.6900      0.0214      9.8034     62.4060  
 10111.0000    -17.0326     24.1562     14.3293     16.5988     10.1690     76.2146      2.6674      0.0044     10.4177     63.8219  
 10111.5000    -16.9510     21.7145     14.3443     16.5092     10.1734     80.4164      2.6548     -0.0017     11.3011     64.6384  
 10112.0000    -16.6743     19.8454     15.3873     16.5865     10.1778     83.4445      2.6497     -0.0016     11.8282     65.5286  
 10112.5000    -16.9424     18.1372     17.4558     18.9086     10.1822     84.9689      2.6430     -0.0019     12.0853     66.6383  
 10113.0000    -17.0572     21.2637     19.4010     21.9843     10.1866     83.8723      2.6373     -0.0050     12.0855     67.3036  
 10113.5000    -17.1577     32.4647     23.5020     25.5603     10.1910     81.1459      2.6316     -0.0027     11.3858     66.7754  
 10114.0000    -17.1431     68.4480     28.2420     34.3490     10.1954     73.9831      2.6258      0.0072      9.0319     63.4895  
 10114.5000    -17.1845    208.6549     35.5782     46.7296     10.1998     61.1765      2.6201      0.0134      4.5645     59.6821  
 10115.0000    -17.3662    407.5996     56.0919     63.5726     10.2041     44.4631      2.6204      0.0213      2.3237     55.8746  
 10115.5000    -17.4811    438.3615     88.4334    116.6140     10.2085     32.4865      2.6324      0.0477      1.0834     52.0671  
 10116.0000    -17.7712    494.4955    137.6536    248.1723     10.2129     24.1645      2.6445      0.0652      1.1326     49.5505  
 10116.5000    -17.7445    559.2108    184.8183    534.4774     10.2173     21.7960      2.6578      0.0644      1.1942     49.2034  
 10117.0000    -17.8413    580.6461    204.2145   1161.6260     10.2217     20.2032      2.6711      0.0635      1.3234     48.7099  
 10117.5000    -18.0444    595.1919    210.5244   1644.1382     10.2261     19.0231      2.6894      0.0627      1.4190     48.5061  
 10118.0000    -17.9471    587.0906    201.4251   1644.1256     10.2286     19.0398      2.7414      0.0618      1.4328     48.6431  
 10118.5000    -18.2644    521.1767    193.0754   1635.6361     10.2306     19.1494      2.7159      0.0598      1.4556     48.8486  
 10119.0000    -18.4327    417.6960    190.0990   1530.6830     10.2326     20.2784      2.6904      0.0577      1.4687     48.8332  
 10119.5000    -18.8212    351.4640    180.2906   1171.8081     10.2346     22.2167      2.6889      0.0542      1.5789     48.7907  
