~VERSION INFORMATION
 VERS.                           2.00:        CWLS LOG ASCII STANDARD - VERSION 2.00
 WRAP.                             NO:        ONE LINE PER DEPTH STEP
~WELL INFORMATION
#MNEM.UNIT                   DATA             INFORMATION
#----------             --------------        ------------------------------
 STRT.F                       66.0000:        START DEPTH
 STOP.F                    11266.0000:        STOP DEPTH
 STEP.F                        0.5000:        STEP VALUE
 NULL.                      -999.2500:        NULL VALUE
 COMP.              HUSKY OIL COMPANY:        COMPANY
 LOC .                       6 12N 2E:        LOCATION
 DATE.                       12/24/76:        LOG DATE
 WELL.          SOUTH HARRISON BAY #1:        WELL
 UWI .                   501032000700:        UNIQUE WELL ID
 API .                   501032000700:        UNIQUE WELL IDENTIFIER
 FLD .                        WILDCAT:        FIELD
 CNTY.                    NORTH SLOPE:        COUNTY
 STAT.                         ALASKA:        STATE
 CTRY.                            USA:        COUNTRY
 OPER.              HUSKY OIL COMPANY:        OPERATOR
 SRVC.                   SCHLUMBERGER:        SERVICE COMPANY
 LAT .                         0.0000:        LATITUDE
 LON .                         0.0000:        LONGITUDE
 DIGS.               CENTER LINE DATA:        DIGITIZING COMPANY
~CURVE INFORMATION      
#MNEM        .UNIT         API CODE           CURVE DESCRIPTION
#-----------------      --------------        ------------------------------
 DEPT        .F                      :        1  DEPTH
 GR          .GAPI                   :        2  
 CALI        .IN                     :        3  
 DRHO        .G/C3                   :        4  
 RHOB        .G/C3                   :        5  
 NPHI        .%                      :        6  
 DT          .US/F                   :        7  
 SP          .MV                     :        8  
 ILD         .OHMM                   :        9  
 ILM         .OHMM                   :        10 
 LL8         .OHMM                   :        11 
~PARAMETER INFORMATION
#MNEM.UNIT                  VALUE             DESCRIPTION OF MNEMONIC
#---------             ---------------        ------------------------------
 EKB .F                       45.0000:        KELLY BUSHING
 TD  .F                    11290.0000:        TOTAL DEPTH
 BHT .F                      174.0000:        BOTTOM HOLE TEMPERATURE
 BS  .                        12.2500:        BIT SIZE
 FD  .                        10.7000:        FLUID DENSITY
 CSIZ.                        13.3750:        CASING SIZE
 CBD .F                     2600.0000:        CASING DRILLER 1
 CBL .F                     2600.0000:        CASING LOGGER 1
 DFT .                  MISCELLANEOUS:        TYPE FLUID IN HOLE
 DFV .                        52.0000:        VISCOSITY
 DFPH.                         8.2000:        PH
 DFL .                         6.0000:        FLUID LOSS
 RMS .                         1.3900:        RM
 MST .F                       60.0000:        RM MEAS. TEMP.
 RMF .                         1.0200:        RMF
 MFST.F                       60.0000:        RMF MEAS. TEMP.
 RMC .                         1.3800:        RMC
 MCST.F                       60.0000:        RMC MEAS. TEMP.
~OTHER INFORMATION
~A    DEPTH          GR        CALI        DRHO        RHOB        NPHI          DT          SP         ILD         ILM         LL8 
# ...
   828.5000     86.3312      6.2253   -999.2500   -999.2500   -999.2500    159.6827    -44.4117      5.7299      4.8239      5.8970 
   829.0000     90.0781      7.1600   -999.2500   -999.2500   -999.2500    159.9523    -44.9759      5.8862      5.2145      5.9302 
   829.5000     89.7704      8.1207   -999.2500   -999.2500   -999.2500    159.6396    -46.5516      5.9482      5.6367      6.5594 
   830.0000     85.8654      8.9491   -999.2500   -999.2500   -999.2500    159.1245    -48.5246      6.0108      5.8078      6.9417 
   830.5000     84.8221      9.5346   -999.2500   -999.2500   -999.2500    158.8325    -49.5952      6.0741      5.6966      7.2158 
   831.0000     88.2237      9.6291   -999.2500   -999.2500   -999.2500    158.7917    -49.2150      6.1258      5.4631      7.0549 
   831.5000     91.0834      9.6458   -999.2500   -999.2500   -999.2500    158.6510    -49.0017      6.1353      5.2391      6.6578 
   832.0000     93.5797      9.9187   -999.2500   -999.2500   -999.2500    157.8313    -50.1645      6.1447      4.9620      6.2784 
   832.5000     96.1166     10.2207   -999.2500   -999.2500   -999.2500    157.9777    -50.3215      5.9061      4.6020      5.8912 
   833.0000     94.8217     10.5267   -999.2500   -999.2500   -999.2500    159.4961    -49.4765      5.5366      4.1986      5.5278 
   833.5000     93.0629     10.6343   -999.2500   -999.2500   -999.2500    161.5145    -47.5623      5.2307      4.1304      5.3162 
   834.0000     91.4166     10.6020   -999.2500   -999.2500   -999.2500    162.6172    -45.5707      5.2593      4.2864      5.3263 
   834.5000     91.5878     10.5946   -999.2500   -999.2500   -999.2500    161.2056    -44.4182      5.2933      4.3769      5.6249 
   835.0000     92.4531     10.7113   -999.2500   -999.2500   -999.2500    160.7168    -44.5901      5.3276      4.5079      5.9402 
   835.5000     93.3185     10.9580   -999.2500   -999.2500   -999.2500    161.7845    -45.6674      5.3620      4.6267      6.2731 
   836.0000     94.1838     11.4997   -999.2500   -999.2500   -999.2500    165.0244    -45.7848      5.4203      4.7401      6.1962 
   836.5000     93.2944     12.1490   -999.2500   -999.2500   -999.2500    165.0763    -45.7607      5.6726      4.8563      6.1042 
   837.0000     91.9301     12.3544   -999.2500   -999.2500   -999.2500    164.1809    -46.6026      5.9367      4.9551      6.0352 
   837.5000     90.2512     12.5581   -999.2500   -999.2500   -999.2500    162.4723    -46.7729      5.9951      4.9122      5.9777 
   838.0000     87.7493     12.5833   -999.2500   -999.2500   -999.2500    162.2274    -46.4568      5.9748      4.8846      5.9062 
   838.5000     84.9687     12.6058   -999.2500   -999.2500   -999.2500    162.3341    -46.0202      5.8098      4.7532      5.8512 
   839.0000     83.9655     12.6265   -999.2500   -999.2500   -999.2500    162.7832    -45.4619      5.4388      4.5921      6.0161 
   839.5000     83.8204     12.6398   -999.2500   -999.2500   -999.2500    163.8825    -47.7150      5.0517      4.4206      6.5653 
   840.0000     82.8573     12.7486   -999.2500   -999.2500   -999.2500    163.8034    -49.0788      4.9157      4.2259      6.6894 
   840.5000     81.9549     12.9952   -999.2500   -999.2500   -999.2500    163.6285    -48.2297      4.9787      4.0397      5.8845 
   841.0000     80.4039     13.0464   -999.2500   -999.2500   -999.2500    163.6393    -46.5624      5.1439      3.9949      5.3477 
   841.5000     78.0919     13.0700   -999.2500   -999.2500   -999.2500    162.7597    -45.9697      5.5392      4.1841      5.5137 
   842.0000     76.3859     13.0762   -999.2500   -999.2500   -999.2500    162.5111    -47.5962      5.9649      4.5682      6.1240 
   842.5000     74.3684     13.0747   -999.2500   -999.2500   -999.2500    163.0923    -52.3858      6.6053      5.2439      7.6170 
   843.0000     71.9255     13.0731   -999.2500   -999.2500   -999.2500    163.9779    -57.7841      7.3508      6.2638     10.0151 
   843.5000     70.5586     13.0716   -999.2500   -999.2500   -999.2500    165.3427    -61.2324      8.1805      7.4821     11.7849 
   844.0000     69.1633     13.0701   -999.2500   -999.2500   -999.2500    173.4561    -62.3039     10.6054      8.6736     12.3374 
   844.5000     68.1122     13.0540   -999.2500   -999.2500   -999.2500    174.7274    -61.6484     14.4838      9.9709     12.8768 
   845.0000     68.2592     12.9241   -999.2500   -999.2500   -999.2500    174.8503    -60.7592     20.1802     11.4622     13.3649 
   845.5000     67.7169     12.7664   -999.2500   -999.2500   -999.2500    176.7467    -60.1847     23.7996     13.1766     13.8714 
   846.0000     66.2203     12.6202   -999.2500   -999.2500   -999.2500    176.9090    -60.7079     25.6262     13.7872     14.9675 
   846.5000     65.2047     12.4842   -999.2500   -999.2500   -999.2500    175.3089    -60.9663     24.3578     13.5714     15.6068 
   847.0000     64.7066     12.4483   -999.2500   -999.2500   -999.2500    175.0459    -60.3820     22.9233     12.9985     15.2733 
   847.5000     64.0618     12.6265   -999.2500   -999.2500   -999.2500    174.7564    -59.3918     22.0009     12.4498     14.7242 
   848.0000     63.3222     12.9323   -999.2500   -999.2500   -999.2500    174.9591    -58.1217     20.9419     12.0361     13.4178 
   848.5000     60.1542     12.8766   -999.2500   -999.2500   -999.2500    175.1618    -56.2009     19.6546     11.7131     11.9457 
   849.0000     57.5353     12.7484   -999.2500   -999.2500   -999.2500    175.3645    -54.6460     17.1837     11.0709     11.1446 
   849.5000     55.5948     12.7361   -999.2500   -999.2500   -999.2500    176.7497    -54.4134     13.5164      9.7945     10.6889 
   850.0000     54.4423     12.7301   -999.2500   -999.2500   -999.2500    178.2151    -55.0081     10.1330      8.0481      9.0773 
   850.5000     53.1347     12.7287   -999.2500   -999.2500   -999.2500    176.0707    -54.1024      8.3404      6.6131      7.7087 
   851.0000     51.9627     12.7360   -999.2500   -999.2500   -999.2500    176.3048    -52.5008      6.8648      5.5556      6.4603 
   851.5000     51.3838     12.7379   -999.2500   -999.2500   -999.2500    178.3286    -51.0947      5.7573      4.7154      5.3660 
   852.0000     50.9142     12.7393   -999.2500   -999.2500   -999.2500    178.9509    -51.2637      4.7658      4.1869      5.0405 
   852.5000     52.6477     12.7391   -999.2500   -999.2500   -999.2500    178.2969    -51.0142      4.2238      3.7358      4.9194 
   853.0000     55.8707     12.7384   -999.2500   -999.2500   -999.2500    177.5212    -50.6078      3.8675      3.3400      4.8108 
   853.5000     59.4968     12.7376   -999.2500   -999.2500   -999.2500    175.7823    -50.4320      3.6065      3.2401      4.7104 
   854.0000     61.0471     12.7324   -999.2500   -999.2500   -999.2500    175.0940    -50.8558      3.5581      3.1432      4.6121 
   854.5000     62.0056     12.7347   -999.2500   -999.2500   -999.2500    174.4986    -51.6279      3.5887      3.2214      4.5342 
   855.0000     62.9664     12.7362   -999.2500   -999.2500   -999.2500    174.1934    -52.1315      3.7017      3.3664      4.7191 
   855.5000     63.8832     12.7349   -999.2500   -999.2500   -999.2500    174.1730    -51.5640      3.8183      3.5179      5.1420 
   856.0000     65.4275     12.7310   -999.2500   -999.2500   -999.2500    174.2502    -51.2443      3.9385      3.6330      5.4207 
   856.5000     66.8493     12.7239   -999.2500   -999.2500   -999.2500    173.3820    -50.7340      4.1171      3.7330      4.9591 
   857.0000     67.3977     12.7153   -999.2500   -999.2500   -999.2500    161.1920    -50.6304      4.3469      3.8357      4.7585 
   857.5000     66.7691     12.7068   -999.2500   -999.2500   -999.2500    160.4237    -50.8685      4.5894      3.8756      4.6844 
   858.0000     63.6957     12.6982   -999.2500   -999.2500   -999.2500    159.1353    -50.7652      4.6195      3.9128      4.8236 
   858.5000     60.5959     12.6896   -999.2500   -999.2500   -999.2500    164.1767    -50.2789      4.6265      3.9941      5.0180 
