~VERSION INFORMATION
 VERS.                           2.00:        CWLS LOG ASCII STANDARD - VERSION 2.00
 WRAP.                             NO:        ONE LINE PER DEPTH STEP
~WELL INFORMATION
#MNEM.UNIT                   DATA             INFORMATION
#----------             --------------        ------------------------------
 STRT.F                      112.0000:        START DEPTH
 STOP.F                    10176.0000:        STOP DEPTH
 STEP.F                        0.5000:        STEP VALUE
 NULL.                      -999.2500:        NULL VALUE
 COMP.                      HUSKY OIL:        COMPANY  
 LOC .                   36  11N   4W:        LOCATION   
 DATE.                        2/16/81:        LOG DATE 
 WELL.            NORTH INIGOK TEST 1:        WELL     
 UWI .                   501032001700:        UNIQUE WELL ID 
 API .                   501032001700:        UNIQUE WELL IDENTIFIER 
 FLD .                        WILDCAT:        FIELD    
 CNTY.                    NORTH SLOPE:        COUNTY  
 STAT.                         ALASKA:        STATE   
 CTRY.                            USA:        COUNTRY 
 OPER.                      HUSKY OIL:        OPERATOR  
 SRVC.                            440:        SERVICE COMPANY 
 LAT .                         0.0000:        LATITUDE
 LON .                         0.0000:        LONGITUDE
 DIGS.                             65:        DIGITIZING COMPANY 
~CURVE INFORMATION      
#MNEM.UNIT                 API CODE           CURVE DESCRIPTION
#---------              --------------        ------------------------------
 DEPT.F                              :        1  DEPTH
 SP  .MV                             :        2
 SFL .OHMM                           :        3
 ILD .OHMM                           :        4
 ILM .OHMM                           :        5
 NPHI.%                              :        6
 CALI.IN                             :        7
 GR  .GAPI                           :        8
 RHOB.G/C3                           :        9
 DRHO.G/C3                           :       10
 DT  .US/F                           :       11
~PARAMETER INFORMATION       
#MNEM.UNIT                  VALUE             DESCRIPTION OF MNEMONIC
#---------             ---------------        ------------------------------
 EKB .F                      166.0000:        KELLY BUSHING
 TD  .F                    10167.0000:        TOTAL DEPTH
~OTHER INFORMATION
~A    DEPTH          SP         SFL         ILD         ILM        NPHI        CALI          GR        RHOB        DRHO          DT  
# ...
  4132.0000    -58.7510      5.9663      6.1997      5.6476     43.9284     19.1162     84.9002      1.9054      0.0778    101.3029  
  4132.5000    -58.2267      6.0704      6.3096      5.7185     44.1533     19.1252     83.6554      1.8949      0.0789    100.9465  
  4133.0000    -57.9356      6.1643      6.3978      5.8231     44.4748     19.1280     84.4333      1.9017      0.0819    101.5551  
  4133.5000    -57.8351      6.1435      6.3763      5.8194     44.1754     19.1310     87.8364      1.9078      0.0862    102.5127  
  4134.0000    -57.9746      6.1769      6.4081      5.8552     43.7188     19.1542     91.0642      1.9075      0.0859    103.7779  
  4134.5000    -58.2778      6.2165      6.4545      5.8911     44.0764     19.1728     93.0984      1.9067      0.0824    103.7249  
  4135.0000    -58.3680      6.2645      6.5044      5.9366     44.2984     19.1859     93.5697      1.9297      0.1028    103.4530  
  4135.5000    -58.3044      6.2781      6.5158      5.9531     44.3273     19.1873     93.1446      1.9425      0.1182    105.1382  
  4136.0000    -58.1167      6.1918      6.4471      5.8717     43.5035     19.2041     91.6535      1.9340      0.1020    105.0494  
  4136.5000    -58.0587      6.2147      6.4508      5.8918     43.0993     19.2303     89.4328      1.9225      0.0873    102.6203  
  4137.0000    -58.1893      6.2034      6.4422      5.8772     43.8091     19.2504     87.9802      1.9079      0.0788    104.0978  
  4137.5000    -58.2638      6.2443      6.4909      5.9079     44.5061     19.2623     87.9506      1.9067      0.0724    102.1817  
  4138.0000    -58.3066      6.1609      6.4008      5.8412     44.6812     19.2600     88.0076      1.9012      0.0672    101.5798  
  4138.5000    -58.2944      6.1888      6.4238      5.8676     44.6436     19.2620     88.0100      1.9042      0.0768    102.3940  
  4139.0000    -58.3631      6.2168      6.4529      5.8942     44.7175     19.2504     88.3318      1.9221      0.0895    102.7471  
  4139.5000    -58.4033      6.2450      6.4821      5.9209     45.1521     19.2257     88.1233      1.9319      0.0943    102.6719  
  4140.0000    -58.1879      6.2733      6.5114      5.9477     45.2547     19.1922     87.8762      1.9376      0.0995     97.7383  
  4140.5000    -58.0213      6.3017      6.5409      5.9746     44.9583     19.1660     87.7803      1.9428      0.1031    104.1491  
  4141.0000    -57.9555      6.3302      6.5705      6.0017     44.9345     19.1613     86.8427      1.9421      0.0943    106.2952  
  4141.5000    -58.0127      6.3589      6.6003      6.0288     45.3532     19.1819     86.1264      1.9484      0.0917    109.2643  
  4142.0000    -58.1016      6.3877      6.6302      6.0561     46.1894     19.1914     86.1742      1.9634      0.1057    103.7201  
  4142.5000    -58.1091      6.4166      6.6602      6.0836     46.0571     19.1919     85.9448      1.9585      0.1126    100.1515  
  4143.0000    -58.0843      6.4456      6.6903      6.1111     45.7431     19.1818     85.1240      1.9474      0.1017    100.8967  
  4143.5000    -58.1140      6.4748      6.7206      6.1388     45.6382     19.1757     84.3077      1.9459      0.0961    119.4469  
  4144.0000    -58.0828      6.4794      6.7245      6.1443     45.7132     19.1902     84.8826      1.9490      0.1062     97.5002  
  4144.5000    -57.9926      6.4646      6.7091      6.1302     45.7818     19.1900     85.8379      1.9454      0.0974     97.0918  
  4145.0000    -57.8521      6.4498      6.6938      6.1161     45.0580     19.1808     86.9487      1.9160      0.0777     99.6212  
  4145.5000    -57.7116      6.4350      6.6785      6.1021     43.8677     19.1536     87.8384      1.8959      0.0605    104.6014  
  4146.0000    -57.5605      6.4202      6.6632      6.0881     42.8911     19.1442     88.1949      1.8972      0.0673    105.7914  
  4146.5000    -57.5764      6.4064      6.6486      6.0753     43.0104     19.1551     87.5656      1.9037      0.0742    107.0408  
  4147.0000    -57.7360      6.4049      6.6471      6.0738     43.2173     19.1645     87.9533      1.9119      0.0816    106.6633  
  4147.5000    -57.8625      6.3979      6.6432      6.0627     43.5082     19.1696     87.9281      1.9269      0.0907     99.9765  
  4148.0000    -58.0494      6.3473      6.5906      6.0148     44.4146     19.1658     88.3651      1.9292      0.0989    101.8236  
  4148.5000    -58.2335      6.3033      6.5434      5.9751     45.4713     19.1673     89.2070      1.9266      0.0933    105.0271  
  4149.0000    -58.1358      6.2667      6.5054      5.9404     46.2992     19.1745     90.0238      1.9306      0.0961    103.3875  
  4149.5000    -57.9228      6.2303      6.4677      5.9058     46.7791     19.1797     90.2370      1.9370      0.0995    102.7460  
  4150.0000    -57.8642      6.1941      6.4302      5.8715     45.9683     19.1841     89.4654      1.9425      0.1029    107.7104  
  4150.5000    -57.8444      6.1634      6.3973      5.8436     45.0255     19.2002     88.0280      1.9446      0.1018     98.0058  
  4151.0000    -57.7037      6.1395      6.3725      5.8210     44.1159     19.2097     86.4653      1.9347      0.0932     96.0988  
  4151.5000    -57.6346      6.1156      6.3477      5.7984     43.4155     19.1988     85.8971      1.9331      0.0866     98.2030  
  4152.0000    -57.5894      6.0919      6.3231      5.7759     43.7246     19.1755     85.8642      1.9265      0.0766    100.6151  
  4152.5000    -57.6723      6.0701      6.2999      5.7559     44.2351     19.1587     86.1012      1.9184      0.0718    104.7559  
  4153.0000    -57.9257      6.0563      6.2856      5.7428     44.4367     19.1497     86.4333      1.9226      0.0746    108.5195  
  4153.5000    -58.1578      6.0426      6.2713      5.7298     44.6189     19.1438     87.0779      1.9334      0.0856    107.3797  
  4154.0000    -58.2446      6.0289      6.2571      5.7168     44.9006     19.1496     88.1065      1.9411      0.0945    106.4011  
  4154.5000    -58.2750      6.0231      6.2507      5.7118     44.9941     19.1518     87.9916      1.9406      0.0999    105.1619  
  4155.0000    -58.2713      6.0213      6.2489      5.7101     44.4072     19.1514     87.2785      1.9360      0.0987    109.0399  
  4155.5000    -58.4554      6.0196      6.2471      5.7085     43.7921     19.1636     86.8105      1.9427      0.1060    102.6136  
  4156.0000    -59.0837      6.0179      6.2453      5.7068     43.0295     19.1569     86.2040      1.9548      0.1124    101.6276  
  4156.5000    -58.5706      6.0161      6.2435      5.7052     42.2669     19.1423     85.0379      1.9547      0.1071    101.7473  
  4157.0000    -58.3364      6.0182      6.2461      5.7066     41.9646     19.1480     84.1282      1.9449      0.0980    107.3600  
  4157.5000    -58.1687      6.0364      6.2650      5.7239     42.2658     19.1809     84.7247      1.9346      0.0875    111.0027  
  4158.0000    -58.1354      6.0546      6.2839      5.7412     42.5761     19.2201     85.8801      1.9302      0.0771    108.0323  
  4158.5000    -58.1781      6.0729      6.3029      5.7585     42.8864     19.2488     87.2922      1.9336      0.0913    102.1581  
  4159.0000    -58.2263      6.0913      6.3220      5.7759     43.1967     19.2509     88.0908      1.9359      0.0946     99.6806  
  4159.5000    -58.1977      6.1097      6.3411      5.7934     42.8371     19.2217     88.9393      1.9324      0.0835    100.2322  
  4160.0000    -57.9851      6.1282      6.3602      5.8109     42.5802     19.2272     88.8078      1.9313      0.0770    103.5773  
  4160.5000    -57.7345      6.1467      6.3795      5.8284     43.1178     19.2280     88.1450      1.9291      0.0774    103.6463  
  4161.0000    -57.5325      6.1653      6.3987      5.8460     43.5251     19.1965     87.4508      1.9305      0.0844    102.0065  
  4161.5000    -57.3968      6.1624      6.3954      5.8438     43.6093     19.2060     87.9781      1.9363      0.0925    100.3890  
