~VERSION INFORMATION
 VERS.                           2.00:        CWLS LOG ASCII STANDARD - VERSION 2.00
 WRAP.                             NO:        ONE LINE PER DEPTH STEP
~WELL INFORMATION
#MNEM.UNIT                   DATA             INFORMATION
#----------             --------------        ------------------------------
 STRT.F                      112.0000:        START DEPTH
 STOP.F                    10176.0000:        STOP DEPTH
 STEP.F                        0.5000:        STEP VALUE
 NULL.                      -999.2500:        NULL VALUE
 COMP.                      HUSKY OIL:        COMPANY  
 LOC .                   36  11N   4W:        LOCATION   
 DATE.                        2/16/81:        LOG DATE 
 WELL.            NORTH INIGOK TEST 1:        WELL     
 UWI .                   501032001700:        UNIQUE WELL ID 
 API .                   501032001700:        UNIQUE WELL IDENTIFIER 
 FLD .                        WILDCAT:        FIELD    
 CNTY.                    NORTH SLOPE:        COUNTY  
 STAT.                         ALASKA:        STATE   
 CTRY.                            USA:        COUNTRY 
 OPER.                      HUSKY OIL:        OPERATOR  
 SRVC.                            440:        SERVICE COMPANY 
 LAT .                         0.0000:        LATITUDE
 LON .                         0.0000:        LONGITUDE
 DIGS.                             65:        DIGITIZING COMPANY 
~CURVE INFORMATION      
#MNEM.UNIT                 API CODE           CURVE DESCRIPTION
#---------              --------------        ------------------------------
 DEPT.F                              :        1  DEPTH
 SP  .MV                             :        2
 SFL .OHMM                           :        3
 ILD .OHMM                           :        4
 ILM .OHMM                           :        5
 NPHI.%                              :        6
 CALI.IN                             :        7
 GR  .GAPI                           :        8
 RHOB.G/C3                           :        9
 DRHO.G/C3                           :       10
 DT  .US/F                           :       11
~PARAMETER INFORMATION       
#MNEM.UNIT                  VALUE             DESCRIPTION OF MNEMONIC
#---------             ---------------        ------------------------------
 EKB .F                      166.0000:        KELLY BUSHING
 TD  .F                    10167.0000:        TOTAL DEPTH
~OTHER INFORMATION
~A    DEPTH          SP         SFL         ILD         ILM        NPHI        CALI          GR        RHOB        DRHO          DT  
# ...
  9472.0000    -45.4547      4.7454      4.3076      4.5226     28.8589      8.6885     82.9099      2.5829     -0.0249    100.3798  
  9472.5000    -41.0527      4.7047      4.1861      4.4349     28.0359      8.6757     88.8313      2.5730     -0.0145     99.5257  
  9473.0000    -35.8339      4.6643      4.0680      4.3222     28.0206      8.6813     93.1900      2.5366     -0.0169     99.9423  
  9473.5000    -35.8189      4.6138      3.9509      4.2124     29.6718      8.6862     95.4768      2.5246     -0.0175    101.3069  
  9474.0000    -36.0376      4.5842      3.8310      4.1053     30.3734      8.6956     97.1650      2.5215     -0.0165    103.0453  
  9474.5000    -36.1645      4.5624      3.7242      4.0129     29.2105      8.7065     98.6918      2.5292     -0.0135    103.7859  
  9475.0000    -36.3122      4.5776      3.7538      3.9591     28.1352      8.7035     99.0707      2.5318     -0.0105    103.8112  
  9475.5000    -36.5109      4.6149      3.8012      3.9934     28.0549      8.7049     95.9925      2.5354     -0.0084    103.8805  
  9476.0000    -36.6094      4.6266      3.8553      4.0280     27.7125      8.6997     93.8850      2.5325     -0.0104    103.9160  
  9476.5000    -36.7549      4.6186      3.9148      4.0608     27.2204      8.7015     90.3040      2.5328     -0.0129    103.9600  
  9477.0000    -36.9406      4.6106      3.9014      4.0934     28.0794      8.6973     88.9789      2.5387     -0.0117    103.7387  
  9477.5000    -37.0072      4.6105      3.8195      4.1264     28.3574      8.6997     94.4327      2.5408     -0.0058    103.5409  
  9478.0000    -37.0275      4.6272      3.7109      4.1596     27.9744      8.6997     97.1737      2.5373     -0.0049    103.5038  
  9478.5000    -37.1153      4.6279      3.7194      4.1735     27.7815      8.7023     99.5825      2.5474     -0.0040    103.3651  
  9479.0000    -37.1998      4.6107      3.7795      4.0753     27.7812      8.7041     99.2740      2.5801     -0.0021    102.7934  
  9479.5000    -37.4239      4.5936      3.8048      3.9751     27.4388      8.7065     98.3256      2.5858      0.0016    101.6311  
  9480.0000    -37.7546      4.5973      3.7980      3.9257     27.5044      8.7095     96.3185      2.5830      0.0026    101.4877  
  9480.5000    -38.1518      4.6018      3.5890      3.9082     27.3214      8.7091     99.9175      2.5622     -0.0037    101.9072  
  9481.0000    -38.6055      4.6063      3.4586      3.9014     26.8071      8.7148    100.9032      2.5584     -0.0067    102.5067  
  9481.5000    -38.9488      4.6089      3.7807      3.9439     26.0258      8.7151     96.7661      2.5758     -0.0107    103.9923  
  9482.0000    -39.3597      4.5061      3.9394      4.0965     26.8965      8.7154     94.5957      2.5994     -0.0079    104.3972  
  9482.5000    -39.8632      4.4055      3.9831      4.2625     27.8160      8.7201     95.6596      2.6064     -0.0180    102.9619  
  9483.0000    -40.5870      4.3003      3.9990      4.3688     27.6084      8.7179     88.8485      2.6105     -0.0039    102.0918  
  9483.5000    -41.3446      4.1322      3.8985      4.3548     26.9971      8.7190     85.4021      2.5691     -0.0058    102.1669  
  9484.0000    -42.1265      3.9707      3.7796      4.2689     26.5894      8.7244     90.7441      2.5321     -0.0113    102.5501  
  9484.5000    -43.0005      3.9157      3.5672      4.1594     27.0034      8.7207     94.4733      2.5183     -0.0084    104.9397  
  9485.0000    -43.8838      3.8726      3.4812      4.0528     27.9852      8.7301     96.2017      2.5167     -0.0084    106.8397  
  9485.5000    -44.7718      3.8429      3.4961      3.9564     29.1573      8.7306     97.7708      2.5215     -0.0151    107.6453  
  9486.0000    -45.5993      3.8151      3.5101      3.8917     29.9073      8.7257    102.7337      2.5361     -0.0115    107.7953  
  9486.5000    -46.2432      3.7998      3.5159      3.9158     29.3269      8.7130    107.4577      2.5505     -0.0036    107.3979  
  9487.0000    -46.9195      3.7847      3.5218      4.0193     28.8491      8.7156    102.4850      2.5574     -0.0049    106.9197  
  9487.5000    -47.5287      3.7919      3.5722      4.1532     29.1114      8.7114     96.8557      2.5499     -0.0044    106.6731  
  9488.0000    -48.2793      3.8133      3.6197      4.1425     29.3880      8.7135     90.8781      2.5463     -0.0025    106.3925  
  9488.5000    -49.0484      3.8675      3.6631      4.1387     30.0275      8.7040     92.2904      2.5501     -0.0023    106.1858  
  9489.0000    -49.8145      3.9225      3.7376      4.1785     31.1913      8.7057     94.7143      2.5522     -0.0137    105.8360  
  9489.5000    -50.6185      3.9783      3.8808      4.3602     32.0682      8.7069     93.7675      2.5619     -0.0199    105.4710  
  9490.0000    -51.2780      4.0349      3.9315      4.4089     31.4950      8.7048     97.5044      2.5782     -0.0234    104.5725  
  9490.5000    -51.9335      4.0581      3.9460      4.4040     30.9926      8.7071     93.2642      2.5868     -0.0154    102.8980  
  9491.0000    -52.1074      4.0735      3.9262      4.3875     30.9528      8.6879     91.6156      2.5897     -0.0064    102.5489  
  9491.5000    -52.0984      4.0890      3.8821      4.3711     30.1584      8.6971     94.1505      2.5517     -0.0097    102.3725  
  9492.0000    -51.6169      4.1045      3.8257      4.3547     29.7972      8.6984     97.1104      2.5495     -0.0136    103.1607  
  9492.5000    -51.2365      4.0906      3.7669      4.3235     29.9991      8.7164     98.6737      2.5564     -0.0119    104.5746  
  9493.0000    -50.9464      4.0706      3.7168      4.2878     29.8138      8.8200    100.0716      2.5442     -0.0119    105.1075  
  9493.5000    -50.6691      4.0515      3.7170      4.2679     29.6678      8.7763    102.3523      2.5373     -0.0203    105.4370  
  9494.0000    -50.5749      4.0515      3.7370      4.2620     30.8902      8.7770    102.9885      2.5356     -0.0236    105.3871  
  9494.5000    -50.7364      4.0594      3.7765      4.2497     31.2606      8.7897     99.2105      2.5568     -0.0046    105.2689  
  9495.0000    -50.8791      4.0798      3.7903      4.2251     29.9804      8.7924     95.6520      2.5646     -0.0050    105.1923  
  9495.5000    -50.9976      4.1504      3.6600      4.2287     29.1337      8.7880     95.6156      2.5599     -0.0085    105.2688  
  9496.0000    -51.1592      4.2222      3.8595      4.3266     29.0132      8.7818     96.0555      2.5516     -0.0128    105.5996  
  9496.5000    -51.1230      4.2504      4.0646      4.4669     29.4777      8.7779     96.7880      2.5685     -0.0135    105.3781  
  9497.0000    -51.2398      3.7219      4.0335      4.5086     30.2663      8.7703     96.0525      2.5904     -0.0101    103.3225  
  9497.5000    -51.3757      2.8741      3.9475      4.3388     30.5006      8.7669     96.7837      2.5860      0.0004    102.9077  
  9498.0000    -51.4637      2.6556      3.8198      4.1544     30.4996      8.7794     97.8299      2.5377     -0.0051    103.3131  
  9498.5000    -51.1266      3.2274      3.7020      3.9956     30.0752      8.7889    100.2825      2.5048     -0.0106    104.2304  
  9499.0000    -51.0632      3.4842      3.6717      3.9257     29.7593      8.7824    101.8780      2.5078     -0.0020    106.9988  
  9499.5000    -51.1272      3.4634      3.7691      4.0172     29.4775      8.7698    104.2559      2.5292      0.0051    107.6538  
  9500.0000    -51.4100      3.8624      3.8476      4.1597     28.9870      8.7571    107.8992      2.5557      0.0039    107.5847  
  9500.5000    -51.4291      3.9109      3.8586      4.2604     29.4453      8.7453    101.7932      2.5832     -0.0029    106.3653  
  9501.0000    -51.4849      3.5273      3.8388      4.2335     30.8187      8.7402     97.8629      2.5988     -0.0047    104.9557  
  9501.5000    -51.5407      3.0793      3.7931      4.1580     31.5697      8.7466     96.1538      2.5990      0.0113    104.4992  
