~VERSION INFORMATION
 VERS.                           2.00:        CWLS LOG ASCII STANDARD - VERSION 2.00
 WRAP.                             NO:        ONE LINE PER DEPTH STEP
~WELL INFORMATION
#MNEM.UNIT                   DATA             INFORMATION
#----------             --------------        ------------------------------
 STRT.F                      116.0000:        START DEPTH
 STOP.F                     8861.0000:        STOP DEPTH
 STEP.F                        0.5000:        STEP VALUE
 NULL.                      -999.2500:        NULL VALUE
 COMP.                     U.S. NAAVY:        COMPANY
 LOC .                 [33^13 17N 2W:        LOCATION
 DATE.                        3/30/77:        LOG DATE
 WELL.                    WT FORAN #1:        WELL
 UWI .                   501032001000:        UNIQUE WELL ID
 API .                   501032001000:        UNIQUE WELL IDENTIFIER
 FLD .                        WILDCAT:        FIELD
 CNTY.                    NORTH SLOPE:        COUNTY
 STAT.                         ALASKA:        STATE
 CTRY.                            USA:        COUNTRY
 OPER.                     U.S. NAAVY:        OPERATOR
 SRVC.                   SCHLUMBERGER:        SERVICE COMPANY
 LAT .                         0.0000:        LATITUDE
 LON .                         0.0000:        LONGITUDE
 DIGS.               CENTER LINE DATA:        DIGITIZING COMPANY
~CURVE INFORMATION      
#MNEM        .UNIT         API CODE           CURVE DESCRIPTION
#-----------------      --------------        ------------------------------
 DEPT        .F                      :        1  DEPTH
 CALI        .IN                     :        2  
 GR          .GAPI                   :        3  
 DRHO        .G/C3                   :        4  
 RHOB        .G/C3                   :        5  
 NPHI        .%                      :        6  
 DT          .US/F                   :        7  
 SP          .MV                     :        8  
 ILD         .OHMM                   :        9  
 ILM         .OHMM                   :        10 
 LL8         .OHMM                   :        11 
~PARAMETER INFORMATION
#MNEM.UNIT                  VALUE             DESCRIPTION OF MNEMONIC
#---------             ---------------        ------------------------------
 EKB .F                       39.0000:        KELLY BUSHING
 TD  .F                     8864.0000:        TOTAL DEPTH
 BHT .F                      152.0000:        BOTTOM HOLE TEMPERATURE
 BS  .                        14.2500:        BIT SIZE
 FD  .                        10.2000:        FLUID DENSITY
 CSIZ.                        16.0000:        CASING SIZE
 CBD .F                     1458.0000:        CASING DRILLER 1
 CBL .F                        0.0000:        CASING LOGGER 1
 DFT .                  MISCELLANEOUS:        TYPE FLUID IN HOLE
 DFV .                        45.0000:        VISCOSITY
 DFPH.                        10.5000:        PH
 DFL .                         5.5000:        FLUID LOSS
 RMS .                         2.4000:        RM
 MST .F                       54.0000:        RM MEAS. TEMP.
 RMF .                         2.3000:        RMF
 MFST.F                       56.0000:        RMF MEAS. TEMP.
 RMC .                         2.7000:        RMC
 MCST.F                       54.0000:        RMC MEAS. TEMP.
~OTHER INFORMATION
~A    DEPTH        CALI          GR        DRHO        RHOB        NPHI          DT          SP         ILD         ILM         LL8 
# ...
  4172.5000     14.5195     74.8805      0.0279      2.3116     40.4030    110.2483    -38.1051      3.6325      3.5189      4.3757 
  4173.0000     14.7566     78.8722      0.0151      2.3363     41.0260    110.9481    -38.3154      3.6780      3.5582      4.5059 
  4173.5000     15.1636     80.9939      0.0403      2.3663     40.6840    109.5279    -38.7740      3.7264      3.5980      4.6334 
  4174.0000     15.2745     81.8768      0.0597      2.4036     40.0052    108.4914    -39.3670      3.7758      3.6382      4.7569 
  4174.5000     15.2993     81.9594      0.0552      2.3947     39.2428    106.8721    -39.7196      3.8047      3.6788      4.9094 
  4175.0000     15.2228     81.1279      0.0716      2.3969     38.4804    105.2132    -39.6705      3.8207      3.7199      5.0746 
  4175.5000     15.1771     80.1954      0.0738      2.3996     37.7166    103.9346    -39.7145      3.8135      3.7283      5.1753 
  4176.0000     15.1925     78.0350      0.0550      2.3878     37.1187    103.6211    -39.7918      3.8025      3.6882      5.1604 
  4176.5000     15.2079     75.8187      0.0395      2.3670     37.8810    105.8315    -39.9560      3.7811      3.6486      4.6180 
  4177.0000     15.2238     73.9675      0.0302      2.3480     38.6920    107.3796    -40.2049      3.7366      3.5769      4.6096 
  4177.5000     15.2601     72.5867      0.0177      2.3341     39.3884    107.0130    -40.8984      3.6925      3.4926      4.9077 
  4178.0000     15.3228     72.3085      0.0324      2.3399     39.8168    105.0281    -41.6543      3.6508      3.4102      5.4760 
  4178.5000     15.3247     72.1485      0.0465      2.3227     39.4523    102.3013    -42.1541      3.6108      3.3297      5.6711 
  4179.0000     15.0379     71.1404      0.0535      2.3111     38.7109    100.2079    -42.2676      3.5713      3.3177      5.2141 
  4179.5000     14.7315     68.3389      0.0502      2.2951     37.4126    102.2987    -42.2765      3.5322      3.3347      4.9631 
  4180.0000     14.6411     65.5464      0.0292      2.2811     36.2538    103.7649    -42.3615      3.4935      3.3517      4.7628 
  4180.5000     14.6360     63.9130      0.0310      2.3122     37.4939    106.9610    -42.4069      3.4552      3.3980      4.6425 
  4181.0000     14.6619     65.6728      0.0287      2.3307     39.0151    107.2615    -42.6638      3.4357      3.4258      4.7381 
  4181.5000     14.7010     69.7381      0.0101      2.3207     40.5623    106.4205    -42.8821      3.4229      3.4173      5.2013 
  4182.0000     14.7448     72.3950      0.0309      2.3336     42.0531    103.4192    -42.7344      3.4103      3.4088      5.6310 
  4182.5000     14.8047     72.6988      0.0319      2.3264     40.1274    100.8942    -41.2746      3.3976      3.4003      5.2514 
  4183.0000     14.8154     72.3362      0.0241      2.3100     37.9563    102.6962    -39.5186      3.3851      3.4282      4.5832 
  4183.5000     14.7338     71.4471      0.0290      2.3045     36.8095    105.1025    -37.8269      3.3725      3.4448      4.2829 
  4184.0000     14.7523     72.4251      0.0384      2.3216     36.9705    108.3506    -36.3460      3.3600      3.4594      4.4281 
  4184.5000     14.8597     73.2210      0.0270      2.3307     37.3622    106.8717    -36.0733      3.3476      3.4621      4.8256 
  4185.0000     15.0738     73.0243      0.0280      2.3465     38.0402    105.2077    -35.5530      3.3352      3.4347      4.9560 
  4185.5000     15.1844     72.6501      0.0233      2.3486     37.2044    105.0333    -34.0643      3.3228      3.3663      4.4749 
  4186.0000     15.1870     71.8468      0.0384      2.3458     36.0944    109.8220    -32.2077      3.3105      3.3733      4.1309 
  4186.5000     15.1817     72.1340      0.0472      2.3509     35.6714    113.8897    -31.0920      3.2983      3.3729      4.0595 
  4187.0000     15.2165     74.1499      0.0537      2.3784     36.4255    113.9956    -30.9680      3.2860      3.3454      4.1795 
  4187.5000     15.2377     76.7889      0.0591      2.3846     38.0465    112.5850    -31.1025      3.2739      3.2818      4.2986 
  4188.0000     15.2670     80.4602      0.0411      2.3735     38.7989    111.7804    -30.5181      3.2818      3.2147      4.2100 
  4188.5000     15.2984     83.1464      0.0408      2.3629     39.4610    113.0980    -29.7605      3.3112      3.2673      4.0144 
  4189.0000     15.2775     84.6871      0.0624      2.3769     40.7787    114.3809    -29.7120      3.3407      3.3207      3.8736 
  4189.5000     15.2968     85.8077      0.0748      2.3978     42.0164    119.3731    -30.1666      3.3710      3.3751      3.8181 
  4190.0000     15.3474     86.8489      0.0605      2.3820     42.4699    118.0224    -31.5230      3.4277      3.4303      4.0302 
  4190.5000     15.4038     87.1709      0.0445      2.3590     42.4127    115.1969    -32.8440      3.4854      3.4803      4.7654 
  4191.0000     15.4740     85.6768      0.0581      2.3530     41.4082    111.9210    -34.1476      3.5066      3.4753      5.1611 
  4191.5000     15.2795     82.9604      0.0634      2.3529     40.1865    103.9741    -34.8139      3.5181      3.4703      5.1841 
  4192.0000     15.0418     79.4904      0.0732      2.3423     38.9122    104.1383    -34.4778      3.5132      3.4653      4.7580 
  4192.5000     14.8575     77.2727      0.0505      2.3236     37.6335    106.2574    -33.6809      3.4954      3.4604      4.2992 
  4193.0000     14.8105     76.9816      0.0280      2.3142     38.3306    109.5780    -31.9993      3.4776      3.4554      4.2585 
  4193.5000     14.9194     80.2235      0.0490      2.3612     39.8974    112.4579    -30.7197      3.4600      3.4508      4.1571 
  4194.0000     15.1141     81.2487      0.0550      2.3877     38.9067    111.7289    -29.6463      3.4417      3.4462      4.0561 
  4194.5000     15.0156     81.8081      0.0654      2.4016     38.7261    114.6654    -29.0899      3.4226      3.4416      3.9668 
  4195.0000     15.1145     82.0914      0.0827      2.4034     39.3404    116.6382    -29.0419      3.4036      3.4370      4.0014 
  4195.5000     15.1746     82.4733      0.0735      2.3984     40.0600    112.8971    -29.1617      3.3847      3.4324      4.3770 
  4196.0000     15.1997     82.1814      0.0669      2.3863     40.7120    109.2731    -28.9900      3.3659      3.4186      4.7972 
  4196.5000     15.2078     80.6508      0.0592      2.3757     40.9515    110.1662    -28.1139      3.3472      3.3965      4.2804 
  4197.0000     15.2193     79.5731      0.0446      2.3710     40.8445    112.3526    -26.4531      3.3286      3.3745      3.7880 
  4197.5000     15.2290     80.0532      0.0382      2.3714     40.7375    115.0603    -25.5868      3.3101      3.3527      3.5211 
  4198.0000     15.3103     81.8136      0.0520      2.3813     41.2928    119.8919    -25.5668      3.2918      3.3310      3.3744 
  4198.5000     15.4106     82.8230      0.0659      2.3901     41.6813    120.1861    -25.7327      3.2742      3.3095      3.5222 
  4199.0000     15.4969     83.4076      0.0766      2.3920     41.4949    115.7486    -26.0356      3.2701      3.3142      3.8953 
  4199.5000     15.5176     86.1569      0.0662      2.3845     40.3091    114.4986    -26.4233      3.2660      3.3225      4.2989 
  4200.0000     15.6118     88.6717      0.0560      2.3697     39.2452    113.5828    -26.4778      3.2619      3.3309      4.2774 
  4200.5000     15.6044     86.2680      0.0488      2.3604     39.6886    114.8750    -26.2953      3.2579      3.3394      3.8068 
  4201.0000     15.3714     85.4219      0.0384      2.3439     40.4796    119.0747    -26.3360      3.2538      3.3478      3.5780 
  4201.5000     15.5086     84.8229      0.0125      2.3323     41.2707    120.4477    -26.8542      3.2497      3.3563      3.7852 
  4202.0000     15.6757     83.8070      0.0213      2.3316     42.0206    117.2904    -27.6521      3.2457      3.3647      4.0814 
  4202.5000     16.0121     83.1701      0.0377      2.3431     42.4662    113.2162    -27.9315      3.2416      3.3733      4.4067 
