~VERSION INFORMATION
 VERS.                      2.00:        CWLS LOG ASCII STANDARD - VERSION 2.00
 WRAP.                        NO:        ONE LINE PER DEPTH STEP
~WELL INFORMATION
#MNEM.UNIT               DATA            INFORMATION
#----------          ------------        ------------------------------
 STRT.F                 490.0000:        START DEPTH
 STOP.F               10659.0000:        STOP DEPTH
 STEP.F                   0.5000:        STEP VALUE
 NULL.                 -999.2500:        NULL VALUE
 COMP. HUSKY OIL NPR OPERATIONS,:        COMPANY  
 WELL.         EAST TESHEKPUK #1:        WELL     
 FLD .   U.S. NAVY NPR-4 WILDCAT:        FIELD    
 LOC .              16  14N   4W:        LOCATION   
 CNTY.                  N. SLOPE:        COUNTY  
 STAT.                    ALASKA:        STATE   
 CTRY.                       USA:        COUNTRY 
 DATE.                   4/11/76:        LOG DATE 
 API .              502790000000:        UNIQUE WELL IDENTIFIER 
 OPER. HUSKY OIL NPR OPERATIONS,:        OPERATOR  
 SRVC.              Schlumberger:        SERVICE COMPANY 
 UWI .              502790000000:        UNIQUE WELL ID 
 LAT .                    0.0000:        LATITUDE
 LON .                    0.0000:        LONGITUDE
 DIGS.          Center Line Data:        DIGITIZING COMPANY 
~CURVE INFORMATION      
#MNEM.UNIT            API CODE           CURVE DESCRIPTION
#---------          -------------        ------------------------------
 DEPT.F                         :        1  DEPTH
 SP  .MV                        :        2
 LL8 .OHMM                      :        3
 ILM .OHMM                      :        4
 ILD .OHMM                      :        5
 CALI.IN                        :        6
 GR  .GAPI                      :        7
 RHOB.G/C3                      :        8
 DRHO.G/C3                      :        9
 NPHI.%                         :       10
 DT  .US/F                      :       11
~PARAMETER INFORMATION       
#MNEM.UNIT              VALUE            DESCRIPTION OF MNEMONIC
#---------          -------------        ------------------------------
 EKB .F                  27.6000:        KELLY BUSHING
 TD  .F               10664.0000:        TOTAL DEPTH
 BHT .F                 172.0000:        BOTTOM HOLE TEMPERATURE
 BS  .                   13.5000:        BIT SIZE
 FD  .                   10.2000:        FLUID DENSITY
 CSIZ.                   16.0000:        CASING SIZE
 CBD .F                2578.0000:        CASING DRILLER 1
 CBL .F                2572.0000:        CASING LOGGER 1
 DFT . Salt Water-Lignosulfonate:        TYPE FLUID IN HOLE
 DFV .                   51.0000:        VISCOSITY
 DFPH.                   10.6000:        PH
 DFL .                    3.5000:        FLUID LOSS
 RMS .                    2.2600:        RM
 MST .F                  64.0000:        RM MEAS. TEMP.
 RMF .                    1.8900:        RMF
 MFST.F                  58.0000:        RMF MEAS. TEMP.
 RMC .                    2.5400:        RMC
 MCST.F                  58.0000:        RMC MEAS. TEMP.
 UWI .              502790000000:        UNIQUE WELL ID
~OTHER INFORMATION
~A    DEPTH          SP         LL8         ILM         ILD        CALI          GR        RHOB        DRHO        NPHI          DT  
# ...
  3640.0000    -55.1824      4.1164      3.9498      4.7151     13.7874     86.6485   -999.2500   -999.2500   -999.2500    108.2754  
  3640.5000    -55.2026      4.1417      3.9741      4.7105     13.7874     85.8839   -999.2500   -999.2500   -999.2500    107.8437  
  3641.0000    -55.4004      4.1671      3.9985      4.7060     13.7874     85.3532   -999.2500   -999.2500   -999.2500    106.0075  
  3641.5000    -55.7420      4.1927      4.0231      4.7014     13.7852     84.7731   -999.2500   -999.2500   -999.2500    104.9690  
  3642.0000    -56.0702      4.2185      4.0478      4.6969     13.7830     84.0701   -999.2500   -999.2500   -999.2500    106.3402  
  3642.5000    -56.3144      4.2444      4.0727      4.6967     13.7807     83.5933   -999.2500   -999.2500   -999.2500    107.0801  
  3643.0000    -56.2781      4.2705      4.0977      4.7204     13.7805     83.0474   -999.2500   -999.2500   -999.2500    108.1933  
  3643.5000    -56.1634      4.2967      4.1229      4.7443     13.7833     82.2512   -999.2500   -999.2500   -999.2500    109.6992  
  3644.0000    -56.0694      4.3231      4.1482      4.7806     13.7862     80.5045   -999.2500   -999.2500   -999.2500    108.6343  
  3644.5000    -56.0614      4.3497      4.1737      4.8178     13.7890     79.1077   -999.2500   -999.2500   -999.2500    106.6823  
  3645.0000    -56.2195      4.3764      4.1993      4.8553     13.7918     79.7167   -999.2500   -999.2500   -999.2500    105.3314  
  3645.5000    -56.3764      4.3950      4.2187      4.8930     13.7946     79.8157   -999.2500   -999.2500   -999.2500    104.1550  
  3646.0000    -56.4942      4.3897      4.2136      4.9311     13.7955     78.7427   -999.2500   -999.2500   -999.2500    104.7728  
  3646.5000    -56.5419      4.3843      4.2084      4.9612     13.7952     78.1976   -999.2500   -999.2500   -999.2500    105.8136  
  3647.0000    -56.4720      4.3789      4.2033      4.9832     13.7915     80.1964   -999.2500   -999.2500   -999.2500    106.4876  
  3647.5000    -56.3308      4.3736      4.1981      5.0053     13.7877     83.3503   -999.2500   -999.2500   -999.2500    105.8891  
  3648.0000    -56.1125      4.3682      4.1930      5.0042     13.7825     86.6438   -999.2500   -999.2500   -999.2500    105.4500  
  3648.5000    -56.0417      4.3629      4.1879      5.0018     13.7771     88.6034   -999.2500   -999.2500   -999.2500    104.9686  
  3649.0000    -56.0408      4.3576      4.1828      4.9994     13.7717     86.9573   -999.2500   -999.2500   -999.2500    105.0509  
  3649.5000    -56.0599      4.3467      4.1721      4.9969     13.7662     84.8867   -999.2500   -999.2500   -999.2500    106.4351  
  3650.0000    -55.9886      4.3345      4.1604      4.9945     13.7608     81.5071   -999.2500   -999.2500   -999.2500    108.5372  
  3650.5000    -55.8881      4.3223      4.1487      4.9921     13.7554     78.1649   -999.2500   -999.2500   -999.2500    110.7920  
  3651.0000    -55.8116      4.3102      4.1371      4.9891     13.7394     76.5366   -999.2500   -999.2500   -999.2500    111.5476  
  3651.5000    -55.7221      4.2981      4.1254      4.9860     13.7511     73.8766   -999.2500   -999.2500   -999.2500    110.6167  
  3652.0000    -55.7766      4.2860      4.1139      4.9830     13.7601     74.8568   -999.2500   -999.2500   -999.2500    109.2578  
  3652.5000    -55.9141      4.2740      4.1023      4.9799     13.7641     77.0491   -999.2500   -999.2500   -999.2500    106.3125  
  3653.0000    -55.9931      4.2620      4.0908      4.9769     13.7430     78.6533   -999.2500   -999.2500   -999.2500    104.0128  
  3653.5000    -56.0212      4.2500      4.0793      4.9745     13.7125     78.3196   -999.2500   -999.2500   -999.2500    103.9070  
  3654.0000    -56.0151      4.2381      4.0679      4.9744     13.7085     79.1437   -999.2500   -999.2500   -999.2500    103.0227  
  3654.5000    -56.1011      4.2262      4.0564      4.9729     13.7237     80.5643   -999.2500   -999.2500   -999.2500    103.7955  
  3655.0000    -56.2830      4.2143      4.0451      4.9601     13.7421     80.2806   -999.2500   -999.2500   -999.2500    106.9986  
  3655.5000    -56.4764      4.2025      4.0337      4.9474     13.7600     79.3344   -999.2500   -999.2500   -999.2500    108.1665  
  3656.0000    -56.6110      4.2005      4.0320      4.9348     13.7534     77.7363   -999.2500   -999.2500   -999.2500    107.8896  
  3656.5000    -56.6773      4.2058      4.0371      4.9222     13.7365     77.2051   -999.2500   -999.2500   -999.2500    106.4494  
  3657.0000    -56.6365      4.2111      4.0421      4.9096     13.7195     77.8030   -999.2500   -999.2500   -999.2500    103.7274  
  3657.5000    -56.4987      4.2163      4.0472      4.8970     13.7126     79.0575   -999.2500   -999.2500   -999.2500    103.1824  
  3658.0000    -56.3888      4.2216      4.0523      4.8906     13.6929     79.9778   -999.2500   -999.2500   -999.2500    105.1745  
  3658.5000    -56.3280      4.2269      4.0574      4.8922     13.6999     81.1698   -999.2500   -999.2500   -999.2500    107.6302  
  3659.0000    -56.3111      4.2322      4.0624      4.8938     13.7068     82.6535   -999.2500   -999.2500   -999.2500    108.0384  
  3659.5000    -56.4132      4.2375      4.0675      4.8954     13.7137     84.1371   -999.2500   -999.2500   -999.2500    107.2525  
  3660.0000    -56.5424      4.2428      4.0726      4.8970     13.7207     83.9398   -999.2500   -999.2500   -999.2500    106.6493  
  3660.5000    -56.5124      4.2481      4.0777      4.8986     13.7269     81.8574   -999.2500   -999.2500   -999.2500    106.2658  
  3661.0000    -56.2821      4.2534      4.0828      4.9002     13.7541     79.4645   -999.2500   -999.2500   -999.2500    106.9034  
  3661.5000    -56.1245      4.2588      4.0879      4.9018     13.7695     79.1418   -999.2500   -999.2500   -999.2500    108.4684  
  3662.0000    -56.3082      4.2641      4.0931      4.9034     13.7776     80.5124   -999.2500   -999.2500   -999.2500    108.6729  
  3662.5000    -56.5811      4.2695      4.0982      4.9050     13.7778     81.5178   -999.2500   -999.2500   -999.2500    107.9027  
  3663.0000    -56.7627      4.2748      4.1033      4.9066     13.7677     80.7023   -999.2500   -999.2500   -999.2500    106.7540  
  3663.5000    -56.8347      4.2802      4.1085      4.9128     13.7608     81.1281   -999.2500   -999.2500   -999.2500    105.2830  
  3664.0000    -56.8340      4.2855      4.1136      4.9245     13.7512     82.6611   -999.2500   -999.2500   -999.2500    104.3824  
  3664.5000    -56.8470      4.2909      4.1188      4.9363     13.7417     83.7429   -999.2500   -999.2500   -999.2500    104.8693  
  3665.0000    -56.7657      4.2963      4.1239      4.9481     13.7321     84.5896   -999.2500   -999.2500   -999.2500    106.2115  
  3665.5000    -56.6949      4.3017      4.1291      4.9600     13.7226     86.2290   -999.2500   -999.2500   -999.2500    107.3411  
  3666.0000    -56.7341      4.3070      4.1343      4.9718     13.7132     86.5738   -999.2500   -999.2500   -999.2500    108.7479  
  3666.5000    -56.7769      4.3124      4.1394      4.9837     13.7040     85.7211   -999.2500   -999.2500   -999.2500    109.1366  
  3667.0000    -56.7413      4.3178      4.1446      4.9831     13.6948     85.2324   -999.2500   -999.2500   -999.2500    107.0831  
  3667.5000    -56.7596      4.3232      4.1498      4.9723     13.7054     84.6478   -999.2500   -999.2500   -999.2500    106.4288  
  3668.0000    -56.7233      4.3287      4.1550      4.9771     13.7138     83.5685   -999.2500   -999.2500   -999.2500    106.1936  
  3668.5000    -56.6470      4.3341      4.1602      4.9819     13.7197     82.5844   -999.2500   -999.2500   -999.2500    105.6172  
  3669.0000    -56.6408      4.3395      4.1654      4.9868     13.7256     82.2232   -999.2500   -999.2500   -999.2500    105.7649  
  3669.5000    -56.6555      4.3450      4.1706      4.9916     13.7316     80.5989   -999.2500   -999.2500   -999.2500    105.7128  
