~VERSION INFORMATION
 VERS.                      2.00:        CWLS LOG ASCII STANDARD - VERSION 2.00
 WRAP.                        NO:        ONE LINE PER DEPTH STEP
~WELL INFORMATION
#MNEM.UNIT               DATA            INFORMATION
#----------          ------------        ------------------------------
 STRT.F                 438.0000:        START DEPTH
 STOP.F               11532.0000:        STOP DEPTH
 STEP.F                   0.5000:        STEP VALUE
 NULL.                 -999.2500:        NULL VALUE
 COMP.      HUSKY-NPR OPERATIONS:        COMPANY  
 WELL.          ATIGARU POINT #1:        WELL     
 FLD .                   WILDCAT:        FIELD    
 LOC .              19  14N   2E:        LOCATION   
 CNTY.               NORTH SLOPE:        COUNTY  
 STAT.                     ALSKA:        STATE   
 CTRY.                       USA:        COUNTRY 
 DATE.                    1/ /77:        LOG DATE 
 API .              501032000800:        UNIQUE WELL IDENTIFIER 
 OPER.      HUSKY-NPR OPERATIONS:        OPERATOR  
 SRVC.              Schlumberger:        SERVICE COMPANY 
 UWI .              501032000800:        UNIQUE WELL ID 
 LAT .                    0.0000:        LATITUDE
 LON .                    0.0000:        LONGITUDE
 DIGS.          Center Line Data:        DIGITIZING COMPANY 
~CURVE INFORMATION      
#MNEM.UNIT            API CODE           CURVE DESCRIPTION
#---------          -------------        ------------------------------
 DEPT.F                         :        1  DEPTH
 SP  .MV                        :        2
 ILD .OHMM                      :        3
 ILM .OHMM                      :        4
 LL8 .OHMM                      :        5
 CALI.IN                        :        6
 GR  .GAPI                      :        7
 DRHO.G/C3                      :        8
 RHOB.G/C3                      :        9
 NPHI.%                         :       10
 DT  .US/F                      :       11
~PARAMETER INFORMATION       
#MNEM.UNIT              VALUE            DESCRIPTION OF MNEMONIC
#---------          -------------        ------------------------------
 EKB .F                  25.0000:        KELLY BUSHING
 TD  .F               11534.0000:        TOTAL DEPTH
 BHT .F                   0.0000:        BOTTOM HOLE TEMPERATURE
 BS  .                   17.5000:        BIT SIZE
 FD  .                    9.3000:        FLUID DENSITY
 CSIZ.                   20.0000:        CASING SIZE
 CBD .F                 447.0000:        CASING DRILLER 1
 CBL .F                 443.0000:        CASING LOGGER 1
 DFT .                       Gel:        TYPE FLUID IN HOLE
 DFV .                   47.0000:        VISCOSITY
 DFPH.                   14.6000:        PH
 DFL .                    8.0000:        FLUID LOSS
 RMS .                    1.9300:        RM
 MST .F                  63.0000:        RM MEAS. TEMP.
 RMF .                    1.6900:        RMF
 MFST.F                  52.0000:        RMF MEAS. TEMP.
 RMC .                    1.6500:        RMC
 MCST.F                  60.0000:        RMC MEAS. TEMP.
 UWI .              501032000800:        UNIQUE WELL ID
~OTHER INFORMATION
~A    DEPTH          SP         ILD         ILM         LL8        CALI          GR        DRHO        RHOB        NPHI          DT  
   438.0000   -999.2500   -999.2500   -999.2500   -999.2500   -999.2500     35.7317   -999.2500   -999.2500   -999.2500   -999.2500  
   438.5000   -999.2500   -999.2500   -999.2500   -999.2500   -999.2500     35.6109   -999.2500   -999.2500   -999.2500   -999.2500  
   439.0000   -999.2500   -999.2500   -999.2500   -999.2500   -999.2500     35.6510   -999.2500   -999.2500   -999.2500   -999.2500  
   439.5000   -999.2500   -999.2500   -999.2500   -999.2500   -999.2500     35.4212   -999.2500   -999.2500   -999.2500   -999.2500  
   440.0000   -999.2500   -999.2500   -999.2500   -999.2500   -999.2500     35.4193   -999.2500   -999.2500   -999.2500   -999.2500  
   440.5000   -999.2500   -999.2500   -999.2500   -999.2500   -999.2500     35.6761   -999.2500   -999.2500   -999.2500   -999.2500  
   441.0000   -999.2500   -999.2500   -999.2500   -999.2500   -999.2500     36.1270   -999.2500   -999.2500   -999.2500   -999.2500  
   441.5000   -999.2500   -999.2500   -999.2500   -999.2500   -999.2500     36.3229   -999.2500   -999.2500   -999.2500   -999.2500  
   442.0000   -999.2500   -999.2500   -999.2500   -999.2500   -999.2500     37.0197   -999.2500   -999.2500   -999.2500   -999.2500  
   442.5000   -999.2500   -999.2500   -999.2500   -999.2500   -999.2500     38.0594   -999.2500   -999.2500   -999.2500   -999.2500  
   443.0000    -14.6118     54.0095      0.1990      0.8210   -999.2500     39.0554   -999.2500   -999.2500   -999.2500     71.7659  
   443.5000    -13.6395   2082.9580      0.1990      1.6613   -999.2500     39.7023   -999.2500   -999.2500   -999.2500     78.4098  
   444.0000    -13.2911    276.0496      0.1990      2.7605   -999.2500     39.7509   -999.2500   -999.2500   -999.2500     83.5376  
   444.5000    -13.2341     36.5842      0.4514      3.5093   -999.2500     40.0202   -999.2500   -999.2500   -999.2500     98.8131  
   445.0000    -13.1229      6.4715      1.1389      5.0978   -999.2500     40.6042   -999.2500   -999.2500   -999.2500    104.5070  
   445.5000    -12.7880      2.8926      1.8313      6.7193   -999.2500     41.0469   -999.2500   -999.2500   -999.2500    116.1885  
   446.0000    -12.3846      4.6356      2.1053      8.6594   -999.2500     41.2285   -999.2500   -999.2500   -999.2500    135.8243  
   446.5000    -12.1195      8.7988      2.3372     10.1252   -999.2500     41.1058   -999.2500   -999.2500   -999.2500    154.9854  
   447.0000    -12.1019     16.7009      2.5947     11.3546   -999.2500     40.9068   -999.2500   -999.2500   -999.2500    162.0024  
   447.5000    -12.2166    318.9024      2.7731     12.7333   -999.2500     40.6932   -999.2500   -999.2500   -999.2500    160.5486  
   448.0000    -12.2702   1807.1443      2.8652     14.3124   -999.2500     40.3870   -999.2500   -999.2500   -999.2500    141.1369  
   448.5000    -12.2845     35.9909      2.8845     15.9006   -999.2500     40.1842   -999.2500   -999.2500   -999.2500    121.7252  
   449.0000    -12.4139     29.1422      2.8947     17.2156   -999.2500     39.9813   -999.2500   -999.2500   -999.2500    109.3862  
   449.5000    -12.6116     23.5967      2.9050     17.6313   -999.2500     38.5899   -999.2500   -999.2500   -999.2500    105.5937  
   450.0000    -12.7737     20.8481      2.9152     17.3747   -999.2500     35.1413   -999.2500   -999.2500   -999.2500    104.6301  
   450.5000    -12.9567     21.8009      3.2357     16.8901   -999.2500     33.8962   -999.2500   -999.2500   -999.2500    104.5703  
   451.0000    -12.8655     35.9450      4.4282     16.4702   -999.2500     33.8598   -999.2500   -999.2500   -999.2500    103.1972  
   451.5000    -12.7061     58.0117      4.9856     16.3452   -999.2500     34.0904   -999.2500   -999.2500   -999.2500    102.0802  
   452.0000    -12.5609     45.7101      4.5458     16.7291   -999.2500     34.5674   -999.2500   -999.2500   -999.2500    103.7546  
   452.5000    -12.4603     19.4736      3.9795     17.1914   -999.2500     35.0835   -999.2500   -999.2500   -999.2500    108.5987  
   453.0000    -12.5259     10.1432      3.3057     17.7057   -999.2500     35.4966   -999.2500   -999.2500   -999.2500    114.4843  
   453.5000    -12.4991      8.7812      2.8159     17.6243   -999.2500     35.4711   -999.2500   -999.2500   -999.2500    109.2488  
   454.0000    -12.2680      7.9029      2.5635     16.4943   -999.2500     35.4709   -999.2500   -999.2500   -999.2500    104.2182  
   454.5000    -11.7981      7.3979      2.4299     14.7725   -999.2500     35.5922   -999.2500   -999.2500   -999.2500    102.3596  
   455.0000    -11.2929      6.9319      2.4660     13.3035   -999.2500     35.9225   -999.2500   -999.2500   -999.2500    102.9446  
   455.5000    -11.0873      6.4983      2.5764     12.6210   -999.2500     36.0125   -999.2500   -999.2500   -999.2500    105.1931  
   456.0000    -10.9677      6.3088      2.7394     12.4898   -999.2500     35.6698   -999.2500   -999.2500   -999.2500    110.7412  
   456.5000    -10.7145      6.9259      2.9441     12.4001   -999.2500     35.3670   -999.2500   -999.2500   -999.2500    125.8118  
   457.0000    -10.3884      8.1158      3.1120     12.1077   -999.2500     35.5720   -999.2500   -999.2500   -999.2500    134.4154  
   457.5000    -10.1008      9.6022      3.2559     11.5137   -999.2500     35.9286   -999.2500   -999.2500   -999.2500    144.2720  
   458.0000    -10.0153     11.3607      3.6974     10.1800   -999.2500     36.9231   -999.2500   -999.2500   -999.2500    150.1622  
   458.5000     -9.8873     12.9284      4.2566     10.1800   -999.2500     38.2015   -999.2500   -999.2500   -999.2500    145.3235  
   459.0000     -9.7263     14.0242      4.5765     10.1800   -999.2500     39.4577   -999.2500   -999.2500   -999.2500    119.2882  
   459.5000     -9.5654     15.5214      5.0680     10.1800   -999.2500     39.8700   -999.2500   -999.2500   -999.2500     81.8469  
   460.0000     -9.4045     19.2684      5.4844     10.8903   -999.2500     40.4569   -999.2500   -999.2500   -999.2500     72.8783  
   460.5000     -9.3505     27.3772      6.4848     11.8446   -999.2500     41.1550   -999.2500   -999.2500   -999.2500     80.0806  
   461.0000     -9.2864     42.3529      7.1022     12.6400   -999.2500     42.3140   -999.2500   -999.2500   -999.2500     82.0367  
   461.5000     -9.1213     70.8220      7.3915     13.3602   -999.2500     43.3457   -999.2500   -999.2500   -999.2500     78.6046  
   462.0000     -8.9147    115.6649      7.5186     14.3521   -999.2500     44.6318   -999.2500   -999.2500   -999.2500     55.6575  
   462.5000     -8.4226    140.7367      6.9879     15.3778   -999.2500     47.1468   -999.2500   -999.2500   -999.2500     49.7724  
   463.0000     -8.3948    102.7961      6.5318     16.3442   -999.2500     54.3586   -999.2500   -999.2500   -999.2500     49.7627  
   463.5000     -8.4111     61.2649      6.1055     17.3255   -999.2500     56.8172   -999.2500   -999.2500   -999.2500     49.7531  
   464.0000     -8.2721     41.6766      5.7070     18.0938   -999.2500     58.3587   -999.2500   -999.2500   -999.2500     49.7434  
   464.5000     -7.9696     30.0274      5.3086     18.4106   -999.2500     59.9001   -999.2500   -999.2500   -999.2500     49.7338  
   465.0000     -7.7254     25.9814      4.9462     18.1853   -999.2500     59.4111   -999.2500   -999.2500   -999.2500     49.7242  
   465.5000     -7.4136     25.7161      4.7878     17.8696   -999.2500     56.6079   -999.2500   -999.2500   -999.2500     49.7145  
   466.0000     -7.1229     26.5062      4.6900     17.4513   -999.2500     54.7382   -999.2500   -999.2500   -999.2500     49.7049  
   466.5000     -7.0411     27.3207      4.7578     16.8441   -999.2500     50.9107   -999.2500   -999.2500   -999.2500     49.6952  
   467.0000     -7.2686     24.8518      4.7547     15.7971   -999.2500     46.3621   -999.2500   -999.2500   -999.2500     49.6856  
   467.5000     -7.8880     20.3970      4.6394     14.7840   -999.2500     45.0187   -999.2500   -999.2500   -999.2500     49.6759  
