~VERSION INFORMATION
 VERS.                      2.00:        CWLS LOG ASCII STANDARD - VERSION 2.00
 WRAP.                        NO:        ONE LINE PER DEPTH STEP
~WELL INFORMATION
#MNEM.UNIT               DATA            INFORMATION
#----------          ------------        ------------------------------
 STRT.F                 438.0000:        START DEPTH
 STOP.F               11532.0000:        STOP DEPTH
 STEP.F                   0.5000:        STEP VALUE
 NULL.                 -999.2500:        NULL VALUE
 COMP.      HUSKY-NPR OPERATIONS:        COMPANY  
 WELL.          ATIGARU POINT #1:        WELL     
 FLD .                   WILDCAT:        FIELD    
 LOC .              19  14N   2E:        LOCATION   
 CNTY.               NORTH SLOPE:        COUNTY  
 STAT.                     ALSKA:        STATE   
 CTRY.                       USA:        COUNTRY 
 DATE.                    1/ /77:        LOG DATE 
 API .              501032000800:        UNIQUE WELL IDENTIFIER 
 OPER.      HUSKY-NPR OPERATIONS:        OPERATOR  
 SRVC.              Schlumberger:        SERVICE COMPANY 
 UWI .              501032000800:        UNIQUE WELL ID 
 LAT .                    0.0000:        LATITUDE
 LON .                    0.0000:        LONGITUDE
 DIGS.          Center Line Data:        DIGITIZING COMPANY 
~CURVE INFORMATION      
#MNEM.UNIT            API CODE           CURVE DESCRIPTION
#---------          -------------        ------------------------------
 DEPT.F                         :        1  DEPTH
 SP  .MV                        :        2
 ILD .OHMM                      :        3
 ILM .OHMM                      :        4
 LL8 .OHMM                      :        5
 CALI.IN                        :        6
 GR  .GAPI                      :        7
 DRHO.G/C3                      :        8
 RHOB.G/C3                      :        9
 NPHI.%                         :       10
 DT  .US/F                      :       11
~PARAMETER INFORMATION       
#MNEM.UNIT              VALUE            DESCRIPTION OF MNEMONIC
#---------          -------------        ------------------------------
 EKB .F                  25.0000:        KELLY BUSHING
 TD  .F               11534.0000:        TOTAL DEPTH
 BHT .F                   0.0000:        BOTTOM HOLE TEMPERATURE
 BS  .                   17.5000:        BIT SIZE
 FD  .                    9.3000:        FLUID DENSITY
 CSIZ.                   20.0000:        CASING SIZE
 CBD .F                 447.0000:        CASING DRILLER 1
 CBL .F                 443.0000:        CASING LOGGER 1
 DFT .                       Gel:        TYPE FLUID IN HOLE
 DFV .                   47.0000:        VISCOSITY
 DFPH.                   14.6000:        PH
 DFL .                    8.0000:        FLUID LOSS
 RMS .                    1.9300:        RM
 MST .F                  63.0000:        RM MEAS. TEMP.
 RMF .                    1.6900:        RMF
 MFST.F                  52.0000:        RMF MEAS. TEMP.
 RMC .                    1.6500:        RMC
 MCST.F                  60.0000:        RMC MEAS. TEMP.
 UWI .              501032000800:        UNIQUE WELL ID
~OTHER INFORMATION
~A    DEPTH          SP         ILD         ILM         LL8        CALI          GR        DRHO        RHOB        NPHI          DT  
# ...
 10758.0000   -101.8505      7.1733      8.2881     11.3022      9.5691     60.0674      0.1349      2.6793     27.1447     70.6979  
 10758.5000   -103.5645      7.0699      9.4332     11.1179      9.5227     53.3619      0.2347      2.6753     23.8858     73.6349  
 10759.0000   -105.4200      6.9858      8.7220     10.9000      9.5262     47.9018      0.2500      2.6572     20.6269     75.5717  
 10759.5000   -107.1805      7.1329      7.3681     11.9740      9.6872     42.3238      0.1921      2.6225     11.8724     73.6663  
 10760.0000   -109.4790      9.6189      7.4161     13.9088      9.6260     36.7458      0.1170      2.6260      4.1153     69.8405  
 10760.5000   -111.7697     12.5051     14.1589     15.8404      9.5194     31.2667      0.0175      2.6558      2.5375     60.0895  
 10761.0000   -113.8694     16.2573     27.0320     37.7240      9.4127     28.6687      0.0250      2.6856      2.4790     49.7339  
 10761.5000   -115.7782     15.9245     30.9550    110.3894      9.3061     28.5146      0.0259      2.7154      2.9806     50.8440  
 10762.0000   -117.7044     14.1138     29.6519    194.7313      9.2463     30.3353      0.0115      2.5860      9.5970     52.5860  
 10762.5000   -119.9362     12.3508     25.0782     86.6568      9.2349     33.6742     -0.0030      2.5128     16.2121     55.2120  
 10763.0000   -121.1729     10.1265     15.0883     53.5078      9.2761     37.0131      0.0024      2.4396     22.1510     60.1792  
 10763.5000   -122.7907      8.2858      9.2934     36.7828      9.4151     40.3520      0.0289      2.3749     28.0898     75.3771  
 10764.0000   -124.5326      6.7213      5.7241     16.6864      9.7176     43.6909      0.1571      2.3111     33.2934     81.8547  
 10764.5000   -125.3078      5.4523      4.3365      6.6932     10.2421     46.9740      0.2641      2.2639     31.3988     84.0411  
 10765.0000   -126.4245      5.1949      5.0295      5.5024     10.7666     50.1677      0.1067      2.3042     29.2665     82.4288  
 10765.5000   -127.1668      5.1406      6.2132      6.2452     11.2911     53.3614      0.0545      2.5327     27.1342     74.1028  
 10766.0000   -128.1048      5.0049      6.5814      9.2298     10.7507     54.5773      0.1273      2.7439     24.8129     70.4502  
 10766.5000   -129.0915      5.0207      5.7316     10.6054      9.7481     53.5162      0.1019      2.6784     22.2987     70.6456  
 10767.0000   -129.8635      4.9957      5.1837     10.1584      9.4885     52.4552      0.2016      2.6204     18.4002     71.5878  
 10767.5000   -130.6356      4.5151      6.5487      8.2668      9.5918     51.4917      0.2556      2.6105     14.1052     71.7344  
 10768.0000   -131.3647      5.7211      8.2882      6.7275      9.8806     50.9087      0.2304      2.5945      8.8045     69.7497  
 10768.5000   -132.6869      7.2986      9.5949      7.1907     10.1924     48.8197      0.1456      2.5805      5.0425     67.4362  
 10769.0000   -133.7597      9.8188     11.0517     12.3541      9.8681     46.5514      0.0643      2.6640      4.1272     63.1675  
 10769.5000   -134.8043     13.2092     14.3365     20.8324      9.5438     44.1495      0.0384      2.7475      4.6896     59.1673  
 10770.0000   -136.1013     16.3743     18.5974     38.8000      9.3708     41.7476      0.0693      2.7813      5.2521     56.5189  
 10770.5000   -137.5198     18.2579     20.2167     43.1149      9.3705     41.5792      0.0977      2.7990      5.6681     55.6605  
 10771.0000   -138.9339     24.1342     23.0208     40.2943      9.3702     42.5308      0.0832      2.8166      5.4491     56.2614  
 10771.5000   -140.0897     35.6955     32.1042     38.7866      9.3700     43.4824      0.0687      2.8310      5.4807     55.9215  
 10772.0000   -141.1308     39.9866     41.9109     41.5513      9.3697     46.4280      0.0565      2.8285      5.4610     55.5447  
 10772.5000   -142.1652     38.0014     40.6790     41.8361      9.3694     49.9396      0.0539      2.8113      4.8674     56.2428  
 10773.0000   -142.9095     35.7795     39.0728     39.1755      9.3692     50.7454      0.0382      2.7940      4.4955     57.0280  
 10773.5000   -143.5044     34.8502     39.8668     37.1925      9.3689     50.1989      0.0226      2.7768      3.9905     57.4589  
 10774.0000   -144.0116     36.9290     45.7564     37.5722      9.3686     46.9942      0.0123      2.7755      3.6673     57.0788  
 10774.5000   -144.3528     39.1318     47.3668     45.3235      9.3683     42.1697      0.0470      2.7985      3.3667     56.6987  
 10775.0000   -144.5606     40.9105     40.3682     67.0417      9.3681     37.5988      0.0817      2.8168      3.0660     56.0803  
 10775.5000   -144.4995     40.6168     40.3277     92.0596      9.3678     32.2372      0.1022      2.8066      3.1576     55.7130  
 10776.0000   -144.3251     39.0519     40.3504    100.1554      9.3675     31.9294      0.0786      2.7960      3.9475     55.6081  
 10776.5000   -144.2927     35.6694     36.8330     98.4896      9.3673     33.7955      0.0607      2.7896      4.3760     55.5032  
 10777.0000   -143.8487     32.5800     33.2900     76.8120      9.3670     35.4503      0.0452      2.7859      4.8199     55.1251  
 10777.5000   -143.4048     29.7208     30.0877     55.7519      9.3667     35.5702      0.0497      2.7951      5.2320     54.3819  
 10778.0000   -142.7738     27.0741     27.1935     42.0862      9.3664     35.2420      0.0541      2.8385      5.2743     53.3515  
 10778.5000   -142.1521     24.4072     24.5777     38.7941      9.3662     33.4655      0.0457      2.8771      5.7558     52.3637  
 10779.0000   -141.5436     22.0029     23.1304     34.3454      9.3659     32.2240      0.0302      2.8797      6.0327     52.0162  
 10779.5000   -140.8283     20.2555     24.4306     22.7116      9.3656     33.2427      0.0167      2.8678      5.9960     51.9945  
 10780.0000   -140.5880     22.6297     26.4267     16.0334      9.3654     34.2615      0.0032      2.8415      6.2209     52.9509  
 10780.5000   -139.3476     25.2823     28.5860     26.1592      9.3651     33.4422     -0.0031      2.8280      6.0046     54.6062  
 10781.0000   -138.3668     28.2457     30.9217     49.0236      9.3648     32.4840      0.0078      2.8205      6.1428     54.6741  
 10781.5000   -137.0449     31.5566     33.4482     61.7632      9.3645     31.5257      0.0187      2.8054      6.7257     54.2505  
 10782.0000   -135.0376     30.2046     31.9441     50.4189      9.3643     34.9945      0.0297      2.8022      7.3743     53.8269  
 10782.5000   -132.8183     27.9852     26.9609     42.5554      9.3640     40.9891      0.0632      2.8034      9.1010     53.5231  
 10783.0000   -130.6022     25.6826     22.7551     41.4041      9.3637     46.9505      0.0424      2.7718     13.2912     53.6306  
 10783.5000   -128.3745     20.8358     19.2054     43.5379      9.3635     52.6292      0.0216      2.7164     17.5047     57.9007  
 10784.0000   -125.6071     16.7316     16.2095     45.7818      9.3632     62.5431      0.0147      2.6360     23.3968     65.1343  
 10784.5000   -122.4964     14.1496     13.9612     30.6935      9.3629     66.5174      0.1140      2.5574     24.5688     71.0892  
 10785.0000   -119.6540     12.6441     12.4488     18.5960      9.3602     64.6546      0.1666      2.4788     22.9739     72.5304  
 10785.5000   -117.1379     11.2988     11.1003     12.7607      9.3371     62.7103      0.2032      2.4695     19.8586     71.0672  
 10786.0000   -115.0807     10.0966      9.8979      9.7024      9.3139     60.0593      0.1392      2.4670     16.1655     73.5270  
 10786.5000   -112.7220      9.8527      9.7214     10.0377      9.2907     58.2958      0.2274      2.6266     13.5455     70.9850  
 10787.0000   -110.9985      9.8774     10.1848     10.6957      9.2675     55.7453      0.1404      2.6966     10.1206     69.8554  
 10787.5000   -109.4860      9.9022     10.6702     10.4895      9.2444     51.4073      0.0838      2.6876      6.2053     66.4762  
