~VERSION INFORMATION
 VERS.                           2.00:        CWLS LOG ASCII STANDARD - VERSION 2.00
 WRAP.                             NO:        ONE LINE PER DEPTH STEP
~WELL INFORMATION
#MNEM.UNIT                   DATA             INFORMATION
#----------             --------------        ------------------------------
 STRT.F                      112.0000:        START DEPTH
 STOP.F                    10176.0000:        STOP DEPTH
 STEP.F                        0.5000:        STEP VALUE
 NULL.                      -999.2500:        NULL VALUE
 COMP.                      HUSKY OIL:        COMPANY  
 LOC .                   36  11N   4W:        LOCATION   
 DATE.                        2/16/81:        LOG DATE 
 WELL.            NORTH INIGOK TEST 1:        WELL     
 UWI .                   501032001700:        UNIQUE WELL ID 
 API .                   501032001700:        UNIQUE WELL IDENTIFIER 
 FLD .                        WILDCAT:        FIELD    
 CNTY.                    NORTH SLOPE:        COUNTY  
 STAT.                         ALASKA:        STATE   
 CTRY.                            USA:        COUNTRY 
 OPER.                      HUSKY OIL:        OPERATOR  
 SRVC.                            440:        SERVICE COMPANY 
 LAT .                         0.0000:        LATITUDE
 LON .                         0.0000:        LONGITUDE
 DIGS.                             65:        DIGITIZING COMPANY 
~CURVE INFORMATION      
#MNEM.UNIT                 API CODE           CURVE DESCRIPTION
#---------              --------------        ------------------------------
 DEPT.F                              :        1  DEPTH
 SP  .MV                             :        2
 SFL .OHMM                           :        3
 ILD .OHMM                           :        4
 ILM .OHMM                           :        5
 NPHI.%                              :        6
 CALI.IN                             :        7
 GR  .GAPI                           :        8
 RHOB.G/C3                           :        9
 DRHO.G/C3                           :       10
 DT  .US/F                           :       11
~PARAMETER INFORMATION       
#MNEM.UNIT                  VALUE             DESCRIPTION OF MNEMONIC
#---------             ---------------        ------------------------------
 EKB .F                      166.0000:        KELLY BUSHING
 TD  .F                    10167.0000:        TOTAL DEPTH
~OTHER INFORMATION
~A    DEPTH          SP         SFL         ILD         ILM        NPHI        CALI          GR        RHOB        DRHO          DT  
# ...
  5452.0000    -53.7319      6.4780      6.7244      6.1411     39.2015     21.5207     88.6690      2.4321      0.0904     89.8127  
  5452.5000    -53.6695      6.4435      6.6886      6.1084     37.6310     21.0531     90.1914      2.4347      0.0902     89.0903  
  5453.0000    -53.7742      6.4091      6.6529      6.0758     36.8402     21.0862     91.1999      2.4297      0.1021     87.7047  
  5453.5000    -53.9335      6.3749      6.6174      6.0434     37.2766     21.9080     90.4138      2.3944      0.0816     88.4803  
  5454.0000    -54.1272      6.3409      6.5821      6.0112     37.3111     21.1547     89.6278      2.3758      0.0672     89.5741  
  5454.5000    -54.3181      6.3071      6.5470      5.9791     36.8921     21.3069     88.8418      2.3777      0.0694     90.7331  
  5455.0000    -54.4289      6.3193      6.5589      5.9918     36.2189     21.6748     88.2514      2.3798      0.0631     91.1110  
  5455.5000    -54.4209      6.3434      6.5839      6.0146     36.6250     21.4805     88.0252      2.4047      0.0714     90.8077  
  5456.0000    -54.4994      6.3683      6.6097      6.0381     37.4967     21.1971     88.2632      2.4122      0.0781     91.5052  
  5456.5000    -54.5612      6.3935      6.6359      6.0620     37.7045     20.8835     88.0858      2.4260      0.0911     91.8759  
  5457.0000    -54.4584      6.4188      6.6622      6.0860     37.1686     20.9734     87.5449      2.4534      0.1106     91.4849  
  5457.5000    -54.5670      6.4442      6.6886      6.1101     37.6684     21.1921     86.5658      2.4639      0.1128     91.5860  
  5458.0000    -54.6441      6.4513      6.6950      6.1180     38.2811     21.2180     85.8397      2.4699      0.1008     91.3559  
  5458.5000    -54.6702      6.4763      6.7243      6.1375     38.4787     20.9342     84.9842      2.4820      0.1108     91.1888  
  5459.0000    -54.5719      6.5255      6.7754      6.1841     38.5726     21.0484     84.5459      2.4973      0.1194     91.5947  
  5459.5000    -54.3922      6.5752      6.8269      6.2311     38.7265     21.2058     84.0852      2.4867      0.1028     91.9664  
  5460.0000    -54.2505      6.6251      6.8788      6.2785     39.0711     21.0238     83.7436      2.4538      0.0716     90.9284  
  5460.5000    -54.2606      6.6755      6.9311      6.3262     39.3450     21.3028     83.8021      2.4296      0.0533     90.0073  
  5461.0000    -54.3597      6.7262      6.9838      6.3743     39.6794     21.9926     84.4801      2.4229      0.0625     89.0756  
  5461.5000    -54.4375      6.7810      7.0417      6.4248     40.0679     21.9820     84.7894      2.4181      0.0717     88.7341  
  5462.0000    -54.5855      6.8403      7.1033      6.4810     39.5801     21.8581     85.7517      2.4183      0.0663     89.5890  
  5462.5000    -54.7873      6.9002      7.1655      6.5377     39.0722     21.4488     86.7161      2.4352      0.0730     90.5552  
  5463.0000    -54.9010      6.9606      7.2282      6.5949     38.6591     21.1670     86.7043      2.4465      0.0775     91.4706  
  5463.5000    -54.8955      6.9025      7.1905      6.5090     38.0428     20.9862     86.4711      2.4302      0.0613     90.5879  
  5464.0000    -54.5545      6.7287      7.0324      6.3169     37.1586     21.3509     87.3555      2.4290      0.0503     88.8768  
  5464.5000    -54.4394      6.5301      6.8248      6.1494     36.5895     21.1120     87.9185      2.4354      0.0571     87.2165  
  5465.0000    -54.6401      6.4677      6.7125      6.1330     36.5153     21.5747     87.1980      2.4292      0.0567     88.8456  
  5465.5000    -54.8219      6.5817      6.8608      6.2020     36.3674     21.4680     85.4823      2.4230      0.0594     88.0878  
  5466.0000    -54.9923      6.7172      6.9914      6.3972     36.9056     21.1066     84.0287      2.4271      0.0681     87.4117  
  5466.5000    -55.2283      6.8450      7.1245      6.6774     37.5230     21.7273     82.9290      2.4301      0.0768     89.0991  
  5467.0000    -55.3567      6.9753      7.3345      6.9699     37.8075     21.7639     82.3559      2.4357      0.0794     90.1779  
  5467.5000    -55.4405      7.1211      7.5596      7.1312     37.6376     21.4568     82.1616      2.4470      0.0833     90.2705  
  5468.0000    -55.3645      7.2982      7.7916      7.2339     37.0441     21.4245     82.7548      2.4594      0.0930     90.3447  
  5468.5000    -55.2193      7.4798      8.0307      7.2929     36.6441     21.4139     83.0465      2.4475      0.0769     89.6476  
  5469.0000    -55.1246      7.5763      8.0478      7.3224     37.0398     21.0806     82.0906      2.4271      0.0599     89.0471  
  5469.5000    -55.2146      7.6236      8.0497      7.2965     36.9654     20.9751     81.2973      2.4329      0.0643     88.5055  
  5470.0000    -55.2245      7.6373      8.0345      7.1956     36.3945     21.0090     80.3135      2.4303      0.0693     87.5946  
  5470.5000    -55.1867      7.5384      8.0046      7.0757     35.8622     20.8998     79.4976      2.4406      0.0779     86.7315  
  5471.0000    -55.1268      7.3724      7.8603      6.9507     35.7831     20.9257     80.1796      2.4494      0.0811     86.1710  
  5471.5000    -55.1206      7.1926      7.7326      6.7774     35.0938     21.1169     81.2058      2.4527      0.0743     85.6271  
  5472.0000    -55.1011      7.0337      7.6571      6.6341     33.8815     21.1277     80.8873      2.4542      0.0788     84.5407  
  5472.5000    -55.1003      7.1315      7.6201      6.6919     33.2608     20.9704     79.2771      2.4596      0.0808     83.6297  
  5473.0000    -55.1008      7.3303      7.6149      6.9040     33.5623     21.0176     78.3438      2.4545      0.0763     84.8691  
  5473.5000    -55.1704      7.3478      7.6257      6.9678     34.2115     21.2474     78.7931      2.4577      0.0911     87.1489  
  5474.0000    -55.3000      7.3438      7.6218      6.9458     34.7343     21.8647     79.0849      2.4636      0.0888     88.6956  
  5474.5000    -55.5196      7.2833      7.5601      6.9050     34.4397     21.5599     78.5532      2.4564      0.0810     89.7196  
  5475.0000    -55.6284      7.2299      7.5252      6.8247     34.0876     21.0939     77.8926      2.4539      0.0706     89.8280  
  5475.5000    -55.7289      7.0898      7.3815      6.6576     33.5508     21.0459     78.3605      2.4616      0.0764     87.7152  
  5476.0000    -55.6956      6.8834      7.1943      6.4434     33.3260     21.0691     79.1054      2.4496      0.0581     86.4436  
  5476.5000    -55.6823      6.7179      6.9718      6.3708     34.1777     20.8950     79.9937      2.4375      0.0563     87.1938  
  5477.0000    -55.4507      6.7267      6.9809      6.3790     34.5154     20.8502     81.2580      2.4516      0.0620     86.4716  
  5477.5000    -55.1916      6.7354      6.9899      6.3873     34.7154     21.0043     82.4597      2.4699      0.0803     86.0912  
  5478.0000    -54.8980      6.7291      6.9853      6.3788     35.2248     21.3949     82.8616      2.4709      0.0969     86.6828  
  5478.5000    -54.7120      6.6985      6.9517      6.3524     35.9318     21.7547     82.8971      2.4601      0.0954     86.5046  
  5479.0000    -54.5849      6.7568      7.0290      6.3933     37.2256     21.6193     83.6946      2.4529      0.0974     87.5378  
  5479.5000    -54.4604      6.8364      7.0949      6.4829     38.4580     21.2845     84.1829      2.4620      0.1045     90.6154  
  5480.0000    -54.4928      6.8250      7.0831      6.4721     37.9058     21.8358     84.3963      2.4658      0.0978     92.6616  
  5480.5000    -54.6351      6.8534      7.1269      6.4804     37.0097     21.3332     83.1455      2.4946      0.1013     91.2469  
  5481.0000    -54.8976      6.8979      7.1587      6.5413     36.3779     21.8564     82.4780      2.5183      0.1066     90.8312  
  5481.5000    -55.0510      6.8883      7.1487      6.5322     36.7699     21.8354     82.8272      2.5033      0.0997     89.7077  
