~VERSION INFORMATION
 VERS.                      2.00:        CWLS LOG ASCII STANDARD - VERSION 2.00
 WRAP.                        NO:        ONE LINE PER DEPTH STEP
~WELL INFORMATION
#MNEM.UNIT               DATA            INFORMATION
#----------          ------------        ------------------------------
 STRT.F                 438.0000:        START DEPTH
 STOP.F               11532.0000:        STOP DEPTH
 STEP.F                   0.5000:        STEP VALUE
 NULL.                 -999.2500:        NULL VALUE
 COMP.      HUSKY-NPR OPERATIONS:        COMPANY  
 WELL.          ATIGARU POINT #1:        WELL     
 FLD .                   WILDCAT:        FIELD    
 LOC .              19  14N   2E:        LOCATION   
 CNTY.               NORTH SLOPE:        COUNTY  
 STAT.                     ALSKA:        STATE   
 CTRY.                       USA:        COUNTRY 
 DATE.                    1/ /77:        LOG DATE 
 API .              501032000800:        UNIQUE WELL IDENTIFIER 
 OPER.      HUSKY-NPR OPERATIONS:        OPERATOR  
 SRVC.              Schlumberger:        SERVICE COMPANY 
 UWI .              501032000800:        UNIQUE WELL ID 
 LAT .                    0.0000:        LATITUDE
 LON .                    0.0000:        LONGITUDE
 DIGS.          Center Line Data:        DIGITIZING COMPANY 
~CURVE INFORMATION      
#MNEM.UNIT            API CODE           CURVE DESCRIPTION
#---------          -------------        ------------------------------
 DEPT.F                         :        1  DEPTH
 SP  .MV                        :        2
 ILD .OHMM                      :        3
 ILM .OHMM                      :        4
 LL8 .OHMM                      :        5
 CALI.IN                        :        6
 GR  .GAPI                      :        7
 DRHO.G/C3                      :        8
 RHOB.G/C3                      :        9
 NPHI.%                         :       10
 DT  .US/F                      :       11
~PARAMETER INFORMATION       
#MNEM.UNIT              VALUE            DESCRIPTION OF MNEMONIC
#---------          -------------        ------------------------------
 EKB .F                  25.0000:        KELLY BUSHING
 TD  .F               11534.0000:        TOTAL DEPTH
 BHT .F                   0.0000:        BOTTOM HOLE TEMPERATURE
 BS  .                   17.5000:        BIT SIZE
 FD  .                    9.3000:        FLUID DENSITY
 CSIZ.                   20.0000:        CASING SIZE
 CBD .F                 447.0000:        CASING DRILLER 1
 CBL .F                 443.0000:        CASING LOGGER 1
 DFT .                       Gel:        TYPE FLUID IN HOLE
 DFV .                   47.0000:        VISCOSITY
 DFPH.                   14.6000:        PH
 DFL .                    8.0000:        FLUID LOSS
 RMS .                    1.9300:        RM
 MST .F                  63.0000:        RM MEAS. TEMP.
 RMF .                    1.6900:        RMF
 MFST.F                  52.0000:        RMF MEAS. TEMP.
 RMC .                    1.6500:        RMC
 MCST.F                  60.0000:        RMC MEAS. TEMP.
 UWI .              501032000800:        UNIQUE WELL ID
~OTHER INFORMATION
~A    DEPTH          SP         ILD         ILM         LL8        CALI          GR        DRHO        RHOB        NPHI          DT  
# ...
  1908.0000    -58.1231      2.5674      2.7099      3.0339   -999.2500     89.7134   -999.2500   -999.2500   -999.2500    142.4344  
  1908.5000    -57.7664      2.5455      2.6873      3.0057   -999.2500     87.5482   -999.2500   -999.2500   -999.2500    141.8544  
  1909.0000    -57.2006      2.5169      2.6649      2.9777   -999.2500     86.2160   -999.2500   -999.2500   -999.2500    141.0746  
  1909.5000    -56.8159      2.4887      2.6427      2.9500   -999.2500     86.1619   -999.2500   -999.2500   -999.2500    140.0615  
  1910.0000    -56.9589      2.4608      2.6207      2.9218   -999.2500     87.8809   -999.2500   -999.2500   -999.2500    138.9466  
  1910.5000    -57.6052      2.4332      2.5988      2.8920   -999.2500     89.7434   -999.2500   -999.2500   -999.2500    138.5920  
  1911.0000    -58.8984      2.4555      2.5804      2.9313   -999.2500     90.0272   -999.2500   -999.2500   -999.2500    138.7590  
  1911.5000    -60.2154      2.4980      2.6019      2.9779   -999.2500     89.4152   -999.2500   -999.2500   -999.2500    138.9465  
  1912.0000    -61.1390      2.5413      2.6236      3.0253   -999.2500     88.9794   -999.2500   -999.2500   -999.2500    139.3405  
  1912.5000    -61.5579      2.5853      2.6454      3.0580   -999.2500     89.2026   -999.2500   -999.2500   -999.2500    139.9524  
  1913.0000    -60.8946      2.6301      2.6674      3.0578   -999.2500     90.4755   -999.2500   -999.2500   -999.2500    141.1144  
  1913.5000    -59.8532      2.6375      2.6896      3.0092   -999.2500     91.8395   -999.2500   -999.2500   -999.2500    142.2798  
  1914.0000    -59.3289      2.5503      2.6740      3.0066   -999.2500     93.2217   -999.2500   -999.2500   -999.2500    142.1847  
  1914.5000    -58.8302      2.4660      2.5625      3.0185   -999.2500     94.3693   -999.2500   -999.2500   -999.2500    141.5566  
  1915.0000    -58.4444      2.3845      2.4556      2.9905   -999.2500     96.3262   -999.2500   -999.2500   -999.2500    140.5775  
  1915.5000    -58.0373      2.3171      2.3532      2.9377   -999.2500     97.1401   -999.2500   -999.2500   -999.2500    140.2616  
  1916.0000    -57.2868      2.2553      2.2550      2.8309   -999.2500     96.1455   -999.2500   -999.2500   -999.2500    140.8334  
  1916.5000    -56.6816      2.2153      2.1609      2.6611   -999.2500     95.5403   -999.2500   -999.2500   -999.2500    141.9273  
  1917.0000    -57.0800      2.2406      2.1125      2.5226   -999.2500     96.0394   -999.2500   -999.2500   -999.2500    142.3787  
  1917.5000    -59.0500      2.2661      2.1640      2.6031   -999.2500     97.0580   -999.2500   -999.2500   -999.2500    142.1812  
  1918.0000    -63.1603      2.2919      2.2685      2.7867   -999.2500     97.9503   -999.2500   -999.2500   -999.2500    141.1430  
  1918.5000    -66.5419      2.3333      2.3781      3.0228   -999.2500     98.2542   -999.2500   -999.2500   -999.2500    139.8018  
  1919.0000    -68.1917      2.4240      2.4929      3.1211   -999.2500     97.2079   -999.2500   -999.2500   -999.2500    138.7006  
  1919.5000    -68.9625      2.5375      2.6133      3.1494   -999.2500     95.7180   -999.2500   -999.2500   -999.2500    138.8806  
  1920.0000    -69.5560      2.6657      2.7396      3.1706   -999.2500     95.8541   -999.2500   -999.2500   -999.2500    140.2191  
  1920.5000    -70.1479      2.8003      2.8505      3.1794   -999.2500     97.3678   -999.2500   -999.2500   -999.2500    142.5957  
  1921.0000    -70.5871      2.8595      2.8630      3.1526   -999.2500    100.1981   -999.2500   -999.2500   -999.2500    144.2861  
  1921.5000    -70.9729      2.8092      2.8755      3.1211   -999.2500    102.4809   -999.2500   -999.2500   -999.2500    145.9785  
  1922.0000    -71.3244      2.7598      2.8688      3.0846   -999.2500    104.2489   -999.2500   -999.2500   -999.2500    147.4188  
  1922.5000    -71.5747      2.7112      2.8546      3.0428   -999.2500    103.8105   -999.2500   -999.2500   -999.2500    146.5703  
  1923.0000    -71.8398      2.6635      2.8404      3.0153   -999.2500    100.8953   -999.2500   -999.2500   -999.2500    145.6081  
  1923.5000    -72.1049      2.6167      2.8263      2.9982   -999.2500     97.7420   -999.2500   -999.2500   -999.2500    144.7612  
  1924.0000    -72.3077      2.5856      2.8123      2.9936   -999.2500     93.8456   -999.2500   -999.2500   -999.2500    142.7589  
  1924.5000    -72.3082      2.6033      2.7983      3.0119   -999.2500     92.7553   -999.2500   -999.2500   -999.2500    141.2551  
  1925.0000    -72.0252      2.6210      2.7924      3.0303   -999.2500     92.0166   -999.2500   -999.2500   -999.2500    140.5010  
  1925.5000    -71.8488      2.6389      2.7995      3.0490   -999.2500     92.7576   -999.2500   -999.2500   -999.2500    140.5006  
  1926.0000    -71.7209      2.6569      2.8066      3.0780   -999.2500     93.9762   -999.2500   -999.2500   -999.2500    141.0736  
  1926.5000    -71.6151      2.6751      2.8137      3.1073   -999.2500     94.4481   -999.2500   -999.2500   -999.2500    142.0744  
  1927.0000    -71.5423      2.6933      2.8209      3.1289   -999.2500     93.9237   -999.2500   -999.2500   -999.2500    142.4128  
  1927.5000    -71.4439      2.7117      2.8280      3.1206   -999.2500     93.5929   -999.2500   -999.2500   -999.2500    142.5313  
  1928.0000    -71.4704      2.7302      2.8352      3.1124   -999.2500     94.2287   -999.2500   -999.2500   -999.2500    142.6498  
  1928.5000    -71.8402      2.7488      2.8424      3.1058   -999.2500     98.6893   -999.2500   -999.2500   -999.2500    142.7679  
  1929.0000    -72.5518      2.7676      2.8497      3.1057   -999.2500    102.3899   -999.2500   -999.2500   -999.2500    142.8802  
  1929.5000    -73.2487      2.7678      2.8437      3.1056   -999.2500    100.0889   -999.2500   -999.2500   -999.2500    142.8437  
  1930.0000    -73.8841      2.7585      2.8351      3.1055   -999.2500     99.8542   -999.2500   -999.2500   -999.2500    142.1935  
  1930.5000    -74.5024      2.7492      2.8264      3.1054   -999.2500    104.8122   -999.2500   -999.2500   -999.2500    141.5010  
  1931.0000    -75.0513      2.7399      2.8179      3.1052   -999.2500    107.1510   -999.2500   -999.2500   -999.2500    141.2863  
  1931.5000    -75.4497      2.7307      2.8093      3.1051   -999.2500    109.3091   -999.2500   -999.2500   -999.2500    141.4094  
  1932.0000    -75.6976      2.7215      2.8008      3.0999   -999.2500    109.5409   -999.2500   -999.2500   -999.2500    141.7166  
  1932.5000    -75.9076      2.7123      2.7922      3.0770   -999.2500    103.3793   -999.2500   -999.2500   -999.2500    141.8404  
  1933.0000    -76.0586      2.7032      2.7838      3.0542   -999.2500     99.5096   -999.2500   -999.2500   -999.2500    141.7343  
  1933.5000    -75.9618      2.6941      2.7753      3.0316   -999.2500     99.0890   -999.2500   -999.2500   -999.2500    141.5446  
  1934.0000    -75.4261      2.6850      2.7669      3.0092   -999.2500    100.7194   -999.2500   -999.2500   -999.2500    140.9576  
  1934.5000    -74.5519      2.6760      2.7585      2.9869   -999.2500    102.6196   -999.2500   -999.2500   -999.2500    140.3483  
  1935.0000    -73.9513      2.6670      2.7501      2.9648   -999.2500    102.4005   -999.2500   -999.2500   -999.2500    140.6287  
  1935.5000    -74.1104      2.6580      2.7417      2.9429   -999.2500    100.0208   -999.2500   -999.2500   -999.2500    141.3191  
  1936.0000    -75.1680      2.6490      2.7334      2.9643   -999.2500     96.7835   -999.2500   -999.2500   -999.2500    142.0094  
  1936.5000    -76.5592      2.6473      2.7251      3.0047   -999.2500     96.3373   -999.2500   -999.2500   -999.2500    142.6190  
  1937.0000    -77.2941      2.6463      2.7168      3.0348   -999.2500     96.5150   -999.2500   -999.2500   -999.2500    143.2853  
  1937.5000    -77.7892      2.6452      2.7085      3.0295   -999.2500     97.7307   -999.2500   -999.2500   -999.2500    143.9060  
