~VERSION INFORMATION
 VERS.                      2.00:        CWLS LOG ASCII STANDARD - VERSION 2.00
 WRAP.                        NO:        ONE LINE PER DEPTH STEP
~WELL INFORMATION
#MNEM.UNIT               DATA            INFORMATION
#----------          ------------        ------------------------------
 STRT.F                  40.0000:        START DEPTH
 STOP.F                9893.0000:        STOP DEPTH
 STEP.F                   0.5000:        STEP VALUE
 NULL.                 -999.2500:        NULL VALUE
 COMP.                 U.S. NAVY:        COMPANY  
 WELL.    CAPE HALKETT #16N-2W-1:        WELL     
 FLD .                   WILDCAT:        FIELD    
 LOC .               5  16N   2W:        LOCATION   
 CNTY.               NORTH SLOPE:        COUNTY  
 STAT.                    ALASKA:        STATE   
 CTRY.                       USA:        COUNTRY 
 DATE.                    4/9/75:        LOG DATE 
 API .              500000000000:        UNIQUE WELL IDENTIFIER 
 OPER.                 U.S. NAVY:        OPERATOR  
 SRVC.              Schlumberger:        SERVICE COMPANY 
 UWI .              500000000000:        UNIQUE WELL ID 
 LAT .                    0.0000:        LATITUDE
 LON .                    0.0000:        LONGITUDE
 DIGS.          Center Line Data:        DIGITIZING COMPANY 
~CURVE INFORMATION      
#MNEM.UNIT            API CODE           CURVE DESCRIPTION
#---------          -------------        ------------------------------
 DEPT.F                         :        1  DEPTH
 SP  .MV                        :        2
 ILD .OHMM                      :        3
 ILM .OHMM                      :        4
 LL8 .OHMM                      :        5
 CALI.IN                        :        6
 GR  .GAPI                      :        7
 DRHO.G/C3                      :        8
 RHOB.G/C3                      :        9
 NPHI.%                         :       10
 DPHI.%                         :       11
 DT  .US/F                      :       12
~PARAMETER INFORMATION       
#MNEM.UNIT              VALUE            DESCRIPTION OF MNEMONIC
#---------          -------------        ------------------------------
 EKB .F                  39.5000:        KELLY BUSHING
 TD  .F                7867.0000:        TOTAL DEPTH
 BHT .F                  60.0000:        BOTTOM HOLE TEMPERATURE
 BS  .                   18.5000:        BIT SIZE
 FD  .                   10.5000:        FLUID DENSITY
 CSIZ.                   20.0000:        CASING SIZE
 CBD .F                 492.0000:        CASING DRILLER 1
 CBL .F                 493.0000:        CASING LOGGER 1
 DFT .             Miscellaneous:        TYPE FLUID IN HOLE
 DFV .                  200.0000:        VISCOSITY
 DFPH.                   10.0000:        PH
 DFL .                    9.2000:        FLUID LOSS
 RMS .                    2.1500:        RM
 MST .F                  57.0000:        RM MEAS. TEMP.
 RMF .                    2.2000:        RMF
 MFST.F                  40.0000:        RMF MEAS. TEMP.
 RMC .                    0.0000:        RMC
 MCST.F                   0.0000:        RMC MEAS. TEMP.
 UWI .              500000000000:        UNIQUE WELL ID
~OTHER INFORMATION
~A    DEPTH          SP         ILD         ILM         LL8        CALI          GR        DRHO        RHOB        NPHI        DPHI          DT  
# ...
  5375.0000    -31.2126      4.6873      4.7712      5.4563     14.1043     96.7854      0.1121      2.4783     35.8980   -999.2500     97.6905  
  5375.5000    -31.3124      4.6873      4.7712      5.2747     14.1172     96.5232      0.1051      2.4810     36.7091   -999.2500     96.0321  
  5376.0000    -31.3529      4.6873      4.7712      5.3203     14.1339     95.7205      0.1032      2.4864     36.1375   -999.2500     95.6952  
  5376.5000    -31.3396      4.7111      4.7963      5.3663     14.1519     94.3868      0.0986      2.4958     35.5659   -999.2500     98.0753  
  5377.0000    -31.3372      4.7430      4.8288      5.3775     14.1856     94.0745      0.1146      2.5133     35.4909   -999.2500     98.9581  
  5377.5000    -31.4394      4.7732      4.8593      5.3775     14.2381     94.7605      0.1078      2.4980     35.9527   -999.2500     99.9362  
  5378.0000    -31.4419      4.8025      4.8891      5.3775     14.2875     95.1812      0.0857      2.4678     36.6640   -999.2500     99.1738  
  5378.5000    -31.2718      4.8320      4.9191      5.3775     14.3148     95.5963      0.0965      2.4720     38.9381   -999.2500     97.5592  
  5379.0000    -31.0186      4.9080      5.0013      5.5640     14.3210     95.8862      0.0977      2.4741     39.3506   -999.2500     98.4558  
  5379.5000    -30.7879      4.9922      5.0876      6.0036     14.3232     95.6010      0.1044      2.4825     39.2891   -999.2500     98.7048  
  5380.0000    -30.5274      5.0792      5.1763      6.3629     14.3241     94.3410      0.1126      2.4811     39.3172   -999.2500     99.9934  
  5380.5000    -30.3181      5.1678      5.2667      6.6331     14.3299     93.0378      0.1109      2.4779     39.2924   -999.2500     97.2996  
  5381.0000    -30.3181      5.2359      5.3314      6.6940     14.3415     91.6084      0.1092      2.4811     38.9348   -999.2500     96.0142  
  5381.5000    -30.3783      5.2817      5.3779      6.4597     14.3496     89.6911      0.1109      2.5066     37.8407   -999.2500     94.2253  
  5382.0000    -30.5531      5.3278      5.4249      6.1868     14.3526     87.4999      0.1243      2.5306     36.9117   -999.2500     90.2720  
  5382.5000    -30.7990      5.3743      5.4722      6.1159     14.3545     85.3284      0.1258      2.5344     36.1250   -999.2500     91.8165  
  5383.0000    -30.9246      5.4212      5.5200      6.0590     14.3231     84.5808      0.1121      2.5470     35.5572   -999.2500     93.5403  
  5383.5000    -30.9947      5.3655      5.4650      6.0031     14.3019     85.2407      0.0990      2.5354     34.0839   -999.2500     92.1485  
  5384.0000    -31.0796      5.2949      5.3930      5.9160     14.2722     86.7670      0.0944      2.5322     34.0726   -999.2500     93.6799  
  5384.5000    -30.9122      5.2250      5.3218      5.8111     14.2329     88.4186      0.1016      2.5285     34.1805   -999.2500     94.1038  
  5385.0000    -30.9554      5.1560      5.2516      5.7520     14.1879     90.0703      0.1065      2.5269     34.4745   -999.2500     93.7039  
  5385.5000    -30.9985      5.1019      5.1936      5.7623     14.1776     91.5549      0.1119      2.5243     34.8488   -999.2500     93.9656  
  5386.0000    -31.0684      5.0777      5.1690      5.9894     14.1737     92.9610      0.1253      2.5326     34.6966   -999.2500     97.7659  
  5386.5000    -31.1066      5.0787      5.1698      5.9061     14.1545     94.3670      0.1318      2.5452     34.3310   -999.2500     97.7467  
  5387.0000    -31.1491      5.0850      5.1761      5.9004     14.1795     95.1170      0.1157      2.5281     34.1916   -999.2500     97.3763  
  5387.5000    -31.2890      5.0912      5.1824      5.9191     14.1918     94.6666      0.1015      2.5153     34.6453   -999.2500     97.2845  
  5388.0000    -31.4124      5.0974      5.1888      6.0085     14.1794     93.7725      0.1045      2.5110     35.8558   -999.2500     95.5787  
  5388.5000    -31.5244      5.1037      5.1952      5.9349     14.1607     92.7852      0.0992      2.4975     36.2825   -999.2500     94.2599  
  5389.0000    -31.5857      5.1100      5.2015      5.8178     14.1450     91.9341      0.1010      2.5031     36.0215   -999.2500     96.0129  
  5389.5000    -31.6470      5.1162      5.2079      5.7862     14.1365     91.3807      0.0983      2.5043     35.4252   -999.2500     96.2896  
  5390.0000    -31.5097      5.0623      5.1591      5.8601     14.1362     90.8129      0.0904      2.5066     35.1825   -999.2500     95.6824  
  5390.5000    -31.4141      4.9717      5.0670      5.9066     14.1390     90.2451      0.0891      2.5103     36.0726   -999.2500     97.5707  
  5391.0000    -31.4446      4.8902      4.9796      5.8767     14.1542     89.9140      0.0993      2.5205     35.7272   -999.2500     96.3042  
  5391.5000    -31.5827      4.8435      4.9321      5.8295     14.1710     90.2655      0.1092      2.5350     34.3003   -999.2500     95.2891  
  5392.0000    -31.7078      4.7973      4.8851      5.7679     14.1989     90.1687      0.1269      2.5363     33.7767   -999.2500     97.4675  
  5392.5000    -31.5242      4.7688      4.8542      5.7252     14.2221     88.7847      0.1160      2.5113     35.1706   -999.2500     94.1277  
  5393.0000    -31.4236      4.7666      4.8519      5.7225     14.2321     87.8929      0.1014      2.4949     36.8913   -999.2500     95.2873  
  5393.5000    -31.3257      4.7863      4.8724      5.7199     14.2459     88.7084      0.0987      2.4983     37.9321   -999.2500     96.6404  
  5394.0000    -31.0926      4.8084      4.8947      5.7941     14.2488     90.2270      0.0920      2.4935     36.8091   -999.2500     97.4455  
  5394.5000    -30.8787      4.8561      4.9484      5.8875     14.2438     92.9956      0.0885      2.4828     35.5938   -999.2500     98.5340  
  5395.0000    -30.8076      4.9246      5.0160      5.9566     14.2317     96.7738      0.0935      2.4820     35.1281   -999.2500    100.9363  
  5395.5000    -30.7987      4.9895      5.0820      6.0517     14.2182     98.2045      0.0904      2.4802     35.7255   -999.2500     99.0183  
  5396.0000    -30.8889      5.0559      5.1498      6.1629     14.2205     96.1097      0.1070      2.4904     36.5866   -999.2500     97.2869  
  5396.5000    -31.0150      5.0798      5.1709      6.1361     14.2046     94.0149      0.1266      2.5073     36.4007   -999.2500     96.1488  
  5397.0000    -31.0355      5.0824      5.1747      6.0772     14.2009     92.1721      0.1309      2.5247     36.0267   -999.2500     95.0515  
  5397.5000    -31.1502      5.0327      5.1323      5.8351     14.2129     90.8134      0.1191      2.5301     34.7895   -999.2500     94.9300  
  5398.0000    -31.4071      4.9371      5.0297      5.4952     14.2199     89.7572      0.1111      2.5314     33.3777   -999.2500     95.0560  
  5398.5000    -31.7719      4.7935      4.9196      5.4287     14.2319     89.2690      0.1080      2.5314     33.6153   -999.2500     95.1424  
  5399.0000    -31.9563      4.5674      4.6876      5.3919     14.2491     90.3313      0.1165      2.5237     33.6433   -999.2500     94.4767  
  5399.5000    -31.9972      4.3670      4.4707      5.2356     14.2698     92.2855      0.1069      2.5074     33.4507   -999.2500     95.8898  
  5400.0000    -31.8134      4.2119      4.2995      4.8658     14.2899     93.9486      0.0839      2.4758     34.0746   -999.2500     98.1839  
  5400.5000    -31.5404      4.2032      4.2784      4.7717     14.3059     94.5306      0.0943      2.4645     34.8792   -999.2500     99.9981  
  5401.0000    -31.2675      4.2319      4.3117      4.7926     14.3112     94.6300      0.0834      2.4544     35.5310   -999.2500     99.3129  
  5401.5000    -31.2793      4.2982      4.3792      4.9377     14.3235     95.4854      0.0743      2.4448     37.3290   -999.2500     98.6277  
  5402.0000    -31.2169      4.3654      4.4477      5.2571     14.3343     96.0170      0.0956      2.4714     39.0216   -999.2500     98.8756  
