~VERSION INFORMATION
 VERS.                           2.00:        CWLS LOG ASCII STANDARD - VERSION 2.00
 WRAP.                             NO:        ONE LINE PER DEPTH STEP
~WELL INFORMATION
#MNEM.UNIT                   DATA             INFORMATION
#----------             --------------        ------------------------------
 STRT.F                      112.0000:        START DEPTH
 STOP.F                    10176.0000:        STOP DEPTH
 STEP.F                        0.5000:        STEP VALUE
 NULL.                      -999.2500:        NULL VALUE
 COMP.                      HUSKY OIL:        COMPANY  
 LOC .                   36  11N   4W:        LOCATION   
 DATE.                        2/16/81:        LOG DATE 
 WELL.            NORTH INIGOK TEST 1:        WELL     
 UWI .                   501032001700:        UNIQUE WELL ID 
 API .                   501032001700:        UNIQUE WELL IDENTIFIER 
 FLD .                        WILDCAT:        FIELD    
 CNTY.                    NORTH SLOPE:        COUNTY  
 STAT.                         ALASKA:        STATE   
 CTRY.                            USA:        COUNTRY 
 OPER.                      HUSKY OIL:        OPERATOR  
 SRVC.                            440:        SERVICE COMPANY 
 LAT .                         0.0000:        LATITUDE
 LON .                         0.0000:        LONGITUDE
 DIGS.                             65:        DIGITIZING COMPANY 
~CURVE INFORMATION      
#MNEM.UNIT                 API CODE           CURVE DESCRIPTION
#---------              --------------        ------------------------------
 DEPT.F                              :        1  DEPTH
 SP  .MV                             :        2
 SFL .OHMM                           :        3
 ILD .OHMM                           :        4
 ILM .OHMM                           :        5
 NPHI.%                              :        6
 CALI.IN                             :        7
 GR  .GAPI                           :        8
 RHOB.G/C3                           :        9
 DRHO.G/C3                           :       10
 DT  .US/F                           :       11
~PARAMETER INFORMATION       
#MNEM.UNIT                  VALUE             DESCRIPTION OF MNEMONIC
#---------             ---------------        ------------------------------
 EKB .F                      166.0000:        KELLY BUSHING
 TD  .F                    10167.0000:        TOTAL DEPTH
~OTHER INFORMATION
~A    DEPTH          SP         SFL         ILD         ILM        NPHI        CALI          GR        RHOB        DRHO          DT  
# ...
  6802.0000    -58.3903      7.3042      6.5152      6.3043     36.2631     15.8815     86.3285      2.4755      0.1195     88.8155  
  6802.5000    -58.5150      7.2971      6.5605      6.4256     36.9659     15.9645     87.4725      2.4596      0.1262     86.5294  
  6803.0000    -58.4685      7.1158      6.5873      6.5076     37.9325     15.7699     88.2042      2.4543      0.1351     84.9031  
  6803.5000    -58.3631      6.8955      6.6122      6.5907     38.9611     15.8118     88.0573      2.4492      0.1702     83.4172  
  6804.0000    -58.2918      6.8908      6.6390      6.6748     38.9986     16.0525     86.9646      2.4297      0.1672     80.6843  
  6804.5000    -58.3246      6.9374      6.6713      6.6878     39.3316     15.4791     86.1175      2.4289      0.1274     80.4919  
  6805.0000    -58.2834      7.1032      6.7987      6.6862     38.9568     15.2349     86.9920      2.4423      0.0967     81.2839  
  6805.5000    -58.3138      7.2730      6.8418      6.6774     39.2691     15.2517     88.4771      2.4801      0.1051     82.5675  
  6806.0000    -58.4178      7.4021      6.8852      6.6013     39.8648     15.1605     89.5135      2.5030      0.1404     82.9213  
  6806.5000    -58.5367      7.4161      6.8733      6.5133     40.5859     15.3350     89.5880      2.5037      0.1754     83.2062  
  6807.0000    -58.6277      7.0809      6.7402      6.4172     39.3513     15.7757     89.9510      2.4703      0.1945     83.2668  
  6807.5000    -58.6653      6.7145      6.5716      6.3250     37.6319     16.0764     90.6744      2.4117      0.1927     81.4811  
  6808.0000    -58.6933      6.6494      6.4450      6.2354     37.4379     15.7120     91.8087      2.3830      0.1785     80.3204  
  6808.5000    -58.8775      6.6038      6.3610      6.1265     38.1675     16.0624     93.0184      2.3716      0.1317     79.5980  
  6809.0000    -59.0581      6.5585      6.3174      6.0499     37.9474     16.0667     92.3273      2.4104      0.1043     79.3834  
  6809.5000    -58.9231      6.5135      6.2741      6.0084     38.0033     15.8138     89.9427      2.4255      0.0986     79.6823  
  6810.0000    -58.7475      6.4689      6.2311      5.9672     39.1745     15.8923     87.0491      2.4067      0.0961     81.3080  
  6810.5000    -59.0124      6.4908      6.2521      5.9871     40.3457     16.1239     84.3091      2.3954      0.1065     83.2529  
  6811.0000    -59.0271      6.5377      6.2972      6.0303     41.0500     16.3439     84.9896      2.3890      0.1096     84.3175  
  6811.5000    -58.9120      6.5849      6.3427      6.0739     41.4530     16.5083     85.7024      2.3712      0.1096     85.2533  
  6812.0000    -58.7215      6.6325      6.3885      6.1178     40.9234     16.5752     85.3917      2.3526      0.1296     84.6920  
  6812.5000    -58.7121      6.6792      6.4344      6.1619     40.2008     16.4570     84.4941      2.3230      0.1306     83.5802  
  6813.0000    -58.4885      6.7153      6.4704      6.1986     39.3068     16.2866     83.7640      2.3154      0.1109     83.4974  
  6813.5000    -58.3548      6.7387      6.4930      6.2202     39.0915     16.1318     84.5628      2.3394      0.1139     83.5644  
  6814.0000    -58.2636      6.7622      6.5157      6.2420     39.0069     16.1857     87.0848      2.3562      0.1094     83.9995  
  6814.5000    -58.4960      6.7767      6.5293      6.2547     38.9410     16.1296     89.9266      2.3651      0.0935     84.4185  
  6815.0000    -58.7009      6.7554      6.5095      6.2368     39.0972     16.2785     90.9016      2.4002      0.1241     84.8559  
  6815.5000    -58.5894      6.7423      6.4970      6.2422     38.8541     16.1422     90.7834      2.3781      0.1274     83.1787  
  6816.0000    -58.5347      6.8483      6.5173      6.2475     38.5717     15.9025     90.6248      2.3668      0.1181     82.7934  
  6816.5000    -58.7954      7.1295      6.5377      6.2529     38.3061     15.3796     90.4914      2.3767      0.1054     83.1390  
  6817.0000    -58.8917      7.0749      6.5581      6.2583     37.8518     15.5127     89.2137      2.4274      0.1527     83.3690  
  6817.5000    -58.9555      6.8863      6.5740      6.2636     38.6484     15.7762     87.7846      2.3814      0.1445     83.4642  
  6818.0000    -59.0130      6.7479      6.5843      6.2690     39.5436     15.9138     85.3582      2.3401      0.1207     82.9229  
  6818.5000    -59.5013      6.7132      6.5945      6.2744     40.4387     15.8875     83.1537      2.3374      0.1458     82.3050  
  6819.0000    -59.7132      6.7869      6.5946      6.2452     40.2509     15.7351     82.8112      2.3383      0.1220     81.6994  
  6819.5000    -59.7964      6.9335      6.5676      6.2130     39.4718     15.4287     83.3751      2.3806      0.1119     81.7213  
  6820.0000    -59.3684      6.9916      6.5467      6.1810     38.9116     15.7685     83.6104      2.4199      0.1444     82.0825  
  6820.5000    -59.1047      6.9361      6.5262      6.1492     39.2506     16.1993     83.7208      2.4048      0.1778     83.7303  
  6821.0000    -59.1163      6.8369      6.5054      6.1657     38.3718     16.2795     83.3468      2.3824      0.1628     85.2520  
  6821.5000    -59.1194      6.7005      6.4434      6.1718     37.6479     15.9752     82.3780      2.3871      0.1502     83.2582  
  6822.0000    -58.7932      6.6066      6.3888      6.1729     38.7349     15.8241     83.0561      2.3784      0.1615     82.2470  
  6822.5000    -59.0674      6.5488      6.3808      6.1741     40.7284     15.8622     84.6666      2.3489      0.1501     82.6336  
  6823.0000    -59.2597      6.5943      6.3729      6.1752     42.2329     15.5598     85.4299      2.3418      0.1281     83.6127  
  6823.5000    -59.4889      6.6748      6.3650      6.1764     43.2130     15.7642     85.2750      2.3744      0.1381     85.1632  
  6824.0000    -59.6753      7.0305      6.3323      6.1341     43.4770     16.0341     84.9021      2.4305      0.1773     87.0221  
  6824.5000    -59.8939      7.5076      6.2402      6.0827     43.8814     15.9416     87.6269      2.4497      0.1650     84.6141  
  6825.0000    -60.1544      7.5939      6.0718      5.9492     44.1870     15.8921     90.1932      2.4836      0.1943     85.0364  
  6825.5000    -60.3224      7.2326      5.8987      5.7601     44.6536     16.8719     91.5814      2.4257      0.2095     85.3934  
  6826.0000    -60.3762      6.6596      5.7423      5.4717     46.3991     17.6422     92.5863      2.3419      0.1894     86.7707  
  6826.5000    -60.3281      6.1320      5.6074      5.2179     47.1291     17.6380     93.2824      2.2889      0.1825     87.2418  
  6827.0000    -60.0441      5.6462      5.4263      5.1445     47.2491     17.9450     93.9785      2.2371      0.1740     83.7701  
  6827.5000    -59.8398      5.4038      5.2546      5.0719     47.8956     17.9515     94.6746      2.1905      0.1670     84.7603  
  6828.0000    -59.5463      5.2600      5.1445      4.9914     48.3440     17.9581     95.7043      2.1439      0.1801     86.0731  
  6828.5000    -59.2889      5.2620      5.1089      4.9248     47.0981     17.5622     97.0647      2.1393      0.1653     88.7813  
  6829.0000    -58.9153      5.3719      5.1012      4.9117     46.1352     16.2436     98.4250      2.1961      0.1747     90.2790  
  6829.5000    -58.6011      5.7163      5.1044      4.9326     46.1864     15.8895     99.7853      2.2480      0.1530     90.3505  
  6830.0000    -58.1679      6.0505      5.1099      4.9574     46.0400     16.5689    100.1455      2.2703      0.1678     93.9297  
  6830.5000    -57.9663      6.0319      5.1155      4.9684     45.4807     16.0849    100.9246      2.2319      0.1634     96.7457  
  6831.0000    -57.6074      5.8850      5.1211      4.9756     44.5306     15.4913    101.7036      2.2521      0.1399     98.2855  
  6831.5000    -57.3793      5.7908      5.1266      4.9828     43.2182     16.7885    101.0128      2.3033      0.1397     97.0249  
