~VERSION INFORMATION
 VERS.                           2.00:        CWLS LOG ASCII STANDARD - VERSION 2.00
 WRAP.                             NO:        ONE LINE PER DEPTH STEP
~WELL INFORMATION
#MNEM.UNIT                   DATA             INFORMATION
#----------             --------------        ------------------------------
 STRT.F                      116.0000:        START DEPTH
 STOP.F                     8861.0000:        STOP DEPTH
 STEP.F                        0.5000:        STEP VALUE
 NULL.                      -999.2500:        NULL VALUE
 COMP.                     U.S. NAAVY:        COMPANY
 LOC .                 [33^13 17N 2W:        LOCATION
 DATE.                        3/30/77:        LOG DATE
 WELL.                    WT FORAN #1:        WELL
 UWI .                   501032001000:        UNIQUE WELL ID
 API .                   501032001000:        UNIQUE WELL IDENTIFIER
 FLD .                        WILDCAT:        FIELD
 CNTY.                    NORTH SLOPE:        COUNTY
 STAT.                         ALASKA:        STATE
 CTRY.                            USA:        COUNTRY
 OPER.                     U.S. NAAVY:        OPERATOR
 SRVC.                   SCHLUMBERGER:        SERVICE COMPANY
 LAT .                         0.0000:        LATITUDE
 LON .                         0.0000:        LONGITUDE
 DIGS.               CENTER LINE DATA:        DIGITIZING COMPANY
~CURVE INFORMATION      
#MNEM        .UNIT         API CODE           CURVE DESCRIPTION
#-----------------      --------------        ------------------------------
 DEPT        .F                      :        1  DEPTH
 CALI        .IN                     :        2  
 GR          .GAPI                   :        3  
 DRHO        .G/C3                   :        4  
 RHOB        .G/C3                   :        5  
 NPHI        .%                      :        6  
 DT          .US/F                   :        7  
 SP          .MV                     :        8  
 ILD         .OHMM                   :        9  
 ILM         .OHMM                   :        10 
 LL8         .OHMM                   :        11 
~PARAMETER INFORMATION
#MNEM.UNIT                  VALUE             DESCRIPTION OF MNEMONIC
#---------             ---------------        ------------------------------
 EKB .F                       39.0000:        KELLY BUSHING
 TD  .F                     8864.0000:        TOTAL DEPTH
 BHT .F                      152.0000:        BOTTOM HOLE TEMPERATURE
 BS  .                        14.2500:        BIT SIZE
 FD  .                        10.2000:        FLUID DENSITY
 CSIZ.                        16.0000:        CASING SIZE
 CBD .F                     1458.0000:        CASING DRILLER 1
 CBL .F                        0.0000:        CASING LOGGER 1
 DFT .                  MISCELLANEOUS:        TYPE FLUID IN HOLE
 DFV .                        45.0000:        VISCOSITY
 DFPH.                        10.5000:        PH
 DFL .                         5.5000:        FLUID LOSS
 RMS .                         2.4000:        RM
 MST .F                       54.0000:        RM MEAS. TEMP.
 RMF .                         2.3000:        RMF
 MFST.F                       56.0000:        RMF MEAS. TEMP.
 RMC .                         2.7000:        RMC
 MCST.F                       54.0000:        RMC MEAS. TEMP.
~OTHER INFORMATION
~A    DEPTH        CALI          GR        DRHO        RHOB        NPHI          DT          SP         ILD         ILM         LL8 
# ...
  5179.0000     17.9438     85.8322      0.0615      2.4340     36.4632    100.8270    -18.9834      4.2097      4.0690      4.5627 
  5179.5000     17.9435     83.4527      0.0597      2.4321     36.1042    100.6536    -18.9370      4.2270      4.0857      4.6062 
  5180.0000     17.9433     81.1043      0.0690      2.4520     36.6800    102.4303    -19.1235      4.2445      4.1026      4.5687 
  5180.5000     17.9430     79.6557      0.0613      2.4689     37.2918    102.1029    -19.3858      4.2619      4.1195      4.5791 
  5181.0000     17.9428     79.3444      0.0623      2.4619     37.9647     99.4184    -19.2738      4.2795      4.1364      4.6601 
  5181.5000     17.9425     79.6325      0.0467      2.4489     38.2233     99.8479    -19.1261      4.2874      4.1446      4.7740 
  5182.0000     17.9423     81.2337      0.0537      2.4541     38.5425    101.4280    -18.8581      4.2914      4.1485      4.8219 
  5182.5000     17.8995     81.4049      0.0576      2.4561     38.9356    100.6324    -18.9748      4.2955      4.1524      4.6955 
  5183.0000     17.1533     82.5607      0.0431      2.4462     39.2746    103.9419    -18.7310      4.2996      4.1563      4.5723 
  5183.5000     17.0536     82.0853      0.0373      2.4394     39.0450    102.9951    -18.4872      4.3037      4.1602      4.4524 
  5184.0000     17.5412     82.3324      0.0401      2.4276     38.0794    102.6264    -18.2561      4.3077      4.1642      4.6018 
  5184.5000     17.6703     82.9797      0.0425      2.4147     36.7855    100.3969    -18.0856      4.3118      4.1681      4.8282 
  5185.0000     17.5900     84.2106      0.0428      2.4210     35.1520     97.2560    -17.9854      4.3159      4.1720      5.0664 
  5185.5000     17.7061     84.8945      0.0345      2.4259     34.1334     98.1835    -17.9220      4.3200      4.1760      5.3775 
  5186.0000     17.3338     85.9872      0.0315      2.4437     33.6557     99.4645    -17.9673      4.3241      4.1799      5.3992 
  5186.5000     17.0817     87.2569      0.0267      2.4564     34.6557     99.6640    -18.0154      4.3282      4.1838      5.1495 
  5187.0000     17.3097     87.8979      0.0248      2.4578     35.1677    102.3191    -18.0378      4.3323      4.1878      4.9292 
  5187.5000     17.5588     87.7103      0.0360      2.4550     35.1593    100.9294    -18.3247      4.3390      4.1942      4.8454 
  5188.0000     17.7653     87.4232      0.0448      2.4564     35.4044     98.9202    -18.9995      4.3460      4.2011      5.1873 
  5188.5000     17.6885     86.7722      0.0533      2.4641     35.7118     99.4134    -19.6775      4.3531      4.2079      5.3849 
  5189.0000     17.5923     86.1472      0.0620      2.4759     35.8336     99.9465    -19.9167      4.3602      4.2148      5.2412 
  5189.5000     17.4997     85.0900      0.0608      2.4746     36.0644    102.8519    -19.8724      4.3673      4.2217      5.0366 
  5190.0000     17.5283     84.6184      0.0551      2.4722     36.4625    104.2198    -20.4154      4.3744      4.2285      4.8401 
  5190.5000     17.6557     83.5171      0.0509      2.4682     36.3200    102.5844    -20.8668      4.3816      4.2354      4.6655 
  5191.0000     17.6645     82.0977      0.0556      2.4548     36.1582    101.5920    -21.2912      4.3887      4.2424      4.6894 
  5191.5000     17.6948     81.0781      0.0429      2.4297     36.0073     99.2167    -21.7329      4.3959      4.2493      4.7036 
  5192.0000     17.7396     80.5869      0.0528      2.4227     36.0045     98.5577    -21.7661      4.4030      4.2562      4.7121 
  5192.5000     17.7927     80.9918      0.0335      2.4083     35.8626     99.4689    -21.6232      4.4102      4.2632      4.7206 
  5193.0000     17.9767     82.1350      0.0294      2.4019     36.1317     99.9519    -21.5289      4.4174      4.2701      4.7291 
  5193.5000     17.9461     83.0332      0.0293      2.4158     36.5741    101.2095    -21.5363      4.4246      4.2771      4.7376 
  5194.0000     17.8269     83.2173      0.0236      2.4041     37.2196    100.6453    -21.5529      4.4318      4.2841      4.7462 
  5194.5000     17.7514     82.8366      0.0293      2.3972     37.3315    102.3131    -21.0216      4.4390      4.2910      4.7547 
  5195.0000     17.6564     81.1321      0.0449      2.4160     36.9481    101.1722    -20.6677      4.4463      4.2981      4.7633 
  5195.5000     17.8665     80.4889      0.0490      2.4210     36.2360    101.0539    -20.1522      4.4535      4.3051      4.7719 
  5196.0000     17.8332     81.3001      0.0562      2.4262     35.4810     99.4366    -19.7996      4.4608      4.3121      4.7788 
  5196.5000     17.7465     82.9529      0.0631      2.4332     35.8606     94.9780    -19.7935      4.4680      4.3191      4.7810 
  5197.0000     17.7667     84.5619      0.0648      2.4228     36.2829     97.9541    -20.0432      4.4753      4.3262      4.7832 
  5197.5000     17.7622     85.8104      0.0540      2.4108     36.6866    100.0224    -20.4296      4.4746      4.3255      4.7854 
  5198.0000     17.6460     87.3098      0.0479      2.4103     37.0575    100.6939    -20.8017      4.4713      4.3224      4.7876 
  5198.5000     17.6965     87.6623      0.0419      2.4133     37.3851    102.7000    -20.9142      4.4681      4.3192      4.7898 
  5199.0000     17.8417     87.0848      0.0434      2.4123     37.4626    101.2328    -20.8932      4.4648      4.3161      4.7920 
  5199.5000     17.8017     86.3836      0.0495      2.4129     37.5538     99.3621    -20.9955      4.4615      4.3129      4.7787 
  5200.0000     17.8570     87.2367      0.0542      2.4137     37.6473    100.4580    -21.5695      4.4583      4.3098      4.7566 
  5200.5000     17.9416     87.8722      0.0615      2.4135     37.5561    101.0463    -21.1669      4.4550      4.3066      4.7346 
  5201.0000     18.0025     87.5587      0.0635      2.4135     37.3894    101.4811    -20.8610      4.4518      4.3035      4.7199 
  5201.5000     17.9731     85.5960      0.0758      2.4295     37.9028    102.8860    -21.1331      4.4485      4.3003      4.7094 
  5202.0000     17.9437     84.4789      0.0749      2.4378     37.6619    101.7403    -21.5421      4.4453      4.2972      4.6989 
  5202.5000     17.7111     84.3456      0.0604      2.4188     37.1881     99.1778    -21.5792      4.4420      4.2941      4.6884 
  5203.0000     17.6758     85.5798      0.0590      2.4159     37.4544     98.6787    -21.6707      4.4388      4.2909      4.6780 
  5203.5000     17.7182     86.0612      0.0585      2.4222     37.9386     98.7866    -21.7622      4.4355      4.2878      4.6676 
  5204.0000     17.7948     85.4979      0.0580      2.4298     37.9076     99.4791    -21.3456      4.4323      4.2847      4.6572 
  5204.5000     17.9177     85.0506      0.0517      2.4290     37.5456    101.9379    -20.8954      4.4290      4.2815      4.6468 
  5205.0000     17.9298     84.9007      0.0426      2.4221     37.2375    101.9702    -20.6404      4.4258      4.2784      4.6364 
  5205.5000     17.9514     84.4362      0.0325      2.4089     37.8407    101.6197    -20.4958      4.4116      4.2625      4.6261 
  5206.0000     17.9731     84.3934      0.0378      2.4001     38.3652    102.5994    -20.5440      4.3758      4.2279      4.6158 
  5206.5000     17.9713     84.0888      0.0505      2.4075     38.1915    101.6843    -20.6376      4.3402      4.1936      4.6148 
  5207.0000     17.9695     83.6533      0.0660      2.4240     37.4339     99.2914    -20.7333      4.3288      4.1836      4.6148 
  5207.5000     17.9678     83.6704      0.0604      2.4226     36.3697    100.2682    -20.7566      4.3523      4.2073      4.6148 
  5208.0000     17.9660     84.3128      0.0515      2.4145     35.9966    100.7643    -20.9954      4.3534      4.2084      4.6148 
  5208.5000     17.9642     85.0842      0.0359      2.4031     36.2012    101.0967    -21.0306      4.3498      4.2049      4.6148 
  5209.0000     17.9624     85.6760      0.0524      2.4285     36.4357    101.8374    -21.1673      4.3617      4.2156      4.6148 
