~VERSION INFORMATION
 VERS.                           2.00:        CWLS LOG ASCII STANDARD - VERSION 2.00
 WRAP.                             NO:        ONE LINE PER DEPTH STEP
~WELL INFORMATION
#MNEM.UNIT                   DATA             INFORMATION
#----------             --------------        ------------------------------
 STRT.F                       66.0000:        START DEPTH
 STOP.F                    11266.0000:        STOP DEPTH
 STEP.F                        0.5000:        STEP VALUE
 NULL.                      -999.2500:        NULL VALUE
 COMP.              HUSKY OIL COMPANY:        COMPANY
 LOC .                       6 12N 2E:        LOCATION
 DATE.                       12/24/76:        LOG DATE
 WELL.          SOUTH HARRISON BAY #1:        WELL
 UWI .                   501032000700:        UNIQUE WELL ID
 API .                   501032000700:        UNIQUE WELL IDENTIFIER
 FLD .                        WILDCAT:        FIELD
 CNTY.                    NORTH SLOPE:        COUNTY
 STAT.                         ALASKA:        STATE
 CTRY.                            USA:        COUNTRY
 OPER.              HUSKY OIL COMPANY:        OPERATOR
 SRVC.                   SCHLUMBERGER:        SERVICE COMPANY
 LAT .                         0.0000:        LATITUDE
 LON .                         0.0000:        LONGITUDE
 DIGS.               CENTER LINE DATA:        DIGITIZING COMPANY
~CURVE INFORMATION      
#MNEM        .UNIT         API CODE           CURVE DESCRIPTION
#-----------------      --------------        ------------------------------
 DEPT        .F                      :        1  DEPTH
 GR          .GAPI                   :        2  
 CALI        .IN                     :        3  
 DRHO        .G/C3                   :        4  
 RHOB        .G/C3                   :        5  
 NPHI        .%                      :        6  
 DT          .US/F                   :        7  
 SP          .MV                     :        8  
 ILD         .OHMM                   :        9  
 ILM         .OHMM                   :        10 
 LL8         .OHMM                   :        11 
~PARAMETER INFORMATION
#MNEM.UNIT                  VALUE             DESCRIPTION OF MNEMONIC
#---------             ---------------        ------------------------------
 EKB .F                       45.0000:        KELLY BUSHING
 TD  .F                    11290.0000:        TOTAL DEPTH
 BHT .F                      174.0000:        BOTTOM HOLE TEMPERATURE
 BS  .                        12.2500:        BIT SIZE
 FD  .                        10.7000:        FLUID DENSITY
 CSIZ.                        13.3750:        CASING SIZE
 CBD .F                     2600.0000:        CASING DRILLER 1
 CBL .F                     2600.0000:        CASING LOGGER 1
 DFT .                  MISCELLANEOUS:        TYPE FLUID IN HOLE
 DFV .                        52.0000:        VISCOSITY
 DFPH.                         8.2000:        PH
 DFL .                         6.0000:        FLUID LOSS
 RMS .                         1.3900:        RM
 MST .F                       60.0000:        RM MEAS. TEMP.
 RMF .                         1.0200:        RMF
 MFST.F                       60.0000:        RMF MEAS. TEMP.
 RMC .                         1.3800:        RMC
 MCST.F                       60.0000:        RMC MEAS. TEMP.
~OTHER INFORMATION
~A    DEPTH          GR        CALI        DRHO        RHOB        NPHI          DT          SP         ILD         ILM         LL8 
# ...
  3817.5000     80.6693     13.0543      0.0064      2.3375     39.4342    112.7215    -36.2110      4.2883      4.1132      5.0070 
  3818.0000     80.8965     13.0699      0.0109      2.3540     38.6710    105.8006    -36.0362      4.2727      4.1016      4.7642 
  3818.5000     81.5741     13.0537      0.0184      2.3467     38.6419    100.7414    -35.7033      4.2571      4.0901      4.4251 
  3819.0000     82.0753     13.0218      0.0202      2.3061     39.0152    100.6440    -35.7469      4.2416      4.0786      4.2220 
  3819.5000     82.7955     13.0264      0.0291      2.2961     39.6261    107.7520    -35.9066      4.2261      4.0794      4.1894 
  3820.0000     84.3153     13.0683      0.0267      2.3038     39.7913    115.3922    -36.0052      4.2106      4.0832      4.1671 
  3820.5000     85.3464     13.0504      0.0077      2.2979     39.9566    119.9522    -35.9688      4.2383      4.0870      4.1905 
  3821.0000     85.1842     13.0267      0.0055      2.3116     40.2504    122.4769    -35.8661      4.3251      4.0908      4.2763 
  3821.5000     85.0341     13.0667      0.0076      2.3267     40.5574    118.3316    -36.1574      4.3191      4.0946      4.4144 
  3822.0000     84.9547     13.1226      0.0123      2.3484     40.8735    111.1557    -36.7545      4.3127      4.0984      4.6098 
  3822.5000     84.9692     13.1853      0.0240      2.3667     39.9797    108.0097    -37.0368      4.3063      4.1022      4.5930 
  3823.0000     85.0909     13.1642      0.0271      2.3754     38.8193    106.5639    -37.1176      4.2999      4.1061      4.5551 
  3823.5000     85.1789     13.1681      0.0118      2.3548     38.2284    104.6868    -37.1778      4.2935      4.1099      4.5174 
  3824.0000     85.2769     13.2314      0.0124      2.3587     38.3968    105.8293    -37.1803      4.2871      4.1194      4.4857 
  3824.5000     85.4708     13.2622      0.0176      2.3706     38.2991    107.9836    -37.2305      4.2808      4.1310      4.4073 
  3825.0000     85.8069     13.2927      0.0257      2.3659     38.3032    106.5561    -37.1737      4.2744      4.1426      4.2760 
  3825.5000     85.2491     13.2962      0.0247      2.3361     39.1683    110.3617    -36.9208      4.2681      4.1543      4.2604 
  3826.0000     84.5512     13.2551      0.0223      2.3040     40.3045    113.0553    -36.6014      4.2618      4.1661      4.4669 
  3826.5000     84.9533     13.1796      0.0161      2.3214     41.3240    111.7394    -36.4413      4.2555      4.1778      4.8748 
  3827.0000     85.5235     13.1041      0.0086      2.3286     41.0180    110.9547    -36.4363      4.2492      4.1896      4.6923 
  3827.5000     85.7313     13.1550      0.0065      2.3347     39.3140    109.6376    -36.4314      4.2785      4.2014      4.3380 
  3828.0000     86.3662     13.2248      0.0109      2.3242     38.6152    104.0927    -36.0960      4.3091      4.2133      4.1799 
  3828.5000     87.2628     13.1224      0.0087      2.3305     39.6981    109.0024    -36.0037      4.3400      4.2252      4.3075 
  3829.0000     86.8911     13.0310      0.0044      2.3293     40.3258    112.7128    -36.3662      4.3710      4.2371      4.5887 
  3829.5000     87.1662     12.9702     -0.0011      2.3253     40.6541    109.8668    -36.6261      4.4023      4.2534      4.8515 
  3830.0000     86.3108     13.0387      0.0201      2.3344     39.3839    112.0694    -36.5166      4.4044      4.2714      4.8219 
  3830.5000     84.7704     13.0494      0.0083      2.3183     38.6637    111.8675    -36.8358      4.3647      4.2894      4.8704 
  3831.0000     83.2100     13.0237     -0.0072      2.3170     39.0198    109.0283    -37.0082      4.3233      4.2645      5.1304 
  3831.5000     83.7369     12.9969     -0.0004      2.3378     38.2028    108.4370    -36.5653      4.2714      4.1170      5.2698 
  3832.0000     86.1351     13.1123      0.0116      2.3461     35.7287    104.6719    -35.9487      4.1826      3.9746      4.4958 
  3832.5000     86.2649     13.2022      0.0106      2.3038     36.7848    101.5784    -35.4511      4.0956      3.8371      4.0510 
  3833.0000     85.9282     13.2252      0.0048      2.2647     39.3779    107.5720    -35.2675      4.0105      3.7044      3.9854 
  3833.5000     86.6642     13.2960     -0.0012      2.2304     41.5621    114.7859    -35.1862      3.9271      3.6683      3.9714 
  3834.0000     87.8646     13.3014     -0.0078      2.2186     43.1133    119.7527    -35.2720      3.8455      3.6902      3.9574 
  3834.5000     89.4101     13.2967      0.0030      2.2335     42.7493    122.8088    -35.5111      3.8588      3.7122      3.9435 
  3835.0000     90.4919     13.2903      0.0081      2.2472     42.3728    120.3513    -35.5676      3.8759      3.7344      3.9297 
  3835.5000     89.5142     13.2865      0.0130      2.2648     43.2176    119.5884    -35.5789      3.8931      3.7567      3.9172 
  3836.0000     88.4213     13.3315      0.0134      2.2625     44.4885    118.2778    -35.6758      3.9103      3.7791      4.0111 
  3836.5000     88.7639     13.3800      0.0114      2.2580     45.3433    113.8589    -35.8947      3.9276      3.7487      4.1072 
  3837.0000     89.9324     13.3807      0.0099      2.2716     44.1391    111.9201    -35.9410      3.9275      3.7132      4.0707 
  3837.5000     91.1176     13.3508      0.0074      2.2774     41.5724    111.8093    -36.0191      3.8541      3.6780      4.0008 
  3838.0000     91.7911     13.3070      0.0018      2.2604     40.1289    110.7502    -36.0273      3.8085      3.6432      3.9419 
  3838.5000     90.6138     13.3014     -0.0040      2.2582     40.3385    115.2328    -35.9219      3.8114      3.6725      3.9075 
  3839.0000     89.7071     13.3902     -0.0011      2.2583     40.9384    120.0931    -35.8092      3.8149      3.7123      3.9478 
  3839.5000     89.1236     13.4313      0.0056      2.2667     41.2105    121.3841    -35.5250      3.8464      3.7526      4.0397 
  3840.0000     87.5156     13.4572      0.0071      2.2786     41.6537    122.4682    -35.2680      3.8781      3.7535      4.1337 
  3840.5000     86.6725     13.4831      0.0041      2.3013     42.0969    119.9085    -35.0798      3.9101      3.7288      4.2299 
  3841.0000     86.7275     13.4971      0.0029      2.3130     42.1545    113.3783    -35.1321      3.9423      3.6444      4.2520 
  3841.5000     87.1449     13.5083      0.0036      2.3064     41.8104    109.4516    -35.1333      3.8763      3.5407      4.0828 
  3842.0000     87.9120     13.5518      0.0055      2.2934     41.1492    107.4345    -35.3112      3.8113      3.4743      3.9203 
  3842.5000     89.6795     13.5674      0.0113      2.2843     42.0022    108.4391    -35.6523      3.8050      3.5103      3.9060 
  3843.0000     90.1006     13.6324      0.0120      2.2780     42.0618    114.9005    -35.9198      3.8102      3.5467      3.9588 
  3843.5000     89.6749     13.6974      0.0034      2.2683     42.3512    120.2033    -35.9323      3.8274      3.5835      4.0029 
  3844.0000     89.1508     13.7231      0.0151      2.2853     42.8505    122.2180    -35.8512      3.8522      3.6207      4.0189 
  3844.5000     89.8964     13.7296      0.0239      2.2964     42.2652    122.4383    -35.7898      3.8771      3.6298      4.0351 
  3845.0000     90.4072     13.7518      0.0109      2.3026     41.1302    117.7611    -35.7740      3.9021      3.5693      4.0512 
  3845.5000     90.1782     13.7379      0.0058      2.3017     41.0367    114.1858    -35.7145      3.9079      3.5044      4.0374 
  3846.0000     89.6680     13.7053      0.0157      2.3048     41.2758    112.9380    -35.8440      3.8054      3.4373      3.8940 
  3846.5000     89.1511     13.6479      0.0212      2.2779     42.4286    113.5279    -36.0693      3.7055      3.3715      3.7700 
  3847.0000     88.2775     13.5804      0.0194      2.2621     43.1088    115.7213    -36.2887      3.6082      3.3250      3.7017 
  3847.5000     87.8114     13.5452      0.0152      2.2498     43.6187    120.6253    -36.2539      3.6249      3.3709      3.7035 
