~VERSION INFORMATION
 VERS.                      2.00:        CWLS LOG ASCII STANDARD - VERSION 2.00
 WRAP.                        NO:        ONE LINE PER DEPTH STEP
~WELL INFORMATION
#MNEM.UNIT               DATA            INFORMATION
#----------          ------------        ------------------------------
 STRT.F                 438.0000:        START DEPTH
 STOP.F               11532.0000:        STOP DEPTH
 STEP.F                   0.5000:        STEP VALUE
 NULL.                 -999.2500:        NULL VALUE
 COMP.      HUSKY-NPR OPERATIONS:        COMPANY  
 WELL.          ATIGARU POINT #1:        WELL     
 FLD .                   WILDCAT:        FIELD    
 LOC .              19  14N   2E:        LOCATION   
 CNTY.               NORTH SLOPE:        COUNTY  
 STAT.                     ALSKA:        STATE   
 CTRY.                       USA:        COUNTRY 
 DATE.                    1/ /77:        LOG DATE 
 API .              501032000800:        UNIQUE WELL IDENTIFIER 
 OPER.      HUSKY-NPR OPERATIONS:        OPERATOR  
 SRVC.              Schlumberger:        SERVICE COMPANY 
 UWI .              501032000800:        UNIQUE WELL ID 
 LAT .                    0.0000:        LATITUDE
 LON .                    0.0000:        LONGITUDE
 DIGS.          Center Line Data:        DIGITIZING COMPANY 
~CURVE INFORMATION      
#MNEM.UNIT            API CODE           CURVE DESCRIPTION
#---------          -------------        ------------------------------
 DEPT.F                         :        1  DEPTH
 SP  .MV                        :        2
 ILD .OHMM                      :        3
 ILM .OHMM                      :        4
 LL8 .OHMM                      :        5
 CALI.IN                        :        6
 GR  .GAPI                      :        7
 DRHO.G/C3                      :        8
 RHOB.G/C3                      :        9
 NPHI.%                         :       10
 DT  .US/F                      :       11
~PARAMETER INFORMATION       
#MNEM.UNIT              VALUE            DESCRIPTION OF MNEMONIC
#---------          -------------        ------------------------------
 EKB .F                  25.0000:        KELLY BUSHING
 TD  .F               11534.0000:        TOTAL DEPTH
 BHT .F                   0.0000:        BOTTOM HOLE TEMPERATURE
 BS  .                   17.5000:        BIT SIZE
 FD  .                    9.3000:        FLUID DENSITY
 CSIZ.                   20.0000:        CASING SIZE
 CBD .F                 447.0000:        CASING DRILLER 1
 CBL .F                 443.0000:        CASING LOGGER 1
 DFT .                       Gel:        TYPE FLUID IN HOLE
 DFV .                   47.0000:        VISCOSITY
 DFPH.                   14.6000:        PH
 DFL .                    8.0000:        FLUID LOSS
 RMS .                    1.9300:        RM
 MST .F                  63.0000:        RM MEAS. TEMP.
 RMF .                    1.6900:        RMF
 MFST.F                  52.0000:        RMF MEAS. TEMP.
 RMC .                    1.6500:        RMC
 MCST.F                  60.0000:        RMC MEAS. TEMP.
 UWI .              501032000800:        UNIQUE WELL ID
~OTHER INFORMATION
~A    DEPTH          SP         ILD         ILM         LL8        CALI          GR        DRHO        RHOB        NPHI          DT  
# ...
  8568.0000   -123.6065     39.6362     42.4083     44.3490      9.6083     78.1432      0.0624      2.7013     18.3200     80.0403  
  8568.5000   -124.0213     35.9259     39.2207     45.8665      9.6079     74.8709      0.0610      2.6727     18.7624     81.1491  
  8569.0000   -124.6272     34.2636     36.2727     43.7634      9.6074     74.9875      0.0727      2.6860     19.1447     82.0726  
  8569.5000   -125.2381     32.0592     33.5463     41.7567      9.6070     75.1555      0.0551      2.6887     19.5271     81.7666  
  8570.0000   -125.7470     29.9967     32.0887     39.8420      9.6065     74.5449      0.0929      2.7009     19.0717     79.8980  
  8570.5000   -126.1292     29.0012     31.3541     36.5461      9.6061     73.5673      0.0956      2.7278     18.3193     77.4769  
  8571.0000   -126.4400     29.8933     31.0646     31.8536      9.6056     72.5504      0.0866      2.7147     16.8433     75.5484  
  8571.5000   -126.7764     33.5069     33.1022     34.4976      9.5965     71.5030      0.0778      2.7094     15.6513     75.3548  
  8572.0000   -127.1379     31.4649     36.0790     39.4613      9.5818     74.6494      0.0348      2.6842     14.8380     76.1351  
  8572.5000   -127.4995     31.0966     39.3236     39.8578      9.5671     80.9171      0.0475      2.7013     13.3936     76.6493  
  8573.0000   -127.8611     37.7406     42.8599     39.5470      9.5524     85.0072      0.0671      2.7041     11.5798     74.8935  
  8573.5000   -128.3057     45.8041     46.5970     50.6111      9.5377     86.7506      0.0665      2.7065      9.7237     69.6351  
  8574.0000   -128.9155     49.1016     50.5178    105.6257      9.5230     84.7533      0.0524      2.7116      7.8677     64.9638  
  8574.5000   -129.5200     51.6650     54.5989    169.6381      9.5083     82.1591      0.0351      2.7218      8.1527     62.0144  
  8575.0000   -130.1434     53.4207     52.5388    141.7738      9.4936     83.3906      0.0530      2.7304      8.6745     62.5982  
  8575.5000   -130.6008     49.8462     47.7584     93.8423      9.4788     92.8162      0.0419      2.7359     10.8499     63.9267  
  8576.0000   -130.9082     43.9157     43.4130     62.1157      9.4641    119.5742      0.0398      2.7459     13.0348     67.6025  
  8576.5000   -131.2156     38.6908     39.4630     41.1153      9.4494    141.0539      0.0483      2.7542     14.4181     70.1896  
  8577.0000   -131.5229     34.0875     35.6144     39.7874      9.4347    153.0180      0.0547      2.7587     15.5105     71.3485  
  8577.5000   -131.6893     30.0319     31.7504     42.5048      9.4200    160.5484      0.0516      2.7513     15.7983     72.3132  
  8578.0000   -131.7895     26.4588     28.3057     36.8823      9.4053    155.5629      0.0445      2.7385     16.1091     74.1274  
  8578.5000   -132.1219     25.3937     25.4091     28.6234      9.3906    146.9666      0.0360      2.7282     15.9892     75.7437  
  8579.0000   -132.4542     24.7146     25.5815     24.3726      9.3759    135.3839      0.0428      2.7155     14.6318     73.7041  
  8579.5000   -132.7457     23.7107     24.4699     25.0419      9.3611    130.4013      0.0628      2.7079     13.0932     72.2880  
  8580.0000   -133.1328     22.7476     22.9199     29.2579      9.3464    125.7800      0.0525      2.7056     12.6605     69.9995  
  8580.5000   -133.6295     22.4891     22.7193     26.7126      9.3317    126.2248      0.0335      2.7152     13.2056     67.6898  
  8581.0000   -134.2033     23.0493     23.8926     24.1705      9.3170    126.6697      0.0432      2.7364     13.0794     69.6376  
  8581.5000   -134.8395     24.8982     25.4185     24.0132      9.3023    127.4038      0.0373      2.7373     12.9532     70.6009  
  8582.0000   -135.3447     26.8954     27.0419     28.9378      9.2876    135.6450      0.0514      2.7480     13.5555     71.0967  
  8582.5000   -136.2379     28.9476     28.7690     38.8480      9.2729    143.5600      0.0747      2.7681     13.8853     71.8146  
  8583.0000   -137.2606     28.6232     29.1680     44.6638      9.2582    150.1087      0.0979      2.7535     13.7656     72.1995  
  8583.5000   -138.0070     28.3023     29.2376     40.3070      9.2434    156.2167      0.0878      2.7323     14.1480     71.9085  
  8584.0000   -138.6037     27.5060     28.1438     34.6298      9.2287    162.9134      0.0750      2.7159     14.3584     71.0481  
  8584.5000   -140.3760     26.4504     26.9235     29.7480      9.2230    165.6219      0.0656      2.7320     13.9495     70.5284  
  8585.0000   -141.0817     25.3952     25.7560     33.5781      9.2242    167.5059      0.0601      2.7398     13.7381     69.8881  
  8585.5000   -142.2197     24.3820     24.6392     31.4189      9.2254    166.7287      0.0546      2.7518     13.0737     68.7555  
  8586.0000   -143.5822     24.7923     24.6304     27.6347      9.2265    156.0837      0.0724      2.7604     12.1493     68.0777  
  8586.5000   -144.9446     25.2007     25.1465     24.3063      9.2277    141.2082      0.0545      2.7346     10.8037     66.4246  
  8587.0000   -145.2413     25.5935     25.6734     28.8115      9.2289    123.1904      0.0755      2.7440      9.1631     64.3019  
  8587.5000   -144.2209     24.8282     26.2114     35.5528      9.2301     96.7298      0.0678      2.7367      7.8512     62.1238  
  8588.0000   -143.2004     23.9586     26.8752     46.6742      9.2312     70.2399      0.0692      2.7428      6.6467     60.4998  
  8588.5000   -142.1575     24.0668     27.6513     60.6188      9.2324     52.3357      0.0702      2.7472      6.0950     59.2332  
  8589.0000   -141.1114     24.4094     28.3110     62.7732      9.2336     44.4383      0.0596      2.7266      6.6777     59.7163  
  8589.5000   -140.0654     23.8521     26.6899     44.7338      9.2348     45.1634      0.0542      2.7148      7.6858     61.6520  
  8590.0000   -138.4306     22.0260     24.0798     29.0156      9.2359     47.3124      0.0429      2.6992      8.7558     65.0049  
  8590.5000   -137.2049     20.3016     21.7249     16.8684      9.2371     49.2103      0.0375      2.7091      8.9734     68.0210  
  8591.0000   -137.1055     20.9093     21.0080     14.7633      9.2383     47.1447      0.0638      2.7235      8.2034     68.6848  
  8591.5000   -136.7935     21.5351     21.4970     19.3945      9.2395     43.4498      0.0495      2.7076      7.0862     67.4456  
  8592.0000   -136.0822     22.1797     21.9973     33.7569      9.2406     37.7905      0.0685      2.6998      5.4953     65.7848  
  8592.5000   -135.6977     20.8278     22.3099     32.5880      9.2418     34.4307      0.0841      2.6909      4.9309     63.6383  
  8593.0000   -135.0391     18.9654     20.5128     26.8793      9.2585     31.0708      0.0950      2.6876      5.7733     64.7792  
  8593.5000   -134.2397     16.8268     17.8880     23.0738      9.3068     31.6461      0.1007      2.7139      6.6465     64.0305  
  8594.0000   -132.8149     13.6072     14.7382     20.0861      9.3551     33.0834      0.0925      2.7168      7.8401     63.2818  
  8594.5000   -131.3827     11.0037     11.6768     23.1770      9.4034     38.0044      0.0869      2.7104     10.1828     63.5798  
  8595.0000   -129.7901      9.4262      9.2512     26.1689      9.4516     42.2721      0.0918      2.7112     13.6636     66.4393  
  8595.5000   -128.1755      9.9207      8.9892     13.4527      9.4999     45.7647      0.1006      2.7210     16.9174     72.3029  
  8596.0000   -126.6019      8.6571      7.3815      7.6729      9.5423     53.4090      0.1450      2.7439     20.3414     79.3740  
  8596.5000   -125.2752      6.1319      6.0613      4.7811      9.5140     59.3420      0.2206      2.7983     21.1477     84.6467  
  8597.0000   -124.5750      6.1651      6.1289      4.7825      9.4858     62.2297      0.2191      2.7433     18.7117     83.2780  
  8597.5000   -124.1247      6.1716      6.2752      5.9803      9.4575     62.3815      0.1462      2.6563     16.2919     78.3999  
