~VERSION INFORMATION
 VERS.                           2.00:        CWLS LOG ASCII STANDARD - VERSION 2.00
 WRAP.                             NO:        ONE LINE PER DEPTH STEP
~WELL INFORMATION
#MNEM.UNIT                   DATA             INFORMATION
#----------             --------------        ------------------------------
 STRT.F                      112.0000:        START DEPTH
 STOP.F                    10176.0000:        STOP DEPTH
 STEP.F                        0.5000:        STEP VALUE
 NULL.                      -999.2500:        NULL VALUE
 COMP.                      HUSKY OIL:        COMPANY  
 LOC .                   36  11N   4W:        LOCATION   
 DATE.                        2/16/81:        LOG DATE 
 WELL.            NORTH INIGOK TEST 1:        WELL     
 UWI .                   501032001700:        UNIQUE WELL ID 
 API .                   501032001700:        UNIQUE WELL IDENTIFIER 
 FLD .                        WILDCAT:        FIELD    
 CNTY.                    NORTH SLOPE:        COUNTY  
 STAT.                         ALASKA:        STATE   
 CTRY.                            USA:        COUNTRY 
 OPER.                      HUSKY OIL:        OPERATOR  
 SRVC.                            440:        SERVICE COMPANY 
 LAT .                         0.0000:        LATITUDE
 LON .                         0.0000:        LONGITUDE
 DIGS.                             65:        DIGITIZING COMPANY 
~CURVE INFORMATION      
#MNEM.UNIT                 API CODE           CURVE DESCRIPTION
#---------              --------------        ------------------------------
 DEPT.F                              :        1  DEPTH
 SP  .MV                             :        2
 SFL .OHMM                           :        3
 ILD .OHMM                           :        4
 ILM .OHMM                           :        5
 NPHI.%                              :        6
 CALI.IN                             :        7
 GR  .GAPI                           :        8
 RHOB.G/C3                           :        9
 DRHO.G/C3                           :       10
 DT  .US/F                           :       11
~PARAMETER INFORMATION       
#MNEM.UNIT                  VALUE             DESCRIPTION OF MNEMONIC
#---------             ---------------        ------------------------------
 EKB .F                      166.0000:        KELLY BUSHING
 TD  .F                    10167.0000:        TOTAL DEPTH
~OTHER INFORMATION
~A    DEPTH          SP         SFL         ILD         ILM        NPHI        CALI          GR        RHOB        DRHO          DT  
# ...
  8782.0000    -32.6128      4.4566      4.5357      4.3006     32.5685      8.9106    104.6326      2.5904      0.0087    104.5185  
  8782.5000    -32.3608      4.5742      4.7055      4.4662     31.2354      8.9234    106.0750      2.5934      0.0113    104.5335  
  8783.0000    -32.1687      4.6977      4.8175      4.5559     29.5724      8.9217    100.7831      2.5843      0.0103    104.2267  
  8783.5000    -32.1814      4.7322      4.9021      4.5943     28.5888      8.9201     97.2478      2.5583      0.0000    102.7797  
  8784.0000    -32.2060      4.6196      4.6683      4.4954     28.6574      8.9322    103.4271      2.5421     -0.0108    100.4598  
  8784.5000    -32.1706      4.2952      4.3562      4.2856     28.9069      8.9333    110.9685      2.5305     -0.0145     98.3413  
  8785.0000    -32.1351      3.4192      4.2047      4.0946     30.4665      8.9295    114.8742      2.5283     -0.0170     97.3761  
  8785.5000    -32.0997      2.6853      4.0443      3.8846     31.1698      8.9203    109.9434      2.5215     -0.0106     96.9059  
  8786.0000    -32.0643      2.1834      3.7170      3.5943     30.4314      8.9099    105.0115      2.4833      0.0010     96.3426  
  8786.5000    -32.0271      1.8908      3.5989      3.5172     31.2904      8.9001    100.7645      2.4590      0.0233     96.9712  
  8787.0000    -31.9859      2.3887      3.4903      3.3948     33.4286      8.9005     98.3428      2.4714      0.0688     97.6021  
  8787.5000    -31.9448      3.1356      3.3547      3.2774     35.3885      8.9220     99.0526      2.4680      0.0704     98.4159  
  8788.0000    -32.0148      3.9790      3.4634      3.3512     36.3287      8.9110    101.7529      2.4457      0.0274     99.4445  
  8788.5000    -32.3951      4.5763      3.6684      3.6166     35.7327      8.9132    100.1366      2.4976      0.0106    100.3821  
  8789.0000    -32.5097      5.0244      3.8745      3.9316     33.6713      8.9225     99.6197      2.5451      0.0020    101.1644  
  8789.5000    -32.7776      4.9163      4.0537      4.1540     32.8658      8.9082     98.0125      2.5720      0.0001    102.8375  
  8790.0000    -33.0000      4.3611      3.9937      3.9489     32.4196      8.8869    102.2917      2.5790      0.0005    102.7195  
  8790.5000    -33.4834      3.8705      3.6667      3.7119     30.8157      8.9076    105.8284      2.5695     -0.0054    101.8645  
  8791.0000    -33.6479      3.4577      3.3664      3.4891     29.5738      8.9246    107.0844      2.5592     -0.0065    100.2874  
  8791.5000    -33.8439      3.5766      3.1687      3.3191     29.3779      8.9287    106.4189      2.5609     -0.0062     99.2853  
  8792.0000    -33.8473      3.9236      3.1066      3.3135     30.3976      8.9325    106.5347      2.5608     -0.0056     98.5123  
  8792.5000    -33.8442      4.2817      3.1848      3.3913     31.2123      8.9351    108.2294      2.5665     -0.0044     98.7041  
  8793.0000    -33.6066      4.5697      3.3905      3.4710     31.7655      8.9233    107.5916      2.5593     -0.0048     99.9463  
  8793.5000    -33.5284      4.5355      3.4895      3.6877     32.0002      8.9116    104.7528      2.5441     -0.0070    101.3407  
  8794.0000    -33.7242      4.6701      3.6256      3.9177     32.1336      8.8923    108.3852      2.5413     -0.0083    102.9219  
  8794.5000    -33.9207      4.9506      3.9344      4.1541     32.5330      8.8768    113.6322      2.5445     -0.0082    103.9328  
  8795.0000    -34.0307      5.0621      4.2913      4.4048     32.1228      8.8702    110.1679      2.5442     -0.0075    104.4567  
  8795.5000    -34.0273      4.2939      4.7053      4.6722     30.3748      8.8320    108.6614      2.5455     -0.0060    104.8609  
  8796.0000    -33.8514      3.5324      4.9323      4.7124     29.6036      8.8461    105.6204      2.5438     -0.0087    104.7278  
  8796.5000    -33.6789      3.8511      4.6764      4.5988     28.5518      8.8719    101.7746      2.5360     -0.0026    104.8319  
  8797.0000    -33.4355      3.1993      4.1315      4.3069     27.8071      8.8813     99.9857      2.5269      0.0034    102.6354  
  8797.5000    -33.3012      1.5796      3.6664      3.9075     29.5939      8.9093     96.5248      2.5004      0.0163    100.1377  
  8798.0000    -33.2271      0.9592      3.2581      3.5451     31.7217      8.9576    101.5773      2.5000      0.0257     99.0075  
  8798.5000    -33.3234      0.9087      3.1884      3.2353     33.6438      8.9886    104.5343      2.4961      0.0361     99.3048  
  8799.0000    -33.4405      0.9756      3.0036      3.0841     34.6856      8.9947    104.9902      2.4724      0.0352    101.7375  
  8799.5000    -33.4804      1.1695      2.7725      3.0841     35.6164      9.0175    103.7684      2.4587      0.0246    102.4083  
  8800.0000    -33.4024      2.1220      2.9367      3.2392     37.5579      9.0408    101.8597      2.4808      0.0171    102.6866  
  8800.5000    -33.2700      3.2706      3.1222      3.4031     37.5026      9.0641    107.3272      2.5036      0.0134    103.7457  
  8801.0000    -33.2765      3.7605      3.3193      3.5752     36.6329      8.9781    106.7960      2.5221      0.0013    105.0062  
  8801.5000    -33.4286      3.0503      3.4311      3.6927     36.1998      8.8649    104.2320      2.5573     -0.0050    105.7857  
  8802.0000    -33.5524      2.0541      3.4406      3.7807     35.1720      8.8413     99.5927      2.6035     -0.0095    104.6138  
  8802.5000    -33.5918      2.2836      3.4952      3.7977     32.5706      8.8287     97.4657      2.6232      0.0108    105.6935  
  8803.0000    -33.5912      3.7566      3.6526      3.9066     30.9021      8.8395    101.9626      2.6261      0.0368    105.2529  
  8803.5000    -33.7457      5.2864      3.9261      4.1594     31.0051      8.8324    106.2520      2.5784      0.0339    102.7228  
  8804.0000    -33.9877      5.4397      4.1139      4.3838     32.9412      8.8426    110.9411      2.5560      0.0167    100.6742  
  8804.5000    -34.2786      5.3473      4.2778      4.4318     33.6005      8.8421    109.0314      2.5598     -0.0011     97.6776  
  8805.0000    -34.5557      5.2164      4.2155      4.2958     31.1912      8.8282    110.0359      2.5573     -0.0078     98.4706  
  8805.5000    -34.8528      5.0888      4.0345      4.1140     30.0389      8.8271    116.9827      2.5627     -0.0082     99.2756  
  8806.0000    -34.9131      4.9013      3.7581      4.0194     29.3795      8.8294    121.4804      2.5658     -0.0054     97.3658  
  8806.5000    -34.8616      4.7132      3.6305      3.9416     29.1460      8.8332    116.6176      2.5703     -0.0015     96.3070  
  8807.0000    -34.5802      4.7768      3.7652      3.9391     28.6858      8.8291    108.4609      2.5896      0.0044     96.5518  
  8807.5000    -34.2150      4.8732      3.6297      4.0401     28.3911      8.8447    103.3005      2.5950      0.0061     96.9018  
  8808.0000    -33.7637      4.8298      3.7440      4.0752     28.3920      8.8443    102.5240      2.5967      0.0061     97.3424  
  8808.5000    -33.3724      4.7417      3.8734      4.0352     28.6209      8.8344    101.5370      2.5925      0.0059     96.8158  
  8809.0000    -33.3079      4.3920      3.8630      3.9423     29.1979      8.8250     98.0559      2.5863      0.0005     96.4613  
  8809.5000    -33.3604      4.0167      3.6741      3.7635     29.6114      8.8444     97.2929      2.5810     -0.0052     96.5486  
  8810.0000    -33.4846      3.7836      3.4945      3.5927     28.9556      8.8428    101.5044      2.5799     -0.0081     96.9978  
  8810.5000    -33.6696      3.7269      3.3236      3.4613     28.8733      8.8382    106.6864      2.5669     -0.0104     97.4889  
  8811.0000    -33.9819      3.7503      3.1805      3.4137     29.6276      8.8670    108.4167      2.5737     -0.0054     97.7302  
  8811.5000    -34.1906      3.8491      3.1381      3.4098     30.6630      8.8660    112.4803      2.5822      0.0052     98.2998  
