~VERSION INFORMATION
 VERS.                      2.00:        CWLS LOG ASCII STANDARD - VERSION 2.00
 WRAP.                        NO:        ONE LINE PER DEPTH STEP
~WELL INFORMATION
#MNEM.UNIT               DATA            INFORMATION
#----------          ------------        ------------------------------
 STRT.F                  40.0000:        START DEPTH
 STOP.F                9893.0000:        STOP DEPTH
 STEP.F                   0.5000:        STEP VALUE
 NULL.                 -999.2500:        NULL VALUE
 COMP.                 U.S. NAVY:        COMPANY  
 WELL.    CAPE HALKETT #16N-2W-1:        WELL     
 FLD .                   WILDCAT:        FIELD    
 LOC .               5  16N   2W:        LOCATION   
 CNTY.               NORTH SLOPE:        COUNTY  
 STAT.                    ALASKA:        STATE   
 CTRY.                       USA:        COUNTRY 
 DATE.                    4/9/75:        LOG DATE 
 API .              500000000000:        UNIQUE WELL IDENTIFIER 
 OPER.                 U.S. NAVY:        OPERATOR  
 SRVC.              Schlumberger:        SERVICE COMPANY 
 UWI .              500000000000:        UNIQUE WELL ID 
 LAT .                    0.0000:        LATITUDE
 LON .                    0.0000:        LONGITUDE
 DIGS.          Center Line Data:        DIGITIZING COMPANY 
~CURVE INFORMATION      
#MNEM.UNIT            API CODE           CURVE DESCRIPTION
#---------          -------------        ------------------------------
 DEPT.F                         :        1  DEPTH
 SP  .MV                        :        2
 ILD .OHMM                      :        3
 ILM .OHMM                      :        4
 LL8 .OHMM                      :        5
 CALI.IN                        :        6
 GR  .GAPI                      :        7
 DRHO.G/C3                      :        8
 RHOB.G/C3                      :        9
 NPHI.%                         :       10
 DPHI.%                         :       11
 DT  .US/F                      :       12
~PARAMETER INFORMATION       
#MNEM.UNIT              VALUE            DESCRIPTION OF MNEMONIC
#---------          -------------        ------------------------------
 EKB .F                  39.5000:        KELLY BUSHING
 TD  .F                7867.0000:        TOTAL DEPTH
 BHT .F                  60.0000:        BOTTOM HOLE TEMPERATURE
 BS  .                   18.5000:        BIT SIZE
 FD  .                   10.5000:        FLUID DENSITY
 CSIZ.                   20.0000:        CASING SIZE
 CBD .F                 492.0000:        CASING DRILLER 1
 CBL .F                 493.0000:        CASING LOGGER 1
 DFT .             Miscellaneous:        TYPE FLUID IN HOLE
 DFV .                  200.0000:        VISCOSITY
 DFPH.                   10.0000:        PH
 DFL .                    9.2000:        FLUID LOSS
 RMS .                    2.1500:        RM
 MST .F                  57.0000:        RM MEAS. TEMP.
 RMF .                    2.2000:        RMF
 MFST.F                  40.0000:        RMF MEAS. TEMP.
 RMC .                    0.0000:        RMC
 MCST.F                   0.0000:        RMC MEAS. TEMP.
 UWI .              500000000000:        UNIQUE WELL ID
~OTHER INFORMATION
~A    DEPTH          SP         ILD         ILM         LL8        CALI          GR        DRHO        RHOB        NPHI        DPHI          DT  
# ...
  8372.5000    -48.2154      4.9879      6.0566      8.0601      9.6028     31.0384      0.0651   -999.2500     16.7297     18.2016     76.3205  
  8373.0000    -50.0443      4.7349      5.9341      7.8483      9.6024     31.7767      0.0650   -999.2500     16.6010     16.8904     74.0529  
  8373.5000    -51.8219      4.4919      5.4186      7.3914      9.6014     32.8535      0.0719   -999.2500     16.1201     16.0385     72.3486  
  8374.0000    -53.8717      4.2838      5.0563      6.9060      9.6183     33.9540      0.0786   -999.2500     15.9037     14.4342     72.7480  
  8374.5000    -55.9861      4.0875      4.7856      6.4566      9.6444     34.9188      0.0847   -999.2500     15.8406     12.8790     74.0808  
  8375.0000    -56.9946      3.9342      4.7013      6.1021      9.6601     35.3791      0.0553   -999.2500     16.0101     11.6990     72.6164  
  8375.5000    -57.6141      3.9628      4.7689      6.0462      9.6652     35.7246      0.0266   -999.2500     15.9184     11.5618     73.1023  
  8376.0000    -58.1475      3.9980      4.9237      6.3627      9.6832     36.7236      0.0202   -999.2500     15.3154     13.2303     73.4956  
  8376.5000    -58.3512      4.0568      5.1823      6.8550      9.7017     38.5789      0.0263   -999.2500     14.9488     14.5905     73.7982  
  8377.0000    -58.0118      4.1235      5.3189      8.1107      9.7429     39.6877      0.0480   -999.2500     15.0955     15.0649     74.4157  
  8377.5000    -57.5454      4.2621      5.4174      9.8614      9.7865     39.9247      0.0663   -999.2500     15.5391     15.6104     75.4695  
  8378.0000    -57.2009      4.3846      5.5468     10.5434      9.8176     39.8146      0.0644   -999.2500     16.0660     16.0753     75.9424  
  8378.5000    -56.9699      4.4864      5.6659      9.1880      9.8495     39.3930      0.0611   -999.2500     15.9835     16.4544     75.5396  
  8379.0000    -56.4438      4.6198      5.7561      8.2981      9.9293     37.8732      0.0579   -999.2500     15.6282     16.2741     74.9503  
  8379.5000    -55.7090      4.7290      5.8697      8.0097      9.9419     36.8547      0.0533   -999.2500     15.2662     16.0761     73.7345  
  8380.0000    -54.8575      4.7148      5.7555      7.8014      9.9545     35.5012      0.0454   -999.2500     15.3426     16.4538     71.9326  
  8380.5000    -54.1621      4.7069      5.6300      7.5835      9.9700     37.8003      0.0338   -999.2500     15.6682     15.3572     72.3541  
  8381.0000    -53.7079      4.7783      5.6561      7.4923      9.9909     39.7424      0.0430   -999.2500     16.0161     15.0318     73.7889  
  8381.5000    -53.3984      4.8820      5.7540      7.4200     10.0166     42.4971      0.0481   -999.2500     16.3520     13.3213     75.7830  
  8382.0000    -53.6929      4.9879      5.8613      7.4858     10.0667     45.1963      0.0618   -999.2500     16.6735     12.0876     76.8472  
  8382.5000    -54.2935      5.0821      6.0897      8.0289     10.0919     48.0672      0.0738   -999.2500     16.9405     11.9493     77.2346  
  8383.0000    -54.8643      5.1818      6.3206      8.7312     10.1221     50.3131      0.0826   -999.2500     17.1535     12.4260     76.4880  
  8383.5000    -55.0821      5.2881      6.5232      8.9940     10.1635     52.1030      0.0947   -999.2500     17.2864     12.1203     75.0388  
  8384.0000    -54.9402      5.3728      6.5670      9.1604     10.1853     48.3425      0.1025   -999.2500     17.0629     12.4891     73.4647  
  8384.5000    -54.4795      5.4320      6.6135      9.2569     10.2072     40.8963      0.1105   -999.2500     16.5079     12.8531     72.4401  
  8385.0000    -53.6769      5.4833      6.5642      8.9085     10.2275     36.8023      0.1110   -999.2500     15.5832     13.1938     72.1343  
  8385.5000    -52.7950      5.5351      6.5331      8.2587     10.2504     34.0608      0.1070   -999.2500     14.6585     13.9153     72.2189  
  8386.0000    -52.0846      5.6071      6.6041      7.7213     10.3174     33.2735      0.0973   -999.2500     14.6839     14.2342     72.5051  
  8386.5000    -51.6301      5.6232      6.7133      7.1359     10.3844     33.1263      0.0948   -999.2500     14.8548     14.9088     72.5001  
  8387.0000    -51.4560      5.6394      6.8290      7.1884     10.4294     33.7431      0.0918   -999.2500     14.6559     15.9756     71.5085  
  8387.5000    -51.6799      5.5415      6.8419      8.2281     10.4781     34.8653      0.0782   -999.2500     14.4570     17.5559     71.1816  
  8388.0000    -52.2198      5.4444      6.7873      8.9112     10.5270     39.6023      0.0589   -999.2500     14.2008     17.4702     71.0349  
  8388.5000    -52.6567      5.3490      6.7060      9.2426     10.5803     48.7609      0.0578   -999.2500     13.9213     17.2253     70.9128  
  8389.0000    -52.7882      5.2772      6.5044      9.0129     10.6517     60.6336      0.0553   -999.2500     13.9341     17.2223     71.8754  
  8389.5000    -52.9283      5.2681      6.2944      8.4068     10.7231     72.9077      0.0436   -999.2500     14.0497     16.8383     74.9694  
  8390.0000    -52.8250      5.3060      6.1713      7.7966     10.7946     92.5642      0.0326   -999.2500     15.0032     16.5856     78.2966  
  8390.5000    -52.4884      5.3048      6.0605      7.4172     10.9107    104.8841      0.0146   -999.2500     17.8575     15.0413     78.7533  
  8391.0000    -51.6190      5.2034      6.0385      7.3463     11.0727    104.7017      0.0363   -999.2500     19.8629     12.8105     75.9723  
  8391.5000    -50.6776      5.0961      6.0150      7.4412     11.2342    102.7484      0.0608   -999.2500     22.3920     10.4248     74.7983  
  8392.0000    -49.4986      4.9911      5.8110      7.6507     11.6700    100.8955      0.0719   -999.2500     23.6989      8.2800     74.2948  
  8392.5000    -46.9525      4.8900      5.5535      7.9172     11.8552     99.1172      0.0269   -999.2500     23.2966      5.4087     74.3730  
  8393.0000    -44.1970      4.8036      5.3121      7.9087     11.9835     98.5140      0.0335   -999.2500     22.4151      5.8384     74.3462  
  8393.5000    -40.9926      4.7187      5.1080      6.3294     12.0789     97.8741      0.0083   -999.2500     21.1809      4.9430     74.2986  
  8394.0000    -37.5842      4.6559      4.9407      4.6593     12.1106     97.7934      0.0022   -999.2500     21.8231      4.3280     74.1479  
  8394.5000    -33.5717      4.6313      4.9265      4.5629     12.1536     98.5152      0.0016   -999.2500     22.2593      3.8241     73.2609  
  8395.0000    -31.2943      4.6313      4.9793      4.9492     12.1962     99.2947      0.0138   -999.2500     21.8746      2.4217     72.8819  
  8395.5000    -30.0336      4.6654      5.0877      5.3356     12.2386     99.7317      0.0283   -999.2500     21.5358      3.4675     73.7864  
  8396.0000    -29.0939      4.7360      5.1051      5.7521     12.2977    100.4717      0.0229   -999.2500     21.6331      4.0339     75.0471  
  8396.5000    -28.2789      4.8332      5.1051      6.0797     12.3344    101.2363      0.0217   -999.2500     22.1646      4.3410     76.0463  
  8397.0000    -27.6391      4.9809      5.0915      5.9348     12.2534    100.0737      0.0468   -999.2500     22.8270      4.0910     77.0857  
  8397.5000    -27.0433      5.1332      5.2917      5.5046     12.0271     99.1815      0.0571   -999.2500     23.3235      3.0739     77.5965  
  8398.0000    -26.8389      5.2507      5.4907      5.3823     12.3269     97.9316      0.0646   -999.2500     23.9854      2.7296     77.4198  
  8398.5000    -26.7319      5.3087      5.5918      6.3436     12.6229     96.2760      0.0606   -999.2500     24.7365      2.6206     77.0338  
  8399.0000    -26.6912      5.3215      5.5837      6.7866     12.7180     94.5944      0.0532   -999.2500     24.6719      3.1820     76.5558  
  8399.5000    -26.7434      5.3343      5.5298      6.5362     12.7528     93.3506      0.0334   -999.2500     24.4640      3.0374     75.6903  
