~VERSION INFORMATION
 VERS.                           2.00:        CWLS LOG ASCII STANDARD - VERSION 2.00
 WRAP.                             NO:        ONE LINE PER DEPTH STEP
~WELL INFORMATION
#MNEM.UNIT                   DATA             INFORMATION
#----------             --------------        ------------------------------
 STRT.F                      112.0000:        START DEPTH
 STOP.F                    10176.0000:        STOP DEPTH
 STEP.F                        0.5000:        STEP VALUE
 NULL.                      -999.2500:        NULL VALUE
 COMP.                      HUSKY OIL:        COMPANY  
 LOC .                   36  11N   4W:        LOCATION   
 DATE.                        2/16/81:        LOG DATE 
 WELL.            NORTH INIGOK TEST 1:        WELL     
 UWI .                   501032001700:        UNIQUE WELL ID 
 API .                   501032001700:        UNIQUE WELL IDENTIFIER 
 FLD .                        WILDCAT:        FIELD    
 CNTY.                    NORTH SLOPE:        COUNTY  
 STAT.                         ALASKA:        STATE   
 CTRY.                            USA:        COUNTRY 
 OPER.                      HUSKY OIL:        OPERATOR  
 SRVC.                            440:        SERVICE COMPANY 
 LAT .                         0.0000:        LATITUDE
 LON .                         0.0000:        LONGITUDE
 DIGS.                             65:        DIGITIZING COMPANY 
~CURVE INFORMATION      
#MNEM.UNIT                 API CODE           CURVE DESCRIPTION
#---------              --------------        ------------------------------
 DEPT.F                              :        1  DEPTH
 SP  .MV                             :        2
 SFL .OHMM                           :        3
 ILD .OHMM                           :        4
 ILM .OHMM                           :        5
 NPHI.%                              :        6
 CALI.IN                             :        7
 GR  .GAPI                           :        8
 RHOB.G/C3                           :        9
 DRHO.G/C3                           :       10
 DT  .US/F                           :       11
~PARAMETER INFORMATION       
#MNEM.UNIT                  VALUE             DESCRIPTION OF MNEMONIC
#---------             ---------------        ------------------------------
 EKB .F                      166.0000:        KELLY BUSHING
 TD  .F                    10167.0000:        TOTAL DEPTH
~OTHER INFORMATION
~A    DEPTH          SP         SFL         ILD         ILM        NPHI        CALI          GR        RHOB        DRHO          DT  
# ...
  2782.0000    -57.5504      4.3784      5.8491      6.3829     48.7966     17.1401     85.9173      2.2161      0.0729    113.2584  
  2782.5000    -64.2736      5.3777      6.1050      6.9903     48.9264     17.0662     85.4172      2.1813      0.0520    111.6245  
  2783.0000    -70.9752      7.4149      6.3113      7.6955     50.0217     17.0093     84.5351      2.1682      0.0338    114.7429  
  2783.5000    -76.1558     10.2240      6.5242      8.3921     50.6060     17.0196     83.2774      2.1502      0.0376    119.5278  
  2784.0000    -79.9985     12.9490      6.7443      8.5834     51.7265     16.8572     80.6058      2.1544      0.0516    123.7057  
  2784.5000    -83.6224     13.1715      6.9542      8.8085     52.7416     16.9061     79.3625      2.1439      0.0461    125.6853  
  2785.0000    -85.9101     13.1661      7.0767      8.9935     52.8374     17.0243     78.1085      2.1356      0.0500    125.5555  
  2785.5000    -86.7159     13.0728      7.0221      9.0767     51.7170     17.3195     73.9281      2.1348      0.0447    120.2301  
  2786.0000    -87.8069     13.0379      6.7935      9.0931     49.3596     17.1192     68.7577      2.1683      0.0700    111.7950  
  2786.5000    -88.7522     13.0692      6.6643      8.9530     48.3403     16.6154     63.0709      2.1836      0.0607    103.7684  
  2787.0000    -88.9086     13.1492      6.5181      8.9312     47.7618     16.1386     58.4005      2.2110      0.0220     95.1322  
  2787.5000    -88.7635     13.3079      6.1855      8.8725     47.2212     16.0946     55.8586      2.2429      0.0367     91.5384  
  2788.0000    -88.4371     13.4468      6.3288      8.8142     47.2803     16.1232     55.6631      2.2605      0.0389     93.3124  
  2788.5000    -88.1783     13.4828      6.3190      8.7564     47.7768     16.1237     55.6283      2.2650      0.0320     94.9007  
  2789.0000    -88.2057     13.5052      6.3091      8.6989     45.9017     16.1241     55.1295      2.2402      0.0178     95.8932  
  2789.5000    -87.8117     13.5285      6.2993      8.6417     44.4707     16.1249     54.4266      2.2201      0.0120     96.8630  
  2790.0000    -89.3369     13.5285      6.2895      8.5850     42.8923     16.1267     54.1609      2.2103      0.0194     97.7073  
  2790.5000    -88.0590     13.4239      6.1453      8.5701     42.5424     16.1285     53.7877      2.1962      0.0257     97.0509  
  2791.0000    -87.9137     13.2006      6.2697      8.4849     43.4694     16.1318     52.3193      2.1910      0.0220     96.9966  
  2791.5000    -88.1129     12.9801      6.2209      8.4701     43.9698     16.1365     51.1741      2.1885      0.0163     97.2300  
  2792.0000    -88.2740     12.8797      6.2183      8.4361     43.0034     16.1390     51.7094      2.1951      0.0194     97.7959  
  2792.5000    -89.1128     12.8819      6.2745      8.4488     41.9797     16.1231     52.9194      2.2014      0.0246     98.7678  
  2793.0000    -89.9609     12.9317      6.2394      8.4692     39.6300     16.1338     54.0894      2.2146      0.0284     99.1915  
  2793.5000    -90.8186     12.9612      6.1746      8.4807     39.4857     16.1401     54.5615      2.2332      0.0341     98.7295  
  2794.0000    -91.2661     12.9440      6.1857      8.3777     40.6348     16.1562     55.2549      2.2411      0.0272     98.1867  
  2794.5000    -92.0287     12.9206      6.2722      8.3943     42.1688     16.1738     56.3852      2.2426      0.0225     97.8408  
  2795.0000    -93.7053     12.9419      6.1415      8.4109     43.7515     16.1750     58.2782      2.2382      0.0271     97.9782  
  2795.5000    -97.1811     12.9944      6.0637      8.4141     44.8796     16.1669     58.8060      2.2356      0.0282     98.7293  
  2796.0000    -99.6324     13.0428      6.3203      8.4193     44.3979     16.1723     56.9531      2.2308      0.0241     99.0517  
  2796.5000    -97.3909     13.1084      6.1849      8.4398     43.3016     16.1768     55.7086      2.2396      0.0262     99.0960  
  2797.0000    -96.0394     13.1558      6.2284      8.4496     43.1423     16.1718     56.1887      2.2467      0.0335     99.1403  
  2797.5000    -95.8282     13.2271      6.2721      8.6396     44.2717     16.1781     56.4300      2.2409      0.0369     99.1846  
  2798.0000    -95.7824     13.3093      6.3162      8.6260     45.4922     16.1730     55.2863      2.2304      0.0419     99.2143  
  2798.5000    -96.7503     13.3588      6.3605      8.6477     45.0446     16.1678     53.3022      2.2229      0.0341     99.1545  
  2799.0000    -97.6562     13.3522      6.4052      8.6723     44.4330     16.1713     52.7954      2.2165      0.0281     99.0947  
  2799.5000    -97.9378     13.3358      6.4502      8.6187     43.8194     16.1823     53.1518      2.2100      0.0248     99.0350  
  2800.0000    -97.3508     13.3451      6.4955      8.5112     43.9643     16.1732     54.1410      2.2109      0.0234     98.9752  
  2800.5000    -96.6404     13.3892      6.5411      8.5982     44.0111     16.1694     54.4672      2.2261      0.0316     98.9154  
  2801.0000    -97.6104     13.3928      6.7462      8.6874     43.4087     16.1684     53.9772      2.2119      0.0192     98.7697  
  2801.5000    -99.9366     13.3717      6.7086      8.7325     42.7980     16.1674     53.7849      2.2045      0.0164     98.6912  
  2802.0000   -100.1210     13.3836      6.6712      8.7959     42.8505     16.1665     54.4450      2.2158      0.0229     98.3922  
  2802.5000   -100.1787     13.4220      6.6340      8.8705     42.8525     16.1655     55.1771      2.2364      0.0290     98.0669  
  2803.0000   -100.2364     13.4677      6.6698      8.9558     42.3254     16.1645     54.6641      2.2492      0.0326     97.7161  
  2803.5000   -100.2941     13.4913      6.7940      9.0160     42.4282     16.1630     53.4592      2.2574      0.0369     97.2440  
  2804.0000   -100.3517     13.5115      6.8186      9.0772     42.4096     16.1639     52.6665      2.2638      0.0489     97.1381  
  2804.5000    -99.9473     13.6019      6.8651      9.1388     42.5054     16.1672     53.0402      2.2604      0.0408     97.4036  
  2805.0000    -99.4496     13.6207      6.9709      9.2009     42.9239     16.1631     54.0386      2.2624      0.0403     97.3880  
  2805.5000    -98.5647     13.5673      6.9719      9.2634     42.3329     16.1589     55.0680      2.2522      0.0449     97.5520  
  2806.0000    -98.0528     13.4733      7.0249      9.3263     41.4455     16.1559     56.0120      2.2399      0.0440     97.9715  
  2806.5000    -97.6935     13.3876      7.0784      9.3896     41.5377     16.1620     56.9512      2.2475      0.0407     98.2994  
  2807.0000    -97.1181     13.3690      7.1322      9.4533     41.3421     16.1515     57.5177      2.2379      0.0345     98.4655  
  2807.5000    -97.1285     13.3975      7.1894      9.5285     40.8430     16.1619     57.7340      2.2355      0.0345     98.2515  
  2808.0000    -96.4036     13.4963      7.6552      9.6172     40.5995     16.1553     57.4236      2.2447      0.0440     97.7978  
  2808.5000    -93.7100     13.6462      7.7595      9.7064     40.3868     16.1557     56.7272      2.2374      0.0298     97.2984  
  2809.0000    -91.4492     13.7766      7.6961      9.7498     40.9490     16.1519     55.5751      2.2270      0.0161     96.8458  
  2809.5000    -88.7656     13.9125      7.7588      9.7065     41.7169     16.1583     55.0337      2.2335      0.0184     96.7259  
  2810.0000    -84.4681     14.0752      7.6638      9.0307     42.6363     16.1063     56.1820      2.2589      0.0275     96.1700  
  2810.5000    -79.3671     14.1226      7.5700      8.6545     42.8390     16.1558     55.8645      2.2761      0.0365     96.2094  
  2811.0000    -73.6184     13.4504      7.4773      8.1735     43.2224     16.0811     55.7473      2.2832      0.0436     96.5333  
  2811.5000    -67.7371     11.0111      7.3708      7.7414     43.9235     16.1106     56.2922      2.2544      0.0237     97.0412  
