~VERSION INFORMATION
 VERS.                           2.00:        CWLS LOG ASCII STANDARD - VERSION 2.00
 WRAP.                             NO:        ONE LINE PER DEPTH STEP
~WELL INFORMATION
#MNEM.UNIT                   DATA             INFORMATION
#----------             --------------        ------------------------------
 STRT.F                      102.0000:        START DEPTH
 STOP.F                     5878.0000:        STOP DEPTH
 STEP.F                        0.5000:        STEP VALUE
 NULL.                      -999.2500:        NULL VALUE
 COMP. USGS/NPR-A HUSKY OIL OPERATION:        COMPANY  
 LOC .                   27   5N  11W:        LOCATION   
 DATE.                        3/26/81:        LOG DATE 
 WELL.                    KOLUKTAK #1:        WELL     
 UWI .                   501192000100:        UNIQUE WELL ID 
 API .                   501192000100:        UNIQUE WELL IDENTIFIER 
 FLD .                        WILDCAT:        FIELD    
 CNTY.                       N. SLOPE:        COUNTY  
 STAT.                         ALASKA:        STATE   
 CTRY.                            USA:        COUNTRY 
 OPER. USGS/NPR-A HUSKY OIL OPERATION:        OPERATOR  
 SRVC.                            440:        SERVICE COMPANY 
 LAT .                         0.0000:        LATITUDE
 LON .                         0.0000:        LONGITUDE
 DIGS.                             65:        DIGITIZING COMPANY 
~CURVE INFORMATION      
#MNEM.UNIT                 API CODE           CURVE DESCRIPTION
#---------              --------------        ------------------------------
 DEPT.F                              :        1  DEPTH
 SP  .MV                             :        2
 ILD .OHMM                           :        3
 ILM .OHMM                           :        4
 LL8 .OHMM                           :        5
 MSFL.OHMM                           :        6
 LLS .OHMM                           :        7
 LLD .OHMM                           :        8
 CALI.IN                             :        9
 RHOB.G/C3                           :       10
 DRHO.G/C3                           :       11
 NPHI.%                              :       12
 GR  .GAPI                           :       13
 DT  .US/F                           :       14
~PARAMETER INFORMATION       
#MNEM.UNIT                  VALUE             DESCRIPTION OF MNEMONIC
#---------             ---------------        ------------------------------
 EKB .F                      205.0000:        KELLY BUSHING
 TD  .F                     5883.0000:        TOTAL DEPTH
~OTHER INFORMATION
~A    DEPTH          SP         ILD         ILM         LL8        MSFL         LLS         LLD        CALI        RHOB        DRHO        NPHI          GR          DT  
# ...
  5070.0000   -999.2500   -999.2500   -999.2500   -999.2500      1.1323     10.1944     10.9907     12.6752      2.5480      0.0156     35.5860     70.5991     91.7963  
  5070.5000   -999.2500   -999.2500   -999.2500   -999.2500      1.1146     10.1762     10.9892     12.6825      2.5535      0.0133     35.3182     71.5915     92.1000  
  5071.0000   -999.2500   -999.2500   -999.2500   -999.2500      1.0480     10.0136     10.8414     12.7170      2.5587      0.0143     34.5444     71.6640     92.7952  
  5071.5000   -999.2500   -999.2500   -999.2500   -999.2500      0.9587      9.8720     10.6683     12.7036      2.5577      0.0173     33.9216     71.1178     93.5108  
  5072.0000   -999.2500   -999.2500   -999.2500   -999.2500      0.8201      9.7704     10.5399     12.6605      2.5528      0.0203     33.5906     70.9292     93.1889  
  5072.5000   -999.2500   -999.2500   -999.2500   -999.2500      0.6935      9.7026     10.4667     12.6286      2.5545      0.0206     33.5309     72.2067     93.7540  
  5073.0000   -999.2500   -999.2500   -999.2500   -999.2500      0.6728      9.6352     10.3941     12.5972      2.5559      0.0182     33.6688     73.5290     93.9598  
  5073.5000   -999.2500   -999.2500   -999.2500   -999.2500      0.6634      9.5684     10.3220     12.6136      2.5560      0.0159     34.0916     73.4192     93.9351  
  5074.0000   -999.2500   -999.2500   -999.2500   -999.2500      0.6680      9.4873     10.2396     12.5974      2.5653      0.0116     34.3965     71.6683     93.5005  
  5074.5000   -999.2500   -999.2500   -999.2500   -999.2500      0.7580      9.4043     10.1500     12.5319      2.5611      0.0073     34.3831     70.3692     93.2799  
  5075.0000   -999.2500   -999.2500   -999.2500   -999.2500      1.0262      9.3454     10.0842     12.3787      2.5544      0.0031     34.2105     70.4199     92.9717  
  5075.5000   -999.2500   -999.2500   -999.2500   -999.2500      1.3885      9.4213     10.1661     12.1759      2.5390     -0.0012     34.8501     71.4643     92.7361  
  5076.0000   -999.2500   -999.2500   -999.2500   -999.2500      1.1334      9.5466     10.3832     12.3269      2.5378     -0.0055     35.6574     73.6290     92.7956  
  5076.5000   -999.2500   -999.2500   -999.2500   -999.2500      0.8834      9.6473     10.4526     12.5703      2.5273     -0.0073     35.5944     74.7515     93.4022  
  5077.0000   -999.2500   -999.2500   -999.2500   -999.2500      0.7266      9.4800     10.2713     12.6290      2.5246     -0.0084     35.2926     75.0436     93.9600  
  5077.5000   -999.2500   -999.2500   -999.2500   -999.2500      0.6606      9.3653     10.0943     12.5090      2.5299     -0.0077     35.0979     75.2420     94.6187  
  5078.0000   -999.2500   -999.2500   -999.2500   -999.2500      0.5849      9.3588     10.0874     12.2512      2.5399     -0.0070     35.0531     74.5136     94.5379  
  5078.5000   -999.2500   -999.2500   -999.2500   -999.2500      0.6791      9.3524     10.0804     12.3029      2.5440     -0.0063     35.2654     72.2193     93.5472  
  5079.0000   -999.2500   -999.2500   -999.2500   -999.2500      0.7479      9.4108     10.1606     12.7291      2.5457     -0.0054     35.4301     71.7224     93.0760  
  5079.5000   -999.2500   -999.2500   -999.2500   -999.2500      0.7444      9.5049     10.2653     12.6971      2.5567     -0.0038     35.3002     73.0651     93.2768  
  5080.0000   -999.2500   -999.2500   -999.2500   -999.2500      0.7293      9.6116     10.3826     12.6915      2.5648      0.0016     34.6218     74.4535     92.7103  
  5080.5000   -999.2500   -999.2500   -999.2500   -999.2500      0.8494      9.7215     10.5014     12.2747      2.5675      0.0051     33.8861     72.7735     91.8762  
  5081.0000   -999.2500   -999.2500   -999.2500   -999.2500      0.9734      9.8302     10.6154     11.5507      2.5774      0.0085     33.2715     72.1242     91.3087  
  5081.5000   -999.2500   -999.2500   -999.2500   -999.2500      1.1689      9.9338     10.7272     11.6869      2.5791      0.0119     33.2431     71.5211     91.1314  
  5082.0000   -999.2500   -999.2500   -999.2500   -999.2500      1.4565      9.8105     10.6409     12.0458      2.5831      0.0121     33.2402     70.8571     91.5185  
  5082.5000   -999.2500   -999.2500   -999.2500   -999.2500      2.3586      9.6609     10.4552     11.9599      2.5605      0.0103     32.9779     71.1051     91.8333  
  5083.0000   -999.2500   -999.2500   -999.2500   -999.2500      3.3172      9.5136     10.2959     11.9347      2.5420      0.0081     32.6546     73.2126     92.5089  
  5083.5000   -999.2500   -999.2500   -999.2500   -999.2500      3.2441      9.3685     10.1391     12.2812      2.5452      0.0058     32.6928     76.5940     94.2353  
  5084.0000   -999.2500   -999.2500   -999.2500   -999.2500      2.7481      9.2257      9.9847     12.0399      2.5583      0.0035     33.2758     79.0504     95.4296  
  5084.5000   -999.2500   -999.2500   -999.2500   -999.2500      2.1949      9.1180      9.8389     12.0377      2.5552      0.0012     34.4023     78.9572     95.5586  
  5085.0000   -999.2500   -999.2500   -999.2500   -999.2500      1.8741      9.0463      9.7615     11.9055      2.5559     -0.0011     34.8807     78.3327     95.3096  
  5085.5000   -999.2500   -999.2500   -999.2500   -999.2500      1.6817      9.0420      9.6847     11.3852      2.5599     -0.0033     34.7592     78.2467     94.8398  
  5086.0000   -999.2500   -999.2500   -999.2500   -999.2500      1.8791      9.0514      9.6086     11.5316      2.5560     -0.0050     34.3619     79.8948     94.7661  
  5086.5000   -999.2500   -999.2500   -999.2500   -999.2500      2.1171      9.0608      9.5383     11.7312      2.5516     -0.0066     34.3319     81.2100     94.7775  
  5087.0000   -999.2500   -999.2500   -999.2500   -999.2500      2.4796      9.0702      9.4813     11.4112      2.5479     -0.0062     34.1646     80.2104     95.2763  
  5087.5000   -999.2500   -999.2500   -999.2500   -999.2500      2.7448      9.0796      9.4247     11.5694      2.5479     -0.0042     34.0937     78.0577     95.8545  
  5088.0000   -999.2500   -999.2500   -999.2500   -999.2500      2.8337      9.0890      9.3932     11.9916      2.5492     -0.0023     34.0064     77.2933     96.2876  
  5088.5000   -999.2500   -999.2500   -999.2500   -999.2500      2.4546      8.9319      9.4449     12.3462      2.5494      0.0008     34.2585     75.7157     96.2666  
  5089.0000   -999.2500   -999.2500   -999.2500   -999.2500      2.2611      8.7113      9.4969     12.5540      2.5494      0.0062     34.6607     73.3395     96.3353  
  5089.5000   -999.2500   -999.2500   -999.2500   -999.2500      2.2779      8.5032      9.5492     12.8464      2.5492      0.0115     35.1398     72.5838     95.9787  
  5090.0000   -999.2500   -999.2500   -999.2500   -999.2500      2.3970      8.5864      9.5996     12.6489      2.5545      0.0168     35.5766     73.7927     95.7376  
  5090.5000   -999.2500   -999.2500   -999.2500   -999.2500      2.8041      8.5122      9.6187     12.4536      2.5642      0.0215     34.8967     75.4749     95.5252  
  5091.0000   -999.2500   -999.2500   -999.2500   -999.2500      3.3645      8.4387      9.6354     12.0065      2.5587      0.0171     34.4301     77.1447     95.3204  
  5091.5000   -999.2500   -999.2500   -999.2500   -999.2500      3.6586      8.3657      9.6522     12.1580      2.5519      0.0092     33.6231     79.8957     95.4098  
  5092.0000   -999.2500   -999.2500   -999.2500   -999.2500      3.5281      8.3744      9.6690     12.0733      2.5040      0.0000     33.4283     82.3285     95.1311  
  5092.5000   -999.2500   -999.2500   -999.2500   -999.2500      2.8980      8.4099      9.6858     12.0438      2.4568      0.0086     33.0515     82.9441     94.5398  
  5093.0000   -999.2500   -999.2500   -999.2500   -999.2500      2.5945      8.4456      9.7026     12.2709      2.4157      0.0372     32.4726     83.0079     93.6462  
  5093.5000   -999.2500   -999.2500   -999.2500   -999.2500      2.6676      8.6349      9.7195     12.4981      2.3995      0.0658     32.3676     82.9233     93.2288  
