~VERSION INFORMATION
 VERS.                           2.00:        CWLS LOG ASCII STANDARD - VERSION 2.00
 WRAP.                             NO:        ONE LINE PER DEPTH STEP
~WELL INFORMATION
#MNEM.UNIT                   DATA             INFORMATION
#----------             --------------        ------------------------------
 STRT.F                      102.0000:        START DEPTH
 STOP.F                     5878.0000:        STOP DEPTH
 STEP.F                        0.5000:        STEP VALUE
 NULL.                      -999.2500:        NULL VALUE
 COMP. USGS/NPR-A HUSKY OIL OPERATION:        COMPANY  
 LOC .                   27   5N  11W:        LOCATION   
 DATE.                        3/26/81:        LOG DATE 
 WELL.                    KOLUKTAK #1:        WELL     
 UWI .                   501192000100:        UNIQUE WELL ID 
 API .                   501192000100:        UNIQUE WELL IDENTIFIER 
 FLD .                        WILDCAT:        FIELD    
 CNTY.                       N. SLOPE:        COUNTY  
 STAT.                         ALASKA:        STATE   
 CTRY.                            USA:        COUNTRY 
 OPER. USGS/NPR-A HUSKY OIL OPERATION:        OPERATOR  
 SRVC.                            440:        SERVICE COMPANY 
 LAT .                         0.0000:        LATITUDE
 LON .                         0.0000:        LONGITUDE
 DIGS.                             65:        DIGITIZING COMPANY 
~CURVE INFORMATION      
#MNEM.UNIT                 API CODE           CURVE DESCRIPTION
#---------              --------------        ------------------------------
 DEPT.F                              :        1  DEPTH
 SP  .MV                             :        2
 ILD .OHMM                           :        3
 ILM .OHMM                           :        4
 LL8 .OHMM                           :        5
 MSFL.OHMM                           :        6
 LLS .OHMM                           :        7
 LLD .OHMM                           :        8
 CALI.IN                             :        9
 RHOB.G/C3                           :       10
 DRHO.G/C3                           :       11
 NPHI.%                              :       12
 GR  .GAPI                           :       13
 DT  .US/F                           :       14
~PARAMETER INFORMATION       
#MNEM.UNIT                  VALUE             DESCRIPTION OF MNEMONIC
#---------             ---------------        ------------------------------
 EKB .F                      205.0000:        KELLY BUSHING
 TD  .F                     5883.0000:        TOTAL DEPTH
~OTHER INFORMATION
~A    DEPTH          SP         ILD         ILM         LL8        MSFL         LLS         LLD        CALI        RHOB        DRHO        NPHI          GR          DT  
# ...
  1254.0000    -49.2720     11.1919     17.6324     18.6231   -999.2500   -999.2500   -999.2500     13.1126      2.5378      0.0166     34.4830     82.3346     96.7240  
  1254.5000    -49.5256     10.3666     17.1358     17.6435   -999.2500   -999.2500   -999.2500     13.0794      2.5446      0.0163     35.2447     86.6578     96.2346  
  1255.0000    -49.3338     10.0153     16.0847     16.5998   -999.2500   -999.2500   -999.2500     13.0449      2.5457      0.0138     36.0063     87.3093     96.3467  
  1255.5000    -49.1420      9.6758     14.9241     15.6250   -999.2500   -999.2500   -999.2500     12.9922      2.5475      0.0090     36.3895     85.7583     97.2366  
  1256.0000    -48.9502      9.3479     13.8473     14.4182   -999.2500   -999.2500   -999.2500     12.9529      2.5569      0.0144     37.0837     83.4017     98.6130  
  1256.5000    -48.4700      9.0311     12.8819     13.3193   -999.2500   -999.2500   -999.2500     12.9723      2.5677      0.0245     38.0618     85.5842    101.2182  
  1257.0000    -47.8992      8.7250     12.0405     12.5324   -999.2500   -999.2500   -999.2500     12.9927      2.5720      0.0173     39.0620     88.3671    103.9361  
  1257.5000    -47.0582      8.4293     11.2540     11.8000   -999.2500   -999.2500   -999.2500     13.0180      2.5698      0.0050     40.3250     90.7367    106.1517  
  1258.0000    -45.5730      8.1436     10.5189     11.1105   -999.2500   -999.2500   -999.2500     13.0595      2.5522      0.0160     41.4804     93.6626    110.1024  
  1258.5000    -44.8840      7.8676      9.9399     10.6321   -999.2500   -999.2500   -999.2500     13.1036      2.5153      0.0253     42.6358     95.7540    113.0608  
  1259.0000    -45.4391      7.6009      9.5954     10.7734   -999.2500   -999.2500   -999.2500     13.1477      2.5092      0.0423     43.5075     96.8068    114.4073  
  1259.5000    -46.5136      7.3709      9.2815     11.1138   -999.2500   -999.2500   -999.2500     13.1990      2.5261      0.0642     44.1034     97.4806    115.1566  
  1260.0000    -48.1434      7.4113      9.1363     10.6924   -999.2500   -999.2500   -999.2500     13.1809      2.4927      0.0381     44.6993    100.0695    115.2392  
  1260.5000    -50.1828      7.6441      9.2435     10.1559   -999.2500   -999.2500   -999.2500     13.1560      2.4553      0.0184     44.6293    101.6771    114.7486  
  1261.0000    -53.1743      8.0364      9.5742     10.0619   -999.2500   -999.2500   -999.2500     13.1476      2.4328      0.0107     43.6513    100.1760    114.2565  
  1261.5000    -57.0706      8.4489     11.8045     10.6913   -999.2500   -999.2500   -999.2500     13.1405      2.4400      0.0171     42.3299     95.0784    112.7746  
  1262.0000    -61.7237      8.8825     14.0673     14.8432   -999.2500   -999.2500   -999.2500     13.1246      2.4463      0.0389     41.0085     86.7116    108.6847  
  1262.5000    -66.5766      9.3384     15.7424     28.5574   -999.2500   -999.2500   -999.2500     13.0375      2.4161      0.0340     38.5214     78.6415    105.6505  
  1263.0000    -69.9402      9.8176     16.4757     30.5091   -999.2500   -999.2500   -999.2500     12.9377      2.3916      0.0267     35.8535     70.7114    103.8422  
  1263.5000    -72.6839     10.1514     16.7251     26.9454   -999.2500   -999.2500   -999.2500     12.8378      2.3863      0.0265     33.1857     59.4054    103.5763  
  1264.0000    -76.1616     10.2120     16.6711     23.0183   -999.2500   -999.2500   -999.2500     12.7379      2.3763      0.0247     31.3212     46.2962    106.3263  
  1264.5000    -77.5680     10.2729     16.3021     19.6636   -999.2500   -999.2500   -999.2500     12.6380      2.3241      0.0203     29.7860     34.3603    110.7329  
  1265.0000    -78.0686     10.2424     15.7260     16.7978   -999.2500   -999.2500   -999.2500     12.6176      2.2880      0.0139     28.2509     30.8254    112.2107  
  1265.5000    -78.4153     10.1235     15.1703     16.0965   -999.2500   -999.2500   -999.2500     12.6160      2.2798      0.0158     27.2595     29.2423    114.3189  
  1266.0000    -79.7054     10.0059     14.6353     15.5050   -999.2500   -999.2500   -999.2500     12.6144      2.2687      0.0264     27.6051     27.9913    117.1674  
  1266.5000    -80.8277      9.8898     14.1724     15.0508   -999.2500   -999.2500   -999.2500     12.6128      2.2791      0.0389     27.9320     26.8384    121.2875  
  1267.0000    -81.2792      9.7749     14.0116     14.8343   -999.2500   -999.2500   -999.2500     12.6052      2.2761      0.0464     28.2589     25.7197    124.8320  
  1267.5000    -82.2319      9.6614     14.1638     15.0196   -999.2500   -999.2500   -999.2500     12.5971      2.2700      0.0461     28.6714     24.9004    126.2328  
  1268.0000    -83.8695      9.5492     14.4443     15.9183   -999.2500   -999.2500   -999.2500     12.5889      2.2806      0.0474     29.1214     25.2803    124.0579  
  1268.5000    -84.1422      9.4807     14.7871     16.7013   -999.2500   -999.2500   -999.2500     12.5989      2.2675      0.0311     29.5713     26.2285    120.1864  
  1269.0000    -83.6888      9.4851     15.1632     17.5228   -999.2500   -999.2500   -999.2500     12.6195      2.2629      0.0220     30.1829     27.0024    115.9864  
  1269.5000    -83.6950      9.4894     15.5490     18.3847   -999.2500   -999.2500   -999.2500     12.6147      2.2700      0.0256     30.1519     28.1229    111.9568  
  1270.0000    -83.4314      9.5640     15.9446     19.0514   -999.2500   -999.2500   -999.2500     12.6101      2.2820      0.0371     30.1209     29.5268    110.7065  
  1270.5000    -83.0478      9.6394     16.3502     19.3979   -999.2500   -999.2500   -999.2500     12.6049      2.2918      0.0303     30.0650     30.3471    109.8641  
  1271.0000    -81.9635      9.7155     16.7661     19.6077   -999.2500   -999.2500   -999.2500     12.6045      2.2924      0.0298     29.9133     30.6135    109.4996  
  1271.5000    -80.5081      9.7921     17.1793     19.5498   -999.2500   -999.2500   -999.2500     12.6015      2.3069      0.0397     29.9266     30.7147    108.9025  
  1272.0000    -80.2432      9.8694     17.2496     19.6064   -999.2500   -999.2500   -999.2500     12.6083      2.3180      0.0507     30.5527     31.4509    107.8170  
  1272.5000    -80.1794      9.9472     17.3202     19.7483   -999.2500   -999.2500   -999.2500     12.6141      2.3254      0.0576     30.8326     33.5190    106.8420  
  1273.0000    -80.3892     10.0257     17.3911     19.8913   -999.2500   -999.2500   -999.2500     12.6179      2.3245      0.0490     30.7857     35.3197    106.3440  
  1273.5000    -80.5779     10.1048     17.4623     20.1568   -999.2500   -999.2500   -999.2500     12.6056      2.3126      0.0418     30.7388     36.6543    106.4188  
  1274.0000    -80.9258     10.1352     17.6024     20.6293   -999.2500   -999.2500   -999.2500     12.5742      2.3074      0.0451     30.4398     37.4030    105.9761  
  1274.5000    -82.6800     10.1375     17.6652     21.0366   -999.2500   -999.2500   -999.2500     12.5333      2.3030      0.0396     29.9803     36.4263    105.3887  
  1275.0000    -83.4288     10.1399     17.6953     20.9327   -999.2500   -999.2500   -999.2500     12.6497      2.3022      0.0400     29.5209     35.2560    105.0753  
  1275.5000    -83.6205     10.1422     17.6314     20.7396   -999.2500   -999.2500   -999.2500     12.6249      2.2986      0.0288     29.1745     34.8698    104.8319  
  1276.0000    -83.8694     10.1347     17.5677     20.4048   -999.2500   -999.2500   -999.2500     12.5944      2.2943      0.0313     29.2727     35.2552    105.0358  
  1276.5000    -83.3197     10.1190     17.5391     20.2131   -999.2500   -999.2500   -999.2500     12.5903      2.2904      0.0188     29.3695     35.5574    105.9936  
  1277.0000    -82.5799     10.1684     17.5181     20.0783   -999.2500   -999.2500   -999.2500     12.5967      2.2914      0.0130     29.4662     35.2636    107.6011  
  1277.5000    -81.5126     10.3521     17.4970     20.0763   -999.2500   -999.2500   -999.2500     12.5509      2.2925      0.0159     29.9923     34.3850    108.3767  
