~VERSION INFORMATION
 VERS.                           2.00:        CWLS LOG ASCII STANDARD - VERSION 2.00
 WRAP.                             NO:        ONE LINE PER DEPTH STEP
~WELL INFORMATION
#MNEM.UNIT                   DATA             INFORMATION
#----------             --------------        ------------------------------
 STRT.F                      102.0000:        START DEPTH
 STOP.F                     5878.0000:        STOP DEPTH
 STEP.F                        0.5000:        STEP VALUE
 NULL.                      -999.2500:        NULL VALUE
 COMP. USGS/NPR-A HUSKY OIL OPERATION:        COMPANY  
 LOC .                   27   5N  11W:        LOCATION   
 DATE.                        3/26/81:        LOG DATE 
 WELL.                    KOLUKTAK #1:        WELL     
 UWI .                   501192000100:        UNIQUE WELL ID 
 API .                   501192000100:        UNIQUE WELL IDENTIFIER 
 FLD .                        WILDCAT:        FIELD    
 CNTY.                       N. SLOPE:        COUNTY  
 STAT.                         ALASKA:        STATE   
 CTRY.                            USA:        COUNTRY 
 OPER. USGS/NPR-A HUSKY OIL OPERATION:        OPERATOR  
 SRVC.                            440:        SERVICE COMPANY 
 LAT .                         0.0000:        LATITUDE
 LON .                         0.0000:        LONGITUDE
 DIGS.                             65:        DIGITIZING COMPANY 
~CURVE INFORMATION      
#MNEM.UNIT                 API CODE           CURVE DESCRIPTION
#---------              --------------        ------------------------------
 DEPT.F                              :        1  DEPTH
 SP  .MV                             :        2
 ILD .OHMM                           :        3
 ILM .OHMM                           :        4
 LL8 .OHMM                           :        5
 MSFL.OHMM                           :        6
 LLS .OHMM                           :        7
 LLD .OHMM                           :        8
 CALI.IN                             :        9
 RHOB.G/C3                           :       10
 DRHO.G/C3                           :       11
 NPHI.%                              :       12
 GR  .GAPI                           :       13
 DT  .US/F                           :       14
~PARAMETER INFORMATION       
#MNEM.UNIT                  VALUE             DESCRIPTION OF MNEMONIC
#---------             ---------------        ------------------------------
 EKB .F                      205.0000:        KELLY BUSHING
 TD  .F                     5883.0000:        TOTAL DEPTH
~OTHER INFORMATION
~A    DEPTH          SP         ILD         ILM         LL8        MSFL         LLS         LLD        CALI        RHOB        DRHO        NPHI          GR          DT  
# ...
  4686.0000   -999.2500   -999.2500   -999.2500   -999.2500      2.9209     10.9488     11.8040     13.9829      2.4964      0.0255     33.6789     68.9586     89.5439  
  4686.5000   -999.2500   -999.2500   -999.2500   -999.2500      3.5196     10.9163     11.7686     13.6042      2.5028      0.0318     32.9677     70.7093     89.3503  
  4687.0000   -999.2500   -999.2500   -999.2500   -999.2500      3.9216     10.9153     11.7714     13.7487      2.5017      0.0351     32.5687     71.4304     89.3043  
  4687.5000   -999.2500   -999.2500   -999.2500   -999.2500      3.8677     10.9713     11.8675     14.2389      2.4757      0.0216     32.2546     70.1244     88.7443  
  4688.0000   -999.2500   -999.2500   -999.2500   -999.2500      3.5830     11.1360     12.0550     13.8861      2.4503      0.0158     32.4548     67.0993     88.5416  
  4688.5000   -999.2500   -999.2500   -999.2500   -999.2500      3.2978     11.3120     12.2454     13.8668      2.4300      0.0099     32.8787     65.2206     88.1924  
  4689.0000   -999.2500   -999.2500   -999.2500   -999.2500      3.0734     11.4908     12.4262     13.9793      2.4255      0.0187     33.1553     64.3804     87.7485  
  4689.5000   -999.2500   -999.2500   -999.2500   -999.2500      2.8343     11.6451     12.5907     13.9600      2.4481      0.0152     33.0389     64.0501     87.5559  
  4690.0000   -999.2500   -999.2500   -999.2500   -999.2500      2.4603     11.7990     12.7572     14.1161      2.4430      0.0111     32.7082     65.4984     87.6955  
  4690.5000   -999.2500   -999.2500   -999.2500   -999.2500      2.7336     11.8411     12.7758     14.3842      2.4535      0.0090     32.6578     67.9385     88.0346  
  4691.0000   -999.2500   -999.2500   -999.2500   -999.2500      2.9200     11.7520     12.6797     14.3350      2.4518      0.0222     32.8456     68.8155     88.4499  
  4691.5000   -999.2500   -999.2500   -999.2500   -999.2500      2.7463     11.6635     12.5842     13.9776      2.4289      0.0353     32.7529     68.6999     88.7289  
  4692.0000   -999.2500   -999.2500   -999.2500   -999.2500      2.4411     11.5524     12.4753     13.6607      2.3987      0.0409     32.3541     68.8487     88.3960  
  4692.5000   -999.2500   -999.2500   -999.2500   -999.2500      2.3144     11.4588     12.3599     13.3998      2.3735      0.0412     32.2518     68.0000     87.9513  
  4693.0000   -999.2500   -999.2500   -999.2500   -999.2500      2.2238     11.4377     12.3750     13.7734      2.3993      0.0625     32.3296     66.5743     86.9328  
  4693.5000   -999.2500   -999.2500   -999.2500   -999.2500      2.3412     11.6039     12.5585     14.1700      2.4770      0.0838     32.3926     64.8307     85.7967  
  4694.0000   -999.2500   -999.2500   -999.2500   -999.2500      2.4648     11.8326     12.9833     13.6229      2.4814      0.0799     32.3715     63.1796     85.6104  
  4694.5000   -999.2500   -999.2500   -999.2500   -999.2500      2.5949     12.2334     13.5580     13.8936      2.4642      0.0702     32.3563     61.7354     85.1825  
  4695.0000   -999.2500   -999.2500   -999.2500   -999.2500      2.7036     12.7614     13.9788     14.0991      2.4723      0.0606     32.4495     60.4792     85.0144  
  4695.5000   -999.2500   -999.2500   -999.2500   -999.2500      2.6481     13.0800     14.1051     13.6422      2.4424      0.0550     32.8334     60.6215     84.0748  
  4696.0000   -999.2500   -999.2500   -999.2500   -999.2500      2.5023     12.9374     14.0222     14.0893      2.4306      0.0494     33.4793     62.1045     84.2374  
  4696.5000   -999.2500   -999.2500   -999.2500   -999.2500      2.3052     12.6511     13.7689     14.1749      2.4217      0.0438     33.5801     62.8887     85.5207  
  4697.0000   -999.2500   -999.2500   -999.2500   -999.2500      2.3013     12.3297     13.4359     13.8436      2.4130      0.0382     33.8375     62.3726     86.5991  
  4697.5000   -999.2500   -999.2500   -999.2500   -999.2500      2.5616     12.0115     13.0905     13.5760      2.4451      0.0376     34.4105     63.7663     87.6663  
  4698.0000   -999.2500   -999.2500   -999.2500   -999.2500      2.5242     11.9247     12.8594     13.5337      2.4268      0.0445     34.5159     66.7561     86.7107  
  4698.5000   -999.2500   -999.2500   -999.2500   -999.2500      2.0843     11.8629     12.7929     13.5215      2.4041      0.0511     34.5749     68.1168     86.3698  
  4699.0000   -999.2500   -999.2500   -999.2500   -999.2500      2.0436     11.8657     12.7917     13.4300      2.4134      0.0393     34.6370     67.4798     86.8359  
  4699.5000   -999.2500   -999.2500   -999.2500   -999.2500      2.2238     11.9266     12.9141     13.3430      2.4460      0.0538     34.3199     66.8664     87.3448  
  4700.0000   -999.2500   -999.2500   -999.2500   -999.2500      2.0857     12.1195     13.1228     13.5394      2.4517      0.0688     33.6312     66.5836     87.6676  
  4700.5000   -999.2500   -999.2500   -999.2500   -999.2500      1.8700     12.0564     13.0162     13.7260      2.4332      0.0838     31.7883     65.9530     86.5049  
  4701.0000   -999.2500   -999.2500   -999.2500   -999.2500      1.6514     11.9436     12.8945     13.9313      2.4157      0.0880     31.1314     64.6460     85.8562  
  4701.5000   -999.2500   -999.2500   -999.2500   -999.2500      1.6712     11.9559     12.9112     13.8143      2.3941      0.0807     31.0160     63.2284     85.5786  
  4702.0000   -999.2500   -999.2500   -999.2500   -999.2500      1.8063     12.0791     13.0506     14.0329      2.4040      0.0730     31.7634     64.1941     85.5182  
  4702.5000   -999.2500   -999.2500   -999.2500   -999.2500      1.9162     12.2816     13.4395     13.6826      2.3848      0.0652     32.5882     65.3210     85.5458  
  4703.0000   -999.2500   -999.2500   -999.2500   -999.2500      1.9744     12.6539     13.7287     13.5715      2.3804      0.0575     32.9907     65.0377     85.7646  
  4703.5000   -999.2500   -999.2500   -999.2500   -999.2500      1.9465     12.6561     13.6534     13.5025      2.3591      0.0486     32.9307     63.5167     85.8611  
  4704.0000   -999.2500   -999.2500   -999.2500   -999.2500      1.7999     12.4261     13.4722     13.7416      2.3861      0.0394     32.6850     63.3817     85.8885  
  4704.5000   -999.2500   -999.2500   -999.2500   -999.2500      1.7354     12.2459     13.2475     13.9392      2.3866      0.0302     32.5404     64.5544     85.9513  
  4705.0000   -999.2500   -999.2500   -999.2500   -999.2500      1.9967     12.0227     13.0367     14.0850      2.3618      0.0210     33.0623     66.1768     86.6762  
  4705.5000   -999.2500   -999.2500   -999.2500   -999.2500      2.2669     11.8009     12.7962     13.8665      2.3624      0.0166     33.4477     66.6138     88.3260  
  4706.0000   -999.2500   -999.2500   -999.2500   -999.2500      2.6652     11.6274     12.5602     13.1413      2.3911      0.0145     33.2829     65.3591     89.3276  
  4706.5000   -999.2500   -999.2500   -999.2500   -999.2500      2.3417     11.5768     12.3284     13.3709      2.4435      0.0143     32.9402     64.2545     89.2299  
  4707.0000   -999.2500   -999.2500   -999.2500   -999.2500      1.8053     11.5264     12.1010     13.5795      2.4487      0.0140     32.5976     65.3112     88.1081  
  4707.5000   -999.2500   -999.2500   -999.2500   -999.2500      1.2376     11.4761     11.9727     13.4792      2.4462      0.0260     32.3553     67.4880     88.4889  
  4708.0000   -999.2500   -999.2500   -999.2500   -999.2500      0.9041     11.4262     12.1062     13.4646      2.4364      0.0340     32.3885     69.8086     89.6351  
  4708.5000   -999.2500   -999.2500   -999.2500   -999.2500      0.8932     11.3726     12.3980     14.0373      2.4389      0.0420     32.5821     72.0715     89.4021  
  4709.0000   -999.2500   -999.2500   -999.2500   -999.2500      0.9889     11.2982     12.6935     14.0597      2.4482      0.0489     32.8039     73.1160     88.5864  
  4709.5000   -999.2500   -999.2500   -999.2500   -999.2500      0.9203     11.2243     13.0699     14.2681      2.4347      0.0444     32.8504     72.5554     87.3234  
