~VERSION INFORMATION
 VERS.                           2.00:        CWLS LOG ASCII STANDARD - VERSION 2.00
 WRAP.                             NO:        ONE LINE PER DEPTH STEP
~WELL INFORMATION
#MNEM.UNIT                   DATA             INFORMATION
#----------             --------------        ------------------------------
 STRT.F                      102.0000:        START DEPTH
 STOP.F                     5878.0000:        STOP DEPTH
 STEP.F                        0.5000:        STEP VALUE
 NULL.                      -999.2500:        NULL VALUE
 COMP. USGS/NPR-A HUSKY OIL OPERATION:        COMPANY  
 LOC .                   27   5N  11W:        LOCATION   
 DATE.                        3/26/81:        LOG DATE 
 WELL.                    KOLUKTAK #1:        WELL     
 UWI .                   501192000100:        UNIQUE WELL ID 
 API .                   501192000100:        UNIQUE WELL IDENTIFIER 
 FLD .                        WILDCAT:        FIELD    
 CNTY.                       N. SLOPE:        COUNTY  
 STAT.                         ALASKA:        STATE   
 CTRY.                            USA:        COUNTRY 
 OPER. USGS/NPR-A HUSKY OIL OPERATION:        OPERATOR  
 SRVC.                            440:        SERVICE COMPANY 
 LAT .                         0.0000:        LATITUDE
 LON .                         0.0000:        LONGITUDE
 DIGS.                             65:        DIGITIZING COMPANY 
~CURVE INFORMATION      
#MNEM.UNIT                 API CODE           CURVE DESCRIPTION
#---------              --------------        ------------------------------
 DEPT.F                              :        1  DEPTH
 SP  .MV                             :        2
 ILD .OHMM                           :        3
 ILM .OHMM                           :        4
 LL8 .OHMM                           :        5
 MSFL.OHMM                           :        6
 LLS .OHMM                           :        7
 LLD .OHMM                           :        8
 CALI.IN                             :        9
 RHOB.G/C3                           :       10
 DRHO.G/C3                           :       11
 NPHI.%                              :       12
 GR  .GAPI                           :       13
 DT  .US/F                           :       14
~PARAMETER INFORMATION       
#MNEM.UNIT                  VALUE             DESCRIPTION OF MNEMONIC
#---------             ---------------        ------------------------------
 EKB .F                      205.0000:        KELLY BUSHING
 TD  .F                     5883.0000:        TOTAL DEPTH
~OTHER INFORMATION
~A    DEPTH          SP         ILD         ILM         LL8        MSFL         LLS         LLD        CALI        RHOB        DRHO        NPHI          GR          DT  
# ...
  4302.0000   -999.2500   -999.2500   -999.2500   -999.2500      8.0713     12.6975     13.8458     15.0749      2.4838      0.0811     34.7297     65.9400     87.3765  
  4302.5000   -999.2500   -999.2500   -999.2500   -999.2500      7.9093     12.8477     15.2254     15.1015      2.4693      0.0847     34.1616     66.9300     85.9603  
  4303.0000   -999.2500   -999.2500   -999.2500   -999.2500      7.8878     14.1064     16.1931     14.8967      2.4636      0.0851     33.6620     68.2649     85.1868  
  4303.5000   -999.2500   -999.2500   -999.2500   -999.2500      8.1338     15.0159     16.2919     14.6412      2.4697      0.0787     33.2878     69.8347     85.7163  
  4304.0000   -999.2500   -999.2500   -999.2500   -999.2500      8.0641     14.6532     15.9412     14.8263      2.4300      0.0694     33.0509     70.9343     86.3458  
  4304.5000   -999.2500   -999.2500   -999.2500   -999.2500      7.5931     14.3101     15.5673     14.6619      2.4010      0.0601     32.9219     68.9836     87.0732  
  4305.0000   -999.2500   -999.2500   -999.2500   -999.2500      7.1571     14.1839     15.2901     14.3680      2.4075      0.0509     33.0604     67.1075     87.1033  
  4305.5000   -999.2500   -999.2500   -999.2500   -999.2500      7.2477     14.1505     15.2541     14.9145      2.3913      0.0416     33.1020     65.2860     86.8880  
  4306.0000   -999.2500   -999.2500   -999.2500   -999.2500      7.4010     14.2841     15.4410     14.8925      2.4094      0.0484     32.6389     63.3729     86.4864  
  4306.5000   -999.2500   -999.2500   -999.2500   -999.2500      7.5386     14.4724     15.6666     15.1204      2.4477      0.0637     32.1177     63.5065     87.3131  
  4307.0000   -999.2500   -999.2500   -999.2500   -999.2500      7.4617     14.4752     15.9647     15.1800      2.4520      0.0744     32.1041     63.9776     88.0033  
  4307.5000   -999.2500   -999.2500   -999.2500   -999.2500      7.3856     13.8475     15.3563     15.0090      2.4325      0.0641     33.0075     64.2799     88.5199  
  4308.0000   -999.2500   -999.2500   -999.2500   -999.2500      7.1094     13.5786     14.6902     15.2628      2.4233      0.0549     34.5137     65.6184     88.8389  
  4308.5000   -999.2500   -999.2500   -999.2500   -999.2500      6.8244     13.5066     14.5951     15.6332      2.4245      0.0457     35.0638     66.7803     88.9803  
  4309.0000   -999.2500   -999.2500   -999.2500   -999.2500      6.6317     13.6726     14.7745     15.7324      2.4175      0.0506     35.3116     66.5025     88.6216  
  4309.5000   -999.2500   -999.2500   -999.2500   -999.2500      6.5449     13.8406     14.9786     16.1250      2.4151      0.0361     35.0692     66.2998     87.6699  
  4310.0000   -999.2500   -999.2500   -999.2500   -999.2500      6.6499     14.0610     15.2051     15.6285      2.3910      0.0215     34.8481     66.2157     86.3881  
  4310.5000   -999.2500   -999.2500   -999.2500   -999.2500      6.9863     14.2240     15.3576     15.1178      2.4132      0.0115     34.5461     66.2138     85.7629  
  4311.0000   -999.2500   -999.2500   -999.2500   -999.2500      7.1933     14.2842     15.4364     15.3842      2.4492      0.0295     33.4924     66.5318     85.2593  
  4311.5000   -999.2500   -999.2500   -999.2500   -999.2500      7.1581     13.6971     15.1507     15.5139      2.4471      0.0506     33.0889     66.8650     85.3332  
  4312.0000   -999.2500   -999.2500   -999.2500   -999.2500      7.1231     13.1342     14.5281     15.5190      2.4455      0.0716     33.5848     66.9752     85.9640  
  4312.5000   -999.2500   -999.2500   -999.2500   -999.2500      7.1341     12.8655     13.9310     15.7468      2.4452      0.0875     33.8867     65.4128     86.4003  
  4313.0000   -999.2500   -999.2500   -999.2500   -999.2500      7.3893     12.7131     13.7363     15.3735      2.4359      0.0709     33.5449     64.0371     86.1319  
  4313.5000   -999.2500   -999.2500   -999.2500   -999.2500      7.7707     12.8037     13.9205     14.8379      2.4604      0.0543     33.5634     64.2657     85.5576  
  4314.0000   -999.2500   -999.2500   -999.2500   -999.2500      7.9698     13.1024     14.9072     14.8510      2.4810      0.0854     33.6826     65.6813     84.9520  
  4314.5000   -999.2500   -999.2500   -999.2500   -999.2500      7.8245     13.9699     15.9681     15.3131      2.4801      0.0892     33.6978     67.2173     84.3463  
  4315.0000   -999.2500   -999.2500   -999.2500   -999.2500      7.8650     14.8383     16.6886     15.0940      2.4650      0.0828     33.5111     67.9270     84.0699  
  4315.5000   -999.2500   -999.2500   -999.2500   -999.2500      8.6021     14.9890     16.7378     14.6082      2.4501      0.0729     33.3692     68.6208     85.1142  
  4316.0000   -999.2500   -999.2500   -999.2500   -999.2500      7.8363     15.0433     16.1528     15.0813      2.4174      0.0614     33.2071     69.4266     86.3902  
  4316.5000   -999.2500   -999.2500   -999.2500   -999.2500      7.0484     14.5651     15.1828     15.2309      2.4031      0.0496     33.9753     70.9968     88.2939  
  4317.0000   -999.2500   -999.2500   -999.2500   -999.2500      6.8556     13.8481     14.2711     14.9405      2.4386      0.0395     34.7974     71.2042     90.0220  
  4317.5000   -999.2500   -999.2500   -999.2500   -999.2500      6.9728     13.1663     13.5145     14.8380      2.4524      0.0479     34.1469     69.5545     89.9485  
  4318.0000   -999.2500   -999.2500   -999.2500   -999.2500      7.1183     12.5181     13.0407     15.0660      2.4431      0.0553     33.4939     66.9053     89.4021  
  4318.5000   -999.2500   -999.2500   -999.2500   -999.2500      7.3017     12.3727     13.1431     15.1724      2.4754      0.0627     33.8768     65.6891     88.8087  
  4319.0000   -999.2500   -999.2500   -999.2500   -999.2500      7.6082     12.3664     13.2463     15.1460      2.4934      0.0640     34.1049     64.9415     88.0123  
  4319.5000   -999.2500   -999.2500   -999.2500   -999.2500      7.8283     12.4062     13.5854     15.1942      2.4938      0.0547     34.2164     63.3508     87.9057  
  4320.0000   -999.2500   -999.2500   -999.2500   -999.2500      7.5619     12.7998     14.0175     15.5849      2.5030      0.0428     34.7753     61.3179     88.3542  
  4320.5000   -999.2500   -999.2500   -999.2500   -999.2500      7.0975     13.2059     14.4633     15.7448      2.4975      0.0452     35.6825     61.1860     89.1244  
  4321.0000   -999.2500   -999.2500   -999.2500   -999.2500      6.9358     13.5081     14.5682     15.4561      2.4811      0.0421     35.8888     61.7412     89.8649  
  4321.5000   -999.2500   -999.2500   -999.2500   -999.2500      6.9672     13.5821     14.6480     15.5427      2.4600      0.0328     35.0516     63.3801     89.7857  
  4322.0000   -999.2500   -999.2500   -999.2500   -999.2500      6.8944     13.6565     14.7282     15.3345      2.4575      0.0330     34.3094     66.0679     89.3097  
  4322.5000   -999.2500   -999.2500   -999.2500   -999.2500      6.5834     13.7269     14.8012     15.0623      2.4561      0.0479     33.8765     68.2383     88.9506  
  4323.0000   -999.2500   -999.2500   -999.2500   -999.2500      5.8424     13.7864     14.8653     14.8921      2.4509      0.0587     33.5895     69.7901     89.2148  
  4323.5000   -999.2500   -999.2500   -999.2500   -999.2500      5.6829     13.7136     14.8057     14.9120      2.4422      0.0610     33.5915     69.8677     89.2013  
  4324.0000   -999.2500   -999.2500   -999.2500   -999.2500      6.4800     13.5612     14.6645     14.6925      2.4666      0.0547     34.2564     68.5725     89.0319  
  4324.5000   -999.2500   -999.2500   -999.2500   -999.2500      7.0435     13.3961     14.4931     14.9468      2.4871      0.0480     35.0532     67.5491     88.7699  
  4325.0000   -999.2500   -999.2500   -999.2500   -999.2500      6.7867     13.2330     14.1869     14.9989      2.5019      0.0409     35.1403     67.7774     88.4974  
  4325.5000   -999.2500   -999.2500   -999.2500   -999.2500      6.5784     12.5485     13.6549     15.3505      2.5094      0.0287     34.8337     68.4112     89.2236  
