~VERSION INFORMATION
 VERS.                           2.00:        CWLS LOG ASCII STANDARD - VERSION 2.00
 WRAP.                             NO:        ONE LINE PER DEPTH STEP
~WELL INFORMATION
#MNEM.UNIT                   DATA             INFORMATION
#----------             --------------        ------------------------------
 STRT.F                      102.0000:        START DEPTH
 STOP.F                     5878.0000:        STOP DEPTH
 STEP.F                        0.5000:        STEP VALUE
 NULL.                      -999.2500:        NULL VALUE
 COMP. USGS/NPR-A HUSKY OIL OPERATION:        COMPANY  
 LOC .                   27   5N  11W:        LOCATION   
 DATE.                        3/26/81:        LOG DATE 
 WELL.                    KOLUKTAK #1:        WELL     
 UWI .                   501192000100:        UNIQUE WELL ID 
 API .                   501192000100:        UNIQUE WELL IDENTIFIER 
 FLD .                        WILDCAT:        FIELD    
 CNTY.                       N. SLOPE:        COUNTY  
 STAT.                         ALASKA:        STATE   
 CTRY.                            USA:        COUNTRY 
 OPER. USGS/NPR-A HUSKY OIL OPERATION:        OPERATOR  
 SRVC.                            440:        SERVICE COMPANY 
 LAT .                         0.0000:        LATITUDE
 LON .                         0.0000:        LONGITUDE
 DIGS.                             65:        DIGITIZING COMPANY 
~CURVE INFORMATION      
#MNEM.UNIT                 API CODE           CURVE DESCRIPTION
#---------              --------------        ------------------------------
 DEPT.F                              :        1  DEPTH
 SP  .MV                             :        2
 ILD .OHMM                           :        3
 ILM .OHMM                           :        4
 LL8 .OHMM                           :        5
 MSFL.OHMM                           :        6
 LLS .OHMM                           :        7
 LLD .OHMM                           :        8
 CALI.IN                             :        9
 RHOB.G/C3                           :       10
 DRHO.G/C3                           :       11
 NPHI.%                              :       12
 GR  .GAPI                           :       13
 DT  .US/F                           :       14
~PARAMETER INFORMATION       
#MNEM.UNIT                  VALUE             DESCRIPTION OF MNEMONIC
#---------             ---------------        ------------------------------
 EKB .F                      205.0000:        KELLY BUSHING
 TD  .F                     5883.0000:        TOTAL DEPTH
~OTHER INFORMATION
~A    DEPTH          SP         ILD         ILM         LL8        MSFL         LLS         LLD        CALI        RHOB        DRHO        NPHI          GR          DT  
# ...
  2406.0000   -999.2500   -999.2500   -999.2500   -999.2500      2.0990     21.5087     26.5270     11.8082      2.4544      0.0073     27.8161     45.0288     76.0155  
  2406.5000   -999.2500   -999.2500   -999.2500   -999.2500      2.1272     22.0837     27.0202     11.8639      2.4632      0.0130     28.1490     44.8084     75.9685  
  2407.0000   -999.2500   -999.2500   -999.2500   -999.2500      2.1411     22.7636     27.5225     11.9082      2.4718      0.0171     28.0318     45.2877     75.9512  
  2407.5000   -999.2500   -999.2500   -999.2500   -999.2500      2.1566     23.2300     27.7190     11.8971      2.4505      0.0114     27.8533     45.7298     75.9845  
  2408.0000   -999.2500   -999.2500   -999.2500   -999.2500      2.1873     23.0457     27.8528     11.8155      2.4377      0.0056     27.0852     46.1911     76.0333  
  2408.5000   -999.2500   -999.2500   -999.2500   -999.2500      2.2358     23.0051     27.5600     11.7801      2.4352     -0.0002     28.1766     46.4378     76.0106  
  2409.0000   -999.2500   -999.2500   -999.2500   -999.2500      2.3160     23.1295     27.2931     11.7822      2.4334     -0.0056     28.4692     46.1894     75.9646  
  2409.5000   -999.2500   -999.2500   -999.2500   -999.2500      2.3669     22.6901     27.1396     11.8070      2.4311     -0.0049     28.5147     46.7895     76.0553  
  2410.0000   -999.2500   -999.2500   -999.2500   -999.2500      2.3799     21.9664     26.9869     11.8744      2.4354     -0.0041     28.4242     48.1716     76.1618  
  2410.5000   -999.2500   -999.2500   -999.2500   -999.2500      2.3877     21.7767     26.8350     11.7737      2.4467     -0.0032     28.3329     48.7206     76.2535  
  2411.0000   -999.2500   -999.2500   -999.2500   -999.2500      2.3653     21.9862     26.7391     11.7667      2.4454     -0.0020     28.0736     47.8989     76.2823  
  2411.5000   -999.2500   -999.2500   -999.2500   -999.2500      2.3419     21.9344     26.6618     11.7396      2.4461     -0.0009     27.8590     46.3083     76.3595  
  2412.0000   -999.2500   -999.2500   -999.2500   -999.2500      2.3868     21.8408     26.6128     11.7038      2.4488      0.0019     27.6745     45.1153     76.2865  
  2412.5000   -999.2500   -999.2500   -999.2500   -999.2500      2.4353     21.7476     26.5710     11.7512      2.4462      0.0049     27.8931     44.3939     76.1919  
  2413.0000   -999.2500   -999.2500   -999.2500   -999.2500      2.4372     21.6548     26.5293     11.7561      2.4467      0.0077     28.1335     44.2861     76.1922  
  2413.5000   -999.2500   -999.2500   -999.2500   -999.2500      2.4091     21.5624     26.4877     11.8406      2.4507      0.0105     28.1934     44.4110     76.3095  
  2414.0000   -999.2500   -999.2500   -999.2500   -999.2500      2.4067     21.4704     26.4461     11.7880      2.4475      0.0065     27.8892     44.0462     76.3730  
  2414.5000   -999.2500   -999.2500   -999.2500   -999.2500      2.4208     21.3787     26.4046     11.6978      2.4322     -0.0009     27.4737     43.6435     76.3994  
  2415.0000   -999.2500   -999.2500   -999.2500   -999.2500      2.4577     21.2875     26.3632     11.7815      2.4276     -0.0082     27.0953     43.6967     76.4368  
  2415.5000   -999.2500   -999.2500   -999.2500   -999.2500      2.4973     21.1967     26.2348     11.7918      2.4311     -0.0090     27.0897     43.5514     76.6643  
  2416.0000   -999.2500   -999.2500   -999.2500   -999.2500      2.4708     21.1263     26.0474     11.8207      2.4318     -0.0023     27.3410     43.4455     76.9414  
  2416.5000   -999.2500   -999.2500   -999.2500   -999.2500      2.4262     21.0887     25.8613     11.8731      2.4362     -0.0028     27.8858     43.4447     77.1991  
  2417.0000   -999.2500   -999.2500   -999.2500   -999.2500      2.3867     21.0511     25.6765     11.8644      2.4357     -0.0063     28.5036     43.5398     77.2980  
  2417.5000   -999.2500   -999.2500   -999.2500   -999.2500      2.3785     21.0136     25.4931     11.7918      2.4341     -0.0061     28.8120     44.3860     77.1783  
  2418.0000   -999.2500   -999.2500   -999.2500   -999.2500      2.4012     20.9761     25.2032     11.7822      2.4339     -0.0026     29.1481     45.5112     77.1268  
  2418.5000   -999.2500   -999.2500   -999.2500   -999.2500      2.4288     20.9387     24.8517     11.9203      2.4367      0.0007     29.3930     45.6142     77.2362  
  2419.0000   -999.2500   -999.2500   -999.2500   -999.2500      2.4645     20.9014     24.6448     12.0213      2.4409      0.0022     29.4376     45.6916     77.4751  
  2419.5000   -999.2500   -999.2500   -999.2500   -999.2500      2.5680     20.8642     24.4664     12.0126      2.4467      0.0022     29.2902     46.3878     77.7803  
  2420.0000   -999.2500   -999.2500   -999.2500   -999.2500      2.8839     20.8270     24.2893     12.1102      2.4482      0.0007     29.1085     47.2106     77.9587  
  2420.5000   -999.2500   -999.2500   -999.2500   -999.2500      3.3548     20.7898     24.1210     11.9395      2.4486     -0.0011     29.0489     48.6063     77.4568  
  2421.0000   -999.2500   -999.2500   -999.2500   -999.2500      3.1904     20.7426     24.1490     11.9161      2.4532      0.0023     29.2296     50.5174     77.0415  
  2421.5000   -999.2500   -999.2500   -999.2500   -999.2500      2.8198     20.6741     24.1769     11.8784      2.4658      0.0081     29.3145     52.1488     76.6865  
  2422.0000   -999.2500   -999.2500   -999.2500   -999.2500      2.4394     20.6603     24.4444     11.9593      2.4685      0.0147     29.0156     53.4231     76.6985  
  2422.5000   -999.2500   -999.2500   -999.2500   -999.2500      2.5625     20.7631     24.8808     12.0822      2.4662      0.0178     28.9862     54.2822     77.0748  
  2423.0000   -999.2500   -999.2500   -999.2500   -999.2500      2.7190     20.8664     26.6990     12.1228      2.4589      0.0188     28.9281     53.9457     77.3319  
  2423.5000   -999.2500   -999.2500   -999.2500   -999.2500      2.8353     20.9702     27.1097     12.0742      2.4620      0.0199     28.7605     51.5444     77.3048  
  2424.0000   -999.2500   -999.2500   -999.2500   -999.2500      2.7570     21.1440     26.8108     12.0131      2.4494      0.0160     28.4201     49.2222     76.9105  
  2424.5000   -999.2500   -999.2500   -999.2500   -999.2500      2.5337     21.4725     26.5152     11.9260      2.4357      0.0105     28.1704     48.9963     76.4993  
  2425.0000   -999.2500   -999.2500   -999.2500   -999.2500      2.4260     21.8061     26.2368     11.9439      2.4462      0.0049     27.9257     48.6977     75.9866  
  2425.5000   -999.2500   -999.2500   -999.2500   -999.2500      2.3977     22.1449     26.0560     12.0036      2.4593      0.0109   -999.2500     47.9450     75.3543  
  2426.0000   -999.2500   -999.2500   -999.2500   -999.2500      2.3330     22.4722     26.9953     12.0414      2.4803      0.0180   -999.2500     47.3116     76.3020  
  2426.5000   -999.2500   -999.2500   -999.2500   -999.2500      2.3018     22.8018     29.0296     12.0240      2.4807      0.0239   -999.2500     46.4004     77.0276  
  2427.0000   -999.2500   -999.2500   -999.2500   -999.2500      2.2711     23.1362     30.9621     12.0141      2.4767      0.0265   -999.2500     45.8847     77.2105  
  2427.5000   -999.2500   -999.2500   -999.2500   -999.2500      2.2407     23.4756     32.3140     11.9814      2.4656      0.0182   -999.2500     46.0458     77.1753  
  2428.0000   -999.2500   -999.2500   -999.2500   -999.2500      2.2232     23.8200     31.5484     11.9740      2.4586      0.0147     27.8341     46.2852     77.1451  
  2428.5000   -999.2500   -999.2500   -999.2500   -999.2500      2.2292     24.1694     31.1426     12.0641      2.4522      0.0112     28.0978     46.2452     77.1722  
  2429.0000   -999.2500   -999.2500   -999.2500   -999.2500      2.2353     24.1804     30.7421     12.2617      2.4579      0.0078     28.3615     45.5749     77.1481  
  2429.5000   -999.2500   -999.2500   -999.2500   -999.2500      2.2133     24.1777     30.3468     12.2534      2.4568      0.0043     28.6251     45.6079     77.1093  
