~VERSION INFORMATION
 VERS.                           2.00:        CWLS LOG ASCII STANDARD - VERSION 2.00
 WRAP.                             NO:        ONE LINE PER DEPTH STEP
~WELL INFORMATION
#MNEM.UNIT                   DATA             INFORMATION
#----------             --------------        ------------------------------
 STRT.F                      102.0000:        START DEPTH
 STOP.F                     5878.0000:        STOP DEPTH
 STEP.F                        0.5000:        STEP VALUE
 NULL.                      -999.2500:        NULL VALUE
 COMP. USGS/NPR-A HUSKY OIL OPERATION:        COMPANY  
 LOC .                   27   5N  11W:        LOCATION   
 DATE.                        3/26/81:        LOG DATE 
 WELL.                    KOLUKTAK #1:        WELL     
 UWI .                   501192000100:        UNIQUE WELL ID 
 API .                   501192000100:        UNIQUE WELL IDENTIFIER 
 FLD .                        WILDCAT:        FIELD    
 CNTY.                       N. SLOPE:        COUNTY  
 STAT.                         ALASKA:        STATE   
 CTRY.                            USA:        COUNTRY 
 OPER. USGS/NPR-A HUSKY OIL OPERATION:        OPERATOR  
 SRVC.                            440:        SERVICE COMPANY 
 LAT .                         0.0000:        LATITUDE
 LON .                         0.0000:        LONGITUDE
 DIGS.                             65:        DIGITIZING COMPANY 
~CURVE INFORMATION      
#MNEM.UNIT                 API CODE           CURVE DESCRIPTION
#---------              --------------        ------------------------------
 DEPT.F                              :        1  DEPTH
 SP  .MV                             :        2
 ILD .OHMM                           :        3
 ILM .OHMM                           :        4
 LL8 .OHMM                           :        5
 MSFL.OHMM                           :        6
 LLS .OHMM                           :        7
 LLD .OHMM                           :        8
 CALI.IN                             :        9
 RHOB.G/C3                           :       10
 DRHO.G/C3                           :       11
 NPHI.%                              :       12
 GR  .GAPI                           :       13
 DT  .US/F                           :       14
~PARAMETER INFORMATION       
#MNEM.UNIT                  VALUE             DESCRIPTION OF MNEMONIC
#---------             ---------------        ------------------------------
 EKB .F                      205.0000:        KELLY BUSHING
 TD  .F                     5883.0000:        TOTAL DEPTH
~OTHER INFORMATION
~A    DEPTH          SP         ILD         ILM         LL8        MSFL         LLS         LLD        CALI        RHOB        DRHO        NPHI          GR          DT  
# ...
  3918.0000   -999.2500   -999.2500   -999.2500   -999.2500     12.4249     25.1983     30.5032     15.4725      2.3236      0.0472     26.5959     69.0708     74.1159  
  3918.5000   -999.2500   -999.2500   -999.2500   -999.2500     13.2006     26.0078     31.2541     14.9988      2.3284      0.0449     26.3390     66.5558     74.6498  
  3919.0000   -999.2500   -999.2500   -999.2500   -999.2500     13.7945     26.8432     32.0236     14.5886      2.3457      0.0405     25.9659     64.3317     75.8276  
  3919.5000   -999.2500   -999.2500   -999.2500   -999.2500     13.1162     26.6617     29.8511     14.7432      2.3810      0.0360     26.7165     63.8271     77.1016  
  3920.0000   -999.2500   -999.2500   -999.2500   -999.2500     10.5690     23.1127     24.7788     15.1957      2.3992      0.0316     27.6169     62.7589     79.9619  
  3920.5000   -999.2500   -999.2500   -999.2500   -999.2500      9.1758     19.5797     20.9748     15.6482      2.3688      0.0187     29.8784     60.2172     84.6868  
  3921.0000   -999.2500   -999.2500   -999.2500   -999.2500      8.3518     16.5868     17.8975     15.8775      2.3222      0.0104     32.0185     59.9292     88.2909  
  3921.5000   -999.2500   -999.2500   -999.2500   -999.2500      7.4385     14.6034     15.6037     16.1391      2.2388      0.0025     33.4805     61.9421     89.7899  
  3922.0000   -999.2500   -999.2500   -999.2500   -999.2500      7.0381     13.3386     14.7103     15.6498      2.2032     -0.0054     34.1624     66.0800     91.2987  
  3922.5000   -999.2500   -999.2500   -999.2500   -999.2500      6.6593     13.0487     14.1690     14.5529      2.2711      0.0016     34.5340     69.8827     91.3433  
  3923.0000   -999.2500   -999.2500   -999.2500   -999.2500      6.3008     13.1033     14.1299     14.8239      2.3501      0.0053     34.3879     72.5115     90.8452  
  3923.5000   -999.2500   -999.2500   -999.2500   -999.2500      6.2778     13.1580     14.1889     15.0769      2.4003      0.0090     34.3556     73.6714     89.6624  
  3924.0000   -999.2500   -999.2500   -999.2500   -999.2500      6.5054     13.2699     14.6565     14.2822      2.4021      0.0198     34.4221     73.1361     88.3225  
  3924.5000   -999.2500   -999.2500   -999.2500   -999.2500      7.0709     13.8044     15.1881     14.0239      2.3607      0.0319     33.7175     72.3468     87.7475  
  3925.0000   -999.2500   -999.2500   -999.2500   -999.2500      7.5842     14.3087     15.7351     14.2808      2.3203      0.0441     32.8304     71.7383     86.5400  
  3925.5000   -999.2500   -999.2500   -999.2500   -999.2500      7.9483     14.8255     16.2710     14.1479      2.3050      0.0466     32.3486     71.8019     85.8626  
  3926.0000   -999.2500   -999.2500   -999.2500   -999.2500      8.0654     15.1173     16.2960     14.6340      2.3295      0.0486     32.7805     71.9793     85.8904  
  3926.5000   -999.2500   -999.2500   -999.2500   -999.2500      7.9360     15.1398     16.3211     15.2825      2.3515      0.0495     33.2445     72.1328     85.8360  
  3927.0000   -999.2500   -999.2500   -999.2500   -999.2500      7.5090     15.0242     16.2117     15.7761      2.3226      0.0485     33.7313     72.7195     86.1517  
  3927.5000   -999.2500   -999.2500   -999.2500   -999.2500      7.1115     14.8653     16.0771     15.4201      2.3026      0.0476     33.7212     73.8503     87.0333  
  3928.0000   -999.2500   -999.2500   -999.2500   -999.2500      7.1851     14.7612     15.9128     14.4152      2.3501      0.0467     33.8350     74.5057     86.8486  
  3928.5000   -999.2500   -999.2500   -999.2500   -999.2500      6.9858     14.7290     15.9323     14.2267      2.3660      0.0435     33.7115     72.8581     86.4129  
  3929.0000   -999.2500   -999.2500   -999.2500   -999.2500      6.1637     14.9904     16.3974     14.3632      2.3607      0.0375     33.0896     71.6087     85.6086  
  3929.5000   -999.2500   -999.2500   -999.2500   -999.2500      5.7397     15.4489     17.3016     14.3573      2.3393      0.0317     32.2780     72.5017     83.6562  
  3930.0000   -999.2500   -999.2500   -999.2500   -999.2500      6.1068     16.2115     18.5053     14.3046      2.3463      0.0270     30.8299     74.4935     80.6370  
  3930.5000   -999.2500   -999.2500   -999.2500   -999.2500      6.2237     17.3058     20.1018     14.2844      2.3602      0.0220     28.8225     74.5751     76.8742  
  3931.0000   -999.2500   -999.2500   -999.2500   -999.2500      6.5541     18.7209     21.8360     14.6451      2.3661      0.0245     26.7352     74.0571     75.7126  
  3931.5000   -999.2500   -999.2500   -999.2500   -999.2500      8.5002     20.4207     24.1047     14.9455      2.3698      0.0326     25.8016     73.0609     74.4539  
  3932.0000   -999.2500   -999.2500   -999.2500   -999.2500     11.4411     22.2748     27.0142     14.2273      2.3939      0.0405     25.6363     70.3477     73.9460  
  3932.5000   -999.2500   -999.2500   -999.2500   -999.2500     13.4238     24.2972     30.2749     14.3338      2.4163      0.0479     25.2817     68.0497     74.1891  
  3933.0000   -999.2500   -999.2500   -999.2500   -999.2500     11.8260     24.5304     29.0254     14.6157      2.4210      0.0495     24.6542     67.5101     75.8112  
  3933.5000   -999.2500   -999.2500   -999.2500   -999.2500      9.7203     23.0594     25.1286     14.9764      2.4054      0.0387     24.9530     67.1463     79.3412  
  3934.0000   -999.2500   -999.2500   -999.2500   -999.2500      8.6332     20.4605     21.7550     15.3370      2.3514      0.0188     25.9858     66.6321     82.7126  
  3934.5000   -999.2500   -999.2500   -999.2500   -999.2500      8.4035     17.8111     19.5711     14.7607      2.2951      0.0137     29.1445     66.2575     84.9981  
  3935.0000   -999.2500   -999.2500   -999.2500   -999.2500      8.2612     16.4059     18.6829     14.1935      2.2829      0.0143     30.0594     66.1580     84.8964  
  3935.5000   -999.2500   -999.2500   -999.2500   -999.2500      7.9395     15.6818     17.8350     14.5414      2.2914      0.0204     30.8291     68.0796     84.5271  
  3936.0000   -999.2500   -999.2500   -999.2500   -999.2500      7.7201     15.3311     17.0221     15.3287      2.3098      0.0266     31.7864     71.9689     85.5120  
  3936.5000   -999.2500   -999.2500   -999.2500   -999.2500      7.5067     15.1241     16.2457     15.3509      2.3029      0.0328     32.3837     74.4437     86.5850  
  3937.0000   -999.2500   -999.2500   -999.2500   -999.2500      7.3517     14.9345     16.0981     15.4860      2.2798      0.0292     33.7150     75.5873     87.1529  
  3937.5000   -999.2500   -999.2500   -999.2500   -999.2500      7.5301     14.9578     16.1249     16.0040      2.2524      0.0173     34.3343     76.4427     87.4867  
  3938.0000   -999.2500   -999.2500   -999.2500   -999.2500      7.7230     14.8737     16.0453     15.8138      2.2510      0.0132     33.5623     75.6182     87.1651  
  3938.5000   -999.2500   -999.2500   -999.2500   -999.2500      7.9283     14.8014     15.9554     16.0419      2.2436      0.0102     32.6368     73.3611     86.5073  
  3939.0000   -999.2500   -999.2500   -999.2500   -999.2500      7.6294     14.8048     15.9591     16.6127      2.2139      0.0077     33.4109     71.4236     86.5400  
  3939.5000   -999.2500   -999.2500   -999.2500   -999.2500      7.3713     14.8082     15.9628     16.6859      2.2060      0.0122     34.1178     71.2491     87.9942  
  3940.0000   -999.2500   -999.2500   -999.2500   -999.2500      7.2243     14.8547     16.0185     16.1869      2.2420      0.0204     34.2059     70.8192     88.3707  
  3940.5000   -999.2500   -999.2500   -999.2500   -999.2500      7.2521     14.8304     16.0019     16.0398      2.2715      0.0286     34.2941     72.5327     87.8421  
  3941.0000   -999.2500   -999.2500   -999.2500   -999.2500      7.4138     14.6723     15.8546     15.7590      2.2936      0.0315     34.1767     73.8822     87.5256  
  3941.5000   -999.2500   -999.2500   -999.2500   -999.2500      7.6879     14.5625     15.6979     15.5026      2.2933      0.0289     33.7067     74.8739     85.6431  
