~VERSION INFORMATION
 VERS.                           2.00:        CWLS LOG ASCII STANDARD - VERSION 2.00
 WRAP.                             NO:        ONE LINE PER DEPTH STEP
~WELL INFORMATION
#MNEM.UNIT                   DATA             INFORMATION
#----------             --------------        ------------------------------
 STRT.F                      102.0000:        START DEPTH
 STOP.F                     5878.0000:        STOP DEPTH
 STEP.F                        0.5000:        STEP VALUE
 NULL.                      -999.2500:        NULL VALUE
 COMP. USGS/NPR-A HUSKY OIL OPERATION:        COMPANY  
 LOC .                   27   5N  11W:        LOCATION   
 DATE.                        3/26/81:        LOG DATE 
 WELL.                    KOLUKTAK #1:        WELL     
 UWI .                   501192000100:        UNIQUE WELL ID 
 API .                   501192000100:        UNIQUE WELL IDENTIFIER 
 FLD .                        WILDCAT:        FIELD    
 CNTY.                       N. SLOPE:        COUNTY  
 STAT.                         ALASKA:        STATE   
 CTRY.                            USA:        COUNTRY 
 OPER. USGS/NPR-A HUSKY OIL OPERATION:        OPERATOR  
 SRVC.                            440:        SERVICE COMPANY 
 LAT .                         0.0000:        LATITUDE
 LON .                         0.0000:        LONGITUDE
 DIGS.                             65:        DIGITIZING COMPANY 
~CURVE INFORMATION      
#MNEM.UNIT                 API CODE           CURVE DESCRIPTION
#---------              --------------        ------------------------------
 DEPT.F                              :        1  DEPTH
 SP  .MV                             :        2
 ILD .OHMM                           :        3
 ILM .OHMM                           :        4
 LL8 .OHMM                           :        5
 MSFL.OHMM                           :        6
 LLS .OHMM                           :        7
 LLD .OHMM                           :        8
 CALI.IN                             :        9
 RHOB.G/C3                           :       10
 DRHO.G/C3                           :       11
 NPHI.%                              :       12
 GR  .GAPI                           :       13
 DT  .US/F                           :       14
~PARAMETER INFORMATION       
#MNEM.UNIT                  VALUE             DESCRIPTION OF MNEMONIC
#---------             ---------------        ------------------------------
 EKB .F                      205.0000:        KELLY BUSHING
 TD  .F                     5883.0000:        TOTAL DEPTH
~OTHER INFORMATION
~A    DEPTH          SP         ILD         ILM         LL8        MSFL         LLS         LLD        CALI        RHOB        DRHO        NPHI          GR          DT  
# ...
  5838.0000   -999.2500   -999.2500   -999.2500   -999.2500      1.3839      8.9564     10.1965     10.9777      2.4247      0.0463     34.9410     75.7163     90.4046  
  5838.5000   -999.2500   -999.2500   -999.2500   -999.2500      1.4515      8.8290     10.2496     10.9634      2.4212      0.0501     34.5634     73.1714     90.9304  
  5839.0000   -999.2500   -999.2500   -999.2500   -999.2500      1.2927      8.7033     10.1981     10.9548      2.4074      0.0546     34.2900     72.9442     91.2931  
  5839.5000   -999.2500   -999.2500   -999.2500   -999.2500      1.2045      8.5795     10.0455     11.5492      2.4033      0.0591     34.2099     73.0066     91.7712  
  5840.0000   -999.2500   -999.2500   -999.2500   -999.2500      1.2082      8.4574      9.8952     12.4670      2.3858      0.0637     34.1643     73.4826     92.6703  
  5840.5000   -999.2500   -999.2500   -999.2500   -999.2500      1.2178      8.3371      9.7735     12.1851      2.3600      0.0611     34.5439     74.7086     91.9354  
  5841.0000   -999.2500   -999.2500   -999.2500   -999.2500      1.2154      8.2441      9.6125     11.6915      2.3556      0.0453     35.0007     75.9984     92.6777  
  5841.5000   -999.2500   -999.2500   -999.2500   -999.2500      1.1698      8.1569      9.4229     11.6760      2.3643      0.0295     34.8264     77.2292     93.0814  
  5842.0000   -999.2500   -999.2500   -999.2500   -999.2500      1.0630      8.0706      9.2370     11.5604      2.3660      0.0142     33.9925     76.2296     93.0044  
  5842.5000   -999.2500   -999.2500   -999.2500   -999.2500      1.0184      7.9853      9.1163     11.6205      2.3628      0.0257     33.6125     75.1189     92.9439  
  5843.0000   -999.2500   -999.2500   -999.2500   -999.2500      0.9820      7.9008      9.1268     11.2527      2.3612      0.0372     33.6777     74.8468     94.0368  
  5843.5000   -999.2500   -999.2500   -999.2500   -999.2500      0.9281      7.8544      9.1374     10.8613      2.3760      0.0487     34.0844     75.5249     94.4106  
  5844.0000   -999.2500   -999.2500   -999.2500   -999.2500      0.9113      7.8570      9.1461     11.0939      2.3840      0.0479     34.3286     76.0678     94.2954  
  5844.5000   -999.2500   -999.2500   -999.2500   -999.2500      0.9828      7.8596      9.1495     11.0593      2.3914      0.0392     34.0850     76.4421     93.3256  
  5845.0000   -999.2500   -999.2500   -999.2500   -999.2500      1.0593      7.9378      9.1155     11.2838      2.3935      0.0305     33.2797     76.5420     92.7466  
  5845.5000   -999.2500   -999.2500   -999.2500   -999.2500      1.1662      8.0265      9.0640     11.2975      2.3974      0.0188     32.9918     75.5559     92.8707  
  5846.0000   -999.2500   -999.2500   -999.2500   -999.2500      1.3635      8.0808      9.1027     11.2172      2.4133      0.0123     33.4764     72.2418     93.1568  
  5846.5000   -999.2500   -999.2500   -999.2500   -999.2500      1.5954      8.1276      9.1595     11.1895      2.4180      0.0074     34.5515   -999.2500     95.6634  
  5847.0000   -999.2500   -999.2500   -999.2500   -999.2500      1.3373      8.1747      9.2379     11.1460      2.4046      0.0025     35.9705   -999.2500     99.9863  
  5847.5000   -999.2500   -999.2500   -999.2500   -999.2500      1.1074      8.2221      9.2918     11.3196      2.3867      0.0106     37.0589   -999.2500    101.7269  
  5848.0000   -999.2500   -999.2500   -999.2500   -999.2500      1.0160      8.2098      9.3208     11.2326      2.3784      0.0164     37.3287   -999.2500    101.2541  
  5848.5000   -999.2500   -999.2500   -999.2500   -999.2500      1.2464      8.1693      9.3500     10.9925      2.3576      0.0221     37.2236   -999.2500     97.3483  
  5849.0000   -999.2500   -999.2500   -999.2500   -999.2500      1.4794      8.1290      9.3940     10.7114      2.3742      0.0279     36.5660   -999.2500     94.7430  
  5849.5000   -999.2500   -999.2500   -999.2500   -999.2500      1.4216      8.2800      9.4673     10.6537      2.4511      0.0334     35.7553   -999.2500     91.2514  
  5850.0000   -999.2500   -999.2500   -999.2500   -999.2500      1.3591      8.4414      9.5412     10.6351      2.4502      0.0388     34.5828   -999.2500     91.5290  
  5850.5000   -999.2500   -999.2500   -999.2500   -999.2500      1.5469      8.6060      9.6157     10.7728      2.4525      0.0441     33.3170   -999.2500     91.3146  
  5851.0000   -999.2500   -999.2500   -999.2500   -999.2500      1.7607      8.7737      9.6907     10.9759      2.4473      0.0396     33.0497   -999.2500     89.7229  
  5851.5000   -999.2500   -999.2500   -999.2500   -999.2500      1.7555      8.9314      9.7697     10.6890      2.4362      0.0283     32.8628   -999.2500     90.7383  
  5852.0000   -999.2500   -999.2500   -999.2500   -999.2500      1.6702      9.0854      9.8565     10.7965      2.4196      0.0343     31.9570   -999.2500     88.3561  
  5852.5000   -999.2500   -999.2500   -999.2500   -999.2500      1.5847      9.2126      9.9441     10.8595      2.4281      0.0335     31.7647   -999.2500     87.2671  
  5853.0000   -999.2500   -999.2500   -999.2500   -999.2500      1.5035      9.2449      9.9654     10.5543      2.4255      0.0180     31.5242   -999.2500     87.9725  
  5853.5000   -999.2500   -999.2500   -999.2500   -999.2500      1.4610      9.2279      9.9471     10.8465      2.4158      0.0040     30.8237   -999.2500     88.2610  
  5854.0000   -999.2500   -999.2500   -999.2500   -999.2500      1.5137      9.2109      9.9288     11.1322      2.4347      0.0125     28.1601   -999.2500     88.7666  
  5854.5000   -999.2500   -999.2500   -999.2500   -999.2500      1.5754      9.1940      9.9106     11.0751      2.4470      0.0211     25.2635   -999.2500     89.7258  
  5855.0000   -999.2500   -999.2500   -999.2500   -999.2500      1.6303      9.1771      9.8924     10.9263      2.4465      0.0296     25.0389   -999.2500     89.4745  
  5855.5000   -999.2500   -999.2500   -999.2500   -999.2500      1.6749      9.1602      9.8742     10.9275      2.4359      0.0381     25.2568   -999.2500     89.1261  
  5856.0000   -999.2500   -999.2500   -999.2500   -999.2500      1.7179      9.1472      9.8597     10.7873      2.4475      0.0467     25.4354   -999.2500     88.6670  
  5856.5000   -999.2500   -999.2500   -999.2500   -999.2500      1.7648      9.1374      9.8492     10.8253      2.4485      0.0552     25.5405   -999.2500     88.0858  
  5857.0000   -999.2500   -999.2500   -999.2500   -999.2500      1.7656      9.1817      9.9216     10.7958      2.4468      0.0638     25.7169   -999.2500     88.0059  
  5857.5000   -999.2500   -999.2500   -999.2500   -999.2500      1.7364      9.2917     10.0404     10.5233      2.4480      0.0661     25.8084   -999.2500     87.9876  
  5858.0000   -999.2500   -999.2500   -999.2500   -999.2500      1.7399      9.4029     10.1607     10.7579      2.4493      0.0526     25.8742   -999.2500     87.7075  
  5858.5000   -999.2500   -999.2500   -999.2500   -999.2500      1.7532      9.5065     10.2469     11.0005      2.4438      0.0390     25.9933   -999.2500     87.7634  
  5859.0000   -999.2500   -999.2500   -999.2500   -999.2500      1.7800      9.5109     10.4189     10.9983      2.4473      0.0305     26.2426   -999.2500     87.7408  
  5859.5000   -999.2500   -999.2500   -999.2500   -999.2500      1.7402      9.7767     10.8111     10.8993      2.4613      0.0396     26.6583   -999.2500     88.8074  
  5860.0000   -999.2500   -999.2500   -999.2500   -999.2500      1.6011      9.7086     10.9781     10.9203      2.4719      0.0487     27.1224   -999.2500     87.7307  
  5860.5000   -999.2500   -999.2500   -999.2500   -999.2500      1.6949      9.6410     10.9222     10.8374      2.4552      0.0392     28.0672   -999.2500     88.9578  
  5861.0000   -999.2500   -999.2500   -999.2500   -999.2500      1.6566      9.5738     10.7577     10.6169      2.4375      0.0342     29.0572   -999.2500     90.2001  
  5861.5000   -999.2500   -999.2500   -999.2500   -999.2500      1.5442      9.5071     10.4450     10.7581      2.4317      0.0449     30.0472   -999.2500     91.7749  
