~VERSION INFORMATION
 VERS.                           2.00:        CWLS LOG ASCII STANDARD - VERSION 2.00
 WRAP.                             NO:        ONE LINE PER DEPTH STEP
~WELL INFORMATION
#MNEM.UNIT                   DATA             INFORMATION
#----------             --------------        ------------------------------
 STRT.F                      102.0000:        START DEPTH
 STOP.F                     5878.0000:        STOP DEPTH
 STEP.F                        0.5000:        STEP VALUE
 NULL.                      -999.2500:        NULL VALUE
 COMP. USGS/NPR-A HUSKY OIL OPERATION:        COMPANY  
 LOC .                   27   5N  11W:        LOCATION   
 DATE.                        3/26/81:        LOG DATE 
 WELL.                    KOLUKTAK #1:        WELL     
 UWI .                   501192000100:        UNIQUE WELL ID 
 API .                   501192000100:        UNIQUE WELL IDENTIFIER 
 FLD .                        WILDCAT:        FIELD    
 CNTY.                       N. SLOPE:        COUNTY  
 STAT.                         ALASKA:        STATE   
 CTRY.                            USA:        COUNTRY 
 OPER. USGS/NPR-A HUSKY OIL OPERATION:        OPERATOR  
 SRVC.                            440:        SERVICE COMPANY 
 LAT .                         0.0000:        LATITUDE
 LON .                         0.0000:        LONGITUDE
 DIGS.                             65:        DIGITIZING COMPANY 
~CURVE INFORMATION      
#MNEM.UNIT                 API CODE           CURVE DESCRIPTION
#---------              --------------        ------------------------------
 DEPT.F                              :        1  DEPTH
 SP  .MV                             :        2
 ILD .OHMM                           :        3
 ILM .OHMM                           :        4
 LL8 .OHMM                           :        5
 MSFL.OHMM                           :        6
 LLS .OHMM                           :        7
 LLD .OHMM                           :        8
 CALI.IN                             :        9
 RHOB.G/C3                           :       10
 DRHO.G/C3                           :       11
 NPHI.%                              :       12
 GR  .GAPI                           :       13
 DT  .US/F                           :       14
~PARAMETER INFORMATION       
#MNEM.UNIT                  VALUE             DESCRIPTION OF MNEMONIC
#---------             ---------------        ------------------------------
 EKB .F                      205.0000:        KELLY BUSHING
 TD  .F                     5883.0000:        TOTAL DEPTH
~OTHER INFORMATION
~A    DEPTH          SP         ILD         ILM         LL8        MSFL         LLS         LLD        CALI        RHOB        DRHO        NPHI          GR          DT  
# ...
  1638.0000   -999.2500   -999.2500   -999.2500   -999.2500      1.7678      9.7331     14.8467     10.1374      2.3031      0.0046     29.8525     22.1356     93.5039  
  1638.5000   -999.2500   -999.2500   -999.2500   -999.2500      1.7714      9.9667     14.9275     10.1737      2.3004      0.0030     30.0716     21.2488     92.5430  
  1639.0000   -999.2500   -999.2500   -999.2500   -999.2500      1.8315     10.2251     15.1187     10.2143      2.3148      0.0055     30.0115     21.1565     92.4070  
  1639.5000   -999.2500   -999.2500   -999.2500   -999.2500      1.8819     10.4902     15.1751     10.1049      2.3312      0.0088     30.0376     21.5302     93.0938  
  1640.0000   -999.2500   -999.2500   -999.2500   -999.2500      1.9330     10.6208     15.9284     10.0636      2.3485      0.0117     30.3422     23.3447     93.8386  
  1640.5000   -999.2500   -999.2500   -999.2500   -999.2500      1.9673     10.5593     17.2952     10.1227      2.3372      0.0040     30.3429     25.9190     93.7224  
  1641.0000   -999.2500   -999.2500   -999.2500   -999.2500      1.9453     10.4598     21.6553     10.0997      2.3287     -0.0004     30.2629     27.0884     93.4310  
  1641.5000   -999.2500   -999.2500   -999.2500   -999.2500      1.9263     10.3613     23.9109     10.1783      2.3245     -0.0011     29.9988     26.4316     93.1250  
  1642.0000   -999.2500   -999.2500   -999.2500   -999.2500      1.9370     10.3618     20.0812     10.3579      2.3246     -0.0018     29.4303     25.3540     93.1096  
  1642.5000   -999.2500   -999.2500   -999.2500   -999.2500      1.9501     10.5353     17.7567     10.5702      2.3301     -0.0023     28.8689     26.2785     93.1181  
  1643.0000   -999.2500   -999.2500   -999.2500   -999.2500      1.9668     10.9806     18.8047     10.5982      2.3364     -0.0026     28.9005     28.0680     93.1251  
  1643.5000   -999.2500   -999.2500   -999.2500   -999.2500      2.0019     11.4859     20.2450     10.6691      2.3430     -0.0030     29.4548     29.5512     93.5630  
  1644.0000   -999.2500   -999.2500   -999.2500   -999.2500      1.9834     11.6063     21.5340     10.7411      2.3468     -0.0033     29.9641     31.0925     93.6420  
  1644.5000   -999.2500   -999.2500   -999.2500   -999.2500      1.9444     11.1959     20.4686     10.8234      2.3308     -0.0017     30.5037     32.0362     93.1376  
  1645.0000   -999.2500   -999.2500   -999.2500   -999.2500      1.9083     10.6769     19.1564     10.9596      2.3249      0.0005     30.4873     32.0975     92.6176  
  1645.5000   -999.2500   -999.2500   -999.2500   -999.2500      1.8782     10.1996     17.7277     10.8753      2.3508      0.0014     30.1336     31.0767     92.2885  
  1646.0000   -999.2500   -999.2500   -999.2500   -999.2500      1.8538     10.2991     17.1194     10.5312      2.3536     -0.0008     29.5282     29.9016     92.4268  
  1646.5000   -999.2500   -999.2500   -999.2500   -999.2500      1.8406     10.1326     18.9373     10.6365      2.3429     -0.0034     28.5041     28.7503     91.9019  
  1647.0000   -999.2500   -999.2500   -999.2500   -999.2500      1.8218     10.3292     19.2391     10.9262      2.3464     -0.0059     28.0433     28.0730     90.9957  
  1647.5000   -999.2500   -999.2500   -999.2500   -999.2500      1.7612     10.5781     18.8834     11.0027      2.3541     -0.0075     27.3395     27.6513     89.9167  
  1648.0000   -999.2500   -999.2500   -999.2500   -999.2500      1.7358     10.7255     18.5343     10.9590      2.3787     -0.0069     28.4983     28.4323     88.0536  
  1648.5000   -999.2500   -999.2500   -999.2500   -999.2500      1.7370     10.5688     18.6217     10.9371      2.3948     -0.0062     28.3868     29.6892     87.4605  
  1649.0000   -999.2500   -999.2500   -999.2500   -999.2500      1.7806     10.4814     18.9475     10.7277      2.4151     -0.0021     28.2617     31.1311     87.6926  
  1649.5000   -999.2500   -999.2500   -999.2500   -999.2500      1.7655     11.0844     20.5736     10.6862      2.4380      0.0024     28.3178     32.9057     88.3634  
  1650.0000   -999.2500   -999.2500   -999.2500   -999.2500      1.6968     12.3001     22.3431     10.7362      2.4521      0.0082     28.7096     34.4988     89.2360  
  1650.5000   -999.2500   -999.2500   -999.2500   -999.2500      1.7132     13.8535     24.2649     10.7688      2.4490      0.0085     29.1014     35.7770     90.8175  
  1651.0000   -999.2500   -999.2500   -999.2500   -999.2500      1.7212     14.6535     25.4513     10.7018      2.4200      0.0056     29.5042     36.1957     90.5571  
  1651.5000   -999.2500   -999.2500   -999.2500   -999.2500      1.7047     14.6827     25.0365     10.6812      2.4029      0.0027     30.0710     35.8941     89.8502  
  1652.0000   -999.2500   -999.2500   -999.2500   -999.2500      1.7111     14.1044     23.9455     10.6722      2.3864     -0.0003     30.3030     34.3382     88.9146  
  1652.5000   -999.2500   -999.2500   -999.2500   -999.2500      1.7155     13.6679     22.5316     10.6552      2.3936     -0.0015     29.8419     32.9799     88.0271  
  1653.0000   -999.2500   -999.2500   -999.2500   -999.2500      1.6774     13.1120     20.5560     10.6658      2.4142     -0.0021     29.2262     33.3058     87.6181  
  1653.5000   -999.2500   -999.2500   -999.2500   -999.2500      1.6114     12.8500     20.0326     10.6971      2.4424     -0.0034     28.5047     35.2098     87.1584  
  1654.0000   -999.2500   -999.2500   -999.2500   -999.2500      1.5040     12.6074     19.5107     10.9155      2.4492     -0.0038     28.7736     37.4029     86.2753  
  1654.5000   -999.2500   -999.2500   -999.2500   -999.2500      1.4208     12.2605     19.6418     11.0237      2.4543     -0.0026     29.5133     39.2296     85.4090  
  1655.0000   -999.2500   -999.2500   -999.2500   -999.2500      1.3959     12.6426     20.3249     10.8816      2.4767     -0.0009     30.1779     40.1675     85.1682  
  1655.5000   -999.2500   -999.2500   -999.2500   -999.2500      1.3873     13.3598     22.0540     10.7911      2.4971      0.0001     30.2768     39.8929     85.5456  
  1656.0000   -999.2500   -999.2500   -999.2500   -999.2500      1.3548     15.1996     24.0033     10.7787      2.5060     -0.0027     30.3532     38.9217     86.5519  
  1656.5000   -999.2500   -999.2500   -999.2500   -999.2500      1.3049     15.6459     24.3660     10.8460      2.4770     -0.0054     29.8437     39.0725     87.4062  
  1657.0000   -999.2500   -999.2500   -999.2500   -999.2500      1.2602     15.4382     23.3809     10.9076      2.4440     -0.0082     29.1158     39.8259     87.8239  
  1657.5000   -999.2500   -999.2500   -999.2500   -999.2500      1.2173     14.9946     21.9866     10.9034      2.4343     -0.0045     29.9779     40.2249     87.8991  
  1658.0000   -999.2500   -999.2500   -999.2500   -999.2500      1.1772     14.7419     20.6515     10.8919      2.4297     -0.0006     30.5760     40.2089     87.6247  
  1658.5000   -999.2500   -999.2500   -999.2500   -999.2500      1.1553     14.9745     19.3974     10.8979      2.4289      0.0033     30.9430     40.0612     87.0976  
  1659.0000   -999.2500   -999.2500   -999.2500   -999.2500      1.1745     15.0829     18.2473     10.8979      2.4374     -0.0056     30.8774     40.0843     86.5883  
  1659.5000   -999.2500   -999.2500   -999.2500   -999.2500      1.2235     15.2771     18.6717     10.9644      2.4495     -0.0068     30.7649     40.7474     86.0415  
  1660.0000   -999.2500   -999.2500   -999.2500   -999.2500      1.3046     15.0333     20.1070     10.9904      2.4479     -0.0046     30.7602     41.8248     85.7634  
  1660.5000   -999.2500   -999.2500   -999.2500   -999.2500      1.2767     14.8782     22.1108     11.0285      2.4580      0.0018     30.6547     43.2215     85.4284  
  1661.0000   -999.2500   -999.2500   -999.2500   -999.2500      1.2529     15.7939     23.6830     11.0741      2.4902      0.0083     30.9680     44.1019     85.2782  
  1661.5000   -999.2500   -999.2500   -999.2500   -999.2500      1.2081     17.0429     25.6072     11.0989      2.5314      0.0147     31.2916     44.9454     85.4949  
