~VERSION INFORMATION
 VERS.                           2.00:        CWLS LOG ASCII STANDARD - VERSION 2.00
 WRAP.                             NO:        ONE LINE PER DEPTH STEP
~WELL INFORMATION
#MNEM.UNIT                   DATA             INFORMATION
#----------             --------------        ------------------------------
 STRT.F                      102.0000:        START DEPTH
 STOP.F                     5878.0000:        STOP DEPTH
 STEP.F                        0.5000:        STEP VALUE
 NULL.                      -999.2500:        NULL VALUE
 COMP. USGS/NPR-A HUSKY OIL OPERATION:        COMPANY  
 LOC .                   27   5N  11W:        LOCATION   
 DATE.                        3/26/81:        LOG DATE 
 WELL.                    KOLUKTAK #1:        WELL     
 UWI .                   501192000100:        UNIQUE WELL ID 
 API .                   501192000100:        UNIQUE WELL IDENTIFIER 
 FLD .                        WILDCAT:        FIELD    
 CNTY.                       N. SLOPE:        COUNTY  
 STAT.                         ALASKA:        STATE   
 CTRY.                            USA:        COUNTRY 
 OPER. USGS/NPR-A HUSKY OIL OPERATION:        OPERATOR  
 SRVC.                            440:        SERVICE COMPANY 
 LAT .                         0.0000:        LATITUDE
 LON .                         0.0000:        LONGITUDE
 DIGS.                             65:        DIGITIZING COMPANY 
~CURVE INFORMATION      
#MNEM.UNIT                 API CODE           CURVE DESCRIPTION
#---------              --------------        ------------------------------
 DEPT.F                              :        1  DEPTH
 SP  .MV                             :        2
 ILD .OHMM                           :        3
 ILM .OHMM                           :        4
 LL8 .OHMM                           :        5
 MSFL.OHMM                           :        6
 LLS .OHMM                           :        7
 LLD .OHMM                           :        8
 CALI.IN                             :        9
 RHOB.G/C3                           :       10
 DRHO.G/C3                           :       11
 NPHI.%                              :       12
 GR  .GAPI                           :       13
 DT  .US/F                           :       14
~PARAMETER INFORMATION       
#MNEM.UNIT                  VALUE             DESCRIPTION OF MNEMONIC
#---------             ---------------        ------------------------------
 EKB .F                      205.0000:        KELLY BUSHING
 TD  .F                     5883.0000:        TOTAL DEPTH
~OTHER INFORMATION
~A    DEPTH          SP         ILD         ILM         LL8        MSFL         LLS         LLD        CALI        RHOB        DRHO        NPHI          GR          DT  
# ...
  2790.0000   -999.2500   -999.2500   -999.2500   -999.2500      2.1378     31.8725     37.3115     12.5642      2.5016      0.0174     26.5258     48.0032     78.9302  
  2790.5000   -999.2500   -999.2500   -999.2500   -999.2500      2.3471     29.5173     35.6254     12.3762      2.5205      0.0176     25.2482     46.0584     78.6326  
  2791.0000   -999.2500   -999.2500   -999.2500   -999.2500      2.5224     26.9476     32.1451     12.5584      2.5254      0.0127     24.7537     45.0559     77.1806  
  2791.5000   -999.2500   -999.2500   -999.2500   -999.2500      2.2781     24.6017     25.0262     12.6935      2.5025      0.0078     25.1485     44.9279     74.3841  
  2792.0000   -999.2500   -999.2500   -999.2500   -999.2500      1.8655     22.4600     22.9335     12.6459      2.4894      0.0029     25.5433     45.5857     73.8278  
  2792.5000   -999.2500   -999.2500   -999.2500   -999.2500      1.9484     22.7827     28.3910     12.5183      2.4791     -0.0012     25.9381     46.0493     73.6734  
  2793.0000   -999.2500   -999.2500   -999.2500   -999.2500      2.1175     25.2841     34.4193     12.6304      2.4863     -0.0045     25.2028     44.8964     74.0263  
  2793.5000   -999.2500   -999.2500   -999.2500   -999.2500      2.1924     29.7746     37.0796     12.6600      2.4935     -0.0062     24.2690     42.1888     73.8547  
  2794.0000   -999.2500   -999.2500   -999.2500   -999.2500      2.2202     30.1599     37.8170     12.6684      2.4842     -0.0050     23.3352     41.6386     73.9389  
  2794.5000   -999.2500   -999.2500   -999.2500   -999.2500      2.1835     29.6127     36.8696     12.6486      2.4733     -0.0034     23.4339     42.4425     73.9938  
  2795.0000   -999.2500   -999.2500   -999.2500   -999.2500      2.1551     29.5679     35.9072     12.6015      2.4869     -0.0008     23.6762     44.9222     74.0486  
  2795.5000   -999.2500   -999.2500   -999.2500   -999.2500      2.1616     29.8588     35.7472     12.6332      2.4855      0.0018     23.8302     44.9537     73.7239  
  2796.0000   -999.2500   -999.2500   -999.2500   -999.2500      2.2598     30.4440     36.4930     12.6149      2.5006      0.0044     23.9843     43.2199     73.2608  
  2796.5000   -999.2500   -999.2500   -999.2500   -999.2500      2.6366     31.0389     37.8896     12.6210      2.5108      0.0055     24.0861     40.6063     72.8162  
  2797.0000   -999.2500   -999.2500   -999.2500   -999.2500      3.7227     31.2878     39.4113     13.0775      2.5098      0.0056     24.0571     38.0659     72.5579  
  2797.5000   -999.2500   -999.2500   -999.2500   -999.2500      5.9660     32.2125     40.6864     13.6745      2.5142      0.0058     23.9776     36.1222     72.3439  
  2798.0000   -999.2500   -999.2500   -999.2500   -999.2500      8.5136     33.2806     41.5606     13.7533      2.5215      0.0050     23.8777     35.9235     71.8795  
  2798.5000   -999.2500   -999.2500   -999.2500   -999.2500     11.3999     33.4128     42.4808     13.6941      2.5335      0.0042     23.7778     37.6297     71.2816  
  2799.0000   -999.2500   -999.2500   -999.2500   -999.2500     13.1237     33.8223     43.9407     13.6306      2.5472      0.0026     23.7673     39.5093     70.9698  
  2799.5000   -999.2500   -999.2500   -999.2500   -999.2500     11.7839     35.3342     45.3762     13.5908      2.5616      0.0004     23.7688     42.2466     70.9380  
  2800.0000   -999.2500   -999.2500   -999.2500   -999.2500     10.6180     36.8234     46.9830     13.5990      2.5521     -0.0017     23.9079     45.7859     70.9212  
  2800.5000   -999.2500   -999.2500   -999.2500   -999.2500      9.6000     38.3984     48.7859     13.6208      2.5576     -0.0039     24.0545     49.2629     70.8483  
  2801.0000   -999.2500   -999.2500   -999.2500   -999.2500      8.5765     39.6609     50.3456     13.6468      2.5860     -0.0045     23.8454     51.7059     70.7252  
  2801.5000   -999.2500   -999.2500   -999.2500   -999.2500      6.5686     40.5918     51.1064     13.6650      2.5935     -0.0049     23.6364     52.9382     70.5771  
  2802.0000   -999.2500   -999.2500   -999.2500   -999.2500      4.4218     41.0684     50.9057     13.6833      2.5990     -0.0054     23.5521     52.9291     70.3697  
  2802.5000   -999.2500   -999.2500   -999.2500   -999.2500      4.8299     40.9591     51.1535     13.7175      2.5867     -0.0055     23.4929     52.8331     70.1211  
  2803.0000   -999.2500   -999.2500   -999.2500   -999.2500      5.2902     40.1709     50.6773     13.7459      2.5962     -0.0054     23.7015     52.9493     69.7069  
  2803.5000   -999.2500   -999.2500   -999.2500   -999.2500      5.6569     40.1874     50.8897     13.6844      2.6083     -0.0053     23.6714     53.2862     69.0805  
  2804.0000   -999.2500   -999.2500   -999.2500   -999.2500      4.6557     39.7614     50.8491     13.6309      2.6142     -0.0053     23.6027     53.8232     68.5701  
  2804.5000   -999.2500   -999.2500   -999.2500   -999.2500      3.8413     41.6239     52.7274     13.5774      2.6045     -0.0034     23.5099     55.2788     68.1933  
  2805.0000   -999.2500   -999.2500   -999.2500   -999.2500      5.8232     43.3019     53.7396     13.5222      2.5989     -0.0002     23.2613     56.9587     68.2825  
  2805.5000   -999.2500   -999.2500   -999.2500   -999.2500      8.7025     44.3958     56.4710     13.5306      2.5945      0.0027     22.9332     58.4141     68.4669  
  2806.0000   -999.2500   -999.2500   -999.2500   -999.2500      9.8894     45.5174     58.6200     13.5720      2.5862      0.0052     22.5819     59.0289     68.5810  
  2806.5000   -999.2500   -999.2500   -999.2500   -999.2500      9.2778     46.6673     59.8511     13.6124      2.5931      0.0066     22.6176     59.6816     68.5155  
  2807.0000   -999.2500   -999.2500   -999.2500   -999.2500      8.7041     47.8462     58.9452     13.6442      2.6072      0.0048     22.7922     60.3256     68.0563  
  2807.5000   -999.2500   -999.2500   -999.2500   -999.2500      8.6286     47.8288     57.9932     13.6574      2.6028      0.0027     22.8473     59.0617     67.4828  
  2808.0000   -999.2500   -999.2500   -999.2500   -999.2500      9.4015     47.7964     57.0567     13.6618      2.5947      0.0011     22.1225     55.7856     66.7037  
  2808.5000   -999.2500   -999.2500   -999.2500   -999.2500      9.8143     47.9570     57.4151     13.6336      2.5936     -0.0004     21.3217     53.0588     66.0705  
  2809.0000   -999.2500   -999.2500   -999.2500   -999.2500     10.5344     48.1181     59.6795     13.7110      2.5978     -0.0020     20.9535     51.8133     65.7095  
  2809.5000   -999.2500   -999.2500   -999.2500   -999.2500     11.9222     49.2516     62.1083     13.7448      2.6031     -0.0003     20.0819     51.7409     65.5952  
  2810.0000   -999.2500   -999.2500   -999.2500   -999.2500     12.8503     50.8465     66.1819     13.7534      2.6145      0.0025     19.0824     51.5986     65.6557  
  2810.5000   -999.2500   -999.2500   -999.2500   -999.2500     11.8076     52.4573     68.6838     13.7621      2.6130      0.0054     18.6050     51.5165     65.8715  
  2811.0000   -999.2500   -999.2500   -999.2500   -999.2500     10.7538     54.2915     71.1973     13.6720      2.6071      0.0090     18.7847     50.9058     66.3740  
  2811.5000   -999.2500   -999.2500   -999.2500   -999.2500     10.9392     56.6213     73.8029     13.6645      2.6073      0.0131     19.0971     49.6853     67.1120  
  2812.0000   -999.2500   -999.2500   -999.2500   -999.2500     11.9375     58.4040     76.5038     13.6817      2.6137      0.0172     19.2946     48.5172     67.4412  
  2812.5000   -999.2500   -999.2500   -999.2500   -999.2500     10.7509     59.8134     78.3400     13.6924      2.6219      0.0207     19.8454     48.1447     67.6329  
  2813.0000   -999.2500   -999.2500   -999.2500   -999.2500      9.1898     59.0671     76.0174     13.6974      2.6295      0.0229     20.5197     48.8039     67.7708  
  2813.5000   -999.2500   -999.2500   -999.2500   -999.2500      6.7997     55.5694     72.2286     13.7771      2.6373      0.0250     21.0066     49.8952     67.9145  
