~VERSION INFORMATION
 VERS.                           2.00:        CWLS LOG ASCII STANDARD - VERSION 2.00
 WRAP.                             NO:        ONE LINE PER DEPTH STEP
~WELL INFORMATION
#MNEM.UNIT                   DATA             INFORMATION
#----------             --------------        ------------------------------
 STRT.F                      102.0000:        START DEPTH
 STOP.F                     5878.0000:        STOP DEPTH
 STEP.F                        0.5000:        STEP VALUE
 NULL.                      -999.2500:        NULL VALUE
 COMP. USGS/NPR-A HUSKY OIL OPERATION:        COMPANY  
 LOC .                   27   5N  11W:        LOCATION   
 DATE.                        3/26/81:        LOG DATE 
 WELL.                    KOLUKTAK #1:        WELL     
 UWI .                   501192000100:        UNIQUE WELL ID 
 API .                   501192000100:        UNIQUE WELL IDENTIFIER 
 FLD .                        WILDCAT:        FIELD    
 CNTY.                       N. SLOPE:        COUNTY  
 STAT.                         ALASKA:        STATE   
 CTRY.                            USA:        COUNTRY 
 OPER. USGS/NPR-A HUSKY OIL OPERATION:        OPERATOR  
 SRVC.                            440:        SERVICE COMPANY 
 LAT .                         0.0000:        LATITUDE
 LON .                         0.0000:        LONGITUDE
 DIGS.                             65:        DIGITIZING COMPANY 
~CURVE INFORMATION      
#MNEM.UNIT                 API CODE           CURVE DESCRIPTION
#---------              --------------        ------------------------------
 DEPT.F                              :        1  DEPTH
 SP  .MV                             :        2
 ILD .OHMM                           :        3
 ILM .OHMM                           :        4
 LL8 .OHMM                           :        5
 MSFL.OHMM                           :        6
 LLS .OHMM                           :        7
 LLD .OHMM                           :        8
 CALI.IN                             :        9
 RHOB.G/C3                           :       10
 DRHO.G/C3                           :       11
 NPHI.%                              :       12
 GR  .GAPI                           :       13
 DT  .US/F                           :       14
~PARAMETER INFORMATION       
#MNEM.UNIT                  VALUE             DESCRIPTION OF MNEMONIC
#---------             ---------------        ------------------------------
 EKB .F                      205.0000:        KELLY BUSHING
 TD  .F                     5883.0000:        TOTAL DEPTH
~OTHER INFORMATION
~A    DEPTH          SP         ILD         ILM         LL8        MSFL         LLS         LLD        CALI        RHOB        DRHO        NPHI          GR          DT  
# ...
  2022.0000   -999.2500   -999.2500   -999.2500   -999.2500      1.0805     21.0429     27.0330     14.1440      2.4440      0.0020     29.5135     58.9368     79.1774  
  2022.5000   -999.2500   -999.2500   -999.2500   -999.2500      1.2509     19.9597     24.4299     13.8476      2.4763      0.0007     30.0551     61.7994     73.6247  
  2023.0000   -999.2500   -999.2500   -999.2500   -999.2500      1.4093     19.1315     22.0774     13.2439      2.5266     -0.0014     29.6140     62.0669     67.6658  
  2023.5000   -999.2500   -999.2500   -999.2500   -999.2500      1.7917     20.2935     22.9405     12.6403      2.5548     -0.0029     28.7030     60.4100     63.7424  
  2024.0000   -999.2500   -999.2500   -999.2500   -999.2500      2.9901     25.8504     32.0314     12.7059      2.5832      0.0086     25.7469     56.6620     62.7562  
  2024.5000   -999.2500   -999.2500   -999.2500   -999.2500      3.8736     41.1015     51.3006     12.8956      2.5942      0.0219     22.3927     51.6301     63.1923  
  2025.0000   -999.2500   -999.2500   -999.2500   -999.2500      4.1087     60.9018     78.1647     13.1257      2.6084      0.0401     20.9604     47.6498     63.9024  
  2025.5000   -999.2500   -999.2500   -999.2500   -999.2500      3.9654     74.9641    101.6147     13.3089      2.6211      0.0628     17.8897     44.3582     64.9001  
  2026.0000   -999.2500   -999.2500   -999.2500   -999.2500      3.3830     80.6772    116.9317     13.5736      2.6261      0.0810     17.5659     42.5056     66.0342  
  2026.5000   -999.2500   -999.2500   -999.2500   -999.2500      3.1921     84.1741    124.1285     13.6424      2.6188      0.0752     16.6399     41.6380     68.5543  
  2027.0000   -999.2500   -999.2500   -999.2500   -999.2500      2.9991     80.7034    121.5903     13.6223      2.6050      0.0550     17.0791     41.3675     71.6216  
  2027.5000   -999.2500   -999.2500   -999.2500   -999.2500      2.4985     77.4794    106.9952     13.3497      2.5789      0.0240     17.5830     41.5768     74.2141  
  2028.0000   -999.2500   -999.2500   -999.2500   -999.2500      1.7349     63.1873     79.8225     12.8318      2.5366      0.0096     19.0564     40.8411     76.4739  
  2028.5000   -999.2500   -999.2500   -999.2500   -999.2500      1.2462     45.9400     56.9609     12.2160      2.5036     -0.0049     21.2067     42.5480     77.3984  
  2029.0000   -999.2500   -999.2500   -999.2500   -999.2500      1.0572     38.5061     48.5817     12.0658      2.4857     -0.0194     22.8219     45.8076     77.7652  
  2029.5000   -999.2500   -999.2500   -999.2500   -999.2500      1.0009     32.2752     43.8448     12.1317      2.4821     -0.0188     23.9337     47.4045     78.0549  
  2030.0000   -999.2500   -999.2500   -999.2500   -999.2500      0.9524     29.3487     36.6040     12.0609      2.4830     -0.0182     24.4224     46.4440     78.6797  
  2030.5000   -999.2500   -999.2500   -999.2500   -999.2500      0.9320     27.8265     33.9209     11.7088      2.4822     -0.0169     24.7517     44.4481     78.9663  
  2031.0000   -999.2500   -999.2500   -999.2500   -999.2500      0.9491     26.5246     34.7623     11.6232      2.4770     -0.0149     24.9645     44.4671     78.8022  
  2031.5000   -999.2500   -999.2500   -999.2500   -999.2500      1.0186     25.8196     36.1924     11.5497      2.4752     -0.0128     25.0622     46.8582     78.6033  
  2032.0000   -999.2500   -999.2500   -999.2500   -999.2500      1.1422     25.5490     34.7196     11.5841      2.4722     -0.0107     24.8653     49.3431     78.5508  
  2032.5000   -999.2500   -999.2500   -999.2500   -999.2500      1.5892     25.5886     33.1211     11.6301      2.4694     -0.0086     24.7311     49.3336     78.5516  
  2033.0000   -999.2500   -999.2500   -999.2500   -999.2500      2.0132     25.2074     31.5169     11.7062      2.4633     -0.0075     24.7059     47.6730     78.6258  
  2033.5000   -999.2500   -999.2500   -999.2500   -999.2500      2.4305     25.0019     30.1161     11.7778      2.4652     -0.0067     24.8078     46.9809     78.8796  
  2034.0000   -999.2500   -999.2500   -999.2500   -999.2500      3.3693     24.6162     29.5272     11.6434      2.4713     -0.0060     24.7583     47.2720     79.0028  
  2034.5000   -999.2500   -999.2500   -999.2500   -999.2500      4.3684     24.1927     31.5641     11.5977      2.4679     -0.0063     24.5383     46.2591     79.0147  
  2035.0000   -999.2500   -999.2500   -999.2500   -999.2500      4.6499     24.3411     33.2799     11.7569      2.4595     -0.0070     24.3458     44.9508     79.0021  
  2035.5000   -999.2500   -999.2500   -999.2500   -999.2500      4.6328     24.0489     31.8693     11.8767      2.4521     -0.0089     24.1534     43.8596     79.4358  
  2036.0000   -999.2500   -999.2500   -999.2500   -999.2500      4.5325     24.3660     32.1756     12.1143      2.4529     -0.0107     23.9609     43.1465     80.3673  
  2036.5000   -999.2500   -999.2500   -999.2500   -999.2500      4.5408     24.7987     32.5777     12.1200      2.4536     -0.0116     23.7937     42.4898     82.8407  
  2037.0000   -999.2500   -999.2500   -999.2500   -999.2500      4.4905     25.2068     33.5317     12.3622      2.4541     -0.0061     23.8599     42.2271     85.5891  
  2037.5000   -999.2500   -999.2500   -999.2500   -999.2500      4.3107     24.6463     35.4144     12.5686      2.4259      0.0119     24.2176     42.8781     87.8015  
  2038.0000   -999.2500   -999.2500   -999.2500   -999.2500      3.7992     24.0621     31.3400     13.7097      2.3993      0.0295     26.2204     45.2737     89.1937  
  2038.5000   -999.2500   -999.2500   -999.2500   -999.2500      2.8351     22.7967     27.7343     14.6395      2.3731      0.0471     28.9472     48.8188     89.7598  
  2039.0000   -999.2500   -999.2500   -999.2500   -999.2500      2.0936     20.9670     24.9990     14.6866      2.3458      0.0502     31.1486     53.0530     89.4269  
  2039.5000   -999.2500   -999.2500   -999.2500   -999.2500      1.8069     19.2841     23.7465     14.6853      2.3627      0.0458     33.0545     57.9701     88.7669  
  2040.0000   -999.2500   -999.2500   -999.2500   -999.2500      1.8829     18.0568     23.6661     14.4748      2.3778      0.0415     33.7991     61.5871     88.5332  
  2040.5000   -999.2500   -999.2500   -999.2500   -999.2500      2.5850     18.3284     23.2308     14.5489      2.3607      0.0363     33.0359     64.7897     88.0872  
  2041.0000   -999.2500   -999.2500   -999.2500   -999.2500      3.3658     18.8677     22.2340     14.8289      2.3737      0.0305     32.5586     66.2470     87.0980  
  2041.5000   -999.2500   -999.2500   -999.2500   -999.2500      3.6673     19.4276     21.1974     15.0384      2.3847      0.0248     32.6604     67.0908     86.6405  
  2042.0000   -999.2500   -999.2500   -999.2500   -999.2500      3.6117     20.0041     21.7295     14.8004      2.4065      0.0190     33.4378     67.2218     85.9893  
  2042.5000   -999.2500   -999.2500   -999.2500   -999.2500      3.4300     20.4299     24.0120     14.3853      2.4585      0.0132     33.7400     67.2784     86.8101  
  2043.0000   -999.2500   -999.2500   -999.2500   -999.2500      3.5524     20.6903     26.3238     14.3833      2.4705      0.0084     33.6754     67.0678     88.7026  
  2043.5000   -999.2500   -999.2500   -999.2500   -999.2500      4.1525     20.5712     22.1302     14.4267      2.4863      0.0054     33.8860     66.6708     90.7052  
  2044.0000   -999.2500   -999.2500   -999.2500   -999.2500      5.0641     20.0881     23.5402     14.6243      2.4743      0.0046     34.1778     66.5123     92.7264  
  2044.5000   -999.2500   -999.2500   -999.2500   -999.2500      4.6017     19.0324     23.3057     14.8705      2.4575      0.0124     35.1756     66.2693     90.3986  
  2045.0000   -999.2500   -999.2500   -999.2500   -999.2500      4.0077     18.0322     20.2088     14.8175      2.4636      0.0202     35.9855     67.0677     86.7803  
  2045.5000   -999.2500   -999.2500   -999.2500   -999.2500      3.6686     17.0222     19.1908     13.9505      2.4708      0.0209     36.1150     69.1806     82.3692  
