~VERSION INFORMATION
 VERS.                           2.00:        CWLS LOG ASCII STANDARD - VERSION 2.00
 WRAP.                             NO:        ONE LINE PER DEPTH STEP
~WELL INFORMATION
#MNEM.UNIT                   DATA             INFORMATION
#----------             --------------        ------------------------------
 STRT.F                      102.0000:        START DEPTH
 STOP.F                     5878.0000:        STOP DEPTH
 STEP.F                        0.5000:        STEP VALUE
 NULL.                      -999.2500:        NULL VALUE
 COMP. USGS/NPR-A HUSKY OIL OPERATION:        COMPANY  
 LOC .                   27   5N  11W:        LOCATION   
 DATE.                        3/26/81:        LOG DATE 
 WELL.                    KOLUKTAK #1:        WELL     
 UWI .                   501192000100:        UNIQUE WELL ID 
 API .                   501192000100:        UNIQUE WELL IDENTIFIER 
 FLD .                        WILDCAT:        FIELD    
 CNTY.                       N. SLOPE:        COUNTY  
 STAT.                         ALASKA:        STATE   
 CTRY.                            USA:        COUNTRY 
 OPER. USGS/NPR-A HUSKY OIL OPERATION:        OPERATOR  
 SRVC.                            440:        SERVICE COMPANY 
 LAT .                         0.0000:        LATITUDE
 LON .                         0.0000:        LONGITUDE
 DIGS.                             65:        DIGITIZING COMPANY 
~CURVE INFORMATION      
#MNEM.UNIT                 API CODE           CURVE DESCRIPTION
#---------              --------------        ------------------------------
 DEPT.F                              :        1  DEPTH
 SP  .MV                             :        2
 ILD .OHMM                           :        3
 ILM .OHMM                           :        4
 LL8 .OHMM                           :        5
 MSFL.OHMM                           :        6
 LLS .OHMM                           :        7
 LLD .OHMM                           :        8
 CALI.IN                             :        9
 RHOB.G/C3                           :       10
 DRHO.G/C3                           :       11
 NPHI.%                              :       12
 GR  .GAPI                           :       13
 DT  .US/F                           :       14
~PARAMETER INFORMATION       
#MNEM.UNIT                  VALUE             DESCRIPTION OF MNEMONIC
#---------             ---------------        ------------------------------
 EKB .F                      205.0000:        KELLY BUSHING
 TD  .F                     5883.0000:        TOTAL DEPTH
~OTHER INFORMATION
~A    DEPTH          SP         ILD         ILM         LL8        MSFL         LLS         LLD        CALI        RHOB        DRHO        NPHI          GR          DT  
# ...
  3150.0000   -999.2500   -999.2500   -999.2500   -999.2500      1.8749     15.8928     20.3692     15.3178      2.5689      0.0226     33.1493     72.2994     85.8450  
  3150.5000   -999.2500   -999.2500   -999.2500   -999.2500      1.7112     16.0101     19.9247     15.3036      2.5749      0.0115     33.8649     72.2096     85.6359  
  3151.0000   -999.2500   -999.2500   -999.2500   -999.2500      2.0468     15.9098     18.9955     15.4466      2.5830      0.0069     34.4718     71.4960     85.4927  
  3151.5000   -999.2500   -999.2500   -999.2500   -999.2500      2.4101     15.7486     18.3766     15.2548      2.6105      0.0157     34.6652     71.2899     85.4009  
  3152.0000   -999.2500   -999.2500   -999.2500   -999.2500      2.6685     15.5699     18.6512     15.1787      2.6044      0.0245     34.7163     71.8568     84.7069  
  3152.5000   -999.2500   -999.2500   -999.2500   -999.2500      2.5882     15.5108     18.9543     15.1240      2.5811      0.0170     34.0272     72.5006     81.9068  
  3153.0000   -999.2500   -999.2500   -999.2500   -999.2500      2.6924     15.5103     19.3233     15.0313      2.5844      0.0049     33.1421     72.7801     78.8049  
  3153.5000   -999.2500   -999.2500   -999.2500   -999.2500      3.0056     15.9291     20.3584     14.9531      2.5902      0.0006     32.3630     73.4711     76.5762  
  3154.0000   -999.2500   -999.2500   -999.2500   -999.2500      3.3713     16.9418     21.6068     14.9049      2.5960      0.0050     31.6599     76.4312     74.9894  
  3154.5000   -999.2500   -999.2500   -999.2500   -999.2500      3.7551     18.0860     23.3479     14.8860      2.6010      0.0095     30.3334     78.4089     73.8854  
  3155.0000   -999.2500   -999.2500   -999.2500   -999.2500      4.4455     20.0448     26.1180     14.8693      2.6103      0.0133     28.0976     78.5777     73.9025  
  3155.5000   -999.2500   -999.2500   -999.2500   -999.2500      6.5218     22.3379     29.1798     14.8253      2.6174      0.0090     27.1338     76.9352     73.8687  
  3156.0000   -999.2500   -999.2500   -999.2500   -999.2500      9.6878     25.4052     33.7955     14.8215      2.6050     -0.0002     25.5786     73.7989     73.9370  
  3156.5000   -999.2500   -999.2500   -999.2500   -999.2500     11.3217     26.2286     36.1575     14.7062      2.5891     -0.0033     25.6091     71.2602     74.3095  
  3157.0000   -999.2500   -999.2500   -999.2500   -999.2500     11.7518     26.9605     35.9204     14.6463      2.5867     -0.0064     25.8761     70.7831     74.5742  
  3157.5000   -999.2500   -999.2500   -999.2500   -999.2500     11.7762     26.7180     34.7284     14.7642      2.5952      0.0004     26.4572     70.3024     74.7867  
  3158.0000   -999.2500   -999.2500   -999.2500   -999.2500     11.6810     26.1245     33.8569     14.6807      2.6012      0.0075     27.3517     68.8815     75.0043  
  3158.5000   -999.2500   -999.2500   -999.2500   -999.2500     11.2187     25.4307     33.4303     14.7006      2.6085      0.0108     27.9714     66.3705     75.2264  
  3159.0000   -999.2500   -999.2500   -999.2500   -999.2500     10.7718     24.7677     33.0090     14.5944      2.6143      0.0004     27.7873     64.5671     75.5323  
  3159.5000   -999.2500   -999.2500   -999.2500   -999.2500     10.3312     24.5619     30.8967     14.5972      2.6098      0.0075     27.6032     63.0206     75.8894  
  3160.0000   -999.2500   -999.2500   -999.2500   -999.2500     10.2473     24.4117     30.4567     14.5680      2.5980      0.0146     27.7836     62.7258     77.0225  
  3160.5000   -999.2500   -999.2500   -999.2500   -999.2500      8.4700     24.2625     30.0278     14.5630      2.5896      0.0085     28.1244     62.5609     78.5992  
  3161.0000   -999.2500   -999.2500   -999.2500   -999.2500      7.8131     24.0322     28.4410     14.4819      2.5856      0.0030     28.4652     63.3720     79.2966  
  3161.5000   -999.2500   -999.2500   -999.2500   -999.2500      7.4167     23.4188     25.6951     14.4538      2.5954      0.0022     28.8061     66.0285     78.6574  
  3162.0000   -999.2500   -999.2500   -999.2500   -999.2500      6.2272     21.3961     23.2143     14.4754      2.6018      0.0014     29.0630     69.6480     76.3508  
  3162.5000   -999.2500   -999.2500   -999.2500   -999.2500      4.9052     19.5480     20.9783     14.4572      2.6123      0.0062     29.2718     72.2740     73.3760  
  3163.0000   -999.2500   -999.2500   -999.2500   -999.2500      4.0069     18.2886     19.5117     14.4093      2.6379      0.0156     29.4096     70.0117     70.9196  
  3163.5000   -999.2500   -999.2500   -999.2500   -999.2500      3.1423     18.6818     20.6202     14.4220      2.6456      0.0249     28.7038     67.5482     69.6198  
  3164.0000   -999.2500   -999.2500   -999.2500   -999.2500      3.1911     21.4761     26.7262     14.3233      2.6470      0.0184     27.4234     62.9434     68.5910  
  3164.5000   -999.2500   -999.2500   -999.2500   -999.2500      4.8037     26.1319     34.3047     14.2245      2.6491      0.0148     25.4274     58.4883     68.6807  
  3165.0000   -999.2500   -999.2500   -999.2500   -999.2500      6.0793     31.7971     41.1145     14.2236      2.6499      0.0111     23.7833     57.9464     69.3572  
  3165.5000   -999.2500   -999.2500   -999.2500   -999.2500      6.4669     36.8811     45.9111     14.2944      2.6490      0.0082     23.0971     58.1636     70.9983  
  3166.0000   -999.2500   -999.2500   -999.2500   -999.2500      6.5313     38.2507     47.0003     14.2845      2.6417      0.0073     22.6109     56.6448     73.6337  
  3166.5000   -999.2500   -999.2500   -999.2500   -999.2500      5.9994     38.3121     42.0877     14.2500      2.6231      0.0062     22.2181     54.5417     75.4026  
  3167.0000   -999.2500   -999.2500   -999.2500   -999.2500      4.9269     35.7073     39.1350     14.2945      2.6087      0.0050     22.1511     55.5392     76.3840  
  3167.5000   -999.2500   -999.2500   -999.2500   -999.2500      3.9823     32.4317     34.4116     14.4204      2.5952      0.0042     22.8961     58.0714     75.5691  
  3168.0000   -999.2500   -999.2500   -999.2500   -999.2500      3.2388     29.4566     30.7110     14.4105      2.5879      0.0057     23.7869     62.5985     74.6477  
  3168.5000   -999.2500   -999.2500   -999.2500   -999.2500      2.9291     26.4740     30.6098     14.3885      2.5977      0.0091     24.9120     64.6089     73.4271  
  3169.0000   -999.2500   -999.2500   -999.2500   -999.2500      3.5656     26.1429     30.9780     14.4987      2.6251      0.0091     25.5059     64.1727     72.3167  
  3169.5000   -999.2500   -999.2500   -999.2500   -999.2500      4.1674     27.4662     32.7362     14.5481      2.6413      0.0060     26.0999     62.0316     71.5919  
  3170.0000   -999.2500   -999.2500   -999.2500   -999.2500      4.4388     29.6526     34.8127     14.5101      2.6231      0.0030     25.7299     59.9564     71.8921  
  3170.5000   -999.2500   -999.2500   -999.2500   -999.2500      4.7418     32.0130     37.1063     14.4722      2.6094      0.0001     24.8561     58.0564     72.4258  
  3171.0000   -999.2500   -999.2500   -999.2500   -999.2500      5.9534     33.7008     39.5511     14.4640      2.6087     -0.0018     23.9824     57.8368     72.5438  
  3171.5000   -999.2500   -999.2500   -999.2500   -999.2500      6.6434     34.1419     40.0402     14.4341      2.6036     -0.0026     23.7098     57.2464     71.5688  
  3172.0000   -999.2500   -999.2500   -999.2500   -999.2500      5.3576     32.8572     39.5196     14.4368      2.6022     -0.0024     23.8500     55.7319     70.3555  
  3172.5000   -999.2500   -999.2500   -999.2500   -999.2500      4.5705     30.7757     37.8288     14.4356      2.5981     -0.0012     23.9902     55.1641     69.8708  
  3173.0000   -999.2500   -999.2500   -999.2500   -999.2500      4.9891     31.7233     38.2292     14.4919      2.5955      0.0012     23.5842     55.6843     70.9737  
  3173.5000   -999.2500   -999.2500   -999.2500   -999.2500      6.5380     33.3811     43.0008     14.5616      2.6049      0.0040     22.4193     55.0931     73.1279  
