~VERSION INFORMATION
 VERS.                           2.00:        CWLS LOG ASCII STANDARD - VERSION 2.00
 WRAP.                             NO:        ONE LINE PER DEPTH STEP
~WELL INFORMATION
#MNEM.UNIT                   DATA             INFORMATION
#----------             --------------        ------------------------------
 STRT.F                      102.0000:        START DEPTH
 STOP.F                     5878.0000:        STOP DEPTH
 STEP.F                        0.5000:        STEP VALUE
 NULL.                      -999.2500:        NULL VALUE
 COMP. USGS/NPR-A HUSKY OIL OPERATION:        COMPANY  
 LOC .                   27   5N  11W:        LOCATION   
 DATE.                        3/26/81:        LOG DATE 
 WELL.                    KOLUKTAK #1:        WELL     
 UWI .                   501192000100:        UNIQUE WELL ID 
 API .                   501192000100:        UNIQUE WELL IDENTIFIER 
 FLD .                        WILDCAT:        FIELD    
 CNTY.                       N. SLOPE:        COUNTY  
 STAT.                         ALASKA:        STATE   
 CTRY.                            USA:        COUNTRY 
 OPER. USGS/NPR-A HUSKY OIL OPERATION:        OPERATOR  
 SRVC.                            440:        SERVICE COMPANY 
 LAT .                         0.0000:        LATITUDE
 LON .                         0.0000:        LONGITUDE
 DIGS.                             65:        DIGITIZING COMPANY 
~CURVE INFORMATION      
#MNEM.UNIT                 API CODE           CURVE DESCRIPTION
#---------              --------------        ------------------------------
 DEPT.F                              :        1  DEPTH
 SP  .MV                             :        2
 ILD .OHMM                           :        3
 ILM .OHMM                           :        4
 LL8 .OHMM                           :        5
 MSFL.OHMM                           :        6
 LLS .OHMM                           :        7
 LLD .OHMM                           :        8
 CALI.IN                             :        9
 RHOB.G/C3                           :       10
 DRHO.G/C3                           :       11
 NPHI.%                              :       12
 GR  .GAPI                           :       13
 DT  .US/F                           :       14
~PARAMETER INFORMATION       
#MNEM.UNIT                  VALUE             DESCRIPTION OF MNEMONIC
#---------             ---------------        ------------------------------
 EKB .F                      205.0000:        KELLY BUSHING
 TD  .F                     5883.0000:        TOTAL DEPTH
~OTHER INFORMATION
~A    DEPTH          SP         ILD         ILM         LL8        MSFL         LLS         LLD        CALI        RHOB        DRHO        NPHI          GR          DT  
# ...
   486.0000    -24.2489      6.4084      7.4684      6.5611   -999.2500   -999.2500   -999.2500     12.9317      2.4884      0.1133     42.2053   -999.2500    119.8606  
   486.5000    -24.7047      6.5050      7.6021      6.6522   -999.2500   -999.2500   -999.2500     12.9128      2.4927      0.1003     44.3842   -999.2500    122.2824  
   487.0000    -15.0934      6.8252      7.7531      6.7811   -999.2500   -999.2500   -999.2500     12.8936      2.4818      0.0828     46.5806   -999.2500    123.1153  
   487.5000     -5.4821      7.2502      8.1739      7.0228   -999.2500   -999.2500   -999.2500     12.8699      2.4416      0.0498     48.6465   -999.2500    124.8352  
   488.0000     -0.0725      7.7114      8.8005      7.6363   -999.2500   -999.2500   -999.2500     12.8461      2.3987      0.0303     50.3750   -999.2500    128.2791  
   488.5000     -0.0718      8.2019      9.8232      8.7521   -999.2500   -999.2500   -999.2500     12.8224      2.3352      0.0076     52.1035   -999.2500    129.8727  
   489.0000     -0.0710      8.7236     11.0434     10.6353   -999.2500   -999.2500   -999.2500     12.8178      2.2820      0.0301     54.6157   -999.2500    131.5576  
   489.5000     -0.0703      9.2785     11.9796     18.2415   -999.2500   -999.2500   -999.2500     12.8453      2.2096      0.0530     54.4149   -999.2500    131.5684  
   490.0000     -0.0695      9.7072     12.5351     25.7151   -999.2500   -999.2500   -999.2500     12.9026      2.0613      0.0423     54.2141   -999.2500    130.1916  
   490.5000     -0.0688     10.1538     13.1163     16.8159   -999.2500   -999.2500   -999.2500     12.9347      1.9938      0.0536     53.2936   -999.2500    127.3190  
   491.0000     -0.0680     10.4299     13.5665     15.9493   -999.2500   -999.2500   -999.2500     12.7161      1.9510      0.0731     49.7400   -999.2500    121.9302  
   491.5000     -0.0673     10.4460     13.2112     17.8899   -999.2500   -999.2500   -999.2500     12.6837      1.9452      0.0589     45.8160   -999.2500    115.2501  
   492.0000     -0.0665     10.2898     12.3514     18.5679   -999.2500   -999.2500   -999.2500     12.7616      2.0330      0.0356     41.8921   -999.2500    107.5943  
   492.5000     -0.0658     10.0180     11.5528     16.9174   -999.2500   -999.2500   -999.2500     12.8154      2.3219      0.0350     38.5487   -999.2500    102.3101  
   493.0000     -6.0072      9.7962     10.9233     13.7775   -999.2500   -999.2500   -999.2500     12.8212      2.4534      0.0427     37.8539   -999.2500    102.7568  
   493.5000    -11.5376      9.6109     11.4625     12.5586   -999.2500   -999.2500   -999.2500     12.8270      2.5235      0.0394     37.1591   -999.2500    104.9722  
   494.0000    -17.7488      9.4291     11.9587     14.9010   -999.2500   -999.2500   -999.2500     12.8328      2.5357      0.0303     39.3563   -999.2500    107.6564  
   494.5000    -11.5018      9.6171     12.4764     17.7274   -999.2500   -999.2500   -999.2500     12.8387      2.5270      0.0212     43.6735   -999.2500    106.4268  
   495.0000     -5.2548     10.0052     12.9470     18.5448   -999.2500   -999.2500   -999.2500     12.8445      2.5182      0.0004     46.7360   -999.2500    104.5674  
   495.5000      0.9922     10.3407     13.4257     16.9674   -999.2500   -999.2500   -999.2500     12.8449      2.4947     -0.0145     37.3255   -999.2500    102.1945  
   496.0000      1.6106     10.8850     14.5640     16.2258   -999.2500   -999.2500   -999.2500     12.8429      2.4788      0.0024     35.7053   -999.2500    102.4399  
   496.5000    -18.2165     11.5206     15.7988     17.9928   -999.2500   -999.2500   -999.2500     12.8409      2.4566      0.0190     34.6422   -999.2500    105.7216  
   497.0000    -10.1096     12.2751     17.1382     19.9162   -999.2500   -999.2500   -999.2500     12.8329      2.4544      0.0263     33.6986   -999.2500    109.5505  
   497.5000     -2.0027     13.2370     19.5257     20.1106   -999.2500   -999.2500   -999.2500     12.8373      2.4579      0.0414     33.9035   -999.2500    112.4648  
   498.0000     -5.3002     14.9102     22.5676     22.7197   -999.2500   -999.2500   -999.2500     12.8536      2.4603      0.0298     33.8046   -999.2500    113.3788  
   498.5000    -11.7216     16.1258     27.6872     26.9087   -999.2500   -999.2500   -999.2500     12.8624      2.4654      0.0417     33.1696   -999.2500    110.0802  
   499.0000    -14.8625     17.2032     35.1819     38.8294   -999.2500   -999.2500   -999.2500     12.8429      2.4834      0.0486     31.0896   -999.2500     99.2873  
   499.5000     -7.9378     18.2119     49.1458     60.2259   -999.2500   -999.2500   -999.2500     12.8367      2.5072      0.0524     28.1192   -999.2500     85.6814  
   500.0000      0.0822     19.5991     62.1974     88.4438   -999.2500   -999.2500   -999.2500     12.8256      2.5793      0.0330     25.1489   -999.2500     73.3170  
   500.5000      0.1563     20.0068     56.8297     71.6567   -999.2500   -999.2500   -999.2500     12.8144      2.6042      0.0089     22.3349   -999.2500     61.5982  
   501.0000      0.2305     19.9219     47.1088     51.7523   -999.2500   -999.2500   -999.2500     12.8134      2.6112      0.0037     20.9732   -999.2500     63.8540  
   501.5000      0.3046     19.5345     38.3953     37.4462   -999.2500   -999.2500   -999.2500     12.8291      2.6223      0.0014     20.8332   -999.2500     71.0232  
   502.0000      0.3788     17.4888     31.2935     32.5685   -999.2500   -999.2500   -999.2500     12.8406      2.5874     -0.0009     20.6932   -999.2500     80.4665  
   502.5000    -15.1357     15.1323     25.5053     28.0520   -999.2500   -999.2500   -999.2500     12.8506      2.5487     -0.0018     23.4801   -999.2500     89.1742  
   503.0000    -18.7701     13.1071     20.8994     23.7227   -999.2500   -999.2500   -999.2500     12.8605      2.5138      0.0010     26.6766   -999.2500     94.6959  
   503.5000    -21.9509     11.3927     17.1475     18.8642   -999.2500   -999.2500   -999.2500     12.8705      2.4908      0.0050     29.8731   -999.2500     96.9208  
   504.0000    -32.4317      9.9025     14.0691     15.1350   -999.2500   -999.2500   -999.2500     12.8805      2.4793      0.0179     31.7027   -999.2500    100.6260  
   504.5000    -29.4622      8.6073     11.8703     12.4995   -999.2500   -999.2500   -999.2500     12.8846      2.4782      0.0163     33.3122   -999.2500    105.2901  
   505.0000    -25.8883      7.5401     10.1458     10.4607   -999.2500   -999.2500   -999.2500     12.8839      2.4822      0.0082     34.9216   -999.2500    106.4307  
   505.5000    -22.1882      7.0666      8.6718      8.7911   -999.2500   -999.2500   -999.2500     12.9060      2.4932      0.0036     36.8244   -999.2500    110.7226  
   506.0000    -10.0786      6.6228      7.4120      7.2413   -999.2500   -999.2500   -999.2500     12.9507      2.5105      0.0212     38.6236   -999.2500    115.0689  
   506.5000     -4.5221      6.2068      6.6369      6.7367   -999.2500   -999.2500   -999.2500     13.0534      2.5221      0.0429     41.1368   -999.2500    120.5759  
   507.0000     -4.2648      5.8322      6.2969      7.1621   -999.2500   -999.2500   -999.2500     13.1878      2.5259      0.0597     43.5919   -999.2500    127.3645  
   507.5000     -1.1657      5.8122      6.2776      7.6145   -999.2500   -999.2500   -999.2500     13.2691      2.5213      0.0706     44.7429   -999.2500    128.2291  
   508.0000     -8.3441      5.8310      6.3201      7.8968   -999.2500   -999.2500   -999.2500     13.2925      2.5060      0.0611     44.6633   -999.2500    127.9930  
   508.5000    -14.5912      5.9499      6.3875      7.5030   -999.2500   -999.2500   -999.2500     13.2825      2.4870      0.0409     44.5837   -999.2500    127.9040  
   509.0000    -20.8383      6.0714      6.5282      7.1287   -999.2500   -999.2500   -999.2500     13.2637      2.4632      0.0236     44.1693   -999.2500    129.5366  
   509.5000    -27.0854      6.2407      6.8151      6.7732   -999.2500   -999.2500   -999.2500     13.2475      2.4564      0.0361     44.4176   -999.2500    131.2460  
