~VERSION INFORMATION
 VERS.                           2.00:        CWLS LOG ASCII STANDARD - VERSION 2.00
 WRAP.                             NO:        ONE LINE PER DEPTH STEP
~WELL INFORMATION
#MNEM.UNIT                   DATA             INFORMATION
#----------             --------------        ------------------------------
 STRT.F                      102.0000:        START DEPTH
 STOP.F                     5878.0000:        STOP DEPTH
 STEP.F                        0.5000:        STEP VALUE
 NULL.                      -999.2500:        NULL VALUE
 COMP. USGS/NPR-A HUSKY OIL OPERATION:        COMPANY  
 LOC .                   27   5N  11W:        LOCATION   
 DATE.                        3/26/81:        LOG DATE 
 WELL.                    KOLUKTAK #1:        WELL     
 UWI .                   501192000100:        UNIQUE WELL ID 
 API .                   501192000100:        UNIQUE WELL IDENTIFIER 
 FLD .                        WILDCAT:        FIELD    
 CNTY.                       N. SLOPE:        COUNTY  
 STAT.                         ALASKA:        STATE   
 CTRY.                            USA:        COUNTRY 
 OPER. USGS/NPR-A HUSKY OIL OPERATION:        OPERATOR  
 SRVC.                            440:        SERVICE COMPANY 
 LAT .                         0.0000:        LATITUDE
 LON .                         0.0000:        LONGITUDE
 DIGS.                             65:        DIGITIZING COMPANY 
~CURVE INFORMATION      
#MNEM.UNIT                 API CODE           CURVE DESCRIPTION
#---------              --------------        ------------------------------
 DEPT.F                              :        1  DEPTH
 SP  .MV                             :        2
 ILD .OHMM                           :        3
 ILM .OHMM                           :        4
 LL8 .OHMM                           :        5
 MSFL.OHMM                           :        6
 LLS .OHMM                           :        7
 LLD .OHMM                           :        8
 CALI.IN                             :        9
 RHOB.G/C3                           :       10
 DRHO.G/C3                           :       11
 NPHI.%                              :       12
 GR  .GAPI                           :       13
 DT  .US/F                           :       14
~PARAMETER INFORMATION       
#MNEM.UNIT                  VALUE             DESCRIPTION OF MNEMONIC
#---------             ---------------        ------------------------------
 EKB .F                      205.0000:        KELLY BUSHING
 TD  .F                     5883.0000:        TOTAL DEPTH
~OTHER INFORMATION
~A    DEPTH          SP         ILD         ILM         LL8        MSFL         LLS         LLD        CALI        RHOB        DRHO        NPHI          GR          DT  
# ...
  3534.0000   -999.2500   -999.2500   -999.2500   -999.2500      6.8327     15.1533     16.2502     14.6096      2.5666      0.0139     30.7902     63.3607     83.0877  
  3534.5000   -999.2500   -999.2500   -999.2500   -999.2500      7.2292     15.9521     17.4744     14.5924      2.5709      0.0147     30.5448     64.2727     81.8125  
  3535.0000   -999.2500   -999.2500   -999.2500   -999.2500      7.0818     16.6842     17.9726     14.6082      2.5851      0.0155     30.2832     66.8850     79.9618  
  3535.5000   -999.2500   -999.2500   -999.2500   -999.2500      6.4554     16.8354     18.2098     14.6540      2.6060      0.0163     29.7308     69.0938     78.4676  
  3536.0000   -999.2500   -999.2500   -999.2500   -999.2500      5.8824     16.9835     18.6917     14.6446      2.6011      0.0135     29.1302     69.3078     76.8087  
  3536.5000   -999.2500   -999.2500   -999.2500   -999.2500      6.6723     17.6751     19.8560     14.6528      2.5861      0.0103     28.5505     66.8607     78.4665  
  3537.0000   -999.2500   -999.2500   -999.2500   -999.2500      7.1667     18.6491     21.7522     14.6443      2.5949      0.0072     27.9235     64.1785     81.7839  
  3537.5000   -999.2500   -999.2500   -999.2500   -999.2500      7.2746     19.6708     23.9978     14.6648      2.5983      0.0040     26.7118     62.0831     84.9860  
  3538.0000   -999.2500   -999.2500   -999.2500   -999.2500      6.9674     19.8157     23.1642     14.7079      2.5890      0.0091     26.3454     62.1460     88.5179  
  3538.5000   -999.2500   -999.2500   -999.2500   -999.2500      6.3897     19.5490     20.4205     14.8016      2.5879      0.0183     28.9682     64.5480     90.6865  
  3539.0000   -999.2500   -999.2500   -999.2500   -999.2500      5.6998     17.8038     17.9519     14.7901      2.5963      0.0220     31.0410     67.0493     91.4072  
  3539.5000   -999.2500   -999.2500   -999.2500   -999.2500      5.0043     15.0549     15.8394     14.8008      2.5804      0.0127     33.1359     67.5605     90.6861  
  3540.0000   -999.2500   -999.2500   -999.2500   -999.2500      4.6119     13.7089     14.5987     14.8127      2.5661      0.0035     34.6929     67.7431     90.0872  
  3540.5000   -999.2500   -999.2500   -999.2500   -999.2500      4.6559     12.9671     13.4552     14.8513      2.5624     -0.0042     36.3082     68.0345     89.4884  
  3541.0000   -999.2500   -999.2500   -999.2500   -999.2500      4.7118     12.5013     13.3462     14.9171      2.5674     -0.0055     35.6941     68.2906     89.5096  
  3541.5000   -999.2500   -999.2500   -999.2500   -999.2500      4.9454     12.2841     13.3782     14.9085      2.5628     -0.0059     34.6213     68.2129     89.7272  
  3542.0000   -999.2500   -999.2500   -999.2500   -999.2500      5.3874     12.2590     13.4098     14.8493      2.5559     -0.0055     34.1817     69.3427     89.2507  
  3542.5000   -999.2500   -999.2500   -999.2500   -999.2500      5.8112     12.3085     13.4411     14.9491      2.5521     -0.0027     34.0026     70.2750     88.7588  
  3543.0000   -999.2500   -999.2500   -999.2500   -999.2500      6.0162     12.3581     13.3572     14.9951      2.5614      0.0001     33.8680     70.0954     89.1800  
  3543.5000   -999.2500   -999.2500   -999.2500   -999.2500      6.2203     12.4080     13.1817     14.8946      2.5743      0.0029     34.1137     69.3700     90.2256  
  3544.0000   -999.2500   -999.2500   -999.2500   -999.2500      6.7278     12.4709     13.0085     14.9507      2.5681      0.0057     34.9678     68.2249     91.8872  
  3544.5000   -999.2500   -999.2500   -999.2500   -999.2500      6.9658     12.4887     12.7664     14.9763      2.5609      0.0086     36.0510     67.4404     93.1262  
  3545.0000   -999.2500   -999.2500   -999.2500   -999.2500      7.0600     12.2766     12.4001     14.9780      2.5609      0.0114     35.9048     68.0794     93.1771  
  3545.5000   -999.2500   -999.2500   -999.2500   -999.2500      6.7291     11.8642     12.0771     14.9891      2.5613      0.0142     35.9841     68.1118     92.7933  
  3546.0000   -999.2500   -999.2500   -999.2500   -999.2500      6.3852     11.2820     11.8791     14.9713      2.5635      0.0170     36.6852     65.8103     92.7433  
  3546.5000   -999.2500   -999.2500   -999.2500   -999.2500      6.1481     10.6831     11.6843     14.9565      2.5792      0.0198     36.3935     66.7149     92.8414  
  3547.0000   -999.2500   -999.2500   -999.2500   -999.2500      6.1624     10.2537     11.5656     14.9727      2.5860      0.0177     36.4651     70.2742     92.6061  
  3547.5000   -999.2500   -999.2500   -999.2500   -999.2500      6.0829     10.2153     11.6087     14.9790      2.5697      0.0136     36.6224     72.5099     92.1713  
  3548.0000   -999.2500   -999.2500   -999.2500   -999.2500      5.9350     10.2278     11.8475     14.9531      2.5585      0.0095     37.0974     73.6832     91.9361  
  3548.5000   -999.2500   -999.2500   -999.2500   -999.2500      5.8417     10.3084     12.1438     14.9723      2.5474      0.0054     36.9383     71.1690     92.3358  
  3549.0000   -999.2500   -999.2500   -999.2500   -999.2500      5.8844     10.4331     12.4474     15.0073      2.5447      0.0013     36.5892     69.8524     93.3226  
  3549.5000   -999.2500   -999.2500   -999.2500   -999.2500      5.7472     10.3584     12.5593     14.9743      2.5414      0.0016     36.1829     69.6361     93.1879  
  3550.0000   -999.2500   -999.2500   -999.2500   -999.2500      5.1898     10.1672     12.3922     14.9349      2.5414      0.0045     36.2211     69.7538     92.0747  
  3550.5000   -999.2500   -999.2500   -999.2500   -999.2500      4.6865      9.9796     12.0035     14.9579      2.5413      0.0073     36.2593     69.8714     88.0933  
  3551.0000   -999.2500   -999.2500   -999.2500   -999.2500      5.0226      9.8834     11.6716     15.0137      2.5407      0.0123     36.2660     70.4778     85.6021  
  3551.5000   -999.2500   -999.2500   -999.2500   -999.2500      5.4167     10.0913     11.5222     14.9906      2.5533      0.0186     36.5073     70.6498     84.2337  
  3552.0000   -999.2500   -999.2500   -999.2500   -999.2500      5.7128     10.7721     11.5576     14.9318      2.5737      0.0249     36.0769     70.0429     83.4942  
  3552.5000   -999.2500   -999.2500   -999.2500   -999.2500      5.7767     11.8063     12.7374     14.9157      2.6059      0.0311     34.2631     70.1466     83.7688  
  3553.0000   -999.2500   -999.2500   -999.2500   -999.2500      5.6013     13.0434     15.3746     14.9643      2.5883      0.0337     32.6970     69.5346     83.9303  
  3553.5000   -999.2500   -999.2500   -999.2500   -999.2500      5.3289     13.5672     15.7975     14.9029      2.5893      0.0316     31.2588     66.6497     84.0586  
  3554.0000   -999.2500   -999.2500   -999.2500   -999.2500      5.1031     13.5155     15.2694     14.9151      2.5873      0.0268     30.7001     63.4149     84.4199  
  3554.5000   -999.2500   -999.2500   -999.2500   -999.2500      5.1919     12.9241     14.2031     14.9714      2.5830      0.0221     31.0708     63.3154     84.8769  
  3555.0000   -999.2500   -999.2500   -999.2500   -999.2500      5.2630     12.0599     13.1280     14.9563      2.5894      0.0174     32.3339     65.2349     85.5104  
  3555.5000   -999.2500   -999.2500   -999.2500   -999.2500      5.2307     11.2536     12.1342     14.9225      2.5981      0.0126     33.4287     67.0362     86.4723  
  3556.0000   -999.2500   -999.2500   -999.2500   -999.2500      5.1987     10.5011     11.2157     14.8573      2.5991      0.0079     34.4530     66.7222     87.6569  
  3556.5000   -999.2500   -999.2500   -999.2500   -999.2500      5.0709      9.7990     10.7152     14.8248      2.6001      0.0032     34.4428     65.9556     88.7725  
  3557.0000   -999.2500   -999.2500   -999.2500   -999.2500      4.8688      9.2763     10.2623     14.8095      2.5909     -0.0016     34.3572     66.2217     89.7081  
  3557.5000   -999.2500   -999.2500   -999.2500   -999.2500      4.5262      8.8586     10.0789     14.8154      2.5857     -0.0042     34.8170     66.4892     90.4186  
