~VERSION INFORMATION
 VERS.                           2.00:        CWLS LOG ASCII STANDARD - VERSION 2.00
 WRAP.                             NO:        ONE LINE PER DEPTH STEP
~WELL INFORMATION
#MNEM.UNIT                   DATA             INFORMATION
#----------             --------------        ------------------------------
 STRT.F                      102.0000:        START DEPTH
 STOP.F                     5878.0000:        STOP DEPTH
 STEP.F                        0.5000:        STEP VALUE
 NULL.                      -999.2500:        NULL VALUE
 COMP. USGS/NPR-A HUSKY OIL OPERATION:        COMPANY  
 LOC .                   27   5N  11W:        LOCATION   
 DATE.                        3/26/81:        LOG DATE 
 WELL.                    KOLUKTAK #1:        WELL     
 UWI .                   501192000100:        UNIQUE WELL ID 
 API .                   501192000100:        UNIQUE WELL IDENTIFIER 
 FLD .                        WILDCAT:        FIELD    
 CNTY.                       N. SLOPE:        COUNTY  
 STAT.                         ALASKA:        STATE   
 CTRY.                            USA:        COUNTRY 
 OPER. USGS/NPR-A HUSKY OIL OPERATION:        OPERATOR  
 SRVC.                            440:        SERVICE COMPANY 
 LAT .                         0.0000:        LATITUDE
 LON .                         0.0000:        LONGITUDE
 DIGS.                             65:        DIGITIZING COMPANY 
~CURVE INFORMATION      
#MNEM.UNIT                 API CODE           CURVE DESCRIPTION
#---------              --------------        ------------------------------
 DEPT.F                              :        1  DEPTH
 SP  .MV                             :        2
 ILD .OHMM                           :        3
 ILM .OHMM                           :        4
 LL8 .OHMM                           :        5
 MSFL.OHMM                           :        6
 LLS .OHMM                           :        7
 LLD .OHMM                           :        8
 CALI.IN                             :        9
 RHOB.G/C3                           :       10
 DRHO.G/C3                           :       11
 NPHI.%                              :       12
 GR  .GAPI                           :       13
 DT  .US/F                           :       14
~PARAMETER INFORMATION       
#MNEM.UNIT                  VALUE             DESCRIPTION OF MNEMONIC
#---------             ---------------        ------------------------------
 EKB .F                      205.0000:        KELLY BUSHING
 TD  .F                     5883.0000:        TOTAL DEPTH
~OTHER INFORMATION
~A    DEPTH          SP         ILD         ILM         LL8        MSFL         LLS         LLD        CALI        RHOB        DRHO        NPHI          GR          DT  
# ...
  5454.0000   -999.2500   -999.2500   -999.2500   -999.2500      0.6001      9.4555      9.9263     11.5518      2.5639      0.0301     34.3359     72.3744     91.5444  
  5454.5000   -999.2500   -999.2500   -999.2500   -999.2500      0.7162      9.3877      9.8934     11.5630      2.5734      0.0254     33.7817     73.1205     92.0456  
  5455.0000   -999.2500   -999.2500   -999.2500   -999.2500      0.6702      9.2904      9.8606     11.6106      2.5635      0.0207     34.0927     73.4648     92.3223  
  5455.5000   -999.2500   -999.2500   -999.2500   -999.2500      0.6186      9.1940      9.8279     11.6604      2.5556      0.0160     34.1263     74.7632     92.4755  
  5456.0000   -999.2500   -999.2500   -999.2500   -999.2500      0.6103      9.0987      9.7954     11.6595      2.5531      0.0139     33.7918     76.0642     92.2940  
  5456.5000   -999.2500   -999.2500   -999.2500   -999.2500      0.6424      9.0553      9.7629     11.6567      2.5586      0.0120     34.7715     75.6539     91.8539  
  5457.0000   -999.2500   -999.2500   -999.2500   -999.2500      0.6675      9.0258      9.7305     11.6316      2.5713      0.0101     35.0324     75.4365     91.7724  
  5457.5000   -999.2500   -999.2500   -999.2500   -999.2500      0.6809      8.9934      9.6962     11.6309      2.5777      0.0083     34.5120     75.7554     91.7181  
  5458.0000   -999.2500   -999.2500   -999.2500   -999.2500      0.6840      8.9566      9.6565     11.6576      2.5751      0.0070     33.7472     76.0044     91.4993  
  5458.5000   -999.2500   -999.2500   -999.2500   -999.2500      0.6870      8.9347      9.6320     11.6956      2.5503      0.0059     33.4345     75.1371     91.4056  
  5459.0000   -999.2500   -999.2500   -999.2500   -999.2500      0.7571      8.9633      9.6629     11.7474      2.5390      0.0048     33.4423     73.3889     91.1129  
  5459.5000   -999.2500   -999.2500   -999.2500   -999.2500      0.7715      8.9920      9.6938     11.8209      2.5379      0.0038     33.5097     71.0466     90.8355  
  5460.0000   -999.2500   -999.2500   -999.2500   -999.2500      0.7086      8.9947      9.6985     11.8850      2.5476      0.0027     33.4946     70.4170     91.1237  
  5460.5000   -999.2500   -999.2500   -999.2500   -999.2500      0.6633      8.9697      9.6681     11.9362      2.5530      0.0018     33.4794     71.4365     91.4192  
  5461.0000   -999.2500   -999.2500   -999.2500   -999.2500      0.6437      8.9580      9.6555     11.9380      2.5423      0.0012     33.4643     72.4057     91.7871  
  5461.5000   -999.2500   -999.2500   -999.2500   -999.2500      0.6789      8.9854      9.6429     11.9009      2.5405      0.0006     33.5209     72.0190     92.1761  
  5462.0000   -999.2500   -999.2500   -999.2500   -999.2500      0.7115      9.0847      9.6303     11.8896      2.5447      0.0011     33.3971     71.0936     91.8376  
  5462.5000   -999.2500   -999.2500   -999.2500   -999.2500      0.7422      9.1851      9.6177     11.8951      2.5491      0.0017     33.1671     71.5931     91.0694  
  5463.0000   -999.2500   -999.2500   -999.2500   -999.2500      0.7854      9.2865      9.6484     11.8717      2.5419      0.0022     33.3531     74.5081     90.4924  
  5463.5000   -999.2500   -999.2500   -999.2500   -999.2500      0.8016      9.3891      9.6993     11.9228      2.5438      0.0027     33.8516     78.0771     91.1223  
  5464.0000   -999.2500   -999.2500   -999.2500   -999.2500      0.7849      9.3489      9.7505     11.9111      2.5554      0.0033     33.9199     81.0691     91.6321  
  5464.5000   -999.2500   -999.2500   -999.2500   -999.2500      0.7384      9.2949      9.8019     11.8978      2.5520      0.0041     33.8801     80.3503     91.2532  
  5465.0000   -999.2500   -999.2500   -999.2500   -999.2500      0.6788      9.2411      9.8537     11.8249      2.5488      0.0049     33.7450     77.6763     91.0128  
  5465.5000   -999.2500   -999.2500   -999.2500   -999.2500      0.6636      9.1877      9.8682     11.7365      2.5558      0.0067     33.6679     74.8274     90.7525  
  5466.0000   -999.2500   -999.2500   -999.2500   -999.2500      0.6873      9.1399      9.8518     11.6401      2.5546      0.0086     33.8756     72.2774     90.8039  
  5466.5000   -999.2500   -999.2500   -999.2500   -999.2500      0.6985      9.1388      9.8506     11.5748      2.5450      0.0165     34.3204     71.0556     91.1452  
  5467.0000   -999.2500   -999.2500   -999.2500   -999.2500      0.6837      9.1478      9.8602     11.5344      2.5636      0.0245     35.1358     71.0128     90.9985  
  5467.5000   -999.2500   -999.2500   -999.2500   -999.2500      0.6632      9.1586      9.8726     11.5243      2.5713      0.0286     36.2838     71.8109     91.1193  
  5468.0000   -999.2500   -999.2500   -999.2500   -999.2500      0.6208      9.1798      9.8995     11.4109      2.5698      0.0161     36.7059     73.2074     91.0173  
  5468.5000   -999.2500   -999.2500   -999.2500   -999.2500      0.5898      9.2265      9.9497     11.3464      2.5670      0.0036     36.5379     73.4226     90.7423  
  5469.0000   -999.2500   -999.2500   -999.2500   -999.2500      0.5702      9.2733     10.0002     11.3460      2.5443     -0.0017     35.8497     73.7484     90.6959  
  5469.5000   -999.2500   -999.2500   -999.2500   -999.2500      0.6072      9.3204     10.0510     11.3352      2.5457      0.0064     35.6488     75.2197     90.5659  
  5470.0000   -999.2500   -999.2500   -999.2500   -999.2500      0.6466      9.3677     10.1020     11.2703      2.5464      0.0140     36.0696     77.5456     90.9379  
  5470.5000   -999.2500   -999.2500   -999.2500   -999.2500      0.6885      9.4153     10.1533     11.2024      2.5471      0.0217     36.2899     78.8182     91.0663  
  5471.0000   -999.2500   -999.2500   -999.2500   -999.2500      0.7132      9.4631     10.2048     11.1650      2.5528      0.0243     36.6002     78.6994     90.5013  
  5471.5000   -999.2500   -999.2500   -999.2500   -999.2500      0.7191      9.5110     10.2553     11.1704      2.5606      0.0236     36.0227     76.3836     90.1846  
  5472.0000   -999.2500   -999.2500   -999.2500   -999.2500      0.6946      9.4654     10.2062     11.2185      2.5556      0.0204     35.1188     73.5885     90.2578  
  5472.5000   -999.2500   -999.2500   -999.2500   -999.2500      0.6820      9.4200     10.1573     11.2551      2.5420      0.0153     34.5307     72.8942     90.5153  
  5473.0000   -999.2500   -999.2500   -999.2500   -999.2500      0.6940      9.3719     10.1077     11.2877      2.5377      0.0102     34.3261     73.7548     90.9290  
  5473.5000   -999.2500   -999.2500   -999.2500   -999.2500      0.7061      9.3154     10.0468     11.3142      2.5280      0.0076     34.1146     74.6581     91.4487  
  5474.0000   -999.2500   -999.2500   -999.2500   -999.2500      0.7908      9.2593      9.9863     11.4022      2.5391      0.0062     33.8316     76.7943     91.9330  
  5474.5000   -999.2500   -999.2500   -999.2500   -999.2500      0.8411      9.2035      9.9261     11.5640      2.5485      0.0058     34.5953     78.5771     92.1866  
  5475.0000   -999.2500   -999.2500   -999.2500   -999.2500      0.8974      9.1480      9.8663     11.6700      2.5581      0.0060     34.9946     78.6313     92.1576  
  5475.5000   -999.2500   -999.2500   -999.2500   -999.2500      0.9214      9.0913      9.8068     11.7086      2.5640      0.0061     34.5850     77.3966     91.9236  
  5476.0000   -999.2500   -999.2500   -999.2500   -999.2500      0.9424      9.0463      9.7550     11.6992      2.5546      0.0061     34.1272     74.6091     91.4968  
  5476.5000   -999.2500   -999.2500   -999.2500   -999.2500      0.9616      9.0923      9.8046     11.6898      2.5533      0.0061     33.8817     72.0972     91.2778  
  5477.0000   -999.2500   -999.2500   -999.2500   -999.2500      1.0255      9.1385      9.8545     11.7628      2.5590      0.0063     33.8913     71.2476     91.3092  
  5477.5000   -999.2500   -999.2500   -999.2500   -999.2500      1.0513      9.1850      9.9046     11.8115      2.5671      0.0072     33.8559     70.7671     91.3021  
