~VERSION INFORMATION
 VERS.                           2.00:        CWLS LOG ASCII STANDARD - VERSION 2.00
 WRAP.                             NO:        ONE LINE PER DEPTH STEP
~WELL INFORMATION
#MNEM.UNIT                   DATA             INFORMATION
#----------             --------------        ------------------------------
 STRT.F                      102.0000:        START DEPTH
 STOP.F                     5878.0000:        STOP DEPTH
 STEP.F                        0.5000:        STEP VALUE
 NULL.                      -999.2500:        NULL VALUE
 COMP. USGS/NPR-A HUSKY OIL OPERATION:        COMPANY  
 LOC .                   27   5N  11W:        LOCATION   
 DATE.                        3/26/81:        LOG DATE 
 WELL.                    KOLUKTAK #1:        WELL     
 UWI .                   501192000100:        UNIQUE WELL ID 
 API .                   501192000100:        UNIQUE WELL IDENTIFIER 
 FLD .                        WILDCAT:        FIELD    
 CNTY.                       N. SLOPE:        COUNTY  
 STAT.                         ALASKA:        STATE   
 CTRY.                            USA:        COUNTRY 
 OPER. USGS/NPR-A HUSKY OIL OPERATION:        OPERATOR  
 SRVC.                            440:        SERVICE COMPANY 
 LAT .                         0.0000:        LATITUDE
 LON .                         0.0000:        LONGITUDE
 DIGS.                             65:        DIGITIZING COMPANY 
~CURVE INFORMATION      
#MNEM.UNIT                 API CODE           CURVE DESCRIPTION
#---------              --------------        ------------------------------
 DEPT.F                              :        1  DEPTH
 SP  .MV                             :        2
 ILD .OHMM                           :        3
 ILM .OHMM                           :        4
 LL8 .OHMM                           :        5
 MSFL.OHMM                           :        6
 LLS .OHMM                           :        7
 LLD .OHMM                           :        8
 CALI.IN                             :        9
 RHOB.G/C3                           :       10
 DRHO.G/C3                           :       11
 NPHI.%                              :       12
 GR  .GAPI                           :       13
 DT  .US/F                           :       14
~PARAMETER INFORMATION       
#MNEM.UNIT                  VALUE             DESCRIPTION OF MNEMONIC
#---------             ---------------        ------------------------------
 EKB .F                      205.0000:        KELLY BUSHING
 TD  .F                     5883.0000:        TOTAL DEPTH
~OTHER INFORMATION
~A    DEPTH          SP         ILD         ILM         LL8        MSFL         LLS         LLD        CALI        RHOB        DRHO        NPHI          GR          DT  
# ...
   870.0000    -41.0887     11.9014     20.0884     25.3188   -999.2500   -999.2500   -999.2500     13.0584      2.3698      0.0172     37.5923   -999.2500     94.0777  
   870.5000    -40.8523     12.2151     19.3830     21.5542   -999.2500   -999.2500   -999.2500     13.0030      2.4575      0.0148     32.3996   -999.2500     93.6065  
   871.0000    -40.6226     12.4434     19.0707     19.3352   -999.2500   -999.2500   -999.2500     13.0118      2.4779      0.0167     31.5860   -999.2500     96.0231  
   871.5000    -40.3929     12.6705     19.7905     21.5477   -999.2500   -999.2500   -999.2500     13.0040      2.4890      0.0164     32.3365   -999.2500     98.3371  
   872.0000    -40.3871     12.5487     20.8739     24.2500   -999.2500   -999.2500   -999.2500     13.0099      2.4816      0.0287     33.0870   -999.2500     99.1970  
   872.5000    -40.5566     12.4710     21.2649     25.7654   -999.2500   -999.2500   -999.2500     13.0013      2.4838      0.0488     33.1110   -999.2500     97.6502  
   873.0000    -40.6695     12.5948     20.9323     24.4428   -999.2500   -999.2500   -999.2500     12.9878      2.4837      0.0245     31.8577   -999.2500     95.9653  
   873.5000    -40.6937     12.8720     20.3905     22.9890   -999.2500   -999.2500   -999.2500     12.9814      2.4854      0.0086     30.3331   -999.2500     96.0369  
   874.0000    -40.7179     12.9108     22.0612     22.4147   -999.2500   -999.2500   -999.2500     12.9750      2.4969      0.0053     30.5237   -999.2500     95.8557  
   874.5000    -40.3820     13.2241     25.3230     24.8957   -999.2500   -999.2500   -999.2500     12.9844      2.5253      0.0148     31.2673   -999.2500     95.3327  
   875.0000    -39.9830     13.2756     25.9943     27.6512   -999.2500   -999.2500   -999.2500     12.9890      2.5231      0.0228     31.9882   -999.2500     94.7786  
   875.5000    -39.9031     13.3273     26.1717     28.9225   -999.2500   -999.2500   -999.2500     12.9902      2.5151      0.0163     32.1254   -999.2500     92.4344  
   876.0000    -40.5464     13.3792     25.3431     26.9749   -999.2500   -999.2500   -999.2500     12.9296      2.5216      0.0038     31.3557   -999.2500     91.3526  
   876.5000    -40.3566     13.4313     23.6957     25.7642   -999.2500   -999.2500   -999.2500     12.9326      2.5144      0.0146     30.5100   -999.2500     92.3788  
   877.0000    -39.5538     13.4836     23.5308     25.6044   -999.2500   -999.2500   -999.2500     12.9357      2.5022      0.0152     29.6642   -999.2500     92.7848  
   877.5000    -39.0510     13.5360     24.4926     26.0065   -999.2500   -999.2500   -999.2500     12.9356      2.5370      0.0172     30.4844   -999.2500     92.1991  
   878.0000    -40.3383     13.5887     25.5856     27.0884   -999.2500   -999.2500   -999.2500     12.9264      2.5640      0.0144     31.0811   -999.2500     90.5043  
   878.5000    -41.9806     13.6416     26.0329     27.5071   -999.2500   -999.2500   -999.2500     12.9169      2.5482      0.0028     31.6778   -999.2500     88.5845  
   879.0000    -43.6229     13.6948     25.5888     27.3441   -999.2500   -999.2500   -999.2500     12.9074      2.5609      0.0010     30.4703   -999.2500     87.2530  
   879.5000    -44.4791     13.7481     25.1380     26.9621   -999.2500   -999.2500   -999.2500     12.8811      2.5794      0.0105     29.3466   -999.2500     88.1726  
   880.0000    -44.0942     13.8016     25.7528     27.2383   -999.2500   -999.2500   -999.2500     12.8983      2.5627      0.0089     28.2595   -999.2500     89.2043  
   880.5000    -43.5879     13.8245     26.6474     27.8611   -999.2500   -999.2500   -999.2500     12.9159      2.5295      0.0025     27.6751   -999.2500     89.7847  
   881.0000    -43.0816     13.7867     26.3598     28.0418   -999.2500   -999.2500   -999.2500     12.8865      2.5049     -0.0048     27.4140   -999.2500     90.1263  
   881.5000    -42.8470     13.7489     25.4288     26.7879   -999.2500   -999.2500   -999.2500     12.8853      2.5033     -0.0010     27.4046   -999.2500     90.1950  
   882.0000    -43.2100     13.7113     24.5306     25.7315   -999.2500   -999.2500   -999.2500     12.8770      2.4851     -0.0057     27.7981   -999.2500     90.4293  
   882.5000    -45.6247     13.6737     23.7483     24.7863   -999.2500   -999.2500   -999.2500     12.8793      2.5026      0.0001     28.3980   -999.2500     90.4189  
   883.0000    -51.1457     13.6363     23.2581     24.3840   -999.2500   -999.2500   -999.2500     12.8770      2.5117      0.0036     28.9970   -999.2500     89.9582  
   883.5000    -67.5034     13.5989     23.1788     24.2532   -999.2500   -999.2500   -999.2500     12.8801      2.5118      0.0013     29.5960   -999.2500     89.7571  
   884.0000    -75.8832     13.5617     23.0998     23.9078   -999.2500   -999.2500   -999.2500     12.8832      2.5192      0.0033     30.3564   -999.2500     89.5963  
   884.5000    -76.1903     13.5245     23.2430     23.9968   -999.2500   -999.2500   -999.2500     12.8864      2.5271      0.0005     31.2331   -999.2500     90.6259  
   885.0000    -76.3685     13.4875     23.2930     24.2132   -999.2500   -999.2500   -999.2500     12.8895      2.5320     -0.0026     32.1098   -999.2500     93.3230  
   885.5000    -76.5935     13.4506     23.2458     24.4728   -999.2500   -999.2500   -999.2500     12.8926      2.5499     -0.0118     33.2364   -999.2500     97.2186  
   886.0000    -76.7842     13.4260     23.1987     25.5470   -999.2500   -999.2500   -999.2500     12.8957      2.5624     -0.0157     33.3398   -999.2500    100.2878  
   886.5000    -76.9170     13.4229     23.1517     25.1178   -999.2500   -999.2500   -999.2500     12.8989      2.5675      0.0024     32.8755   -999.2500    102.0429  
   887.0000    -76.7825     13.4198     23.1048     24.6676   -999.2500   -999.2500   -999.2500     12.9020      2.5426      0.0229     32.4163   -999.2500    101.1144  
   887.5000    -76.6979     13.4167     23.0580     24.2489   -999.2500   -999.2500   -999.2500     12.9051      2.5338      0.0463     32.5874   -999.2500     98.6115  
   888.0000    -77.7169     13.4136     23.0082     23.2228   -999.2500   -999.2500   -999.2500     12.9082      2.5117      0.0266     33.0118   -999.2500     96.4520  
   888.5000    -79.0900     13.3627     22.8432     22.9879   -999.2500   -999.2500   -999.2500     12.9108      2.5212      0.0315     33.4362   -999.2500     95.7607  
   889.0000    -80.6175     13.1015     22.5327     23.4095   -999.2500   -999.2500   -999.2500     12.9135      2.5569      0.0568     33.8590   -999.2500     95.0949  
   889.5000    -81.8440     12.8373     21.9699     23.1597   -999.2500   -999.2500   -999.2500     12.9162      2.5732      0.0533     34.0365   -999.2500     94.4365  
   890.0000    -82.4573     12.6673     21.4211     22.3803   -999.2500   -999.2500   -999.2500     12.9189      2.5983      0.0525     33.9815   -999.2500     93.5542  
   890.5000    -82.6164     12.5615     20.8860     21.4773   -999.2500   -999.2500   -999.2500     12.9216      2.5888      0.0318     33.8011   -999.2500     94.5916  
   891.0000    -82.7714     12.4846     20.4810     21.3941   -999.2500   -999.2500   -999.2500     12.9243      2.5516      0.0147     34.0647   -999.2500     95.8386  
   891.5000    -82.5662     11.9819     20.1277     22.0089   -999.2500   -999.2500   -999.2500     12.9270      2.5123      0.0094     34.4775   -999.2500     96.8911  
   892.0000    -82.1123     11.9577     19.9603     21.8348   -999.2500   -999.2500   -999.2500     12.9297      2.4887      0.0175     34.8904   -999.2500     98.1912  
   892.5000    -81.5424     12.3284     19.8105     21.5016   -999.2500   -999.2500   -999.2500     12.9324      2.4735      0.0268     35.2090   -999.2500     98.2701  
   893.0000    -81.0901     12.6678     21.3176     21.0200   -999.2500   -999.2500   -999.2500     12.9351      2.4647      0.0322     35.0855   -999.2500     98.7796  
   893.5000    -80.7811     12.8721     23.0027     21.6969   -999.2500   -999.2500   -999.2500     12.9368      2.4420     -0.0008     34.9620   -999.2500    100.2147  
