~VERSION INFORMATION
 VERS.                           2.00:        CWLS LOG ASCII STANDARD - VERSION 2.00
 WRAP.                             NO:        ONE LINE PER DEPTH STEP
~WELL INFORMATION
#MNEM.UNIT                   DATA             INFORMATION
#----------             --------------        ------------------------------
 STRT.F                      102.0000:        START DEPTH
 STOP.F                     5878.0000:        STOP DEPTH
 STEP.F                        0.5000:        STEP VALUE
 NULL.                      -999.2500:        NULL VALUE
 COMP. USGS/NPR-A HUSKY OIL OPERATION:        COMPANY  
 LOC .                   27   5N  11W:        LOCATION   
 DATE.                        3/26/81:        LOG DATE 
 WELL.                    KOLUKTAK #1:        WELL     
 UWI .                   501192000100:        UNIQUE WELL ID 
 API .                   501192000100:        UNIQUE WELL IDENTIFIER 
 FLD .                        WILDCAT:        FIELD    
 CNTY.                       N. SLOPE:        COUNTY  
 STAT.                         ALASKA:        STATE   
 CTRY.                            USA:        COUNTRY 
 OPER. USGS/NPR-A HUSKY OIL OPERATION:        OPERATOR  
 SRVC.                            440:        SERVICE COMPANY 
 LAT .                         0.0000:        LATITUDE
 LON .                         0.0000:        LONGITUDE
 DIGS.                             65:        DIGITIZING COMPANY 
~CURVE INFORMATION      
#MNEM.UNIT                 API CODE           CURVE DESCRIPTION
#---------              --------------        ------------------------------
 DEPT.F                              :        1  DEPTH
 SP  .MV                             :        2
 ILD .OHMM                           :        3
 ILM .OHMM                           :        4
 LL8 .OHMM                           :        5
 MSFL.OHMM                           :        6
 LLS .OHMM                           :        7
 LLD .OHMM                           :        8
 CALI.IN                             :        9
 RHOB.G/C3                           :       10
 DRHO.G/C3                           :       11
 NPHI.%                              :       12
 GR  .GAPI                           :       13
 DT  .US/F                           :       14
~PARAMETER INFORMATION       
#MNEM.UNIT                  VALUE             DESCRIPTION OF MNEMONIC
#---------             ---------------        ------------------------------
 EKB .F                      205.0000:        KELLY BUSHING
 TD  .F                     5883.0000:        TOTAL DEPTH
~OTHER INFORMATION
~A    DEPTH          SP         ILD         ILM         LL8        MSFL         LLS         LLD        CALI        RHOB        DRHO        NPHI          GR          DT  
   102.0000   -999.2500   -999.2500   -999.2500   -999.2500   -999.2500   -999.2500   -999.2500     18.2516      1.9764     -0.0758   -999.2500   -999.2500   -999.2500  
   102.5000   -999.2500   -999.2500   -999.2500   -999.2500   -999.2500   -999.2500   -999.2500     18.2211      1.9832     -0.0706   -999.2500   -999.2500   -999.2500  
   103.0000   -999.2500   -999.2500   -999.2500   -999.2500   -999.2500   -999.2500   -999.2500     18.1906      1.9827     -0.0655   -999.2500   -999.2500   -999.2500  
   103.5000   -999.2500   -999.2500   -999.2500   -999.2500   -999.2500   -999.2500   -999.2500     18.1601      1.9808     -0.0619   -999.2500   -999.2500   -999.2500  
   104.0000   -999.2500   -999.2500   -999.2500   -999.2500   -999.2500   -999.2500   -999.2500     18.1425      1.9838     -0.0612   -999.2500   -999.2500   -999.2500  
   104.5000   -999.2500   -999.2500   -999.2500   -999.2500   -999.2500   -999.2500   -999.2500     18.1299      1.9829     -0.0573   -999.2500   -999.2500   -999.2500  
   105.0000   -999.2500   -999.2500   -999.2500   -999.2500   -999.2500   -999.2500   -999.2500     18.1173      1.9813     -0.0508   -999.2500   -999.2500   -999.2500  
   105.5000   -999.2500   -999.2500   -999.2500   -999.2500   -999.2500   -999.2500   -999.2500     18.1067      1.9827     -0.0426   -999.2500   -999.2500   -999.2500  
   106.0000    -97.2810   2034.7979      1.4320      0.2042   -999.2500   -999.2500   -999.2500     18.1062      1.9850     -0.0338   -999.2500   -999.2500    156.7405  
   106.5000    -96.9989   2034.3466      1.4548      0.2041   -999.2500   -999.2500   -999.2500     18.1057      1.9889     -0.0323   -999.2500   -999.2500    156.7402  
   107.0000    -96.7169   2033.8966      1.4780      0.2040   -999.2500   -999.2500   -999.2500     18.1052      1.9911     -0.0382   -999.2500   -999.2500    155.9679  
   107.5000    -96.4349   2033.4456      1.5016      0.2039   -999.2500   -999.2500   -999.2500     18.1047      1.9870     -0.0440   -999.2500   -999.2500    152.6749  
   108.0000    -96.1529   2032.9946      1.5256      0.2038   -999.2500   -999.2500   -999.2500     18.1042      1.9815     -0.0359   -999.2500   -999.2500    154.2302  
   108.5000    -95.8708   2032.5437      1.5500      0.2038   -999.2500   -999.2500   -999.2500     18.1037      1.9808     -0.0382   -999.2500   -999.2500    156.0377  
   109.0000    -95.5888   2032.0930      1.5747      0.2815   -999.2500   -999.2500   -999.2500     18.1032      1.9922     -0.0379   -999.2500   -999.2500    156.5534  
   109.5000    -95.3068   2031.6434      1.5999      0.4264   -999.2500   -999.2500   -999.2500     18.0867      2.0058     -0.0274   -999.2500   -999.2500    156.9083  
   110.0000    -95.0248   2031.1930      1.6254      0.6458   -999.2500   -999.2500   -999.2500     18.0319      2.0199     -0.0315   -999.2500   -999.2500    156.8821  
   110.5000    -94.7427   2030.7426      1.6514      0.9708   -999.2500   -999.2500   -999.2500     17.9648      2.0219     -0.0270   -999.2500   -999.2500    158.3180  
   111.0000    -92.2177   2030.2921      1.6753      0.9584   -999.2500   -999.2500   -999.2500     17.9066      2.0305     -0.0243   -999.2500   -999.2500    154.0138  
   111.5000    -88.8258   2029.8419      1.6991      0.8804   -999.2500   -999.2500   -999.2500     17.8417      2.0372     -0.0167   -999.2500   -999.2500    152.2994  
   112.0000    -85.9185   2029.3917      1.7502      0.7852   -999.2500   -999.2500   -999.2500     17.3123      2.0498     -0.0181   -999.2500   -999.2500    153.4640  
   112.5000    -83.1395   2028.9429      1.8042      0.7003   -999.2500   -999.2500   -999.2500     14.7545      2.0638     -0.0104   -999.2500   -999.2500    155.3209  
   113.0000    -80.3606   2028.4929      1.8476      0.7629   -999.2500   -999.2500   -999.2500     13.1919      2.0629      0.0003     59.9148   -999.2500    157.0626  
   113.5000    -77.5817   2028.0431      1.8644      0.8712   -999.2500   -999.2500   -999.2500     13.0126      2.0659      0.0161     58.2854   -999.2500    162.1604  
   114.0000    -76.4432   2027.5933      1.8119      0.8382   -999.2500   -999.2500   -999.2500     12.9775      2.1102      0.0207     58.8913   -999.2500    157.6629  
   114.5000    -75.7596   2027.1437      1.8305      0.7107   -999.2500   -999.2500   -999.2500     13.2437      2.1505      0.0123     59.9811   -999.2500    147.0105  
   115.0000    -75.0761   2026.6952      1.8908      0.6075   -999.2500   -999.2500   -999.2500     14.3314      2.1390      0.0083     59.9804   -999.2500    148.9419  
   115.5000    -70.2217    117.3687      2.1181      0.5881   -999.2500   -999.2500   -999.2500     15.8528      2.0527      0.0477     59.9798   -999.2500    132.2077  
   116.0000    -63.6307      5.3834      2.2959      0.5863   -999.2500   -999.2500   -999.2500     16.8970      1.9451      0.0761     59.9791   -999.2500    104.9680  
   116.5000    -66.7943      1.3746      2.4887      0.9527   -999.2500   -999.2500   -999.2500     17.0571      1.8569      0.0858     59.9785   -999.2500     71.9618  
   117.0000    -69.9578      1.0617      2.3712      1.1812   -999.2500   -999.2500   -999.2500     16.7799      1.8356      0.0795     59.9778   -999.2500     99.1586  
   117.5000    -70.1698      0.9048      2.2550      0.9865   -999.2500   -999.2500   -999.2500     16.4194      1.8361      0.0802     59.9772   -999.2500    121.7747  
   118.0000    -64.8552      0.8266      2.7952      1.5497   -999.2500   -999.2500   -999.2500     15.7533      1.8566      0.0568     59.9765   -999.2500    121.2340  
   118.5000    -59.2841      0.8251     53.1784      2.8381   -999.2500   -999.2500   -999.2500     14.9279      1.9467      0.0343     59.8086   -999.2500    108.5416  
   119.0000    -56.0896      0.7925    173.5471      6.3715   -999.2500   -999.2500   -999.2500     13.4904      2.0418      0.0502     60.3389   -999.2500    119.7977  
   119.5000    -54.5702      0.6662    313.2332     12.6845   -999.2500   -999.2500   -999.2500     13.4280      2.0286      0.0518     60.3359   -999.2500    132.3401  
   120.0000    -52.7193      1.2817    565.3506     19.2103   -999.2500   -999.2500   -999.2500     15.7694      1.9566      0.0243     60.3329   -999.2500    144.8824  
   120.5000    -50.4412      7.9126   1020.3944     27.9700   -999.2500   -999.2500   -999.2500     18.0460      1.9340      0.0049     59.2841   -999.2500    141.0884  
   121.0000    -47.4604     13.2405   1841.6984     36.0219   -999.2500   -999.2500   -999.2500     18.0450      1.9586      0.0032     58.6431   -999.2500    137.8877  
   121.5000    -44.7817     16.7100   1981.4701     47.0180   -999.2500   -999.2500   -999.2500     18.0440      2.0256      0.0181     58.1300   -999.2500    136.4270  
   122.0000    -42.1231     30.6187   1986.2982     76.2110   -999.2500   -999.2500   -999.2500     16.5860      2.0718      0.0392     57.6170   -999.2500    181.4631  
   122.5000    -38.7882   2078.3696   1991.1379    128.2262   -999.2500   -999.2500   -999.2500     15.4349      2.1119      0.0664     57.0327   -999.2500    178.3936  
   123.0000    -32.3942   2054.7949   1995.9884    220.6268   -999.2500   -999.2500   -999.2500     14.3605      2.1562      0.0958     56.4038   -999.2500    170.1519  
   123.5000    -18.9715    894.7125   2000.8518    206.2055   -999.2500   -999.2500   -999.2500     14.1333      2.1747      0.1022     55.7749   -999.2500    161.6292  
   124.0000     -4.9304    109.0945   2005.7271    203.8479   -999.2500   -999.2500   -999.2500     13.9061      2.1745      0.1069     54.0285   -999.2500    149.6676  
   124.5000      0.4131    153.5607   2010.6143    215.1667   -999.2500   -999.2500   -999.2500     13.4618      2.1538      0.0547     52.0593   -999.2500    149.2341  
   125.0000      0.4095    415.9738   2015.5133    284.1179   -999.2500   -999.2500   -999.2500     12.6199      2.1555      0.0491     50.0901   -999.2500    114.3969  
   125.5000      0.4058   1426.6482   2020.4242    375.3344   -999.2500   -999.2500   -999.2500     12.2928      2.1647      0.0498     49.4028   -999.2500    119.0435  
