~VERSION INFORMATION
 VERS.                           2.00:        CWLS LOG ASCII STANDARD - VERSION 2.00
 WRAP.                             NO:        ONE LINE PER DEPTH STEP
~WELL INFORMATION
#MNEM.UNIT                   DATA             INFORMATION
#----------             --------------        ------------------------------
 STRT.F                      372.0000:        START DEPTH
 STOP.F                     9939.0000:        STOP DEPTH
 STEP.F                        0.5000:        STEP VALUE
 NULL.                      -999.2500:        NULL VALUE
 COMP.                     USGS/NPR-A:        COMPANY
 LOC .                     31 15E 19W:        LOCATION
 DATE.                        4/30/78:        LOG DATE
 WELL.                 SOUTH MEADE #1:        WELL
 UWI .                   501632000100:        UNIQUE WELL ID
 API .                   501632000100:        UNIQUE WELL IDENTIFIER
 FLD .                        WILDCAT:        FIELD
 CNTY.                    NORTH SLOPE:        COUNTY
 STAT.                         ALASKA:        STATE
 CTRY.                            USA:        COUNTRY
 OPER.                     USGS/NPR-A:        OPERATOR
 SRVC.                   SCHLUMBERGER:        SERVICE COMPANY
 LAT .                         0.0000:        LATITUDE
 LON .                         0.0000:        LONGITUDE
 DIGS.               CENTER LINE DATA:        DIGITIZING COMPANY
~CURVE INFORMATION      
#MNEM        .UNIT         API CODE           CURVE DESCRIPTION
#-----------------      --------------        ------------------------------
 DEPT        .F                      :        1  DEPTH
 CALI        .IN                     :        2  
 GR          .GAPI                   :        3  
 RHOB        .G/C3                   :        4  
 DRHO        .G/C3                   :        5  
 NPHI        .%                      :        6  
 DT          .US/F                   :        7  
 SP          .MV                     :        8  
 ILD         .OHMM                   :        9  
 ILM         .OHMM                   :        10 
 LL8         .OHMM                   :        11 
~PARAMETER INFORMATION
#MNEM.UNIT                  VALUE             DESCRIPTION OF MNEMONIC
#---------             ---------------        ------------------------------
 EKB .F                       60.0000:        KELLY BUSHING
 TD  .F                     9945.0000:        TOTAL DEPTH
 BHT .F                      214.0000:        BOTTOM HOLE TEMPERATURE
 BS  .                        12.2500:        BIT SIZE
 FD  .                        11.5000:        FLUID DENSITY
 CSIZ.                        13.3750:        CASING SIZE
 CBD .F                     2615.0000:        CASING DRILLER 1
 CBL .F                     2614.0000:        CASING LOGGER 1
 DFT .                  MISCELLANEOUS:        TYPE FLUID IN HOLE
 DFV .                        98.0000:        VISCOSITY
 DFPH.                        10.0000:        PH
 DFL .                         3.6000:        FLUID LOSS
 RMS .                         1.7900:        RM
 MST .F                       61.0000:        RM MEAS. TEMP.
 RMF .                         1.2800:        RMF
 MFST.F                       49.0000:        RMF MEAS. TEMP.
 RMC .                         2.4600:        RMC
 MCST.F                       59.0000:        RMC MEAS. TEMP.
~OTHER INFORMATION
~A    DEPTH        CALI          GR        RHOB        DRHO        NPHI          DT          SP         ILD         ILM         LL8 
# ...
  7417.5000     17.9641     77.6298      2.3899      0.0344     42.3082     94.9033    -18.8499      2.4848      2.4183      3.3842 
  7418.0000     16.1665     75.4610      2.3641      0.0356     43.4603     91.5183    -19.1157      2.5121      2.4456      3.4012 
  7418.5000     13.6944     76.7448      2.3719      0.0341     43.9318     94.2440    -19.3636      2.5344      2.4673      3.3645 
  7419.0000     13.3916     77.9395      2.4022      0.0156     43.5208     98.6008    -19.3588      2.5369      2.4701      3.4113 
  7419.5000     13.5811     78.4802      2.4514      0.0157     43.3375    101.1405    -19.2466      2.5136      2.4461      3.5274 
  7420.0000     13.8189     79.3933      2.4225      0.0356     43.7265     96.1096    -18.9674      2.4800      2.4119      3.6336 
  7420.5000     14.0048     80.2179      2.3604      0.0437     44.4815     95.4795    -18.6475      2.4421      2.3750      3.6126 
  7421.0000     15.2711     80.0924      2.3157      0.0464     45.0092     96.8004    -18.3570      2.4083      2.3434      3.4234 
  7421.5000     15.7065     79.9333      2.3444      0.0498     45.2011     91.6283    -18.1083      2.3791      2.3150      3.1832 
  7422.0000     17.2259     79.9373      2.3346      0.0376     44.6305     94.0072    -18.2251      2.3502      2.2869      3.0068 
  7422.5000     16.0474     80.0014      2.3320      0.0278     42.2236     94.8705    -18.3419      2.3256      2.2645      3.1071 
  7423.0000     16.1996     79.6072      2.3544      0.0439     40.8894     92.4604    -18.4587      2.3155      2.2552      3.1728 
  7423.5000     16.1012     79.0116      2.3424      0.0604     39.9809     93.8488    -18.5756      2.3108      2.2506      3.2274 
  7424.0000     15.8645     77.0902      2.3492      0.0452     40.0631     95.6876    -18.5995      2.3080      2.2479      3.2664 
  7424.5000     15.9792     75.3419      2.3757      0.0632     40.3402     97.0056    -19.1583      2.3134      2.2532      3.2340 
  7425.0000     17.4553     75.2339      2.3586      0.0742     40.5242     91.5789    -19.5196      2.3281      2.2669      3.2904 
  7425.5000     17.3425     75.4883      2.3173      0.0424     40.8087     89.2608    -19.4376      2.3459      2.2842      3.3088 
  7426.0000     16.9730     75.0429      2.3302      0.0333     41.4256     91.5299    -19.2515      2.3698      2.3067      3.3447 
  7426.5000     15.4008     74.3610      2.3340      0.0265     41.6869     93.3804    -19.0484      2.3951      2.3314      3.3830 
  7427.0000     14.7161     74.2209      2.3337      0.0394     41.7375     92.7773    -18.8825      2.4207      2.3563      3.5066 
  7427.5000     15.7215     74.4976      2.3226      0.0514     41.8245     91.8233    -18.4742      2.4466      2.3815      3.7154 
  7428.0000     16.2251     74.6299      2.3230      0.0270     42.2781     90.2963    -18.4257      2.4704      2.4053      3.3285 
  7428.5000     16.3248     76.0664      2.3534      0.0315     42.6405     92.1849    -18.8484      2.4904      2.4249      3.2127 
  7429.0000     16.9440     78.2328      2.3860      0.0200     42.5451     99.0450    -19.0285      2.4669      2.3988      3.4971 
  7429.5000     16.0249     79.5569      2.4157      0.0615     42.0154     95.9614    -19.1657      2.4278      2.3608      3.8237 
  7430.0000     15.8413     80.0741      2.3647      0.0893     41.9287     94.9928    -19.1564      2.3893      2.3234      3.7179 
  7430.5000     16.6943     79.5032      2.2836      0.0508     43.1895     92.6492    -19.0540      2.3515      2.2891      3.4623 
  7431.0000     16.2071     78.9390      2.3103      0.0638     43.9845     91.2476    -19.0819      2.3574      2.2954      3.4010 
  7431.5000     16.1123     78.3982      2.2993      0.0558     44.7227     96.0680    -19.1484      2.3742      2.3118      3.4093 
  7432.0000     17.0915     78.0788      2.2659      0.0475     44.9555     97.6357    -19.3031      2.3911      2.3282      3.4562 
  7432.5000     17.2599     79.0074      2.2533      0.0369     44.9361     91.5390    -19.5219      2.4081      2.3448      3.3813 
  7433.0000     16.0084     79.1749      2.3217      0.0190     45.0556     97.5163    -19.4746      2.4462      2.3789      3.3794 
  7433.5000     14.6002     78.6053      2.4739      0.0147     45.1985     98.0613    -19.3288      2.4859      2.4174      3.4376 
  7434.0000     13.9888     75.6282      2.5182      0.0046     43.5154     84.7368    -18.9793      2.5265      2.4567      3.5837 
  7434.5000     14.2288     73.7097      2.4621      0.0476     41.9051     90.3748    -18.4409      2.5510      2.4841      3.6845 
  7435.0000     14.4226     74.0444      2.4128      0.0898     42.1115     87.0014    -17.7728      2.5912      2.5208      3.6324 
  7435.5000     15.6073     74.9570      2.2908      0.0418     42.4264     88.3652    -17.1075      2.6263      2.5550      3.4899 
  7436.0000     15.1404     76.2014      2.2847      0.0482     42.7172     98.3515    -17.8312      2.6620      2.5897      3.4036 
  7436.5000     15.8688     78.5491      2.2804      0.0443     42.8453     96.2475    -18.5549      2.6981      2.6248      3.7630 
  7437.0000     16.3211     81.4888      2.2479      0.0587     43.1806     94.5186    -18.7802      2.7342      2.6588      3.9494 
  7437.5000     15.4305     82.9857      2.2026      0.0588     43.5325     94.3110    -19.0030      2.6894      2.6152      3.8605 
  7438.0000     16.9152     82.2854      2.1718      0.0364     42.5990     97.0558    -18.8440      2.6453      2.5724      3.6619 
  7438.5000     16.4396     82.0303      2.1615      0.0367     41.1715     95.3464    -18.5975      2.6020      2.5302      3.4917 
  7439.0000     16.0653     82.3333      2.1917      0.0448     40.2766     97.2542    -18.1882      2.5822      2.5150      3.4423 
  7439.5000     15.7091     82.7434      2.2384      0.0517     39.9226     95.0848    -17.5770      2.5853      2.5180      3.4011 
  7440.0000     15.4789     83.9391      2.2915      0.0377     40.6218     94.3967    -16.9365      2.5884      2.5210      3.3708 
  7440.5000     16.3156     85.4844      2.2890      0.0452     41.6921     96.1780    -16.7329      2.6078      2.5323      3.3435 
  7441.0000     16.8476     85.9511      2.2901      0.0415     41.4356     93.1491    -16.7529      2.6748      2.5876      3.3097 
  7441.5000     16.7224     85.1376      2.2853      0.0313     40.7697     92.6840    -16.7280      2.7572      2.6429      3.3121 
  7442.0000     14.8809     83.6299      2.3106      0.0099     40.1551     90.5376    -16.9320      2.8422      2.6898      3.3408 
  7442.5000     14.7189     81.9956      2.3695      0.0281     39.5298     89.7336    -17.3105      2.8968      2.7010      3.8055 
  7443.0000     14.9442     80.4723      2.3996      0.0495     39.8848     86.5460    -17.3117      2.9183      2.7056      3.9164 
  7443.5000     14.6698     79.6989      2.3598      0.0667     39.8986     92.9841    -16.8945      2.9335      2.7086      3.9487 
  7444.0000     15.2671     79.6361      2.3624      0.0666     39.3301     95.7411    -16.5897      2.9168      2.7059      3.9651 
  7444.5000     14.9761     79.6101      2.3849      0.0442     39.1833     96.9124    -16.3917      2.9002      2.6941      3.9499 
  7445.0000     15.3142     79.6366      2.3563      0.0587     39.3714     95.3186    -16.2920      2.8834      2.6823      3.8090 
  7445.5000     15.9978     79.6631      2.3527      0.1005     39.5561     90.7204    -16.0579      2.8615      2.6711      3.6353 
  7446.0000     15.3531     79.5452      2.2986      0.1029     40.0926     91.1793    -15.6732      2.8440      2.6621      3.4830 
  7446.5000     15.6604     79.5505      2.2968      0.0858     40.8578     92.1957    -15.2865      2.8269      2.6671      3.5369 
  7447.0000     16.2104     79.6588      2.3098      0.0910     39.5832     91.6943    -15.1983      2.7926      2.6729      3.6471 
  7447.5000     15.6770     79.6362      2.2871      0.0692     38.5327     95.9535    -15.4209      2.7573      2.6729      3.7585 
