~VERSION INFORMATION
 VERS.                           2.00:        CWLS LOG ASCII STANDARD - VERSION 2.00
 WRAP.                             NO:        ONE LINE PER DEPTH STEP
~WELL INFORMATION
#MNEM.UNIT                   DATA             INFORMATION
#----------             --------------        ------------------------------
 STRT.F                       79.0000:        START DEPTH
 STOP.F                     6686.0000:        STOP DEPTH
 STEP.F                        0.5000:        STEP VALUE
 NULL.                      -999.2500:        NULL VALUE
 COMP.                  HUSKY OIL CO.:        COMPANY  
 LOC .                   10  18N  16W:        LOCATION   
 DATE.                        3/28/81:        LOG DATE 
 WELL.           KUYANAK TEST WELL #1:        WELL     
 UWI .                   501632000300:        UNIQUE WELL ID 
 API .                   501632000300:        UNIQUE WELL IDENTIFIER 
 FLD .                        WILDCAT:        FIELD    
 CNTY.                    NORTH SLOPE:        COUNTY  
 STAT.                         ALASKA:        STATE   
 CTRY.                            USA:        COUNTRY 
 OPER.                  HUSKY OIL CO.:        OPERATOR  
 SRVC.                            440:        SERVICE COMPANY 
 LAT .                         0.0000:        LATITUDE
 LON .                         0.0000:        LONGITUDE
 DIGS.                             65:        DIGITIZING COMPANY 
~CURVE INFORMATION      
#MNEM        .UNIT         API CODE           CURVE DESCRIPTION
#-----------------      --------------        ------------------------------
 DEPT        .F                      :        1  DEPTH
 SP          .MV                     :        2  
 ILM         .OHMM                   :        3  
 ILD         .OHMM                   :        4  
 SFL         .OHMM                   :        5  
 LLD         .OHMM                   :        6  
 LLS         .OHMM                   :        7  
 MSFL        .OHMM                   :        8  
 NPHI        .%                      :        9  
 CAL         .IN                     :        10 
 GR          .GAPI                   :        11 
 RHOB        .G/C3                   :        12 
 DRHO        .G/C3                   :        13 
 DT          .US/F                   :        14 
~PARAMETER INFORMATION       
#MNEM.UNIT                  VALUE             DESCRIPTION OF MNEMONIC
#---------             ---------------        ------------------------------
 EKB .F                       28.0000:        KELLY BUSHING
 TD  .F                     6690.0000:        TOTAL DEPTH
 BS  .                         0.0000:        BIT SIZE
 CSIZ.                         0.0000:        CASING SIZE
 CBD .F                        0.0000:        CASING DRILLER 1
 CBL .F                        0.0000:        CASING LOGGER 1
~OTHER INFORMATION
~A    DEPTH          SP         ILM         ILD         SFL         LLD         LLS        MSFL        NPHI         CAL          GR        RHOB        DRHO          DT  
# ...
  4039.0000    -37.0448   -999.2500   -999.2500   -999.2500      7.7934      9.0777      1.6412     37.6705     16.7603     83.1870      2.4441   -999.2500     87.7451  
  4039.5000    -36.8654   -999.2500   -999.2500   -999.2500      7.5055      9.0107      1.6232     36.1521     16.8036     81.5113      2.4351   -999.2500     87.7150  
  4040.0000    -36.8536   -999.2500   -999.2500   -999.2500      7.2282      8.9271      3.5906     34.2117     17.0857     83.2530      2.4397   -999.2500     87.2192  
  4040.5000    -36.8551   -999.2500   -999.2500   -999.2500      7.0587      8.8442   2009.6696     33.4457     17.3713     84.8099      2.4786   -999.2500     86.7083  
  4041.0000    -36.8565   -999.2500   -999.2500   -999.2500      7.0034      8.7801   2004.1465     33.4554     17.3812     85.0133      2.4920   -999.2500     86.2046  
  4041.5000    -36.8586   -999.2500   -999.2500   -999.2500      6.9435      8.7887   1998.6398     33.5144     17.3624     84.1378      2.4845   -999.2500     86.3550  
  4042.0000    -36.9674   -999.2500   -999.2500   -999.2500      6.8687      8.7973   1993.1481     33.5054     17.3768     84.0872      2.4518   -999.2500     86.5796  
  4042.5000    -37.1723   -999.2500   -999.2500   -999.2500      6.7948      8.8224   1987.6704     33.2919     17.4189     85.5434      2.3678   -999.2500     86.2959  
  4043.0000    -37.3017   -999.2500   -999.2500   -999.2500      6.8162      8.8502      3.1827     33.3084     17.4109     86.4080      2.2690   -999.2500     86.2786  
  4043.5000    -37.4311   -999.2500   -999.2500   -999.2500      6.9054      8.8781      4.0001     35.1881     17.2862     86.7066      2.1200   -999.2500     86.4904  
  4044.0000    -37.4381   -999.2500   -999.2500   -999.2500      6.9795      8.9062      5.4910     36.6511     15.9902     87.0029      1.8361   -999.2500     85.9633  
  4044.5000    -37.4244   -999.2500   -999.2500   -999.2500      7.0193      8.9343      5.2284     35.7100     13.4742     85.2143      1.5939   -999.2500     85.2484  
  4045.0000    -37.4507   -999.2500   -999.2500   -999.2500      6.9804      8.9513      7.4368     35.1649     11.9388     82.8818      1.5519   -999.2500     84.9103  
  4045.5000    -37.4521   -999.2500   -999.2500   -999.2500      6.9416      8.9103     17.4435     35.1417     12.2079     80.6186      1.5402   -999.2500     84.6382  
  4046.0000    -37.4504   -999.2500   -999.2500   -999.2500      6.9031      8.8694     20.2994     35.9876     12.2285     79.8489      1.5270   -999.2500     84.7725  
  4046.5000    -37.4507   -999.2500   -999.2500   -999.2500      6.8634      8.9434      9.8918     36.6878     12.2304     79.2657      1.5193   -999.2500     84.8709  
  4047.0000    -37.4511   -999.2500   -999.2500   -999.2500      6.7491     18.1746      3.6581     36.7861     12.2321     78.7185      1.5260   -999.2500     84.8696  
  4047.5000    -37.4657   -999.2500   -999.2500   -999.2500      6.6368     15.5828      2.0179     36.7267     12.2332     77.9098      1.5302   -999.2500     84.6513  
  4048.0000    -37.4809   -999.2500   -999.2500   -999.2500      6.5263      8.5242      1.3430     36.7495     12.2193     76.4836      1.5429   -999.2500     84.4796  
  4048.5000    -37.4568   -999.2500   -999.2500   -999.2500      6.4177      8.1924      1.1065     36.4786     12.2200     74.8252      1.5578   -999.2500     84.4761  
  4049.0000    -37.4691   -999.2500   -999.2500   -999.2500      6.3841      8.2151      1.1126     35.9096     12.3906     74.1937      1.6181   -999.2500     84.6156  
  4049.5000    -37.5281   -999.2500   -999.2500   -999.2500      6.3901      8.2741      1.3537     35.6047     12.5636     74.7995      1.7333   -999.2500     84.6537  
  4050.0000    -37.5893   -999.2500   -999.2500   -999.2500      6.3961      8.3335      2.0416     35.6377     12.5088     75.6635      1.9139   -999.2500     84.0665  
  4050.5000    -37.6394   -999.2500   -999.2500   -999.2500      6.4022      8.3934      2.5870     35.7118     12.4540     76.1875      2.0945   -999.2500     83.4793  
  4051.0000    -37.5154   -999.2500   -999.2500   -999.2500      6.4082      8.4537      2.6730     35.5143     13.2033     76.5421      2.2752   -999.2500     83.3889  
  4051.5000    -37.4478   -999.2500   -999.2500   -999.2500      6.4142      8.5144      2.1808     35.0352     14.0113     77.0962      2.4010   -999.2500     84.7109  
  4052.0000    -37.5017   -999.2500   -999.2500   -999.2500      6.4203      8.5771      1.5119     34.3395     14.4730     77.7009      2.4764   -999.2500     85.3009  
  4052.5000    -37.4726   -999.2500   -999.2500   -999.2500      6.4263      8.6420      1.0976     33.5453     14.3461     78.2923      2.4587   -999.2500     85.4213  
  4053.0000    -37.4242   -999.2500   -999.2500   -999.2500      6.4324      8.7073      1.1067     32.9368     14.4737     78.8256      2.4287   -999.2500     85.0863  
  4053.5000    -37.4389   -999.2500   -999.2500   -999.2500      6.4384      8.7731      1.3333     33.3369     15.1020     78.4841      2.4176   -999.2500     85.1098  
  4054.0000    -37.2000   -999.2500   -999.2500   -999.2500      6.4445      8.8394      2.0882     34.6737     15.6580     77.5640      2.4021   -999.2500     85.0644  
  4054.5000    -36.8121   -999.2500   -999.2500   -999.2500      6.4506      8.8404      3.0389     36.1180     15.8613     76.6807      2.4124   -999.2500     85.1381  
  4055.0000    -36.8207   -999.2500   -999.2500   -999.2500      6.4567      8.8303      3.0374     37.8894     15.9016     76.1995      2.4263   -999.2500     85.9330  
  4055.5000    -36.8074   -999.2500   -999.2500   -999.2500      6.4628      8.8202      2.4437     38.3319     15.9359     76.1876      2.4307   -999.2500     86.6680  
  4056.0000    -36.8078   -999.2500   -999.2500   -999.2500      6.4671      8.8101      1.8921     38.2758     15.8986     76.8681      2.4379   -999.2500     87.7014  
  4056.5000    -36.7979   -999.2500   -999.2500   -999.2500      6.4714      8.8000      1.5802     37.3709     15.8127     78.0633      2.4599   -999.2500     88.4735  
  4057.0000    -36.7869   -999.2500   -999.2500   -999.2500      6.4757      8.7899      1.3964     36.0667     15.7722     78.9982      2.4776   -999.2500     88.1544  
  4057.5000    -36.6675   -999.2500   -999.2500   -999.2500      6.4800      8.7799      1.1663     34.3128     16.2411     79.9332      2.4494   -999.2500     87.7183  
  4058.0000    -36.5712   -999.2500   -999.2500   -999.2500      6.4844      8.7698      0.9977     33.1560     16.1551     80.8681      2.4173   -999.2500     86.5399  
  4058.5000    -36.5141   -999.2500   -999.2500   -999.2500      6.4887      8.7598      0.9185     33.8517     15.2200     81.1740      2.4155   -999.2500     85.4527  
  4059.0000    -36.2595   -999.2500   -999.2500   -999.2500      6.4930      8.7498      0.8099     34.5966     16.2624     80.8739      2.4254   -999.2500     84.7539  
  4059.5000    -36.4560   -999.2500   -999.2500   -999.2500      6.4973      8.7398      0.6006     34.2826     16.8240     80.6462      2.4360   -999.2500     84.4958  
  4060.0000    -36.8550   -999.2500   -999.2500   -999.2500      6.5613      8.7298      0.3811     33.7276     16.3192     81.5246      2.4179   -999.2500     84.3922  
  4060.5000    -37.1271   -999.2500   -999.2500   -999.2500      6.6799      8.7943      0.2921     33.4347     15.1143     82.4029      2.4015   -999.2500     84.3986  
  4061.0000    -37.1597   -999.2500   -999.2500   -999.2500      6.9046      8.9189      0.2879     34.2869     15.8983     82.8733      2.3895   -999.2500     84.3958  
  4061.5000    -37.1784   -999.2500   -999.2500   -999.2500      7.1981      9.2549      0.2875     35.0532     15.7011     82.7108      2.3467   -999.2500     84.3930  
  4062.0000    -37.1079   -999.2500   -999.2500   -999.2500      7.5041      9.6036      0.2875     35.9019     15.1171     83.9361      2.2879   -999.2500     84.4614  
  4062.5000    -36.9027   -999.2500   -999.2500   -999.2500      7.5833      9.8327      0.2903     36.4018     14.2185     84.4280      2.1663   -999.2500     84.6500  
