~VERSION INFORMATION
 VERS.                           2.00:        CWLS LOG ASCII STANDARD - VERSION 2.00
 WRAP.                             NO:        ONE LINE PER DEPTH STEP
~WELL INFORMATION
#MNEM.UNIT                   DATA             INFORMATION
#----------             --------------        ------------------------------
 STRT.F                       79.0000:        START DEPTH
 STOP.F                     6686.0000:        STOP DEPTH
 STEP.F                        0.5000:        STEP VALUE
 NULL.                      -999.2500:        NULL VALUE
 COMP.                  HUSKY OIL CO.:        COMPANY  
 LOC .                   10  18N  16W:        LOCATION   
 DATE.                        3/28/81:        LOG DATE 
 WELL.           KUYANAK TEST WELL #1:        WELL     
 UWI .                   501632000300:        UNIQUE WELL ID 
 API .                   501632000300:        UNIQUE WELL IDENTIFIER 
 FLD .                        WILDCAT:        FIELD    
 CNTY.                    NORTH SLOPE:        COUNTY  
 STAT.                         ALASKA:        STATE   
 CTRY.                            USA:        COUNTRY 
 OPER.                  HUSKY OIL CO.:        OPERATOR  
 SRVC.                            440:        SERVICE COMPANY 
 LAT .                         0.0000:        LATITUDE
 LON .                         0.0000:        LONGITUDE
 DIGS.                             65:        DIGITIZING COMPANY 
~CURVE INFORMATION      
#MNEM        .UNIT         API CODE           CURVE DESCRIPTION
#-----------------      --------------        ------------------------------
 DEPT        .F                      :        1  DEPTH
 SP          .MV                     :        2  
 ILM         .OHMM                   :        3  
 ILD         .OHMM                   :        4  
 SFL         .OHMM                   :        5  
 LLD         .OHMM                   :        6  
 LLS         .OHMM                   :        7  
 MSFL        .OHMM                   :        8  
 NPHI        .%                      :        9  
 CAL         .IN                     :        10 
 GR          .GAPI                   :        11 
 RHOB        .G/C3                   :        12 
 DRHO        .G/C3                   :        13 
 DT          .US/F                   :        14 
~PARAMETER INFORMATION       
#MNEM.UNIT                  VALUE             DESCRIPTION OF MNEMONIC
#---------             ---------------        ------------------------------
 EKB .F                       28.0000:        KELLY BUSHING
 TD  .F                     6690.0000:        TOTAL DEPTH
 BS  .                         0.0000:        BIT SIZE
 CSIZ.                         0.0000:        CASING SIZE
 CBD .F                        0.0000:        CASING DRILLER 1
 CBL .F                        0.0000:        CASING LOGGER 1
~OTHER INFORMATION
~A    DEPTH          SP         ILM         ILD         SFL         LLD         LLS        MSFL        NPHI         CAL          GR        RHOB        DRHO          DT  
# ...
   535.0000    -90.4305     10.2105     18.0433     13.9257   -999.2500   -999.2500   -999.2500     60.2798     17.8644     49.1274      2.1553      0.0832    127.9538  
   535.5000    -89.8526     10.9418     19.7543     14.5287   -999.2500   -999.2500   -999.2500     60.4121     17.8523     49.8954      2.1515      0.0777    126.1433  
   536.0000    -88.1389     12.0422     20.7049     15.5909   -999.2500   -999.2500   -999.2500     61.2691     17.8267     50.5073      2.1433      0.0840    125.1616  
   536.5000    -85.2647     13.2900     22.3628     16.9051   -999.2500   -999.2500   -999.2500     61.7960     17.8188     51.4379      2.1521      0.0958    123.8711  
   537.0000    -81.7916     14.6672     24.1534     18.3301   -999.2500   -999.2500   -999.2500     62.1537     17.8077     53.6580      2.1578      0.1019    124.5629  
   537.5000    -78.1978     15.0617     23.1504     19.5654   -999.2500   -999.2500   -999.2500     62.5242     17.7731     56.1611      2.1493      0.0970    126.4425  
   538.0000    -73.9866     13.9106     19.6719     19.2922   -999.2500   -999.2500   -999.2500     60.6164     17.6834     58.8771      2.1434      0.0928    125.1547  
   538.5000    -70.2042     12.2088     16.7162     15.4126   -999.2500   -999.2500   -999.2500     58.9750     17.5644     61.6578      2.1462      0.0818    124.1390  
   539.0000    -68.2695     10.7860     14.2045     11.2301   -999.2500   -999.2500   -999.2500     57.6597     17.5161     63.9743      2.1604      0.0793    124.6580  
   539.5000    -67.1049      9.7154     12.0702      9.2289   -999.2500   -999.2500   -999.2500     57.0273     17.4887     65.4214      2.1744      0.0861    126.2074  
   540.0000    -66.8364      8.7510     10.2983      8.4515   -999.2500   -999.2500   -999.2500     57.1033     17.4774     67.1160      2.1888      0.0887    123.6273  
   540.5000    -66.7068      7.8824      9.4201      7.8085   -999.2500   -999.2500   -999.2500     57.4449     17.4224     68.8576      2.2066      0.0936    127.1883  
   541.0000    -66.5771      7.0999      8.6168      7.2501   -999.2500   -999.2500   -999.2500     57.4359     17.3863     69.9810      2.2088      0.0904    129.9063  
   541.5000    -66.5814      6.6258      7.8820      6.7316   -999.2500   -999.2500   -999.2500     57.5333     17.3448     70.2899      2.2103      0.0869    129.7999  
   542.0000    -67.9822      6.2842      7.2753      6.3258   -999.2500   -999.2500   -999.2500     57.7176     17.3157     69.5581      2.2217      0.0935    129.3502  
   542.5000    -69.5012      5.9602      6.8626      6.7435   -999.2500   -999.2500   -999.2500     58.2641     17.2973     68.6826      2.2182      0.0909    129.1150  
   543.0000    -71.0201      5.6548      6.4733      7.1887   -999.2500   -999.2500   -999.2500     59.1765     17.2921     68.6094      2.2141      0.0806    128.8791  
   543.5000    -72.5391      5.3706      6.1061      7.6633   -999.2500   -999.2500   -999.2500     59.0327     17.3061     68.8920      2.1924      0.0686    131.3214  
   544.0000    -73.0814      5.1007      5.7597      6.8252   -999.2500   -999.2500   -999.2500     58.4479     17.3761     70.1417      2.1738      0.0750    135.5959  
   544.5000    -73.5302      4.8444      5.4330      5.8166   -999.2500   -999.2500   -999.2500     58.9627     17.2406     71.6339      2.1657      0.0918    137.8997  
   545.0000    -73.1979      4.6009      5.2471      4.9570   -999.2500   -999.2500   -999.2500     59.1222     17.1520     73.0093      2.1803      0.0838    139.3087  
   545.5000    -72.3932      4.4907      5.1301      4.5809   -999.2500   -999.2500   -999.2500     59.0117     17.1631     72.5211      2.2064      0.0764    140.4248  
   546.0000    -71.7711      4.5109      5.0986      4.6302   -999.2500   -999.2500   -999.2500     59.7880     17.2001     71.1535      2.2259      0.0815    139.8390  
   546.5000    -71.4935      4.6864      5.1148      4.7586   -999.2500   -999.2500   -999.2500     60.6467     17.2594     70.4266      2.2197      0.0737    137.8441  
   547.0000    -71.4553      4.9589      5.3486      5.0345   -999.2500   -999.2500   -999.2500     60.0155     17.3147     69.6059      2.2374      0.0940    136.7052  
   547.5000    -71.1394      5.3349      5.6346      5.3264   -999.2500   -999.2500   -999.2500     60.0125     17.2990     68.1502      2.2564      0.0967    135.3252  
   548.0000    -70.5370      5.7393      5.9999      5.6645   -999.2500   -999.2500   -999.2500     59.9584     17.3118     67.5787      2.2515      0.0821    131.3782  
   548.5000    -69.9346      6.1744      6.3890      6.0058   -999.2500   -999.2500   -999.2500     58.9461     17.3713     67.4543      2.2439      0.0689    129.3313  
   549.0000    -70.4082      6.5720      6.8032      6.4637   -999.2500   -999.2500   -999.2500     58.2491     17.2502     66.8744      2.2393      0.0589    129.0051  
   549.5000    -70.9760      6.7229      7.2444      6.7880   -999.2500   -999.2500   -999.2500     58.4303     17.1417     65.8728      2.2349      0.0688    127.8157  
   550.0000    -71.1994      6.8772      7.3130      6.8948   -999.2500   -999.2500   -999.2500     58.3252     17.2214     65.3171      2.2349      0.0776    128.8341  
   550.5000    -71.1154      6.6529      7.3123      6.8198   -999.2500   -999.2500   -999.2500     57.7994     17.3011     65.3857      2.2241      0.0732    133.1600  
   551.0000    -71.0314      6.4356      7.2314      6.6700   -999.2500   -999.2500   -999.2500     58.4639     17.3167     65.9353      2.2008      0.0679    134.0586  
   551.5000    -71.0473      6.2253      7.1261      6.4556   -999.2500   -999.2500   -999.2500     61.4234     17.2701     65.8723      2.1937      0.0662    135.6815  
   552.0000    -71.0916      6.0219      7.0223      6.2799   -999.2500   -999.2500   -999.2500     64.5924     17.2201     64.8278      2.2067      0.0792    136.5219  
   552.5000    -71.4700      5.9308      6.9201      6.1091   -999.2500   -999.2500   -999.2500     65.5981     17.3820     64.5929      2.2340      0.0944    136.6850  
   553.0000    -71.9076      5.8750      6.8193      5.9428   -999.2500   -999.2500   -999.2500     64.7687     17.4753     65.6199      2.2489      0.1070    136.8509  
   553.5000    -72.0884      5.8427      6.8500      5.9939   -999.2500   -999.2500   -999.2500     63.4113     17.5686     66.6280      2.2514      0.0928    142.5288  
   554.0000    -72.1925      6.0066      7.0181      6.3547   -999.2500   -999.2500   -999.2500     61.7265     17.8696     66.4006      2.2439      0.0700    142.9492  
   554.5000    -72.0210      6.1923      7.2864      6.7578   -999.2500   -999.2500   -999.2500     60.2134     17.6937     64.4754      2.2279      0.0593    141.8819  
   555.0000    -71.7248      6.3837      7.5656      7.1864   -999.2500   -999.2500   -999.2500     60.2395     17.5084     63.5298      2.2193      0.0703    140.0053  
   555.5000    -70.6663      6.6517      7.8554      7.6421   -999.2500   -999.2500   -999.2500     61.2205     17.2627     64.0773      2.1923      0.0726    138.2841  
   556.0000    -69.2873      7.0210      8.1564      8.1268   -999.2500   -999.2500   -999.2500     61.7309     17.1907     65.8468      2.2000      0.0623    139.8081  
   556.5000    -67.6304      7.4109      8.4689      8.6423   -999.2500   -999.2500   -999.2500     60.2723     17.3789     68.8877      2.2129      0.0546    140.8106  
   557.0000    -65.8259      7.8066      8.7934      9.0505   -999.2500   -999.2500   -999.2500     57.1499     17.5289     71.3123      2.2144      0.0513    136.6681  
   557.5000    -64.2767      8.0235      9.1304      9.3892   -999.2500   -999.2500   -999.2500     54.5920     17.5077     73.2759      2.2291      0.0558    132.3343  
   558.0000    -62.7139      8.2464      9.4802      9.7406   -999.2500   -999.2500   -999.2500     54.1768     17.3829     73.7077      2.2562      0.0653    129.1001  
   558.5000    -62.3789      8.4754      9.8434     10.0662   -999.2500   -999.2500   -999.2500     54.4944     17.3792     73.4690      2.2768      0.0678    124.3959  
