~VERSION INFORMATION
 VERS.                           2.00:        CWLS LOG ASCII STANDARD - VERSION 2.00
 WRAP.                             NO:        ONE LINE PER DEPTH STEP
~WELL INFORMATION
#MNEM.UNIT                   DATA             INFORMATION
#----------             --------------        ------------------------------
 STRT.F                       79.0000:        START DEPTH
 STOP.F                     6686.0000:        STOP DEPTH
 STEP.F                        0.5000:        STEP VALUE
 NULL.                      -999.2500:        NULL VALUE
 COMP.                  HUSKY OIL CO.:        COMPANY  
 LOC .                   10  18N  16W:        LOCATION   
 DATE.                        3/28/81:        LOG DATE 
 WELL.           KUYANAK TEST WELL #1:        WELL     
 UWI .                   501632000300:        UNIQUE WELL ID 
 API .                   501632000300:        UNIQUE WELL IDENTIFIER 
 FLD .                        WILDCAT:        FIELD    
 CNTY.                    NORTH SLOPE:        COUNTY  
 STAT.                         ALASKA:        STATE   
 CTRY.                            USA:        COUNTRY 
 OPER.                  HUSKY OIL CO.:        OPERATOR  
 SRVC.                            440:        SERVICE COMPANY 
 LAT .                         0.0000:        LATITUDE
 LON .                         0.0000:        LONGITUDE
 DIGS.                             65:        DIGITIZING COMPANY 
~CURVE INFORMATION      
#MNEM        .UNIT         API CODE           CURVE DESCRIPTION
#-----------------      --------------        ------------------------------
 DEPT        .F                      :        1  DEPTH
 SP          .MV                     :        2  
 ILM         .OHMM                   :        3  
 ILD         .OHMM                   :        4  
 SFL         .OHMM                   :        5  
 LLD         .OHMM                   :        6  
 LLS         .OHMM                   :        7  
 MSFL        .OHMM                   :        8  
 NPHI        .%                      :        9  
 CAL         .IN                     :        10 
 GR          .GAPI                   :        11 
 RHOB        .G/C3                   :        12 
 DRHO        .G/C3                   :        13 
 DT          .US/F                   :        14 
~PARAMETER INFORMATION       
#MNEM.UNIT                  VALUE             DESCRIPTION OF MNEMONIC
#---------             ---------------        ------------------------------
 EKB .F                       28.0000:        KELLY BUSHING
 TD  .F                     6690.0000:        TOTAL DEPTH
 BS  .                         0.0000:        BIT SIZE
 CSIZ.                         0.0000:        CASING SIZE
 CBD .F                        0.0000:        CASING DRILLER 1
 CBL .F                        0.0000:        CASING LOGGER 1
~OTHER INFORMATION
~A    DEPTH          SP         ILM         ILD         SFL         LLD         LLS        MSFL        NPHI         CAL          GR        RHOB        DRHO          DT  
# ...
  6655.0000    -61.4823   -999.2500   -999.2500   -999.2500     29.1443     29.6900     12.5612     29.8287      8.5379     88.3664      2.6348      0.0414     64.0824  
  6655.5000    -61.4973   -999.2500   -999.2500   -999.2500     29.5151     30.5742     12.2655     29.2185      8.5402     89.3623      2.6206      0.0199     64.4635  
  6656.0000    -61.5124   -999.2500   -999.2500   -999.2500     32.7105     33.0411     12.8213     28.6084      8.6005     88.8295      2.6394      0.0118     64.8383  
  6656.5000    -61.5071   -999.2500   -999.2500   -999.2500     33.6391     34.3723     15.1859     28.5045      8.7422     88.0253      2.6358      0.0079     65.0029  
  6657.0000    -61.4971   -999.2500   -999.2500   -999.2500     32.4146     33.3458     10.6759     28.6199      8.8593     88.0164      2.6307     -0.0019     64.3563  
  6657.5000    -61.4932   -999.2500   -999.2500   -999.2500     32.0566     32.9381      3.2723     28.7748      8.6150     88.4756      2.6213     -0.0062     63.0832  
  6658.0000    -61.5775   -999.2500   -999.2500   -999.2500     32.3488     33.2288      2.4861     29.0339      8.5986     88.7648      2.6153     -0.0038     62.9971  
  6658.5000    -61.6023   -999.2500   -999.2500   -999.2500     33.0394     33.7669      6.2295     29.2048      8.5865     89.0683      2.6131     -0.0059     63.3506  
  6659.0000    -61.6138   -999.2500   -999.2500   -999.2500     34.3282     35.0081     12.2371     29.3627      8.5745     89.1044      2.6129     -0.0140     63.5006  
  6659.5000    -61.5371   -999.2500   -999.2500   -999.2500     35.8132     36.4228     14.3079     29.5667      8.5646     88.3987      2.6164     -0.0131     63.6704  
  6660.0000    -61.5441   -999.2500   -999.2500   -999.2500     37.0835     38.4214     18.4873     29.9193      8.5635     88.1119      2.6355     -0.0129     63.3543  
  6660.5000    -61.6141   -999.2500   -999.2500   -999.2500     37.5890     39.1214     19.4239     30.2141      8.5661     88.2862      2.6467     -0.0127     62.6921  
  6661.0000    -61.5568   -999.2500   -999.2500   -999.2500     37.2552     38.4589     16.3399     30.3604      8.6004     88.9584      2.6441     -0.0062     62.7528  
  6661.5000    -61.5742   -999.2500   -999.2500   -999.2500     36.0567     36.6718     10.3817     30.1085      8.7066     88.0329      2.6370     -0.0012     62.6520  
  6662.0000    -61.5521   -999.2500   -999.2500   -999.2500     34.7554     35.1614     10.0123     29.6806      8.8630     85.2867      2.6329      0.0037     62.5762  
  6662.5000    -61.5901   -999.2500   -999.2500   -999.2500     34.0449     34.3372     14.6271     29.7573      8.7366   -999.2500      2.6269      0.0086     62.4831  
  6663.0000    -61.5556   -999.2500   -999.2500   -999.2500     34.0835     34.2079     15.0608     29.7991      8.5173   -999.2500      2.6307      0.0136     62.1300  
  6663.5000    -61.6007   -999.2500   -999.2500   -999.2500     34.6068     34.8257     12.5900     29.9530      8.5027   -999.2500      2.6197      0.0029     62.4490  
  6664.0000    -61.5927   -999.2500   -999.2500   -999.2500     36.0004     36.0283     14.2976     30.1801      8.4952   -999.2500      2.6120     -0.0155     62.6928  
  6664.5000    -61.5727   -999.2500   -999.2500   -999.2500     38.3949     38.0348     18.3103     30.0701      8.5014   -999.2500      2.6107     -0.0189     62.8877  
  6665.0000    -61.5669   -999.2500   -999.2500   -999.2500     41.2135     41.4110     21.0861     29.5765      8.5298   -999.2500      2.6138     -0.0131     62.7424  
  6665.5000    -61.5243   -999.2500   -999.2500   -999.2500     42.2981     42.1546     21.3212     28.9028      8.5523   -999.2500      2.6202     -0.0105     62.1239  
  6666.0000    -61.6223   -999.2500   -999.2500   -999.2500     42.9440     42.8693     20.1884     28.0028      8.5551   -999.2500      2.6126     -0.0078     61.8062  
  6666.5000    -61.5978   -999.2500   -999.2500   -999.2500     43.2401     43.5962     19.4640     27.7608      8.5494   -999.2500      2.5921     -0.0052     61.5422  
  6667.0000    -61.5829   -999.2500   -999.2500   -999.2500     43.5383     44.1724     19.8686     27.8529      8.5392   -999.2500      2.5773     -0.0046     62.0950  
  6667.5000    -61.5915   -999.2500   -999.2500   -999.2500     43.6567     44.6304     19.7495     27.9039      8.5369   -999.2500      2.5687     -0.0052     62.6705  
  6668.0000    -61.5805   -999.2500   -999.2500   -999.2500     43.6767     44.5076     18.8961     28.1442      8.5419   -999.2500      2.5864     -0.0058     62.6718  
  6668.5000    -61.6394   -999.2500   -999.2500   -999.2500     44.1885     44.7778     18.9440     28.6781      8.5518   -999.2500      2.6219     -0.0007     62.6025  
  6669.0000    -61.6435   -999.2500   -999.2500   -999.2500     44.0986     44.8870     20.5789     29.1347      8.5506   -999.2500      2.6348      0.0079     61.2764  
  6669.5000    -61.5489   -999.2500   -999.2500   -999.2500     42.8834     43.7526     22.9355     29.1498      8.5495   -999.2500      2.6400      0.0119     61.5108  
  6670.0000    -61.5625   -999.2500   -999.2500   -999.2500     42.4940     43.6095     21.3165     28.8968      8.5609   -999.2500      2.6567      0.0147     61.7730  
  6670.5000    -61.6234   -999.2500   -999.2500   -999.2500     42.3841     43.6541     19.9342     28.5559      8.5733   -999.2500      2.6497      0.0103     61.3759  
  6671.0000    -61.6217   -999.2500   -999.2500   -999.2500     42.5346     44.0375     19.2950     28.3030      8.6041   -999.2500      2.6630      0.0287     60.9789  
  6671.5000    -61.7078   -999.2500   -999.2500   -999.2500     42.6857     43.7771     18.4336     27.7734      8.5911   -999.2500      2.6719      0.0354   -999.2500  
  6672.0000    -61.6889   -999.2500   -999.2500   -999.2500     42.8150     43.7008     18.0422     26.5459      8.5626   -999.2500      2.6625      0.0294   -999.2500  
  6672.5000    -61.6642   -999.2500   -999.2500   -999.2500     42.7742     44.0620     18.3764     24.3759      8.5396   -999.2500      2.6670      0.0279   -999.2500  
  6673.0000    -61.4771   -999.2500   -999.2500   -999.2500     42.7334     43.6458     18.4557     21.5857      8.5528   -999.2500      2.6787      0.0292   -999.2500  
  6673.5000    -61.4776   -999.2500   -999.2500   -999.2500     42.6927     43.0047     17.6339     17.4275      8.5662   -999.2500      2.6720      0.0255   -999.2500  
  6674.0000    -61.6544   -999.2500   -999.2500   -999.2500     42.6520     43.3337     15.6557     10.2860      8.5384   -999.2500      2.6554      0.0135   -999.2500  
  6674.5000    -61.6689   -999.2500   -999.2500   -999.2500     42.6113     43.6653     14.2429   -999.2500      8.5208   -999.2500      2.6432      0.0218   -999.2500  
  6675.0000    -61.6385   -999.2500   -999.2500   -999.2500     42.5707     43.8243     16.2404   -999.2500      8.5223   -999.2500      2.6391      0.0179   -999.2500  
  6675.5000    -61.6808   -999.2500   -999.2500   -999.2500     42.5301     43.8287     18.6671   -999.2500      8.5130   -999.2500      2.6292      0.0142   -999.2500  
  6676.0000    -61.7306   -999.2500   -999.2500   -999.2500     42.4896     43.8331     19.2418   -999.2500      8.5136   -999.2500      2.6241      0.0040   -999.2500  
  6676.5000    -61.6541   -999.2500   -999.2500   -999.2500     42.4491     43.8374     18.1681   -999.2500      8.5141   -999.2500      2.6166     -0.0040   -999.2500  
  6677.0000    -61.6733   -999.2500   -999.2500   -999.2500     42.4086     43.8418     19.7703   -999.2500      8.4584   -999.2500      2.6163      0.0003   -999.2500  
  6677.5000    -61.6462   -999.2500   -999.2500   -999.2500     42.3682     43.8462     23.0501   -999.2500      8.4278   -999.2500      2.6244      0.0115   -999.2500  
  6678.0000    -61.6492   -999.2500   -999.2500   -999.2500     42.3302     43.8506     16.5572   -999.2500      8.5367   -999.2500      2.6454      0.0251   -999.2500  
  6678.5000    -61.6246   -999.2500   -999.2500   -999.2500     42.3016     43.8550      7.7879   -999.2500      8.7964   -999.2500      2.6549      0.0269   -999.2500  
