~VERSION INFORMATION
 VERS.                           2.00:        CWLS LOG ASCII STANDARD - VERSION 2.00
 WRAP.                             NO:        ONE LINE PER DEPTH STEP
~WELL INFORMATION
#MNEM.UNIT                   DATA             INFORMATION
#----------             --------------        ------------------------------
 STRT.F                       79.0000:        START DEPTH
 STOP.F                     6686.0000:        STOP DEPTH
 STEP.F                        0.5000:        STEP VALUE
 NULL.                      -999.2500:        NULL VALUE
 COMP.                  HUSKY OIL CO.:        COMPANY  
 LOC .                   10  18N  16W:        LOCATION   
 DATE.                        3/28/81:        LOG DATE 
 WELL.           KUYANAK TEST WELL #1:        WELL     
 UWI .                   501632000300:        UNIQUE WELL ID 
 API .                   501632000300:        UNIQUE WELL IDENTIFIER 
 FLD .                        WILDCAT:        FIELD    
 CNTY.                    NORTH SLOPE:        COUNTY  
 STAT.                         ALASKA:        STATE   
 CTRY.                            USA:        COUNTRY 
 OPER.                  HUSKY OIL CO.:        OPERATOR  
 SRVC.                            440:        SERVICE COMPANY 
 LAT .                         0.0000:        LATITUDE
 LON .                         0.0000:        LONGITUDE
 DIGS.                             65:        DIGITIZING COMPANY 
~CURVE INFORMATION      
#MNEM        .UNIT         API CODE           CURVE DESCRIPTION
#-----------------      --------------        ------------------------------
 DEPT        .F                      :        1  DEPTH
 SP          .MV                     :        2  
 ILM         .OHMM                   :        3  
 ILD         .OHMM                   :        4  
 SFL         .OHMM                   :        5  
 LLD         .OHMM                   :        6  
 LLS         .OHMM                   :        7  
 MSFL        .OHMM                   :        8  
 NPHI        .%                      :        9  
 CAL         .IN                     :        10 
 GR          .GAPI                   :        11 
 RHOB        .G/C3                   :        12 
 DRHO        .G/C3                   :        13 
 DT          .US/F                   :        14 
~PARAMETER INFORMATION       
#MNEM.UNIT                  VALUE             DESCRIPTION OF MNEMONIC
#---------             ---------------        ------------------------------
 EKB .F                       28.0000:        KELLY BUSHING
 TD  .F                     6690.0000:        TOTAL DEPTH
 BS  .                         0.0000:        BIT SIZE
 CSIZ.                         0.0000:        CASING SIZE
 CBD .F                        0.0000:        CASING DRILLER 1
 CBL .F                        0.0000:        CASING LOGGER 1
~OTHER INFORMATION
~A    DEPTH          SP         ILM         ILD         SFL         LLD         LLS        MSFL        NPHI         CAL          GR        RHOB        DRHO          DT  
# ...
  1855.0000    -35.5109   -999.2500   -999.2500   -999.2500      6.2742      6.0666      2.5046     41.1693     14.4907     72.4781      2.4008   -999.2500    106.7901  
  1855.5000    -35.5757   -999.2500   -999.2500   -999.2500      6.1398      5.9504      2.4256     43.1834     14.6980     74.0528      2.3952   -999.2500    107.1155  
  1856.0000    -35.5449   -999.2500   -999.2500   -999.2500      6.0083      5.8608      2.3474     43.3533     14.1852     75.6313      2.3779   -999.2500    103.4423  
  1856.5000    -35.5216   -999.2500   -999.2500   -999.2500      5.8796      5.7727      1.8016     42.6988     14.2149     76.4558      2.3678   -999.2500    107.9247  
  1857.0000    -35.5306   -999.2500   -999.2500   -999.2500      5.6844      5.6858      1.3594     42.7408     14.2513     76.6614      2.3749   -999.2500    112.6627  
  1857.5000    -35.4099   -999.2500   -999.2500   -999.2500      5.3959      5.6003      1.1115     44.9915     14.6067     77.2320      2.3760   -999.2500    113.6058  
  1858.0000    -35.3727   -999.2500   -999.2500   -999.2500      5.1439      5.5160      1.1777     46.7217     14.6657     77.6181      2.3501   -999.2500    119.4752  
  1858.5000    -35.4091   -999.2500   -999.2500   -999.2500      5.0320      5.5721      1.2663     47.0447     14.7898     78.6184      2.3163   -999.2500    114.2731  
  1859.0000    -35.4556   -999.2500   -999.2500   -999.2500      5.0554      5.7459      1.4300     45.9040     14.8504     79.0774      2.3393   -999.2500    111.3478  
  1859.5000    -35.5110   -999.2500   -999.2500   -999.2500      5.2979      5.9745      1.7852     44.9469     15.0552     78.4642      2.3555   -999.2500    111.0728  
  1860.0000    -35.7245   -999.2500   -999.2500   -999.2500      5.5460      6.1221      2.1511     43.9568     15.1017     76.7476      2.3448   -999.2500    109.2275  
  1860.5000    -35.9912   -999.2500   -999.2500   -999.2500      5.8120      5.9874      2.2666     42.7958     14.3715     75.7381      2.3341   -999.2500    114.2094  
  1861.0000    -36.1579   -999.2500   -999.2500   -999.2500      5.8920      5.8556      2.0787     42.0681     14.0259     76.3076      2.3250   -999.2500    114.5842  
  1861.5000    -36.1213   -999.2500   -999.2500   -999.2500      5.8298      5.7268      1.7573     42.5717     14.3696     78.0012      2.3276   -999.2500    115.3662  
  1862.0000    -36.1169   -999.2500   -999.2500   -999.2500      5.7248      5.6008      1.5311     43.3437     14.5058     79.8902      2.3404   -999.2500    114.6934  
  1862.5000    -36.4371   -999.2500   -999.2500   -999.2500      5.5163      5.4775      1.3619     45.1210     14.4912     81.1741      2.3430   -999.2500    112.7728  
  1863.0000    -36.6262   -999.2500   -999.2500   -999.2500      5.3719      5.3654      1.2002     46.4328     14.9101     80.2335      2.3481   -999.2500    113.5957  
  1863.5000    -36.5820   -999.2500   -999.2500   -999.2500      5.3019      5.5379      1.0169     47.7052     15.2091     79.7574      2.3566   -999.2500    114.0250  
  1864.0000    -36.5763   -999.2500   -999.2500   -999.2500      5.2328      5.7160      0.9314     47.9844     14.9902     80.8881      2.3926   -999.2500    113.7261  
  1864.5000    -36.6989   -999.2500   -999.2500   -999.2500      5.2163      5.8998      0.8763     46.7625     14.6959     84.2022      2.4165   -999.2500    111.8076  
  1865.0000    -36.6838   -999.2500   -999.2500   -999.2500      5.2701      5.9690      0.9367     44.7187     14.9761     86.8396      2.4154   -999.2500    111.3954  
  1865.5000    -36.5458   -999.2500   -999.2500   -999.2500      5.4648      6.0389      1.0579     42.8722     15.1652     88.2039      2.4119   -999.2500    112.9926  
  1866.0000    -36.5563   -999.2500   -999.2500   -999.2500      5.5321      6.0308      1.1603     42.3146     15.1031     87.9582      2.4417   -999.2500    114.6760  
  1866.5000    -36.1668   -999.2500   -999.2500   -999.2500      5.4848      5.9722      1.3413     43.0605     14.7852     86.8924      2.4338   -999.2500    116.6440  
  1867.0000    -36.1268   -999.2500   -999.2500   -999.2500      5.5038      5.9142      1.5571     43.3452     14.6758     85.8393      2.4203   -999.2500    117.0682  
  1867.5000    -35.8532   -999.2500   -999.2500   -999.2500      5.4401      5.8727      1.7302     42.9820     14.4846     85.0378      2.4289   -999.2500    114.6681  
  1868.0000    -36.0238   -999.2500   -999.2500   -999.2500      5.4238      5.9289      1.8122     42.7618     14.1724     86.3527      2.4458   -999.2500    112.2147  
  1868.5000    -36.1294   -999.2500   -999.2500   -999.2500      5.5533      5.9856      1.8498     43.1532     14.9896     88.5224      2.4443   -999.2500    113.2336  
  1869.0000    -36.1342   -999.2500   -999.2500   -999.2500      5.5388      6.0428      1.8557     43.5323     15.2541     90.7565      2.4285   -999.2500    113.7134  
  1869.5000    -36.1976   -999.2500   -999.2500   -999.2500      5.5311      6.1006      1.9147     44.0922     15.0227     92.6877      2.4223   -999.2500    113.3740  
  1870.0000    -36.2725   -999.2500   -999.2500   -999.2500      5.5014      6.1628      2.0571     44.0109     14.9960     92.0772      2.4143   -999.2500    115.8246  
  1870.5000    -36.2985   -999.2500   -999.2500   -999.2500      5.4767      6.2601      2.1724     42.9959     14.2152     90.1695      2.4070   -999.2500    114.1455  
  1871.0000    -36.1295   -999.2500   -999.2500   -999.2500      5.5648      6.3590      2.1284     43.0600     13.7344     88.7002      2.3944   -999.2500    113.5692  
  1871.5000    -35.9063   -999.2500   -999.2500   -999.2500      5.6382      6.4594      2.1817     43.8815     13.6749     86.9170      2.3975   -999.2500    112.2098  
  1872.0000    -35.9735   -999.2500   -999.2500   -999.2500      5.6887      6.4794      2.4080     44.5228     13.4324     83.7918      2.4068   -999.2500    110.5147  
  1872.5000    -36.1379   -999.2500   -999.2500   -999.2500      5.6425      6.3318      2.2036     44.7377     13.1565     81.9240      2.4179   -999.2500    111.5797  
  1873.0000    -36.0646   -999.2500   -999.2500   -999.2500      5.5574      6.1876      1.9895     45.4531     13.0802     81.1069      2.4408   -999.2500    111.8691  
  1873.5000    -35.7298   -999.2500   -999.2500   -999.2500      5.4736      6.0467      1.9710     45.6527     13.2619     79.6739      2.4576   -999.2500    111.7285  
  1874.0000    -35.4440   -999.2500   -999.2500   -999.2500      5.4408      5.9638      2.2392     44.1310     12.9964     78.6192      2.4481   -999.2500    110.3794  
  1874.5000    -35.2966   -999.2500   -999.2500   -999.2500      5.5175      6.0189      2.5095     42.7526     12.6414     76.6387      2.4421   -999.2500    109.4040  
  1875.0000    -35.1682   -999.2500   -999.2500   -999.2500      5.6471      6.0745      2.4478     42.7608     12.6896     74.3913      2.4454   -999.2500    110.1069  
  1875.5000    -34.6679   -999.2500   -999.2500   -999.2500      5.7854      6.1307      2.3813     42.8684     12.7254     71.6951      2.4367   -999.2500    108.5948  
  1876.0000    -34.1519   -999.2500   -999.2500   -999.2500      5.9365      6.3218      2.6653     40.4777     12.5108     68.4462      2.4146   -999.2500    104.2017  
  1876.5000    -33.6660   -999.2500   -999.2500   -999.2500      6.1033      6.5687      3.9886     34.5008     12.3322     66.5097      2.4068   -999.2500     95.7447  
  1877.0000    -33.1918   -999.2500   -999.2500   -999.2500      6.4923      6.9594      4.6761     30.3317     12.3342     65.9237      2.4289   -999.2500     89.0576  
  1877.5000    -32.8289   -999.2500   -999.2500   -999.2500      7.1112      7.3734      4.5436     29.4404     12.3382     66.4486      2.4496   -999.2500     90.7185  
  1878.0000    -32.5161   -999.2500   -999.2500   -999.2500      7.3269      7.6055      3.8650     31.1460     12.3507     67.9504      2.4430   -999.2500     93.3012  
  1878.5000    -32.1948   -999.2500   -999.2500   -999.2500      6.9016      7.3606      3.2990     34.6539     12.3476     70.3137      2.4014   -999.2500     97.5494  
