~VERSION INFORMATION
 VERS.                           2.00:        CWLS LOG ASCII STANDARD - VERSION 2.00
 WRAP.                             NO:        ONE LINE PER DEPTH STEP
~WELL INFORMATION
#MNEM.UNIT                   DATA             INFORMATION
#----------             --------------        ------------------------------
 STRT.F                      372.0000:        START DEPTH
 STOP.F                     9939.0000:        STOP DEPTH
 STEP.F                        0.5000:        STEP VALUE
 NULL.                      -999.2500:        NULL VALUE
 COMP.                     USGS/NPR-A:        COMPANY
 LOC .                     31 15E 19W:        LOCATION
 DATE.                        4/30/78:        LOG DATE
 WELL.                 SOUTH MEADE #1:        WELL
 UWI .                   501632000100:        UNIQUE WELL ID
 API .                   501632000100:        UNIQUE WELL IDENTIFIER
 FLD .                        WILDCAT:        FIELD
 CNTY.                    NORTH SLOPE:        COUNTY
 STAT.                         ALASKA:        STATE
 CTRY.                            USA:        COUNTRY
 OPER.                     USGS/NPR-A:        OPERATOR
 SRVC.                   SCHLUMBERGER:        SERVICE COMPANY
 LAT .                         0.0000:        LATITUDE
 LON .                         0.0000:        LONGITUDE
 DIGS.               CENTER LINE DATA:        DIGITIZING COMPANY
~CURVE INFORMATION      
#MNEM        .UNIT         API CODE           CURVE DESCRIPTION
#-----------------      --------------        ------------------------------
 DEPT        .F                      :        1  DEPTH
 CALI        .IN                     :        2  
 GR          .GAPI                   :        3  
 RHOB        .G/C3                   :        4  
 DRHO        .G/C3                   :        5  
 NPHI        .%                      :        6  
 DT          .US/F                   :        7  
 SP          .MV                     :        8  
 ILD         .OHMM                   :        9  
 ILM         .OHMM                   :        10 
 LL8         .OHMM                   :        11 
~PARAMETER INFORMATION
#MNEM.UNIT                  VALUE             DESCRIPTION OF MNEMONIC
#---------             ---------------        ------------------------------
 EKB .F                       60.0000:        KELLY BUSHING
 TD  .F                     9945.0000:        TOTAL DEPTH
 BHT .F                      214.0000:        BOTTOM HOLE TEMPERATURE
 BS  .                        12.2500:        BIT SIZE
 FD  .                        11.5000:        FLUID DENSITY
 CSIZ.                        13.3750:        CASING SIZE
 CBD .F                     2615.0000:        CASING DRILLER 1
 CBL .F                     2614.0000:        CASING LOGGER 1
 DFT .                  MISCELLANEOUS:        TYPE FLUID IN HOLE
 DFV .                        98.0000:        VISCOSITY
 DFPH.                        10.0000:        PH
 DFL .                         3.6000:        FLUID LOSS
 RMS .                         1.7900:        RM
 MST .F                       61.0000:        RM MEAS. TEMP.
 RMF .                         1.2800:        RMF
 MFST.F                       49.0000:        RMF MEAS. TEMP.
 RMC .                         2.4600:        RMC
 MCST.F                       59.0000:        RMC MEAS. TEMP.
~OTHER INFORMATION
~A    DEPTH        CALI          GR        RHOB        DRHO        NPHI          DT          SP         ILD         ILM         LL8 
# ...
   524.5000   -999.2500     89.6387   -999.2500   -999.2500   -999.2500    108.2544    -85.6762     17.0365     14.3742     17.2634 
   525.0000   -999.2500     92.1884   -999.2500   -999.2500   -999.2500    108.1620    -85.3665     16.9049     14.4548     17.0869 
   525.5000   -999.2500     94.8414   -999.2500   -999.2500   -999.2500    108.0621    -85.4292     16.7743     14.4915     16.9123 
   526.0000   -999.2500     95.8023   -999.2500   -999.2500   -999.2500    108.3588    -85.7340     16.6447     14.1524     16.7394 
   526.5000   -999.2500     93.2724   -999.2500   -999.2500   -999.2500    108.6592    -85.9944     16.5161     13.8212     16.5683 
   527.0000   -999.2500     91.3065   -999.2500   -999.2500   -999.2500    109.2494    -86.1596     16.3885     13.4978     16.3989 
   527.5000   -999.2500     88.8836   -999.2500   -999.2500   -999.2500    109.7684    -86.0235     16.2619     13.1819     16.2313 
   528.0000   -999.2500     82.9704   -999.2500   -999.2500   -999.2500    110.6113    -85.4334     16.1363     12.8734     16.0653 
   528.5000   -999.2500     79.8357   -999.2500   -999.2500   -999.2500    110.6807    -86.0382     16.0117     12.8629     15.9011 
   529.0000   -999.2500     79.1414   -999.2500   -999.2500   -999.2500    110.3655    -86.5299     15.8880     12.9739     15.7386 
   529.5000   -999.2500     79.4963   -999.2500   -999.2500   -999.2500    109.9548    -86.2527     15.7652     13.0858     15.5777 
   530.0000   -999.2500     79.2872   -999.2500   -999.2500   -999.2500    109.0036    -86.1741     15.6434     13.1987     15.4184 
   530.5000   -999.2500     78.0992   -999.2500   -999.2500   -999.2500    108.1284    -86.3813     15.5226     13.1634     15.2608 
   531.0000   -999.2500     77.7879   -999.2500   -999.2500   -999.2500    107.1451    -85.9778     15.4027     13.0292     15.1368 
   531.5000   -999.2500     78.3451   -999.2500   -999.2500   -999.2500    106.2921    -85.1374     15.3927     12.8964     15.1910 
   532.0000   -999.2500     80.7718   -999.2500   -999.2500   -999.2500    105.5001    -85.1283     15.4716     12.7649     15.2453 
   532.5000   -999.2500     82.4064   -999.2500   -999.2500   -999.2500    105.8871    -85.4837     15.5508     12.6347     15.2999 
   533.0000   -999.2500     83.2327   -999.2500   -999.2500   -999.2500    106.0792    -85.8496     15.6305     12.6199     15.3547 
   533.5000   -999.2500     82.2185   -999.2500   -999.2500   -999.2500    106.7457    -86.3601     15.7106     12.7974     15.4096 
   534.0000   -999.2500     79.2454   -999.2500   -999.2500   -999.2500    107.1115    -86.3813     15.7911     12.9773     15.4648 
   534.5000   -999.2500     77.1426   -999.2500   -999.2500   -999.2500    107.1721    -95.1356     15.8720     13.1598     15.5201 
   535.0000   -999.2500     76.4401   -999.2500   -999.2500   -999.2500    107.1654   -103.3166     15.9533     13.3448     15.5757 
   535.5000   -999.2500     76.2563   -999.2500   -999.2500   -999.2500    107.1457   -103.3166     16.0351     13.4433     15.6314 
   536.0000   -999.2500     76.4463   -999.2500   -999.2500   -999.2500    107.0302   -103.3166     16.1172     13.4979     15.6874 
   536.5000   -999.2500     75.3849   -999.2500   -999.2500   -999.2500    106.9760   -103.3166     16.1998     13.4117     15.7435 
   537.0000   -999.2500     75.2246   -999.2500   -999.2500   -999.2500    106.9894   -103.3166     16.2828     13.5302     15.9002 
   537.5000   -999.2500     75.6509   -999.2500   -999.2500   -999.2500    106.9471   -103.3166     16.3662     13.5883     16.0935 
   538.0000   -999.2500     77.0469   -999.2500   -999.2500   -999.2500    106.8622   -103.3166     16.4501     13.6934     16.2892 
   538.5000   -999.2500     79.0034   -999.2500   -999.2500   -999.2500    106.6456   -103.3166     16.5344     13.8407     16.4873 
   539.0000   -999.2500     80.2099   -999.2500   -999.2500   -999.2500    106.2819   -103.3166     16.6410     14.0506     16.6962 
   539.5000   -999.2500     81.0142   -999.2500   -999.2500   -999.2500    105.7844   -103.3166     16.7977     14.2689     16.9107 
   540.0000   -999.2500     80.0538   -999.2500   -999.2500   -999.2500    105.3641   -103.3166     16.9559     14.4906     17.1280 
   540.5000   -999.2500     77.1224   -999.2500   -999.2500   -999.2500    105.0217   -103.3166     17.1155     14.7157     17.3481 
   541.0000   -999.2500     74.7510   -999.2500   -999.2500   -999.2500    104.9764   -103.3166     17.2767     14.9444     17.5710 
   541.5000   -999.2500     72.2123   -999.2500   -999.2500   -999.2500    105.1767   -103.3166     17.4394     15.1766     17.7967 
   542.0000   -999.2500     70.3095   -999.2500   -999.2500   -999.2500    105.8090   -103.3166     17.6036     15.3641     17.8125 
   542.5000   -999.2500     71.1928   -999.2500   -999.2500   -999.2500    105.0218   -103.3166     17.7693     15.3484     17.7559 
   543.0000   -999.2500     73.1908   -999.2500   -999.2500   -999.2500    104.7282   -103.3166     17.9366     15.3246     17.6996 
   543.5000   -999.2500     73.9346   -999.2500   -999.2500   -999.2500    104.4460   -103.3166     18.1055     15.3008     17.6434 
   544.0000   -999.2500     72.3460   -999.2500   -999.2500   -999.2500    104.4162   -103.3166     18.2760     15.2770     17.6318 
   544.5000   -999.2500     69.4219   -999.2500   -999.2500   -999.2500    104.3400   -103.3166     18.4481     15.2533     17.7330 
   545.0000   -999.2500     68.2200   -999.2500   -999.2500   -999.2500    103.9367   -103.3166     18.4677     15.2300     17.7864 
   545.5000   -999.2500     68.1848   -999.2500   -999.2500   -999.2500    103.5306   -103.3166     18.4677     15.2085     17.8274 
   546.0000   -999.2500     68.8772   -999.2500   -999.2500   -999.2500    103.0492   -103.3166     18.4677     15.1870     17.8398 
   546.5000   -999.2500     69.9357   -999.2500   -999.2500   -999.2500    102.5987   -103.3166     18.2703     15.1655     17.7957 
   547.0000   -999.2500     70.6298   -999.2500   -999.2500   -999.2500    102.4026   -103.3166     17.6694     15.1440     17.7517 
   547.5000   -999.2500     70.3602   -999.2500   -999.2500   -999.2500    102.4760   -102.9628     17.0883     15.1226     17.7077 
   548.0000   -999.2500     70.0580   -999.2500   -999.2500   -999.2500    102.6486   -102.9965     16.5263     15.0770     17.3146 
   548.5000   -999.2500     69.8887   -999.2500   -999.2500   -999.2500    102.6192   -103.2006     15.9827     14.9170     16.8933 
   549.0000   -999.2500     69.5666   -999.2500   -999.2500   -999.2500    102.2534   -103.2128     15.4571     14.7586     16.4823 
   549.5000   -999.2500     68.1202   -999.2500   -999.2500   -999.2500    101.7935   -103.2250     14.9487     14.6020     16.0812 
   550.0000   -999.2500     67.3643   -999.2500   -999.2500   -999.2500    100.6362   -103.2372     14.4570     14.4470     15.7544 
   550.5000   -999.2500     67.8666   -999.2500   -999.2500   -999.2500     99.3070   -103.2494     13.9815     14.2937     15.7249 
   551.0000   -999.2500     68.7632   -999.2500   -999.2500   -999.2500     98.5731   -102.6855     13.5217     14.1275     15.6954 
   551.5000   -999.2500     69.4908   -999.2500   -999.2500   -999.2500     98.6525   -101.6185     13.0770     13.7391     15.6660 
   552.0000   -999.2500     68.8734   -999.2500   -999.2500   -999.2500     99.5469   -101.1607     12.6469     13.3613     15.6451 
   552.5000   -999.2500     68.2313   -999.2500   -999.2500   -999.2500    101.3056   -101.1607     12.2309     12.9940     15.4855 
   553.0000   -999.2500     68.4093   -999.2500   -999.2500   -999.2500    102.5556   -101.0576     11.8286     12.6367     15.2827 
   553.5000   -999.2500     70.2354   -999.2500   -999.2500   -999.2500    102.9342   -100.9767     11.4396     12.2892     15.3198 
   554.0000   -999.2500     72.0500   -999.2500   -999.2500   -999.2500    103.2028   -101.0165     11.0634     11.9513     15.3093 
   554.5000   -999.2500     74.4607   -999.2500   -999.2500   -999.2500    103.3981   -101.1477     10.6995     11.6227     15.2270 
