~VERSION INFORMATION
 VERS.                           2.00:        CWLS LOG ASCII STANDARD - VERSION 2.00
 WRAP.                             NO:        ONE LINE PER DEPTH STEP
~WELL INFORMATION
#MNEM.UNIT                   DATA             INFORMATION
#----------             --------------        ------------------------------
 STRT.F                      372.0000:        START DEPTH
 STOP.F                     9939.0000:        STOP DEPTH
 STEP.F                        0.5000:        STEP VALUE
 NULL.                      -999.2500:        NULL VALUE
 COMP.                     USGS/NPR-A:        COMPANY
 LOC .                     31 15E 19W:        LOCATION
 DATE.                        4/30/78:        LOG DATE
 WELL.                 SOUTH MEADE #1:        WELL
 UWI .                   501632000100:        UNIQUE WELL ID
 API .                   501632000100:        UNIQUE WELL IDENTIFIER
 FLD .                        WILDCAT:        FIELD
 CNTY.                    NORTH SLOPE:        COUNTY
 STAT.                         ALASKA:        STATE
 CTRY.                            USA:        COUNTRY
 OPER.                     USGS/NPR-A:        OPERATOR
 SRVC.                   SCHLUMBERGER:        SERVICE COMPANY
 LAT .                         0.0000:        LATITUDE
 LON .                         0.0000:        LONGITUDE
 DIGS.               CENTER LINE DATA:        DIGITIZING COMPANY
~CURVE INFORMATION      
#MNEM        .UNIT         API CODE           CURVE DESCRIPTION
#-----------------      --------------        ------------------------------
 DEPT        .F                      :        1  DEPTH
 CALI        .IN                     :        2  
 GR          .GAPI                   :        3  
 RHOB        .G/C3                   :        4  
 DRHO        .G/C3                   :        5  
 NPHI        .%                      :        6  
 DT          .US/F                   :        7  
 SP          .MV                     :        8  
 ILD         .OHMM                   :        9  
 ILM         .OHMM                   :        10 
 LL8         .OHMM                   :        11 
~PARAMETER INFORMATION
#MNEM.UNIT                  VALUE             DESCRIPTION OF MNEMONIC
#---------             ---------------        ------------------------------
 EKB .F                       60.0000:        KELLY BUSHING
 TD  .F                     9945.0000:        TOTAL DEPTH
 BHT .F                      214.0000:        BOTTOM HOLE TEMPERATURE
 BS  .                        12.2500:        BIT SIZE
 FD  .                        11.5000:        FLUID DENSITY
 CSIZ.                        13.3750:        CASING SIZE
 CBD .F                     2615.0000:        CASING DRILLER 1
 CBL .F                     2614.0000:        CASING LOGGER 1
 DFT .                  MISCELLANEOUS:        TYPE FLUID IN HOLE
 DFV .                        98.0000:        VISCOSITY
 DFPH.                        10.0000:        PH
 DFL .                         3.6000:        FLUID LOSS
 RMS .                         1.7900:        RM
 MST .F                       61.0000:        RM MEAS. TEMP.
 RMF .                         1.2800:        RMF
 MFST.F                       49.0000:        RMF MEAS. TEMP.
 RMC .                         2.4600:        RMC
 MCST.F                       59.0000:        RMC MEAS. TEMP.
~OTHER INFORMATION
~A    DEPTH        CALI          GR        RHOB        DRHO        NPHI          DT          SP         ILD         ILM         LL8 
# ...
  8027.5000     12.7088     55.8781      2.6733      0.0415     26.2568     66.8844     -9.3235      9.2915      8.2247     12.1045 
  8028.0000     12.9217     59.1033      2.6942      0.0653     26.0477     67.7372     -9.1019      9.2678      8.2845     11.7592 
  8028.5000     13.0086     58.5523      2.7119      0.0486     26.0377     68.8210     -8.8882      9.3178      8.3415     11.2218 
  8029.0000     13.0080     57.6637      2.6547      0.0159     25.8546     69.7581     -8.5401      9.3683      8.3972     10.7759 
  8029.5000     12.9999     58.3767      2.6576      0.0413     25.6662     70.1968     -8.1939      9.4192      8.4532     11.4792 
  8030.0000     12.7684     59.0896      2.6678      0.0627     25.4779     69.1224     -7.9275      9.4503      8.4946     12.2285 
  8030.5000     12.6861     59.8026      2.6496      0.0826     25.4246     69.5529     -7.7755      9.3844      8.4946     12.5707 
  8031.0000     12.9436     59.5270      2.6118      0.0749     26.1792     69.9834     -7.6235      9.3189      8.4946     11.5527 
  8031.5000     12.5042     57.8161      2.5603      0.0729     27.0442     69.9096     -7.4716      9.1792      8.4946     11.1632 
  8032.0000     12.1970     56.1052      2.5329      0.0825     26.6554     69.2910     -7.3196      9.0004      8.4363     11.6484 
  8032.5000     11.9658     56.1269      2.4774      0.0776     25.9538     68.6663     -7.1676      8.8162      8.2512     11.9483 
  8033.0000     10.9827     56.3361      2.3920      0.0659     25.6697     69.0910     -7.0157      8.6415      8.0340     11.9658 
  8033.5000     10.1064     56.5454      2.3076      0.0547     27.7077     70.3191     -6.8637      8.4730      7.8225     10.8430 
  8034.0000     11.7093     56.7332      2.2509      0.0444     29.7457     72.0409     -6.7118      8.3082      7.6166      9.5631 
  8034.5000     11.9168     56.9004      2.2253      0.0355     31.4639     73.2309     -6.5586      8.1483      7.4452      9.4234 
  8035.0000     11.9815     57.0676      2.2506      0.0709     32.4359     73.4963     -6.3810      8.0041      7.3697      9.4234 
  8035.5000     11.9193     57.2347      2.1950      0.0641     33.6970     73.2556     -6.2034      7.8681      7.3169      9.7431 
  8036.0000     11.8524     57.4019      2.2030      0.0733     33.9087     72.6047    -28.2843      7.2108      7.3680      8.4022 
  8036.5000     11.7856     57.5690      2.2273      0.0902     33.0312     71.9651    -28.2789      7.2449      7.4028      8.5781 
  8037.0000     11.7566     57.7962      2.2636      0.0939     32.2051     71.1817    -28.2579      7.2791      7.4378      8.5867 
  8037.5000     11.7511     58.1008      2.3230      0.0947     30.7210     70.5934    -28.1444      7.3135      7.4730      8.5747 
  8038.0000     11.8301     59.0455      2.3646      0.1036     28.5860     70.2860    -28.1624      7.3550      7.5158      8.5778 
  8038.5000     11.9399     60.4959      2.3629      0.1088     27.3359     70.0788    -28.5448      7.3971      7.5588      8.6031 
  8039.0000     12.0496     61.9463      2.3596      0.1060     26.6205     70.1418    -28.8607      7.4394      7.6020      8.6199 
  8039.5000     12.1594     63.3967      2.3689      0.1080     26.6166     70.7214    -29.1224      7.4820      7.6455      8.6695 
  8040.0000     12.2692     64.1098      2.3976      0.1247     27.0427     71.3391    -29.1320      7.5972      7.7746      8.7194 
  8040.5000     12.2399     64.2118      2.4148      0.1326     27.4248     71.6666    -29.5464      7.7352      7.9030      8.7823 
  8041.0000     12.1535     64.1038      2.4197      0.1263     27.4193     71.9698    -29.9773      7.7474      7.9205      9.0330 
  8041.5000     12.1451     63.8194      2.4060      0.1132     26.9364     72.1712    -30.2340      7.9222      8.1425      9.4315 
  8042.0000     12.1552     63.5351      2.3971      0.1185     26.5211     72.1683    -30.3457      8.1421      8.3353      9.7869 
  8042.5000     12.1610     63.7885      2.3802      0.1148     26.2391     72.1360    -30.3637      8.3087      8.5059      9.8018 
  8043.0000     12.1189     63.9525      2.3694      0.1029     26.0146     72.0132    -30.5336      8.4787      8.6800      9.7980 
  8043.5000     12.1620     63.8951      2.3659      0.1019     25.5059     71.9030    -30.6214      8.6522      8.8576      9.7485 
  8044.0000     12.2205     63.6839      2.3613      0.1132     24.7304     71.7067    -30.8542      8.8293      9.0388      9.7725 
  8044.5000     11.7670     63.4948      2.3440      0.1182     24.6576     71.2540    -31.0068      8.9614      9.1645     10.1674 
  8045.0000     12.0675     63.3965      2.3171      0.1099     24.5892     70.4276    -31.1335      9.0853      9.2914     10.4724 
  8045.5000     12.5097     63.3092      2.2973      0.0975     24.4711     69.6977    -31.2966      9.1363      9.3347     10.6043 
  8046.0000     12.4464     64.2901      2.3027      0.0989     24.5269     69.1994    -31.4245      9.0752      9.2862     10.4743 
  8046.5000     12.4256     65.2730      2.3427      0.1111     24.4873     69.0339    -31.4441      8.9152      9.1224     10.3458 
  8047.0000     12.5482     66.0660      2.3919      0.1237     24.1022     69.3560    -31.4637      8.2216      8.5905     10.3893 
  8047.5000     12.5168     65.7970      2.4220      0.1408     23.5488     69.6503    -31.4833      7.5705      7.9102     10.4552 
  8048.0000     12.3678     64.9975      2.4401      0.1498     23.0249     69.6984    -31.5497      6.9709      7.2838      9.6999 
  8048.5000     12.2525     64.3954      2.4507      0.1514     22.8572     69.7259    -31.5283      6.5263      6.7501      7.8379 
  8049.0000     12.3728     65.5471      2.4511      0.1508     22.8034     69.6030    -31.5048      6.2042      6.3816      6.8742 
  8049.5000     12.6054     67.1334      2.4117      0.1275     22.6915     69.9750    -31.6152      6.1877      6.3222      6.0054 
  8050.0000     12.7929     69.4076      2.3773      0.1061     23.4444     71.1004    -31.6445      6.2351      6.3706      5.9227 
  8050.5000     12.7880     72.7493      2.3428      0.0904     23.8287     73.4250    -31.5863      6.2351      6.3705      6.8580 
  8051.0000     12.7251     75.1588      2.3426      0.0924     25.5921     75.8946    -31.5826      6.1917      6.3699      7.8488 
  8051.5000     12.9986     73.8406      2.3476      0.1016     27.7797     77.9644    -31.7264      5.8189      6.0499      8.7955 
  8052.0000     12.9683     71.0131      2.3305      0.1010     29.4155     78.2351    -31.8587      5.4275      5.6431      8.7985 
  8052.5000     13.1209     69.3893      2.3711      0.1026     30.8205     76.6882    -31.8960      5.0489      5.2624      7.9309 
  8053.0000     13.3642     71.5826      2.4121      0.1164     31.5944     75.2385    -31.7718      4.6799      4.8779      6.8051 
  8053.5000     13.5335     74.4082      2.4520      0.1143     30.6832     74.1802    -31.7670      4.3380      4.5215      5.4588 
  8054.0000     13.4019     76.6974      2.4526      0.1188     29.5751     73.5846    -31.8927      4.0210      4.1912      4.6628 
  8054.5000     13.1743     77.2661      2.3667      0.0903     29.0029     75.5775    -31.8796      3.8755      3.9809      4.4393 
  8055.0000     12.9943     78.5565      2.3293      0.0681     29.9663     78.0583    -31.7396      3.7547      3.8479      4.5146 
  8055.5000     12.9291     80.6915      2.2615      0.0549     31.9644     80.6066    -31.8414      3.7436      3.8271      4.7052 
  8056.0000     13.2686     83.9483      2.1845      0.0416     33.9539     82.4151    -31.9916      3.8044      3.9642      4.9039 
  8056.5000     14.0085     85.5500      2.1717      0.0314     37.0178     82.8407    -31.9134      4.1030      4.2755      5.0884 
  8057.0000     14.5672     87.0307      2.1864      0.0486     38.4504     82.9090    -31.9149      4.4251      4.6255      5.4773 
  8057.5000     14.5130     86.3736      2.2066      0.0574     38.8426     82.9547    -31.9215      4.6239      5.0046      6.3073 
