~VERSION INFORMATION
 VERS.                           2.00:        CWLS LOG ASCII STANDARD - VERSION 2.00
 WRAP.                             NO:        ONE LINE PER DEPTH STEP
~WELL INFORMATION
#MNEM.UNIT                   DATA             INFORMATION
#----------             --------------        ------------------------------
 STRT.F                      372.0000:        START DEPTH
 STOP.F                     9939.0000:        STOP DEPTH
 STEP.F                        0.5000:        STEP VALUE
 NULL.                      -999.2500:        NULL VALUE
 COMP.                     USGS/NPR-A:        COMPANY
 LOC .                     31 15E 19W:        LOCATION
 DATE.                        4/30/78:        LOG DATE
 WELL.                 SOUTH MEADE #1:        WELL
 UWI .                   501632000100:        UNIQUE WELL ID
 API .                   501632000100:        UNIQUE WELL IDENTIFIER
 FLD .                        WILDCAT:        FIELD
 CNTY.                    NORTH SLOPE:        COUNTY
 STAT.                         ALASKA:        STATE
 CTRY.                            USA:        COUNTRY
 OPER.                     USGS/NPR-A:        OPERATOR
 SRVC.                   SCHLUMBERGER:        SERVICE COMPANY
 LAT .                         0.0000:        LATITUDE
 LON .                         0.0000:        LONGITUDE
 DIGS.               CENTER LINE DATA:        DIGITIZING COMPANY
~CURVE INFORMATION      
#MNEM        .UNIT         API CODE           CURVE DESCRIPTION
#-----------------      --------------        ------------------------------
 DEPT        .F                      :        1  DEPTH
 CALI        .IN                     :        2  
 GR          .GAPI                   :        3  
 RHOB        .G/C3                   :        4  
 DRHO        .G/C3                   :        5  
 NPHI        .%                      :        6  
 DT          .US/F                   :        7  
 SP          .MV                     :        8  
 ILD         .OHMM                   :        9  
 ILM         .OHMM                   :        10 
 LL8         .OHMM                   :        11 
~PARAMETER INFORMATION
#MNEM.UNIT                  VALUE             DESCRIPTION OF MNEMONIC
#---------             ---------------        ------------------------------
 EKB .F                       60.0000:        KELLY BUSHING
 TD  .F                     9945.0000:        TOTAL DEPTH
 BHT .F                      214.0000:        BOTTOM HOLE TEMPERATURE
 BS  .                        12.2500:        BIT SIZE
 FD  .                        11.5000:        FLUID DENSITY
 CSIZ.                        13.3750:        CASING SIZE
 CBD .F                     2615.0000:        CASING DRILLER 1
 CBL .F                     2614.0000:        CASING LOGGER 1
 DFT .                  MISCELLANEOUS:        TYPE FLUID IN HOLE
 DFV .                        98.0000:        VISCOSITY
 DFPH.                        10.0000:        PH
 DFL .                         3.6000:        FLUID LOSS
 RMS .                         1.7900:        RM
 MST .F                       61.0000:        RM MEAS. TEMP.
 RMF .                         1.2800:        RMF
 MFST.F                       49.0000:        RMF MEAS. TEMP.
 RMC .                         2.4600:        RMC
 MCST.F                       59.0000:        RMC MEAS. TEMP.
~OTHER INFORMATION
~A    DEPTH        CALI          GR        RHOB        DRHO        NPHI          DT          SP         ILD         ILM         LL8 
# ...
  5526.5000     18.0441     74.5787      2.2779      0.0516     28.5399     79.4253    -37.0049      9.9601      8.9986      9.8280 
  5527.0000     18.0442     75.4658      2.2773      0.0290     28.8276     80.3452    -37.5316     10.2639      8.9281     11.2222 
  5527.5000     18.0442     77.5789      2.2353      0.0183     29.0859     79.7571    -37.5489     10.3254      8.8583     11.5961 
  5528.0000     18.0442     80.8693      2.1964      0.0354     28.7778     86.9274    -37.4106     10.3833      8.5848     11.3773 
  5528.5000     18.0443     81.0814      2.1986      0.0426     28.0537     87.9998    -37.2668     10.2335      8.2346     10.7528 
  5529.0000     18.0443     79.6703      2.2071      0.0295     27.3296     87.5278    -37.1183     10.0920      7.8987     10.0940 
  5529.5000     18.0444     76.7104      2.1892      0.0229     26.7903     85.8204    -37.0806      9.9595      7.7576      9.4755 
  5530.0000     18.0444     73.8700      2.1540      0.0342     28.0237     78.0208    -37.1354      9.8288      8.2859      8.8949 
  5530.5000     18.0445     72.3820      2.1802      0.0558     29.3986     77.5123    -37.1946      9.9237      8.9219      8.8908 
  5531.0000     16.8400     71.2976      2.2879      0.0979     28.9742     76.2658    -37.2687     10.3061      9.6607      9.4709 
  5531.5000     16.7650     71.2727      2.4081      0.0959     27.1965     74.9551    -37.4191     10.7586     10.0126      9.9762 
  5532.0000     18.0567     72.7381      2.3820      0.0643     25.4188     75.1884    -37.4945     11.2309     10.1752     10.5086 
  5532.5000     18.0566     74.5186      2.3448      0.0505     24.7639     77.1713    -37.4830     11.6598     10.3405     11.0693 
  5533.0000     18.0564     75.4954      2.3319      0.0473     24.1874     79.1151    -37.3406     11.8375     10.4162     11.5057 
  5533.5000     18.0563     74.5778      2.3250      0.0458     23.6834     80.5374    -37.2448     11.8375     10.4696     11.6052 
  5534.0000     18.0561     72.5552      2.3271      0.0612     23.5247     80.7036    -37.3057     11.8375     10.3655     11.4332 
  5534.5000     18.0560     72.0383      2.3705      0.0810     24.7903     76.8560    -37.3676     11.6674     10.2479     11.2258 
  5535.0000     18.0558     71.8513      2.3507      0.0609     26.2913     72.9694    -37.6300     11.4929     10.1243     10.9972 
  5535.5000     18.0557     71.9361      2.3096      0.0120     26.8240     74.0616    -37.6550     11.3210     10.1070     10.8567 
  5536.0000     18.0555     73.1768      2.2978      0.0194     27.2894     74.9390    -37.5769     11.1517     10.1191     10.7227 
  5536.5000     18.0554     74.6000      2.2601      0.0545     27.8379     76.7967    -37.7875     10.9849     10.1627     10.5903 
  5537.0000     18.0552     75.8350      2.1732      0.0678     28.5466     78.6379    -37.8614     10.8616     10.2064     10.4521 
  5537.5000     18.0550     77.3178      2.1770      0.0714     29.1782     80.9934    -37.7528     10.8342      9.8927     10.2878 
  5538.0000     18.0549     77.7474      2.2097      0.0597     28.4507     79.4794    -37.5625     10.8879      9.4239     10.0712 
  5538.5000     18.0547     76.7690      2.2836      0.0480     27.7231     77.9165    -37.5842     10.9412      8.9915      9.7757 
  5539.0000     18.0546     75.8933      2.2490      0.0331     26.9956     77.1937    -37.6625     10.9333      8.7157      9.4890 
  5539.5000     18.0544     73.4835      2.1387      0.0104     27.4902     76.8184    -37.5660     10.8043      8.4483      9.2106 
  5540.0000     18.0543     71.1149      2.0142     -0.0034     31.0897     75.8426    -37.3134     10.5474      8.1759      8.9404 
  5540.5000     18.0541     69.9267      1.8897     -0.0121     34.1311     77.1026    -37.5794     10.0662      7.8010      8.6781 
  5541.0000     18.0540     69.7715      1.8476     -0.0240     36.2454     86.1899    -37.6911      9.5702      7.2481      8.3527 
  5541.5000     18.0538     68.7388      1.8736     -0.0274     36.4890     91.4418    -37.8765      9.1247      6.5506      8.0391 
  5542.0000     18.0537     67.1290      1.8592     -0.0333     37.0919     92.3204    -37.5785      8.7103      5.2805      7.7988 
  5542.5000     18.0535     65.6197      1.8184     -0.0391     38.8790     96.1020    -37.9288      8.3738      5.1158      7.5657 
  5543.0000     18.0533     64.5191      1.7463     -0.0455     41.2955     88.1012    -38.0455      8.0928      5.1147      7.2604 
  5543.5000     18.0532     64.3142      1.6999     -0.0518     43.1985     83.7956    -38.0342      8.1722      5.2454      6.8351 
  5544.0000     18.0530     65.1899      1.7099     -0.0477     43.5236     88.0158    -37.9454      8.2126      5.9759      6.6625 
  5544.5000     18.0529     64.8451      1.7494     -0.0309     42.4560     79.9721    -37.8821      8.2314      6.1693      6.5741 
  5545.0000     18.0527     63.3192      1.7978     -0.0188     41.2339     90.7239    -37.8116      8.2914      6.2903      6.5967 
  5545.5000     18.0526     62.7755      1.8441     -0.0168     39.5077     76.9562    -37.6637      8.6507      6.3530      6.7397 
  5546.0000     18.0524     63.5533      1.8572     -0.0221     38.9001     78.8719    -37.4836      9.0631      6.3496      6.8603 
  5546.5000     18.0523     64.2770      1.8263     -0.0313     38.6486     81.2777    -37.8008      9.2214      6.3089      6.9831 
  5547.0000     18.0521     63.2115      1.7744     -0.0339     38.4002     89.8114    -37.9443      9.1251      6.2281      7.0668 
  5547.5000     18.0520     63.1455      1.7481     -0.0365     38.8023    104.3214    -38.0043      8.7192      5.8676      7.0037 
  5548.0000     18.0518     63.1047      1.7463     -0.0418     41.4004     99.5155    -37.9864      7.9968      4.8968      6.7800 
  5548.5000     18.0516     63.2215      1.7273     -0.0473     44.7137    105.5619    -37.9686      7.4377      4.1826      6.4043 
  5549.0000     18.0515     63.5300      1.6873     -0.0519     48.0566     90.3880    -37.9507      7.2999      3.9159      5.9541 
  5549.5000     18.0513     63.6632      1.6516     -0.0484     49.8951     76.5170    -37.9329      7.0409      4.0423      5.5355 
  5550.0000     18.0512     64.1152      1.6454     -0.0449     51.5111     78.5533    -37.9151      6.5288      4.3637      5.6099 
  5550.5000     18.0510     64.5932      1.6753     -0.0414     50.9490     85.7793    -37.8972      6.0540      4.4416      5.8883 
  5551.0000     18.0509     65.0030      1.7082     -0.0379     50.6814     85.9812    -37.8415      5.9335      4.3759      6.0624 
  5551.5000     18.0507     64.5843      1.7528     -0.0345     50.0802     89.0953    -37.6429      6.1786      4.3177      6.0660 
  5552.0000     18.0506     64.1372      1.7537     -0.0362     49.1422     85.1803    -37.3189      6.5068      4.3781      5.9283 
  5552.5000     18.0504     64.8758      1.7043     -0.0466     48.5480     77.6085    -37.3713      6.8564      4.5173      5.6942 
  5553.0000     18.0503     66.2811      1.6860     -0.0548     48.4282     78.5787    -37.3346      7.2248      4.8341      5.5549 
  5553.5000     18.0501     66.0470      1.6998     -0.0480     48.3268     85.2132    -37.4343      7.6131      5.2693      5.6887 
  5554.0000     18.0499     65.1787      1.6944     -0.0442     48.4100    101.6097    -37.4270      7.6544      5.2027      6.0179 
  5554.5000     18.0498     64.5891      1.6866     -0.0536     48.4772     96.0997    -37.4389      7.6854      5.0358      6.3341 
  5555.0000     18.0496     64.5899      1.7043     -0.0509     48.0398     95.6008    -37.4147      7.7189      4.8630      6.3420 
  5555.5000     18.0495     65.3562      1.7109     -0.0418     46.8974     90.7883    -37.3581      7.7525      4.6961      6.1658 
  5556.0000     18.0493     65.9718      1.7092     -0.0330     47.5214     78.8667    -36.9682      7.7912      4.9159      5.9481 
  5556.5000     18.0492     66.2484      1.7146     -0.0327     47.9177     79.3941    -36.6781      7.8022      5.3922      5.7380 
