~VERSION INFORMATION
 VERS.                           2.00:        CWLS LOG ASCII STANDARD - VERSION 2.00
 WRAP.                             NO:        ONE LINE PER DEPTH STEP
~WELL INFORMATION
#MNEM.UNIT                   DATA             INFORMATION
#----------             --------------        ------------------------------
 STRT.F                       79.0000:        START DEPTH
 STOP.F                     6686.0000:        STOP DEPTH
 STEP.F                        0.5000:        STEP VALUE
 NULL.                      -999.2500:        NULL VALUE
 COMP.                  HUSKY OIL CO.:        COMPANY  
 LOC .                   10  18N  16W:        LOCATION   
 DATE.                        3/28/81:        LOG DATE 
 WELL.           KUYANAK TEST WELL #1:        WELL     
 UWI .                   501632000300:        UNIQUE WELL ID 
 API .                   501632000300:        UNIQUE WELL IDENTIFIER 
 FLD .                        WILDCAT:        FIELD    
 CNTY.                    NORTH SLOPE:        COUNTY  
 STAT.                         ALASKA:        STATE   
 CTRY.                            USA:        COUNTRY 
 OPER.                  HUSKY OIL CO.:        OPERATOR  
 SRVC.                            440:        SERVICE COMPANY 
 LAT .                         0.0000:        LATITUDE
 LON .                         0.0000:        LONGITUDE
 DIGS.                             65:        DIGITIZING COMPANY 
~CURVE INFORMATION      
#MNEM        .UNIT         API CODE           CURVE DESCRIPTION
#-----------------      --------------        ------------------------------
 DEPT        .F                      :        1  DEPTH
 SP          .MV                     :        2  
 ILM         .OHMM                   :        3  
 ILD         .OHMM                   :        4  
 SFL         .OHMM                   :        5  
 LLD         .OHMM                   :        6  
 LLS         .OHMM                   :        7  
 MSFL        .OHMM                   :        8  
 NPHI        .%                      :        9  
 CAL         .IN                     :        10 
 GR          .GAPI                   :        11 
 RHOB        .G/C3                   :        12 
 DRHO        .G/C3                   :        13 
 DT          .US/F                   :        14 
~PARAMETER INFORMATION       
#MNEM.UNIT                  VALUE             DESCRIPTION OF MNEMONIC
#---------             ---------------        ------------------------------
 EKB .F                       28.0000:        KELLY BUSHING
 TD  .F                     6690.0000:        TOTAL DEPTH
 BS  .                         0.0000:        BIT SIZE
 CSIZ.                         0.0000:        CASING SIZE
 CBD .F                        0.0000:        CASING DRILLER 1
 CBL .F                        0.0000:        CASING LOGGER 1
~OTHER INFORMATION
~A    DEPTH          SP         ILM         ILD         SFL         LLD         LLS        MSFL        NPHI         CAL          GR        RHOB        DRHO          DT  
# ...
  3607.0000    -37.3839   -999.2500   -999.2500   -999.2500      8.1125      5.4073      5.1256     33.0721     14.6014     78.8080      2.4252   -999.2500     89.8117  
  3607.5000    -37.3470   -999.2500   -999.2500   -999.2500      8.4795      7.1702      4.8476     32.8167     15.1971     77.8861      2.3932   -999.2500     88.5816  
  3608.0000    -37.3982   -999.2500   -999.2500   -999.2500      8.3447      9.5055      4.2036     32.5443     16.0018     76.1418      2.3702   -999.2500     88.3282  
  3608.5000    -37.5201   -999.2500   -999.2500   -999.2500      8.2120     11.1452      3.6171     32.9008     16.2911     74.5545      2.3737   -999.2500     89.1255  
  3609.0000    -37.5694   -999.2500   -999.2500   -999.2500      8.0939     11.1958      3.3573     33.3290     15.3318     73.0985      2.3895   -999.2500     89.5115  
  3609.5000    -37.6447   -999.2500   -999.2500   -999.2500      8.1190     11.2467      3.3903     33.9122     14.5365     73.1535      2.4241   -999.2500     90.1545  
  3610.0000    -37.7090   -999.2500   -999.2500   -999.2500      8.2693     11.4504      3.9839     34.8818     15.2134     75.3314      2.4680   -999.2500     90.6179  
  3610.5000    -37.7607   -999.2500   -999.2500   -999.2500      8.7964     11.8068      5.1636     34.6607     16.0418     77.5094      2.4768   -999.2500     89.9556  
  3611.0000    -37.8197   -999.2500   -999.2500   -999.2500      9.3570     12.2340      5.2148     33.5786     15.3135     78.2885      2.4555   -999.2500     89.7023  
  3611.5000    -38.0311   -999.2500   -999.2500   -999.2500      9.6936     12.6767      4.5642     33.0728     14.5397     77.7037      2.4498   -999.2500     89.6891  
  3612.0000    -38.1733   -999.2500   -999.2500   -999.2500      9.2722     12.4621      3.6490     34.4819     14.3589     78.2532      2.4423   -999.2500     90.4740  
  3612.5000    -38.2297   -999.2500   -999.2500   -999.2500      8.6720     11.6243      3.2201     36.4407     14.6420     79.4614      2.4200   -999.2500     91.5672  
  3613.0000    -38.3888   -999.2500   -999.2500   -999.2500      8.4235     11.5046      3.1739     37.5966     14.2852     79.8827      2.4203   -999.2500     91.5983  
  3613.5000    -38.5972   -999.2500   -999.2500   -999.2500      8.2611     11.4307      3.3481     37.3911     14.3828     79.6556      2.4241   -999.2500     90.6221  
  3614.0000    -38.9326   -999.2500   -999.2500   -999.2500      8.1486     11.3653      3.8577     36.8182     14.4973     79.1906      2.4140   -999.2500     89.5115  
  3614.5000    -39.3975   -999.2500   -999.2500   -999.2500      8.0377     11.3178      3.9035     36.1982     13.5669     77.3133      2.3947   -999.2500     87.5176  
  3615.0000    -39.5322   -999.2500   -999.2500   -999.2500      7.9283     11.1798      3.6173     35.2644     13.7620     74.5089      2.3628   -999.2500     85.4725  
  3615.5000    -39.6143   -999.2500   -999.2500   -999.2500      7.8204     10.7834      3.1295     34.1943     14.6556     71.4364      2.3383   -999.2500     85.4702  
  3616.0000    -39.7807   -999.2500   -999.2500   -999.2500      7.7140      9.6294      2.5841     33.6566     15.6221     68.3542      2.3314   -999.2500     85.9298  
  3616.5000    -40.0179   -999.2500   -999.2500   -999.2500      7.6090      8.5229      2.9108     33.4067     15.0299     68.1435      2.3340   -999.2500     87.2252  
  3617.0000    -40.2550   -999.2500   -999.2500   -999.2500      7.5055      9.8169      4.1448     32.4629     14.3200     70.2537      2.3357   -999.2500     88.6653  
  3617.5000    -40.6246   -999.2500   -999.2500   -999.2500      7.4093     12.4435      6.9760     30.1788     14.6255     73.8988      2.3624   -999.2500     87.4907  
  3618.0000    -41.0201   -999.2500   -999.2500   -999.2500      8.5272     13.9766      9.0424     27.9763     14.5626     76.6296      2.4081   -999.2500     86.2139  
  3618.5000    -41.4336   -999.2500   -999.2500   -999.2500     11.2810     14.8096      7.8657     27.4290     14.8270     76.6557      2.4302   -999.2500     85.1406  
  3619.0000    -41.5185   -999.2500   -999.2500   -999.2500     11.7180     13.4275      5.8545     28.8135     15.2841     76.0691      2.4248   -999.2500     84.5513  
  3619.5000    -41.8007   -999.2500   -999.2500   -999.2500     10.9173     11.6133      4.1889     30.9468     15.6346     75.4257      2.4158   -999.2500     83.6827  
  3620.0000    -42.0133   -999.2500   -999.2500   -999.2500      9.8311      9.9784      2.9561     33.0352     16.0684     74.2579      2.4325   -999.2500     82.5063  
  3620.5000    -42.1842   -999.2500   -999.2500   -999.2500      9.4584      9.0157      3.2452     31.9997     16.4011     73.2029      2.4571   -999.2500     80.4325  
  3621.0000    -42.2864   -999.2500   -999.2500   -999.2500      9.8696     10.8118      3.8278     30.7843     15.2544     72.1479      2.4617   -999.2500     79.4231  
  3621.5000    -42.4131   -999.2500   -999.2500   -999.2500     10.3578     12.5000      3.4828     28.6412     13.9035     72.1778      2.4596   -999.2500     79.7725  
  3622.0000    -42.4618   -999.2500   -999.2500   -999.2500     10.8702     12.3853      2.3861     28.3788     14.9749     73.6460      2.4755   -999.2500     80.9336  
  3622.5000    -42.4658   -999.2500   -999.2500   -999.2500     11.0191     12.5189      1.9972     28.4121     15.9790     75.6446      2.4670   -999.2500     82.2672  
  3623.0000    -42.4922   -999.2500   -999.2500   -999.2500     10.9118     13.2249      2.4030     27.3338     16.6801     77.6803      2.4649   -999.2500     82.5860  
  3623.5000    -42.5991   -999.2500   -999.2500   -999.2500     11.2251     14.3585      3.0293     25.8758     15.3678     79.6250      2.4735   -999.2500     82.3057  
  3624.0000    -42.5762   -999.2500   -999.2500   -999.2500     12.5808     15.2450      3.3222     24.7761     14.3275     81.5328      2.4750   -999.2500     82.3336  
  3624.5000    -42.4540   -999.2500   -999.2500   -999.2500     13.2504     16.0115      3.3031     25.4915     14.3571     79.8766      2.4656   -999.2500     80.5836  
  3625.0000    -42.2593   -999.2500   -999.2500   -999.2500     12.6484     13.3452      3.7333     27.0500     14.2640     78.2751      2.4616   -999.2500     80.5494  
  3625.5000    -42.0521   -999.2500   -999.2500   -999.2500     11.8936      9.7750      4.7005     28.8098     14.0732     77.2973      2.4497   -999.2500     80.8495  
  3626.0000    -41.9008   -999.2500   -999.2500   -999.2500     11.9925      7.3670      5.3733     28.7489     14.0960     77.3984      2.4561   -999.2500     79.9734  
  3626.5000    -41.6116   -999.2500   -999.2500   -999.2500     12.1335      8.2512      5.3376     27.8201     14.3557     78.7448      2.4643   -999.2500     79.4934  
  3627.0000    -41.4703   -999.2500   -999.2500   -999.2500     10.8441      9.5576      4.2653     27.1140     14.7574     79.2581      2.4631   -999.2500     80.0176  
  3627.5000    -41.4432   -999.2500   -999.2500   -999.2500     10.3214      8.2967      3.6991     26.7856     15.1140     78.4232      2.4619   -999.2500     82.2347  
  3628.0000    -41.4972   -999.2500   -999.2500   -999.2500     10.7288      7.6009      5.8978     26.4518     15.3585     77.3746      2.4543   -999.2500     85.3390  
  3628.5000    -41.5150   -999.2500   -999.2500   -999.2500     11.2581     10.7345     10.2802     26.5589     15.3409     77.7567      2.4349   -999.2500     88.8633  
  3629.0000    -41.3883   -999.2500   -999.2500   -999.2500     11.3620     13.6809     11.4585     27.2589     15.5971     78.8584      2.4472   -999.2500     91.2313  
  3629.5000    -41.2436   -999.2500   -999.2500   -999.2500     11.1643     14.4320      9.7122     28.2704     14.8757     79.9935      2.4577   -999.2500     89.8355  
  3630.0000    -40.9057   -999.2500   -999.2500   -999.2500     10.3537     13.0748      5.4083     28.6764     14.2037     81.1286      2.4520   -999.2500     89.3212  
  3630.5000    -40.5354   -999.2500   -999.2500   -999.2500      9.4521     11.0384      3.6160     29.1248     13.9550     82.1678      2.4513   -999.2500     89.9385  
