~VERSION INFORMATION
 VERS.                           2.00:        CWLS LOG ASCII STANDARD - VERSION 2.00
 WRAP.                             NO:        ONE LINE PER DEPTH STEP
~WELL INFORMATION
#MNEM.UNIT                   DATA             INFORMATION
#----------             --------------        ------------------------------
 STRT.F                       79.0000:        START DEPTH
 STOP.F                     6686.0000:        STOP DEPTH
 STEP.F                        0.5000:        STEP VALUE
 NULL.                      -999.2500:        NULL VALUE
 COMP.                  HUSKY OIL CO.:        COMPANY  
 LOC .                   10  18N  16W:        LOCATION   
 DATE.                        3/28/81:        LOG DATE 
 WELL.           KUYANAK TEST WELL #1:        WELL     
 UWI .                   501632000300:        UNIQUE WELL ID 
 API .                   501632000300:        UNIQUE WELL IDENTIFIER 
 FLD .                        WILDCAT:        FIELD    
 CNTY.                    NORTH SLOPE:        COUNTY  
 STAT.                         ALASKA:        STATE   
 CTRY.                            USA:        COUNTRY 
 OPER.                  HUSKY OIL CO.:        OPERATOR  
 SRVC.                            440:        SERVICE COMPANY 
 LAT .                         0.0000:        LATITUDE
 LON .                         0.0000:        LONGITUDE
 DIGS.                             65:        DIGITIZING COMPANY 
~CURVE INFORMATION      
#MNEM        .UNIT         API CODE           CURVE DESCRIPTION
#-----------------      --------------        ------------------------------
 DEPT        .F                      :        1  DEPTH
 SP          .MV                     :        2  
 ILM         .OHMM                   :        3  
 ILD         .OHMM                   :        4  
 SFL         .OHMM                   :        5  
 LLD         .OHMM                   :        6  
 LLS         .OHMM                   :        7  
 MSFL        .OHMM                   :        8  
 NPHI        .%                      :        9  
 CAL         .IN                     :        10 
 GR          .GAPI                   :        11 
 RHOB        .G/C3                   :        12 
 DRHO        .G/C3                   :        13 
 DT          .US/F                   :        14 
~PARAMETER INFORMATION       
#MNEM.UNIT                  VALUE             DESCRIPTION OF MNEMONIC
#---------             ---------------        ------------------------------
 EKB .F                       28.0000:        KELLY BUSHING
 TD  .F                     6690.0000:        TOTAL DEPTH
 BS  .                         0.0000:        BIT SIZE
 CSIZ.                         0.0000:        CASING SIZE
 CBD .F                        0.0000:        CASING DRILLER 1
 CBL .F                        0.0000:        CASING LOGGER 1
~OTHER INFORMATION
~A    DEPTH          SP         ILM         ILD         SFL         LLD         LLS        MSFL        NPHI         CAL          GR        RHOB        DRHO          DT  
# ...
  1423.0000    -39.4752     10.5128     11.5491     10.0340   -999.2500   -999.2500   -999.2500     38.7114     18.1198     88.6845      2.4623      0.0009    105.8907  
  1423.5000    -40.2229     10.3440     11.4924     10.0183   -999.2500   -999.2500   -999.2500     39.0836     18.1151     89.3267      2.4547     -0.0010    105.9792  
  1424.0000    -40.9837     10.1779     11.4360      9.9827   -999.2500   -999.2500   -999.2500     39.8183     18.0953     90.3949      2.4547      0.0055    106.0508  
  1424.5000    -41.7617     10.0144     11.3562      9.7725   -999.2500   -999.2500   -999.2500     41.0081     18.1034     91.2527      2.4719      0.0349    105.9862  
  1425.0000    -42.6330      9.8536     10.9643      9.5667   -999.2500   -999.2500   -999.2500     42.4987     18.1115     91.9611      2.4673      0.0443    106.3041  
  1425.5000    -43.2238      9.7099     10.5860      9.3633   -999.2500   -999.2500   -999.2500     43.9915     18.1196     93.4347      2.4562      0.0312    106.9616  
  1426.0000    -43.6028      9.5787     10.2207      8.7402   -999.2500   -999.2500   -999.2500     45.0224     18.1182     94.9500      2.4539      0.0203    109.6216  
  1426.5000    -43.7222      9.4493      9.8680      7.9611   -999.2500   -999.2500   -999.2500     45.5163     18.1147     97.3972      2.4420      0.0111    112.7936  
  1427.0000    -43.7883      9.3216      9.5275      7.8625   -999.2500   -999.2500   -999.2500     45.0540     18.1123     97.0396      2.4321      0.0132    116.0053  
  1427.5000    -43.8930      9.1957      9.1988      7.8986   -999.2500   -999.2500   -999.2500     44.4999     18.1099     95.3918      2.4277      0.0086    117.3882  
  1428.0000    -43.9439      9.0715      9.1525      7.9824   -999.2500   -999.2500   -999.2500     43.5764     18.1076     94.6647      2.4341      0.0069    117.0926  
  1428.5000    -44.0059      8.9874      9.1273      8.0734   -999.2500   -999.2500   -999.2500     42.8472     18.1140     95.9314      2.4387      0.0114    117.7532  
  1429.0000    -44.0542      8.9167      9.1022      8.1653   -999.2500   -999.2500   -999.2500     43.8661     18.1308    100.0287      2.4394      0.0173    116.9335  
  1429.5000    -44.0526      8.8466      9.0771      8.2583   -999.2500   -999.2500   -999.2500     44.5488     18.1239    102.0183      2.4535      0.0300    116.8788  
  1430.0000    -44.0022      8.7770      9.0546      8.3523   -999.2500   -999.2500   -999.2500     43.5273     18.1128     97.8583      2.4720      0.0415    117.2477  
  1430.5000    -43.9184      8.7080      9.0417      8.3490   -999.2500   -999.2500   -999.2500     43.5704     18.1017     94.9853      2.4625      0.0307    116.5854  
  1431.0000    -44.6401      8.6620      9.0287      8.3179   -999.2500   -999.2500   -999.2500     42.8591     18.0812     92.9635      2.4425      0.0228    116.8096  
  1431.5000    -45.1575      8.6517      9.0158      8.2869   -999.2500   -999.2500   -999.2500     41.5828     18.0585     91.1515      2.4321      0.0149    117.0196  
  1432.0000    -45.3938      8.6416      9.0029      8.2560   -999.2500   -999.2500   -999.2500     40.9990     18.0395     90.3283      2.4398      0.0181    117.0726  
  1432.5000    -45.3201      8.6314      8.9900      8.2252   -999.2500   -999.2500   -999.2500     41.9951     18.0400     89.6745      2.4468      0.0187    116.8998  
  1433.0000    -45.3745      8.6212      8.9771      8.1658   -999.2500   -999.2500   -999.2500     43.1146     18.0417     88.3187      2.4442      0.0205    116.6571  
  1433.5000    -45.1907      8.6111      8.9642      8.0721   -999.2500   -999.2500   -999.2500     44.1530     18.0607     87.1681      2.4312      0.0114    116.7570  
  1434.0000    -44.9197      8.6009      8.9514      8.0442   -999.2500   -999.2500   -999.2500     45.8701     18.0797     85.7270      2.4503      0.0235    116.0885  
  1434.5000    -44.6528      8.5908      8.9386      8.0163   -999.2500   -999.2500   -999.2500     46.6981     18.0986     85.4493      2.4565      0.0212    116.6228  
  1435.0000    -44.6947      8.5807      8.9258      7.9885   -999.2500   -999.2500   -999.2500     45.9284     18.1176     86.6456      2.4578      0.0178    116.8351  
  1435.5000    -45.0151      8.5706      8.9130      7.9609   -999.2500   -999.2500   -999.2500     45.2000     18.1334     87.6139      2.4577      0.0236    117.0493  
  1436.0000    -45.3337      8.5605      8.9002      7.9333   -999.2500   -999.2500   -999.2500     44.9989     18.1178     89.2211      2.4474      0.0172    117.6849  
  1436.5000    -45.6646      8.5504      8.8875      7.9058   -999.2500   -999.2500   -999.2500     45.0744     18.1022     91.8732      2.4346      0.0052    118.9619  
  1437.0000    -45.7728      8.5403      8.8748      7.8784   -999.2500   -999.2500   -999.2500     44.4222     18.0866     94.5186      2.4300     -0.0010    120.0289  
  1437.5000    -45.7626      8.5303      8.8620      7.9014   -999.2500   -999.2500   -999.2500     44.2973     18.0712     94.9212      2.4263      0.0031    120.0767  
  1438.0000    -45.5364      8.5202      8.8507      7.9346   -999.2500   -999.2500   -999.2500     44.8147     18.0564     94.8984      2.4291      0.0074    119.1658  
  1438.5000    -45.3125      8.5102      8.8455      7.9679   -999.2500   -999.2500   -999.2500     44.7280     18.0415     94.7317      2.4315     -0.0001    117.7237  
  1439.0000    -45.2754      8.5001      8.8404      8.0014   -999.2500   -999.2500   -999.2500     43.6824     18.0440     93.4825      2.4315     -0.0086    117.1300  
  1439.5000    -45.4039      8.4901      8.8352      8.0350   -999.2500   -999.2500   -999.2500     42.8224     18.0491     92.5811      2.4356      0.0094    116.9190  
  1440.0000    -45.5850      8.4801      8.8300      8.0687   -999.2500   -999.2500   -999.2500     42.9783     18.0543     92.1644      2.4522      0.0348    117.1082  
  1440.5000    -45.7974      8.4701      8.8249      8.1133   -999.2500   -999.2500   -999.2500     43.5197     18.0595     91.6558      2.4658      0.0268    117.2545  
  1441.0000    -45.9931      8.4602      8.8197      8.1727   -999.2500   -999.2500   -999.2500     45.0084     18.0647     91.2094      2.4647      0.0375    117.3232  
  1441.5000    -46.3486      8.4502      8.8145      8.2325   -999.2500   -999.2500   -999.2500     46.1259     18.0676     90.5360      2.4596      0.0314    117.8189  
  1442.0000    -46.6383      8.4403      8.8094      8.2271   -999.2500   -999.2500   -999.2500     46.0598     18.0690     90.8448      2.4568      0.0197    117.8412  
  1442.5000    -46.6654      8.4303      8.8042      8.2049   -999.2500   -999.2500   -999.2500     46.6275     18.0703     92.5724      2.4500      0.0141    117.7582  
  1443.0000    -46.4188      8.4204      8.7991      8.1826   -999.2500   -999.2500   -999.2500     47.1953     18.0717     92.4095      2.4429      0.0085    117.2776  
  1443.5000    -46.3738      8.4145      8.7939      8.1605   -999.2500   -999.2500   -999.2500     47.0763     18.0730     92.4972      2.4419      0.0124    116.6733  
  1444.0000    -46.4421      8.4141      8.7888      8.1384   -999.2500   -999.2500   -999.2500     45.9456     18.0744     95.0008      2.4413      0.0250    116.7026  
  1444.5000    -46.5233      8.4137      8.7836      8.1164   -999.2500   -999.2500   -999.2500     44.7636     18.0757     97.9788      2.4401      0.0212    116.8827  
  1445.0000    -46.7028      8.4133      8.7841      8.0944   -999.2500   -999.2500   -999.2500     43.4370     18.0827    101.2495      2.4445      0.0251    116.6650  
  1445.5000    -47.0359      8.4128      8.7952      8.0725   -999.2500   -999.2500   -999.2500     43.2460     18.0994    101.1301      2.4478      0.0351    116.4162  
  1446.0000    -47.5060      8.4124      8.8062      8.0507   -999.2500   -999.2500   -999.2500     43.9812     18.1160     98.1456      2.4604      0.0313    116.8404  
  1446.5000    -48.0912      8.4120      8.8174      8.0289   -999.2500   -999.2500   -999.2500     43.8151     18.1147     96.4734      2.4407      0.0129    117.1468  
