~VERSION INFORMATION
 VERS.                           2.00:        CWLS LOG ASCII STANDARD - VERSION 2.00
 WRAP.                             NO:        ONE LINE PER DEPTH STEP
~WELL INFORMATION
#MNEM.UNIT                   DATA             INFORMATION
#----------             --------------        ------------------------------
 STRT.F                      372.0000:        START DEPTH
 STOP.F                     9939.0000:        STOP DEPTH
 STEP.F                        0.5000:        STEP VALUE
 NULL.                      -999.2500:        NULL VALUE
 COMP.                     USGS/NPR-A:        COMPANY
 LOC .                     31 15E 19W:        LOCATION
 DATE.                        4/30/78:        LOG DATE
 WELL.                 SOUTH MEADE #1:        WELL
 UWI .                   501632000100:        UNIQUE WELL ID
 API .                   501632000100:        UNIQUE WELL IDENTIFIER
 FLD .                        WILDCAT:        FIELD
 CNTY.                    NORTH SLOPE:        COUNTY
 STAT.                         ALASKA:        STATE
 CTRY.                            USA:        COUNTRY
 OPER.                     USGS/NPR-A:        OPERATOR
 SRVC.                   SCHLUMBERGER:        SERVICE COMPANY
 LAT .                         0.0000:        LATITUDE
 LON .                         0.0000:        LONGITUDE
 DIGS.               CENTER LINE DATA:        DIGITIZING COMPANY
~CURVE INFORMATION      
#MNEM        .UNIT         API CODE           CURVE DESCRIPTION
#-----------------      --------------        ------------------------------
 DEPT        .F                      :        1  DEPTH
 CALI        .IN                     :        2  
 GR          .GAPI                   :        3  
 RHOB        .G/C3                   :        4  
 DRHO        .G/C3                   :        5  
 NPHI        .%                      :        6  
 DT          .US/F                   :        7  
 SP          .MV                     :        8  
 ILD         .OHMM                   :        9  
 ILM         .OHMM                   :        10 
 LL8         .OHMM                   :        11 
~PARAMETER INFORMATION
#MNEM.UNIT                  VALUE             DESCRIPTION OF MNEMONIC
#---------             ---------------        ------------------------------
 EKB .F                       60.0000:        KELLY BUSHING
 TD  .F                     9945.0000:        TOTAL DEPTH
 BHT .F                      214.0000:        BOTTOM HOLE TEMPERATURE
 BS  .                        12.2500:        BIT SIZE
 FD  .                        11.5000:        FLUID DENSITY
 CSIZ.                        13.3750:        CASING SIZE
 CBD .F                     2615.0000:        CASING DRILLER 1
 CBL .F                     2614.0000:        CASING LOGGER 1
 DFT .                  MISCELLANEOUS:        TYPE FLUID IN HOLE
 DFV .                        98.0000:        VISCOSITY
 DFPH.                        10.0000:        PH
 DFL .                         3.6000:        FLUID LOSS
 RMS .                         1.7900:        RM
 MST .F                       61.0000:        RM MEAS. TEMP.
 RMF .                         1.2800:        RMF
 MFST.F                       49.0000:        RMF MEAS. TEMP.
 RMC .                         2.4600:        RMC
 MCST.F                       59.0000:        RMC MEAS. TEMP.
~OTHER INFORMATION
~A    DEPTH        CALI          GR        RHOB        DRHO        NPHI          DT          SP         ILD         ILM         LL8 
# ...
  6777.0000     12.2092     86.0324      2.5607      0.0308     33.9535     92.9365    -19.0120      3.7440      3.6367      5.9131 
  6777.5000     12.4927     85.6889      2.5849      0.0397     34.5807     92.8162    -18.7767      3.9340      3.7795      5.8407 
  6778.0000     12.1674     86.2094      2.5970      0.0490     33.6159     93.5549    -18.1809      4.0613      3.9343      5.8492 
  6778.5000     12.1822     87.2490      2.5751      0.0596     32.8051     92.9979    -17.8522      4.1113      4.0036      5.9153 
  6779.0000     12.2782     87.7042      2.5694      0.0789     33.3372     91.9011    -17.7399      4.0673      3.9606      5.9413 
  6779.5000     12.4696     87.4587      2.5573      0.0704     33.7749     91.2707    -17.8066      4.0443      3.9384      5.9330 
  6780.0000     12.3145     86.7033      2.5115      0.0424     33.5598     96.2065    -17.7972      3.9667      3.8472      5.6578 
  6780.5000     12.2786     85.8392      2.5269      0.0689     33.4184     95.6487    -18.2203      3.8737      3.7725      5.7026 
  6781.0000     12.4382     85.6603      2.4971      0.0654     33.5774     95.0332    -18.5975      3.8562      3.7554      5.6310 
  6781.5000     12.5876     86.5918      2.4586      0.0583     33.9956     94.3052    -19.0363      3.8133      3.7134      5.4657 
  6782.0000     12.6068     88.8783      2.4189      0.0668     34.6791     93.7120    -18.8910      3.8190      3.7177      5.4486 
  6782.5000     12.6274     88.5999      2.3826      0.0605     35.2948     92.7469    -18.6712      3.8548      3.7526      5.3931 
  6783.0000     13.1994     87.8406      2.4375      0.0604     35.2737     92.5166    -18.6565      3.8519      3.7466      5.2659 
  6783.5000     13.5271     88.6404      2.4903      0.0767     35.2175     92.9969    -18.5373      3.7949      3.6911      5.1612 
  6784.0000     13.1058     89.2794      2.4910      0.0515     35.5529     94.0402    -18.3876      3.6616      3.5550      5.1321 
  6784.5000     12.5566     89.6868      2.5043      0.0641     36.3493     94.6737    -18.4869      3.5925      3.4961      5.1292 
  6785.0000     13.7246     89.9256      2.4830      0.0772     37.0967     93.8862    -18.3416      3.5509      3.4560      5.1156 
  6785.5000     14.5392     90.1761      2.4572      0.0565     37.9997     93.2131    -17.9426      3.5133      3.4174      5.0283 
  6786.0000     13.4971     88.0905      2.4297      0.0461     37.9963     92.4165    -17.5878      3.5063      3.4136      4.9246 
  6786.5000     13.6849     85.9188      2.4270      0.0401     36.9228     93.6639    -17.4709      3.5365      3.4430      4.8681 
  6787.0000     14.1433     84.0249      2.4154      0.0433     35.5398     93.9034    -17.7549      3.5457      3.4535      4.9019 
  6787.5000     13.3852     83.8022      2.3892      0.0386     35.0945     93.2671    -18.0338      3.5502      3.4578      4.9749 
  6788.0000     12.7057     84.8314      2.4120      0.0617     34.7973     94.3785    -18.2216      3.5546      3.4622      5.0028 
  6788.5000     12.7308     84.9597      2.4652      0.0505     35.0273     93.1988    -18.3449      3.5591      3.4665      4.9934 
  6789.0000     13.2322     83.8298      2.4536      0.0584     35.5597     93.4375    -18.1221      3.5630      3.4698      5.1358 
  6789.5000     13.6850     86.2782      2.4863      0.0876     35.8737     93.0308    -17.9316      3.5453      3.4525      5.1569 
  6790.0000     13.6458     87.6099      2.5151      0.1275     36.6339     93.2454    -18.0037      3.5276      3.4353      5.1292 
  6790.5000     13.4673     87.4630      2.5044      0.1262     36.7199     93.3551    -18.2604      3.5100      3.4182      5.1016 
  6791.0000     13.2887     87.4428      2.4936      0.0999     36.3636     93.8699    -18.3352      3.4923      3.4009      5.1028 
  6791.5000     13.4368     87.6578      2.5042      0.0795     35.0675     96.4744    -18.2105      3.4746      3.3837      5.0486 
  6792.0000     13.7259     87.7552      2.5218      0.0917     35.2530     95.5900    -17.8189      3.4363      3.3266      4.9611 
  6792.5000     14.0992     88.1748      2.4927      0.0925     36.1138     94.6824    -18.3362      3.3472      3.2558      4.8751 
  6793.0000     13.8611     89.5249      2.4472      0.0535     36.0752     94.5404    -18.2124      3.3083      3.2198      4.8099 
  6793.5000     14.1995     89.6031      2.4587      0.0426     35.6719     95.6680    -18.1541      3.2845      3.1983      4.7542 
  6794.0000     14.2754     88.6107      2.4676      0.0604     35.2155     93.6858    -18.7177      3.2646      3.1790      4.6991 
  6794.5000     13.1934     88.7696      2.4593      0.0677     36.4051     95.2861    -19.0168      3.2449      3.1598      4.6608 
  6795.0000     13.4571     87.2633      2.5043      0.0851     37.1755     94.8110    -19.2776      3.2379      3.1518      4.6319 
  6795.5000     14.0496     84.4303      2.5125      0.0938     38.4587     94.7639    -19.3474      3.1792      3.0955      4.5965 
  6796.0000     13.5909     81.5799      2.5209      0.0943     38.5813     94.6947    -19.3827      3.1893      3.1045      4.5588 
  6796.5000     13.7966     80.7791      2.5083      0.1124     38.3587     95.0526    -19.4396      3.2322      3.1467      4.5615 
  6797.0000     14.4782     80.9430      2.4299      0.0823     38.1436     96.7079    -19.3678      3.2282      3.1442      4.5952 
  6797.5000     14.4350     83.3378      2.3890      0.0880     37.8825     96.6458    -19.1489      3.2549      3.1685      4.6384 
  6798.0000     13.9300     86.5730      2.3421      0.0683     38.5454     95.7214    -18.8720      3.2863      3.1991      4.7369 
  6798.5000     13.4708     88.3114      2.3753      0.0627     39.5202     95.2125    -18.5950      3.3168      3.2289      4.8376 
  6799.0000     13.7001     90.0233      2.4682      0.0711     40.5712     96.4599    -18.6737      3.3476      3.2588      4.9404 
  6799.5000     13.7704     89.5132      2.5197      0.0740     40.7798     95.9841    -18.6125      3.3826      3.2891      5.0389 
  6800.0000     14.1693     88.8476      2.4903      0.0676     39.6719     95.0753    -18.6137      3.4286      3.3196      5.1125 
  6800.5000     14.1150     88.3551      2.4851      0.0722     36.7647     96.6663    -19.4304      3.4753      3.3506      5.1802 
  6801.0000     13.6232     87.9972      2.4923      0.0869     36.9435     95.4170    -19.6297      3.5226      3.3823      5.2090 
  6801.5000     13.0784     87.6393      2.4866      0.0809     37.5981     96.3860    -19.6220      3.5705      3.4143      5.2379 
  6802.0000     12.8396     87.5113      2.5038      0.0851     38.3451     96.5306    -19.6360      3.6191      3.4361      5.2670 
  6802.5000     13.3958     87.8667      2.5147      0.0931     39.0538     96.5035    -19.6837      3.6389      3.4361      5.2313 
  6803.0000     13.3814     88.8968      2.5338      0.0930     38.9188     97.1143    -19.7754      3.6406      3.4381      5.1425 
  6803.5000     13.6262     90.2803      2.5150      0.0721     38.6386     97.2959    -19.8981      3.6423      3.4438      5.0660 
  6804.0000     13.3854     89.9272      2.5092      0.0808     38.4209     97.2308    -19.9249      3.6440      3.4505      5.1143 
  6804.5000     13.4023     89.5143      2.5063      0.0818     38.5181     96.6916    -19.9143      3.6457      3.4577      5.1831 
  6805.0000     13.2541     89.2305      2.5110      0.0733     38.3014     96.3315    -19.8301      3.6473      3.4650      5.2449 
  6805.5000     13.7658     88.4155      2.5011      0.0646     37.8968     95.2152    -19.7456      3.6490      3.4818      5.1056 
  6806.0000     14.1471     89.0713      2.5020      0.0786     37.0338     96.7310    -19.6607      3.6507      3.4720      5.2147 
  6806.5000     14.0331     88.9699      2.5047      0.1013     36.4884     98.4031    -19.5574      3.6524      3.4622      5.2177 
  6807.0000     13.5251     87.9850      2.5232      0.1043     36.2179     96.4338    -19.6833      3.6541      3.4556      5.1639 
