~VERSION INFORMATION
 VERS.                           2.00:        CWLS LOG ASCII STANDARD - VERSION 2.00
 WRAP.                             NO:        ONE LINE PER DEPTH STEP
~WELL INFORMATION
#MNEM.UNIT                   DATA             INFORMATION
#----------             --------------        ------------------------------
 STRT.F                       79.0000:        START DEPTH
 STOP.F                     6686.0000:        STOP DEPTH
 STEP.F                        0.5000:        STEP VALUE
 NULL.                      -999.2500:        NULL VALUE
 COMP.                  HUSKY OIL CO.:        COMPANY  
 LOC .                   10  18N  16W:        LOCATION   
 DATE.                        3/28/81:        LOG DATE 
 WELL.           KUYANAK TEST WELL #1:        WELL     
 UWI .                   501632000300:        UNIQUE WELL ID 
 API .                   501632000300:        UNIQUE WELL IDENTIFIER 
 FLD .                        WILDCAT:        FIELD    
 CNTY.                    NORTH SLOPE:        COUNTY  
 STAT.                         ALASKA:        STATE   
 CTRY.                            USA:        COUNTRY 
 OPER.                  HUSKY OIL CO.:        OPERATOR  
 SRVC.                            440:        SERVICE COMPANY 
 LAT .                         0.0000:        LATITUDE
 LON .                         0.0000:        LONGITUDE
 DIGS.                             65:        DIGITIZING COMPANY 
~CURVE INFORMATION      
#MNEM        .UNIT         API CODE           CURVE DESCRIPTION
#-----------------      --------------        ------------------------------
 DEPT        .F                      :        1  DEPTH
 SP          .MV                     :        2  
 ILM         .OHMM                   :        3  
 ILD         .OHMM                   :        4  
 SFL         .OHMM                   :        5  
 LLD         .OHMM                   :        6  
 LLS         .OHMM                   :        7  
 MSFL        .OHMM                   :        8  
 NPHI        .%                      :        9  
 CAL         .IN                     :        10 
 GR          .GAPI                   :        11 
 RHOB        .G/C3                   :        12 
 DRHO        .G/C3                   :        13 
 DT          .US/F                   :        14 
~PARAMETER INFORMATION       
#MNEM.UNIT                  VALUE             DESCRIPTION OF MNEMONIC
#---------             ---------------        ------------------------------
 EKB .F                       28.0000:        KELLY BUSHING
 TD  .F                     6690.0000:        TOTAL DEPTH
 BS  .                         0.0000:        BIT SIZE
 CSIZ.                         0.0000:        CASING SIZE
 CBD .F                        0.0000:        CASING DRILLER 1
 CBL .F                        0.0000:        CASING LOGGER 1
~OTHER INFORMATION
~A    DEPTH          SP         ILM         ILD         SFL         LLD         LLS        MSFL        NPHI         CAL          GR        RHOB        DRHO          DT  
# ...
  4903.0000    -88.9815   -999.2500   -999.2500   -999.2500      7.9465      8.1626      3.0374     35.4458     12.3006     97.2917      2.2451      0.1448     91.1025  
  4903.5000    -88.8086   -999.2500   -999.2500   -999.2500      8.1431      8.3279      2.1311     36.2455     11.7481     96.8829      2.2617      0.1373     90.3466  
  4904.0000    -88.4990   -999.2500   -999.2500   -999.2500      8.1261      8.3537      2.1646     37.5878     11.9942     96.3109      2.2806      0.1345     92.0220  
  4904.5000    -88.5252   -999.2500   -999.2500   -999.2500      7.9065      8.2460      2.3173     38.4008     12.8302     98.9193      2.2933      0.1308     93.3975  
  4905.0000    -88.4615   -999.2500   -999.2500   -999.2500      7.6111      8.0213      1.9003     37.8201     13.1484    102.4957      2.3060      0.1233     92.6715  
  4905.5000    -88.5132   -999.2500   -999.2500   -999.2500      7.5496      7.7822      1.5618     36.7502     12.6039    104.5093      2.3257      0.0963     92.1550  
  4906.0000    -88.4510   -999.2500   -999.2500   -999.2500      7.4964      7.7295      1.4650     35.9459     11.7505    105.3880      2.3487      0.1015     92.5600  
  4906.5000    -88.2633   -999.2500   -999.2500   -999.2500      7.4806      7.7511      1.2792     35.0307     12.0988    106.1173      2.3797      0.1389     92.5405  
  4907.0000    -88.0268   -999.2500   -999.2500   -999.2500      7.5175      7.7684      1.1705     34.6841     12.3423    106.7141      2.3802      0.1662     92.6081  
  4907.5000    -88.1739   -999.2500   -999.2500   -999.2500      7.6346      7.7983      1.7484     35.0246     12.0693    107.3820      2.3462      0.1838     92.9913  
  4908.0000    -88.4442   -999.2500   -999.2500   -999.2500      7.8477      7.9934      4.3722     34.9758     12.5284    108.4439      2.3295      0.1711     91.8382  
  4908.5000    -88.8222   -999.2500   -999.2500   -999.2500      8.1261      8.2051      9.0996     34.9484     12.9770    108.6826      2.3236      0.1576     92.9005  
  4909.0000    -88.9312   -999.2500   -999.2500   -999.2500      8.1627      8.3866     41.8037     35.5353     13.2538    108.4290      2.3468      0.1618     93.9079  
  4909.5000    -88.7339   -999.2500   -999.2500   -999.2500      8.1533      8.3775     15.6384     36.4478     13.2322    107.8308      2.3727      0.1715     93.3096  
  4910.0000    -88.4830   -999.2500   -999.2500   -999.2500      8.0961      8.2498      2.3158     37.3367     12.4302    106.5787      2.3928      0.1715     92.9373  
  4910.5000    -88.4728   -999.2500   -999.2500   -999.2500      7.9750      8.0805      2.1840     37.1462     12.3350    104.9293      2.3710      0.1391     92.4997  
  4911.0000    -88.6646   -999.2500   -999.2500   -999.2500      7.8497      7.9444      2.1239     35.9982     12.4541    103.2983      2.3402      0.1223     93.1824  
  4911.5000    -88.7164   -999.2500   -999.2500   -999.2500      7.7250      7.8106      2.0829     35.9175     12.3899    102.3940      2.3057      0.1104     95.2619  
  4912.0000    -88.5182   -999.2500   -999.2500   -999.2500      7.5950      7.6791      3.3819     36.6589     12.0799    103.2509      2.2942      0.1227     94.1929  
  4912.5000    -88.7941   -999.2500   -999.2500   -999.2500      7.4466      7.6455      7.2835     38.0621     11.9602    103.9360      2.3193      0.1336     90.6511  
  4913.0000    -88.6756   -999.2500   -999.2500   -999.2500      7.3905      7.6668     19.3429     37.4620     11.9802    101.7060      2.3186      0.1068     91.8507  
  4913.5000    -88.8176   -999.2500   -999.2500   -999.2500      7.4492      7.7238     15.9370     36.0273     11.5236     98.1475      2.2999      0.0611     90.9030  
  4914.0000    -88.6415   -999.2500   -999.2500   -999.2500      7.6056      7.8973      8.2523     33.2865     11.8461     96.9975      2.3566      0.0327     91.9893  
  4914.5000    -88.7447   -999.2500   -999.2500   -999.2500      7.8796      8.1780      2.9114     29.6673     12.0641     97.9403      2.4353      0.1597     91.7874  
  4915.0000    -88.6753   -999.2500   -999.2500   -999.2500      8.4419      8.6955      1.3282     31.2849     11.7071    100.9351      2.3733      0.1802     91.7092  
  4915.5000    -88.6797   -999.2500   -999.2500   -999.2500      9.0316      9.1983      1.3325     34.2450     11.8128    102.9072      2.3121      0.1553     91.7939  
  4916.0000    -88.5669   -999.2500   -999.2500   -999.2500      8.9970      9.3400      2.8609     35.3574     11.3409    104.3516      2.2972      0.1475     90.1015  
  4916.5000    -88.8861   -999.2500   -999.2500   -999.2500      8.9111      9.1008      3.6190     34.8754     11.1838    103.1259      2.3110      0.1422     87.4483  
  4917.0000    -89.0022   -999.2500   -999.2500   -999.2500      8.7342      8.7408      2.5718     34.1883     11.8170    101.5594      2.3343      0.1623     86.2372  
  4917.5000    -89.0829   -999.2500   -999.2500   -999.2500      8.6401      8.6361      3.1886     34.1693     12.6314    101.2601      2.3322      0.1829     85.4250  
  4918.0000    -89.0544   -999.2500   -999.2500   -999.2500      8.5470      8.6530      3.3302     35.3361     12.7401    103.5611      2.2981      0.1630     85.3776  
  4918.5000    -89.0075   -999.2500   -999.2500   -999.2500      8.4482      8.6075      2.4114     36.4630     12.7495    106.5762      2.2977      0.1622     89.0460  
  4919.0000    -89.0735   -999.2500   -999.2500   -999.2500      8.2817      8.4665      2.8077     35.6724     12.4872    107.4852      2.3307      0.1811     92.2949  
  4919.5000    -88.9170   -999.2500   -999.2500   -999.2500      8.1155      8.2456      5.2738     34.7881     12.5056    106.2572      2.3679      0.2080     91.4266  
  4920.0000    -88.7506   -999.2500   -999.2500   -999.2500      8.2005      8.3019      8.8057     34.8383     12.6402    104.1006      2.3400      0.2114     91.7064  
  4920.5000    -88.9775   -999.2500   -999.2500   -999.2500      8.4217      8.6861      6.4011     35.1180     12.2660    104.9017      2.3325      0.1919     92.4151  
  4921.0000    -89.0014   -999.2500   -999.2500   -999.2500      8.2131      8.4188      4.6531     34.8723     11.5035    104.6774      2.3267      0.1999     92.7601  
  4921.5000    -89.0859   -999.2500   -999.2500   -999.2500      7.7102      7.8655      3.3824     34.3971     11.6561    104.0704      2.2980      0.1830     92.5967  
  4922.0000    -88.9463   -999.2500   -999.2500   -999.2500      7.3107      7.2713      2.4588     34.1235     11.4988    102.7543      2.2769      0.1929     92.1160  
  4922.5000    -89.0641   -999.2500   -999.2500   -999.2500      7.1857      7.0422      1.7874     34.3783     11.4776    101.6784      2.2819      0.2054     91.6447  
  4923.0000    -89.1189   -999.2500   -999.2500   -999.2500      7.4946      7.2247      1.2993     34.9561     11.9975    102.2897      2.2990      0.1894     90.0272  
  4923.5000    -89.0049   -999.2500   -999.2500   -999.2500      8.1823      7.8800      0.8429     35.0048     11.8923    103.9177      2.3346      0.1703     90.8252  
  4924.0000    -88.8682   -999.2500   -999.2500   -999.2500      8.8208      8.5948      1.5264     34.6972     11.8666    105.4024      2.3670      0.1467     91.2972  
  4924.5000    -88.8499   -999.2500   -999.2500   -999.2500      9.2247      9.3743      3.6324     35.2246     12.5497    106.1490      2.3519      0.1079     91.5233  
  4925.0000    -88.8165   -999.2500   -999.2500   -999.2500      9.3548      9.8458      8.6437     36.3198     12.7436    105.5227      2.3220      0.0582     91.6904  
  4925.5000    -88.6912   -999.2500   -999.2500   -999.2500      9.0449      9.2861     11.5579     37.1865     13.1470    104.8563      2.2919      0.0523     92.3675  
  4926.0000    -88.4572   -999.2500   -999.2500   -999.2500      8.6607      8.6018      6.8642     37.6024     13.6880    103.2662      2.2660      0.0756     90.5803  
  4926.5000    -88.6647   -999.2500   -999.2500   -999.2500      7.8474      7.8976      2.5597     38.0891     13.2444     99.9566      2.2351      0.1156     92.6766  
