~VERSION INFORMATION
 VERS.                           2.00:        CWLS LOG ASCII STANDARD - VERSION 2.00
 WRAP.                             NO:        ONE LINE PER DEPTH STEP
~WELL INFORMATION
#MNEM.UNIT                   DATA             INFORMATION
#----------             --------------        ------------------------------
 STRT.F                       79.0000:        START DEPTH
 STOP.F                     6686.0000:        STOP DEPTH
 STEP.F                        0.5000:        STEP VALUE
 NULL.                      -999.2500:        NULL VALUE
 COMP.                  HUSKY OIL CO.:        COMPANY  
 LOC .                   10  18N  16W:        LOCATION   
 DATE.                        3/28/81:        LOG DATE 
 WELL.           KUYANAK TEST WELL #1:        WELL     
 UWI .                   501632000300:        UNIQUE WELL ID 
 API .                   501632000300:        UNIQUE WELL IDENTIFIER 
 FLD .                        WILDCAT:        FIELD    
 CNTY.                    NORTH SLOPE:        COUNTY  
 STAT.                         ALASKA:        STATE   
 CTRY.                            USA:        COUNTRY 
 OPER.                  HUSKY OIL CO.:        OPERATOR  
 SRVC.                            440:        SERVICE COMPANY 
 LAT .                         0.0000:        LATITUDE
 LON .                         0.0000:        LONGITUDE
 DIGS.                             65:        DIGITIZING COMPANY 
~CURVE INFORMATION      
#MNEM        .UNIT         API CODE           CURVE DESCRIPTION
#-----------------      --------------        ------------------------------
 DEPT        .F                      :        1  DEPTH
 SP          .MV                     :        2  
 ILM         .OHMM                   :        3  
 ILD         .OHMM                   :        4  
 SFL         .OHMM                   :        5  
 LLD         .OHMM                   :        6  
 LLS         .OHMM                   :        7  
 MSFL        .OHMM                   :        8  
 NPHI        .%                      :        9  
 CAL         .IN                     :        10 
 GR          .GAPI                   :        11 
 RHOB        .G/C3                   :        12 
 DRHO        .G/C3                   :        13 
 DT          .US/F                   :        14 
~PARAMETER INFORMATION       
#MNEM.UNIT                  VALUE             DESCRIPTION OF MNEMONIC
#---------             ---------------        ------------------------------
 EKB .F                       28.0000:        KELLY BUSHING
 TD  .F                     6690.0000:        TOTAL DEPTH
 BS  .                         0.0000:        BIT SIZE
 CSIZ.                         0.0000:        CASING SIZE
 CBD .F                        0.0000:        CASING DRILLER 1
 CBL .F                        0.0000:        CASING LOGGER 1
~OTHER INFORMATION
~A    DEPTH          SP         ILM         ILD         SFL         LLD         LLS        MSFL        NPHI         CAL          GR        RHOB        DRHO          DT  
# ...
  6223.0000    -82.6811   -999.2500   -999.2500   -999.2500     11.8554     13.3291      8.4451     26.1517      8.7729     92.9019      2.6203      0.0114     74.7309  
  6223.5000    -82.4722   -999.2500   -999.2500   -999.2500     11.1573     12.6267      7.8738     27.4417      8.8315     94.1246      2.6317      0.0294     73.3583  
  6224.0000    -82.4440   -999.2500   -999.2500   -999.2500     10.4472     11.8769      7.6375     28.3059      8.8474     95.3287      2.6532      0.0472     72.7716  
  6224.5000    -82.4942   -999.2500   -999.2500   -999.2500      9.7710     11.1001      7.2739     28.1673      8.8541     98.2858      2.6285      0.0380     73.7337  
  6225.0000    -82.5886   -999.2500   -999.2500   -999.2500      9.1385     10.5337      7.4424     28.0231      8.8736    100.7689      2.6522      0.0781     75.2891  
  6225.5000    -82.5233   -999.2500   -999.2500   -999.2500      8.6591     10.3476     36.3480     28.9199      8.9040    102.7761      2.6317      0.0501     76.1333  
  6226.0000    -82.3414   -999.2500   -999.2500   -999.2500      8.2109      9.9813     64.7980     30.3738      8.9608    104.5634      2.6188      0.0388     76.9043  
  6226.5000    -82.1888   -999.2500   -999.2500   -999.2500      7.7858      9.3394    115.5162     31.3583      8.8954    104.7994      2.6385      0.0745     77.4864  
  6227.0000    -82.4845   -999.2500   -999.2500   -999.2500      7.3828      8.6256    205.9321     31.8816      8.8772    103.7561      2.6211      0.1014     78.7386  
  6227.5000    -82.8912   -999.2500   -999.2500   -999.2500      6.9482      8.1201     31.6306     32.4052      8.8736    103.5230      2.6126      0.1200     79.9339  
  6228.0000    -83.0804   -999.2500   -999.2500   -999.2500      6.7068      7.9441      2.7662     33.5247      8.9335    104.2317      2.5869      0.0901     81.1793  
  6228.5000    -83.0855   -999.2500   -999.2500   -999.2500      6.5484      7.8916      3.2135     34.3001      9.0236    104.7026      2.5286      0.0412     82.5425  
  6229.0000    -83.0109   -999.2500   -999.2500   -999.2500      6.7095      8.0609      4.5370     34.3477      9.0740    104.5947      2.5649      0.0101     83.0588  
  6229.5000    -82.8657   -999.2500   -999.2500   -999.2500      7.2409      8.3908      5.0178     33.9032      9.1076    103.8898      2.5980     -0.0024     83.4077  
  6230.0000    -82.7722   -999.2500   -999.2500   -999.2500      7.7668      8.7341      5.2061     33.9637      9.1031    103.1867      2.6077      0.0090     83.4347  
  6230.5000    -82.7442   -999.2500   -999.2500   -999.2500      7.5907      8.8886      5.4670     34.0614      9.1002    102.9765      2.6106      0.0175     82.6168  
  6231.0000    -82.7821   -999.2500   -999.2500   -999.2500      7.4185      8.5793      5.5187     33.9761      9.1148    103.3092      2.6344      0.0274     82.3835  
  6231.5000    -82.7508   -999.2500   -999.2500   -999.2500      7.2503      8.2630      5.1037     34.0576      9.1489    104.7466      2.6397      0.0206     82.0211  
  6232.0000    -82.8654   -999.2500   -999.2500   -999.2500      7.1248      8.2513      4.2765     34.0825      9.1958    106.7290      2.6371      0.0170     82.4278  
  6232.5000    -83.0420   -999.2500   -999.2500   -999.2500      7.0296      8.0180      3.9299     33.7661      9.2346    108.3860      2.6357      0.0257     82.7455  
  6233.0000    -83.0678   -999.2500   -999.2500   -999.2500      7.0611      7.9789      4.0900     33.7101      9.3156    110.2130      2.6298      0.0435     82.8903  
  6233.5000    -83.0820   -999.2500   -999.2500   -999.2500      7.0301      7.9741      4.5958     33.6900      9.4428    111.6609      2.6143      0.0405     83.1044  
  6234.0000    -83.1227   -999.2500   -999.2500   -999.2500      6.8842      7.7677      5.5025     33.7707     10.0090    111.7438      2.6030      0.0472     83.4563  
  6234.5000    -83.2659   -999.2500   -999.2500   -999.2500      6.4240      7.5780      7.1000     33.9827     10.4520    108.7970      2.5820      0.0409     83.6556  
  6235.0000    -83.5972   -999.2500   -999.2500   -999.2500      6.4010      7.3930      5.1504     33.8009      9.7010    104.3926      2.5598      0.0490     83.8192  
  6235.5000    -83.7178   -999.2500   -999.2500   -999.2500      6.4221      7.2158      3.1272     33.4132      9.3872    101.6388      2.5609      0.0635     83.8378  
  6236.0000    -83.8389   -999.2500   -999.2500   -999.2500      6.4729      7.1372      2.4397     33.9850      9.3088    101.2866      2.5786      0.1125     83.7399  
  6236.5000    -83.8756   -999.2500   -999.2500   -999.2500      6.5834      7.2614      2.2742     34.6811      9.3103    101.2042      2.5623      0.1414     83.6307  
  6237.0000    -83.7077   -999.2500   -999.2500   -999.2500      6.6959      7.3877      3.1476     35.0081      9.4009    100.5938      2.5443      0.1505     83.6694  
  6237.5000    -83.4924   -999.2500   -999.2500   -999.2500      6.7387      7.5163      4.2686     35.5044      9.4226     99.5064      2.5293      0.1434     83.3529  
  6238.0000    -83.4679   -999.2500   -999.2500   -999.2500      6.6405      7.2314      4.3069     36.0514      9.3825     99.2692      2.4608      0.0585     83.4358  
  6238.5000    -83.4755   -999.2500   -999.2500   -999.2500      6.4911      6.9476      4.6918     35.7426      9.4969     99.3454      2.4407      0.0342     83.9511  
  6239.0000    -83.4958   -999.2500   -999.2500   -999.2500      6.3318      6.8651      6.3589     34.6773      9.6937     99.4677      2.4918      0.0404     84.1798  
  6239.5000    -83.3051   -999.2500   -999.2500   -999.2500      6.2120      6.8308     10.2040     33.6374     10.0435     98.9428      2.5424      0.0595     84.2172  
  6240.0000    -82.8983   -999.2500   -999.2500   -999.2500      6.0910      6.5639     12.4005     32.6894      9.6054     95.8813      2.5265      0.0715     84.1191  
  6240.5000    -82.5961   -999.2500   -999.2500   -999.2500      5.8581      6.1857     12.0218     32.6033      9.9653     89.8590      2.4727      0.0582     84.2926  
  6241.0000    -82.1105   -999.2500   -999.2500   -999.2500      5.5070      5.7087      7.2780     33.4439     10.1038     83.7126      2.4198      0.0292     84.2836  
  6241.5000    -81.5983   -999.2500   -999.2500   -999.2500      5.1770      5.1875      4.4061     34.4079      9.9293     76.8713      2.4312      0.0202     84.1854  
  6242.0000    -80.9421   -999.2500   -999.2500   -999.2500      5.3297      5.2684      2.6674     33.4190      9.3547     67.7049      2.4373     -0.0033     84.5141  
  6242.5000    -79.9214   -999.2500   -999.2500   -999.2500      5.8921      5.7539      2.7648     30.2480      9.1640     57.0721      2.4311     -0.0110     85.7362  
  6243.0000    -79.1312   -999.2500   -999.2500   -999.2500      6.2402      6.3479      3.3547     26.7700      9.1717     50.7414      2.4291     -0.0009     85.9009  
  6243.5000    -78.5421   -999.2500   -999.2500   -999.2500      6.0165      6.1385      3.2444     25.0425      9.0896     48.7634      2.4324      0.0095     85.4323  
  6244.0000    -77.9084   -999.2500   -999.2500   -999.2500      5.4218      5.5941      3.1423     24.9037      9.0160     48.8265      2.4268      0.0207     83.0672  
  6244.5000    -77.3445   -999.2500   -999.2500   -999.2500      4.7172      4.9850      3.0245     25.0828      8.9410     49.2658      2.4150      0.0202     81.3762  
  6245.0000    -76.7929   -999.2500   -999.2500   -999.2500      4.3564      4.5196      2.7450     25.5972      8.8341     49.5196      2.3971      0.0194     81.6451  
  6245.5000    -76.4723   -999.2500   -999.2500   -999.2500      4.2923      4.4303      2.7394     26.0784      8.7926     48.8699      2.3992      0.0148     83.9956  
  6246.0000    -76.3418   -999.2500   -999.2500   -999.2500      4.2943      4.4120      2.7661     26.4066      8.7822     46.7765      2.4007      0.0101     85.2340  
  6246.5000    -76.2696   -999.2500   -999.2500   -999.2500      4.3288      4.3876      2.7544     26.0092      8.7986     41.8749      2.3944      0.0158     85.2887  
