~VERSION INFORMATION
 VERS.                           2.00:        CWLS LOG ASCII STANDARD - VERSION 2.00
 WRAP.                             NO:        ONE LINE PER DEPTH STEP
~WELL INFORMATION
#MNEM.UNIT                   DATA             INFORMATION
#----------             --------------        ------------------------------
 STRT.F                      372.0000:        START DEPTH
 STOP.F                     9939.0000:        STOP DEPTH
 STEP.F                        0.5000:        STEP VALUE
 NULL.                      -999.2500:        NULL VALUE
 COMP.                     USGS/NPR-A:        COMPANY
 LOC .                     31 15E 19W:        LOCATION
 DATE.                        4/30/78:        LOG DATE
 WELL.                 SOUTH MEADE #1:        WELL
 UWI .                   501632000100:        UNIQUE WELL ID
 API .                   501632000100:        UNIQUE WELL IDENTIFIER
 FLD .                        WILDCAT:        FIELD
 CNTY.                    NORTH SLOPE:        COUNTY
 STAT.                         ALASKA:        STATE
 CTRY.                            USA:        COUNTRY
 OPER.                     USGS/NPR-A:        OPERATOR
 SRVC.                   SCHLUMBERGER:        SERVICE COMPANY
 LAT .                         0.0000:        LATITUDE
 LON .                         0.0000:        LONGITUDE
 DIGS.               CENTER LINE DATA:        DIGITIZING COMPANY
~CURVE INFORMATION      
#MNEM        .UNIT         API CODE           CURVE DESCRIPTION
#-----------------      --------------        ------------------------------
 DEPT        .F                      :        1  DEPTH
 CALI        .IN                     :        2  
 GR          .GAPI                   :        3  
 RHOB        .G/C3                   :        4  
 DRHO        .G/C3                   :        5  
 NPHI        .%                      :        6  
 DT          .US/F                   :        7  
 SP          .MV                     :        8  
 ILD         .OHMM                   :        9  
 ILM         .OHMM                   :        10 
 LL8         .OHMM                   :        11 
~PARAMETER INFORMATION
#MNEM.UNIT                  VALUE             DESCRIPTION OF MNEMONIC
#---------             ---------------        ------------------------------
 EKB .F                       60.0000:        KELLY BUSHING
 TD  .F                     9945.0000:        TOTAL DEPTH
 BHT .F                      214.0000:        BOTTOM HOLE TEMPERATURE
 BS  .                        12.2500:        BIT SIZE
 FD  .                        11.5000:        FLUID DENSITY
 CSIZ.                        13.3750:        CASING SIZE
 CBD .F                     2615.0000:        CASING DRILLER 1
 CBL .F                     2614.0000:        CASING LOGGER 1
 DFT .                  MISCELLANEOUS:        TYPE FLUID IN HOLE
 DFV .                        98.0000:        VISCOSITY
 DFPH.                        10.0000:        PH
 DFL .                         3.6000:        FLUID LOSS
 RMS .                         1.7900:        RM
 MST .F                       61.0000:        RM MEAS. TEMP.
 RMF .                         1.2800:        RMF
 MFST.F                       49.0000:        RMF MEAS. TEMP.
 RMC .                         2.4600:        RMC
 MCST.F                       59.0000:        RMC MEAS. TEMP.
~OTHER INFORMATION
~A    DEPTH        CALI          GR        RHOB        DRHO        NPHI          DT          SP         ILD         ILM         LL8 
# ...
  1165.0000   -999.2500    120.1279   -999.2500   -999.2500   -999.2500    123.1332    -32.0124      7.4930      8.7453      9.0479 
  1165.5000   -999.2500    118.6209   -999.2500   -999.2500   -999.2500    120.9321    -30.7370      7.6684      8.9983      9.7783 
  1166.0000   -999.2500    115.4089   -999.2500   -999.2500   -999.2500    120.1905    -29.7144      7.8478      9.1869     10.5678 
  1166.5000   -999.2500    111.4398   -999.2500   -999.2500   -999.2500    119.2712    -29.7391      8.0315      9.3796     10.8841 
  1167.0000   -999.2500    107.2454   -999.2500   -999.2500   -999.2500    116.3414    -29.7637      8.2194      9.5763     11.1064 
  1167.5000   -999.2500    104.6623   -999.2500   -999.2500   -999.2500    109.6787    -30.0892      8.3263      9.8065     11.3332 
  1168.0000   -999.2500    106.3342   -999.2500   -999.2500   -999.2500     89.0481    -30.7351      8.2480     10.0546     11.5646 
  1168.5000   -999.2500    110.3521   -999.2500   -999.2500   -999.2500    113.5182    -30.7969      8.1520     10.2474     11.0653 
  1169.0000   -999.2500    112.0489   -999.2500   -999.2500   -999.2500    115.1544    -31.4649      8.1635     10.1383     10.5630 
  1169.5000   -999.2500    113.2070   -999.2500   -999.2500   -999.2500    115.0687    -32.4565      8.1822     10.0304     10.0835 
  1170.0000   -999.2500    113.1323   -999.2500   -999.2500   -999.2500    113.8341    -33.1651      8.0569      9.3685     10.2727 
  1170.5000   -999.2500    114.4978   -999.2500   -999.2500   -999.2500    115.0994    -33.5903      7.8921      8.4691     10.6948 
  1171.0000   -999.2500    116.7158   -999.2500   -999.2500   -999.2500    118.2739    -34.3159      7.0814      7.8309     10.1458 
  1171.5000   -999.2500    119.5751   -999.2500   -999.2500   -999.2500    122.6071    -34.5160      6.2971      7.3880      9.2210 
  1172.0000   -999.2500    122.3541   -999.2500   -999.2500   -999.2500    127.5712    -34.2066      5.5997      7.1408      7.9947 
  1172.5000   -999.2500    122.9713   -999.2500   -999.2500   -999.2500    129.9081    -33.8804      5.3214      6.9018      6.9645 
  1173.0000   -999.2500    120.9077   -999.2500   -999.2500   -999.2500    130.1632    -33.6376      5.4032      6.8860      6.8365 
  1173.5000   -999.2500    118.7961   -999.2500   -999.2500   -999.2500    128.6834    -33.3319      5.5867      6.9022      7.0175 
  1174.0000   -999.2500    113.5825   -999.2500   -999.2500   -999.2500    123.6783    -32.6336      6.0016      6.9392      8.5736 
  1174.5000   -999.2500    106.0212   -999.2500   -999.2500   -999.2500    118.7823    -30.8616      6.5209      7.2042     10.5005 
  1175.0000   -999.2500    100.3295   -999.2500   -999.2500   -999.2500    114.1559    -28.5669      7.1583      7.7019     10.3128 
  1175.5000   -999.2500     97.2573   -999.2500   -999.2500   -999.2500    109.4901    -26.9995      8.0015      8.1840     10.2214 
  1176.0000   -999.2500     91.8514   -999.2500   -999.2500   -999.2500    105.6252    -25.7305      8.9439      8.6800     10.8076 
  1176.5000   -999.2500     87.6061   -999.2500   -999.2500   -999.2500    102.0057    -24.9322      9.9974      9.2060     12.6011 
  1177.0000   -999.2500     83.2146   -999.2500   -999.2500   -999.2500     99.3446    -25.3206     11.1749      9.7640     13.3210 
  1177.5000   -999.2500     82.6934   -999.2500   -999.2500   -999.2500     87.9970    -26.2196     12.0926     10.2976     12.9125 
  1178.0000   -999.2500     85.2998   -999.2500   -999.2500   -999.2500     74.7768    -27.2110     13.0218     10.6799     12.3368 
  1178.5000   -999.2500     87.9133   -999.2500   -999.2500   -999.2500     99.9855    -27.8847     13.5048     11.0764     12.0926 
  1179.0000   -999.2500     88.4064   -999.2500   -999.2500   -999.2500    107.6747    -28.6378     13.4796     11.2763     12.8473 
  1179.5000   -999.2500     88.8514   -999.2500   -999.2500   -999.2500    106.2999    -30.0594     12.8906     10.8595     13.6492 
  1180.0000   -999.2500     90.3137   -999.2500   -999.2500   -999.2500    104.0925    -30.5934     12.3139     10.3590     12.7577 
  1180.5000   -999.2500     93.0216   -999.2500   -999.2500   -999.2500    100.2330    -30.0373     11.7629      9.8816     11.5225 
  1181.0000   -999.2500     97.7737   -999.2500   -999.2500   -999.2500     98.4613    -29.0841     11.2366      9.4262     10.4069 
  1181.5000   -999.2500     99.2556   -999.2500   -999.2500   -999.2500    108.3141    -29.1439     10.7339      8.9917      9.6617 
  1182.0000   -999.2500     96.4221   -999.2500   -999.2500   -999.2500    109.3609    -29.8312     10.2304      8.6148      9.7897 
  1182.5000   -999.2500     93.2978   -999.2500   -999.2500   -999.2500    110.1595    -30.4768      9.7332      8.2685      9.9195 
  1183.0000   -999.2500     94.8053   -999.2500   -999.2500   -999.2500    113.0202    -30.4340      9.2602      7.9361      9.6497 
  1183.5000   -999.2500    102.5588   -999.2500   -999.2500   -999.2500    116.3093    -29.4682      8.8101      7.6171      9.2834 
  1184.0000   -999.2500    106.3036   -999.2500   -999.2500   -999.2500    118.2534    -28.9038      8.3820      7.2231      8.9310 
  1184.5000   -999.2500    106.0093   -999.2500   -999.2500   -999.2500    119.3487    -29.0246      7.9746      6.8326      8.5920 
  1185.0000   -999.2500    104.6308   -999.2500   -999.2500   -999.2500    120.5205    -28.9236      7.7855      6.6660      8.3706 
  1185.5000   -999.2500    102.2473   -999.2500   -999.2500   -999.2500    121.6801    -28.2331      7.6875      6.5481      8.2870 
  1186.0000   -999.2500     99.6088   -999.2500   -999.2500   -999.2500    122.9628    -27.1649      7.5804      6.4672      8.2042 
  1186.5000   -999.2500     97.1336   -999.2500   -999.2500   -999.2500    125.3303    -26.6433      7.8350      6.4808      8.1231 
  1187.0000   -999.2500     93.9622   -999.2500   -999.2500   -999.2500    124.6253    -26.4256      8.1310      6.6550      8.4587 
  1187.5000   -999.2500     88.8394   -999.2500   -999.2500   -999.2500    120.5942    -26.3124      8.4709      7.6133      9.5519 
  1188.0000   -999.2500     83.9805   -999.2500   -999.2500   -999.2500    114.8571    -27.2932      9.1716      8.5229     10.7864 
  1188.5000   -999.2500     79.9982   -999.2500   -999.2500   -999.2500    104.2923    -28.8707     10.0005      9.3400     12.2063 
  1189.0000   -999.2500     80.9734   -999.2500   -999.2500   -999.2500     98.0989    -30.5489     11.0791     10.2354     13.4807 
  1189.5000   -999.2500     84.6686   -999.2500   -999.2500   -999.2500     94.6896    -32.6636     12.2740     11.2166     14.8936 
  1190.0000   -999.2500     90.2489   -999.2500   -999.2500   -999.2500     93.5210    -34.7538     13.5978     11.5113     15.2611 
  1190.5000   -999.2500     94.0795   -999.2500   -999.2500   -999.2500     94.5717    -35.6190     14.2555     11.7981     13.9380 
  1191.0000   -999.2500     94.2925   -999.2500   -999.2500   -999.2500     95.4239    -34.9677     14.3704     12.0921     13.0988 
  1191.5000   -999.2500     92.3139   -999.2500   -999.2500   -999.2500     96.3602    -34.0544     14.4863     12.3935     12.3476 
  1192.0000   -999.2500     89.5098   -999.2500   -999.2500   -999.2500     95.8681    -33.3180     14.6031     12.7055     13.4562 
  1192.5000   -999.2500     87.9964   -999.2500   -999.2500   -999.2500     95.3750    -33.6018     14.5348     13.0310     13.7452 
  1193.0000   -999.2500     88.4931   -999.2500   -999.2500   -999.2500     94.4037    -33.9855     14.3861     13.1575     13.1704 
  1193.5000   -999.2500     89.0663   -999.2500   -999.2500   -999.2500     93.6554    -34.7506     14.2351     13.1960     12.9240 
  1194.0000   -999.2500     87.6881   -999.2500   -999.2500   -999.2500     94.0609    -36.3871     14.0857     13.2359     13.1893 
  1194.5000   -999.2500     85.2224   -999.2500   -999.2500   -999.2500     94.6097    -38.4882     13.9379     13.1543     13.6842 
  1195.0000   -999.2500     82.5151   -999.2500   -999.2500   -999.2500     95.2531    -39.6530     13.6143     13.0732     14.2021 
