~VERSION INFORMATION
 VERS.                           2.00:        CWLS LOG ASCII STANDARD - VERSION 2.00
 WRAP.                             NO:        ONE LINE PER DEPTH STEP
~WELL INFORMATION
#MNEM.UNIT                   DATA             INFORMATION
#----------             --------------        ------------------------------
 STRT.F                      372.0000:        START DEPTH
 STOP.F                     9939.0000:        STOP DEPTH
 STEP.F                        0.5000:        STEP VALUE
 NULL.                      -999.2500:        NULL VALUE
 COMP.                     USGS/NPR-A:        COMPANY
 LOC .                     31 15E 19W:        LOCATION
 DATE.                        4/30/78:        LOG DATE
 WELL.                 SOUTH MEADE #1:        WELL
 UWI .                   501632000100:        UNIQUE WELL ID
 API .                   501632000100:        UNIQUE WELL IDENTIFIER
 FLD .                        WILDCAT:        FIELD
 CNTY.                    NORTH SLOPE:        COUNTY
 STAT.                         ALASKA:        STATE
 CTRY.                            USA:        COUNTRY
 OPER.                     USGS/NPR-A:        OPERATOR
 SRVC.                   SCHLUMBERGER:        SERVICE COMPANY
 LAT .                         0.0000:        LATITUDE
 LON .                         0.0000:        LONGITUDE
 DIGS.               CENTER LINE DATA:        DIGITIZING COMPANY
~CURVE INFORMATION      
#MNEM        .UNIT         API CODE           CURVE DESCRIPTION
#-----------------      --------------        ------------------------------
 DEPT        .F                      :        1  DEPTH
 CALI        .IN                     :        2  
 GR          .GAPI                   :        3  
 RHOB        .G/C3                   :        4  
 DRHO        .G/C3                   :        5  
 NPHI        .%                      :        6  
 DT          .US/F                   :        7  
 SP          .MV                     :        8  
 ILD         .OHMM                   :        9  
 ILM         .OHMM                   :        10 
 LL8         .OHMM                   :        11 
~PARAMETER INFORMATION
#MNEM.UNIT                  VALUE             DESCRIPTION OF MNEMONIC
#---------             ---------------        ------------------------------
 EKB .F                       60.0000:        KELLY BUSHING
 TD  .F                     9945.0000:        TOTAL DEPTH
 BHT .F                      214.0000:        BOTTOM HOLE TEMPERATURE
 BS  .                        12.2500:        BIT SIZE
 FD  .                        11.5000:        FLUID DENSITY
 CSIZ.                        13.3750:        CASING SIZE
 CBD .F                     2615.0000:        CASING DRILLER 1
 CBL .F                     2614.0000:        CASING LOGGER 1
 DFT .                  MISCELLANEOUS:        TYPE FLUID IN HOLE
 DFV .                        98.0000:        VISCOSITY
 DFPH.                        10.0000:        PH
 DFL .                         3.6000:        FLUID LOSS
 RMS .                         1.7900:        RM
 MST .F                       61.0000:        RM MEAS. TEMP.
 RMF .                         1.2800:        RMF
 MFST.F                       49.0000:        RMF MEAS. TEMP.
 RMC .                         2.4600:        RMC
 MCST.F                       59.0000:        RMC MEAS. TEMP.
~OTHER INFORMATION
~A    DEPTH        CALI          GR        RHOB        DRHO        NPHI          DT          SP         ILD         ILM         LL8 
# ...
  6167.0000     12.1190     56.6211      2.5094      0.0092     12.6386     70.8926    -49.7253     25.7453     19.1313     26.4254 
  6167.5000     12.1117     59.6572      2.5124     -0.0009     12.8407     69.1989    -48.5723     25.1523     18.4111     26.4789 
  6168.0000     12.1125     62.7257      2.5454      0.0069     13.4541     69.9812    -47.2904     24.6203     16.7617     25.8727 
  6168.5000     12.1133     66.1302      2.5732      0.0125     14.3033     70.7634    -45.6694     24.0385     14.0359     23.3795 
  6169.0000     12.1141     70.5683      2.5886      0.0148     15.1395     71.0840    -44.3345     20.9507     12.5772     21.8261 
  6169.5000     12.1673     72.2742      2.6078      0.0175     15.8138     70.9739    -42.9141     18.8869     12.2064     20.0673 
  6170.0000     12.2646     74.6202      2.6249      0.0213     16.9282     70.6376    -41.1923     17.1502     12.3254     16.5963 
  6170.5000     12.3618     75.8630      2.6416      0.0264     21.0458     70.4111    -40.8563     15.5733     12.3053     15.7091 
  6171.0000     12.4616     76.0365      2.6501      0.0340     22.2442     70.4630    -40.4238     14.2020     12.1757     15.0434 
  6171.5000     12.5511     75.2450      2.6583      0.0389     22.7893     70.8645    -40.1898     13.8905     11.8116     15.0479 
  6172.0000     12.5844     76.2441      2.6498      0.0494     22.1714     70.8748    -40.0342     13.5857     11.4583     15.0741 
  6172.5000     12.6177     77.0553      2.6351      0.0546     21.6719     70.2979    -39.7427     13.2877     11.1121     14.7826 
  6173.0000     12.6511     75.5066      2.6371      0.0675     21.4608     70.9518    -39.5298     13.2633     11.1115     14.4335 
  6173.5000     12.6750     73.6998      2.6491      0.0745     21.2956     71.2692    -39.3170     13.2803     11.2283     14.0927 
  6174.0000     12.7129     73.8103      2.6180      0.0508     21.1563     71.2883    -38.8707     13.2706     11.3932     13.8218 
  6174.5000     12.6947     74.8809      2.6123      0.0253     21.2212     71.3502    -38.3130     13.2471     11.5604     13.6550 
  6175.0000     12.6762     76.6764      2.6225      0.0154     21.5419     71.2189    -38.1010     13.2236     11.6710     13.5109 
  6175.5000     12.6563     78.4922      2.6361      0.0094     21.5650     71.1135    -37.9235     13.3548     11.6915     13.7592 
  6176.0000     12.6113     80.1093      2.6537      0.0132     21.3833     72.2421    -38.0171     13.6664     11.6503     14.0120 
  6176.5000     12.5663     81.7263      2.6623      0.0170     21.0603     71.7108    -38.2659     14.0922     11.6025     14.4301 
  6177.0000     12.5212     80.0015      2.6605      0.0129     20.3930     71.1629    -38.3597     14.8502     11.6415     14.9259 
  6177.5000     12.4716     76.9162      2.6507      0.0137     19.7522     71.0429    -38.4582     15.6489     11.9860     15.3186 
  6178.0000     12.4598     73.2911      2.6374      0.0167     19.6251     71.0375    -38.9966     16.4906     13.2118     16.4723 
  6178.5000     12.4699     69.3279      2.6485      0.0163     19.4683     71.2096    -39.5476     17.3776     14.8118     17.8985 
  6179.0000     12.4800     64.6822      2.6259      0.0160     19.1543     70.8725    -39.9935     18.3449     16.2890     19.4483 
  6179.5000     12.4764     60.7773      2.5961      0.0125     18.3636     70.3400    -40.3309     19.3794     16.5360     21.0954 
  6180.0000     12.4625     61.9209      2.5801      0.0074     16.2216     71.5825    -40.2971     20.1461     16.0627     22.7376 
  6180.5000     12.4713     64.6106      2.5998      0.0150     15.1574     72.1485    -40.1796     20.5136     15.0198     24.5077 
  6181.0000     12.4904     66.8755      2.6019      0.0225     14.8906     72.2812    -39.8391     20.3519     14.0446     24.1736 
  6181.5000     12.5020     67.4555      2.6044      0.0320     14.9474     71.6936    -39.6502     19.7694     14.0398     21.0098 
  6182.0000     12.5288     65.6943      2.6214      0.0360     15.7898     70.9577    -39.9713     19.1829     14.4492     18.2601 
  6182.5000     12.5478     63.5692      2.6359      0.0397     16.7359     72.8325    -40.5110     18.6138     14.4127     19.0136 
  6183.0000     12.5343     64.7851      2.6256      0.0299     17.3462     74.1942    -40.3856     18.0645     13.0820     21.8787 
  6183.5000     12.5208     69.2888      2.5918      0.0307     16.6108     74.5274    -40.0961     17.5347     12.1165     22.3678 
  6184.0000     12.5844     71.5218      2.6031      0.0494     16.3537     70.6033    -39.8422     17.1303     12.9683     16.6581 
  6184.5000     12.6789     70.2398      2.6225      0.0499     16.3375     67.3734    -39.9188     16.8567     13.9348     16.5918 
  6185.0000     12.7426     65.2364      2.6096      0.0415     18.4303     68.4411    -40.7223     16.6716     14.3335     18.5549 
  6185.5000     12.7183     64.0924      2.5781      0.0275     18.5528     69.2350    -41.2346     16.6285     13.8207     22.2861 
  6186.0000     12.6466     68.3189      2.5980      0.0387     17.0879     71.4918    -41.3122     16.8149     13.3589     25.8499 
  6186.5000     12.5748     73.5151      2.5985      0.0605     15.9628     71.9773    -41.6253     17.3130     13.0520     22.0096 
  6187.0000     12.6495     74.5126      2.6054      0.0662     16.9209     70.6003    -41.9815     17.9731     13.8386     19.5849 
  6187.5000     12.7985     68.7067      2.5949      0.0607     18.4359     70.1869    -42.7024     18.6583     15.5139     19.1220 
  6188.0000     12.8278     62.2053      2.5729      0.0312     18.6990     70.8283    -44.0885     19.3697     16.3902     20.4520 
  6188.5000     12.8000     59.4270      2.5547      0.0213     17.6155     71.5286    -45.8355     20.1891     17.2048     23.2140 
  6189.0000     12.7453     58.5689      2.5633      0.0307     15.1193     71.6228    -46.5532     21.4751     17.6273     26.3490 
  6189.5000     12.7205     59.8193      2.5409      0.0244     13.2330     71.6076    -46.9099     22.8429     17.7514     26.9947 
  6190.0000     12.7227     61.3116      2.5325      0.0084     12.2978     71.0366    -47.6393     24.2084     17.9794     25.6969 
  6190.5000     12.7230     60.8651      2.5275      0.0128     12.4895     72.1066    -48.3939     24.4331     18.2760     25.2869 
  6191.0000     12.7147     59.9868      2.5290      0.0083     12.7446     73.9551    -49.1484     24.6600     18.5591     26.4508 
  6191.5000     12.6747     59.5368      2.5316      0.0099     12.6406     74.7432    -49.5323     24.7465     18.2689     28.4707 
  6192.0000     12.6317     60.7142      2.5313      0.0088     12.2287     75.9243    -49.5858     24.3251     17.0760     28.6756 
  6192.5000     12.5887     63.4136      2.5253      0.0063     11.9841     76.8861    -49.5905     23.4328     16.0700     26.4264 
  6193.0000     12.5676     66.0209      2.5260      0.0137     12.6271     75.9920    -49.4338     22.5732     15.4310     24.3537 
  6193.5000     12.5647     66.1907      2.5270      0.0053     14.1476     74.1173    -49.1234     21.7452     15.5736     21.3236 
  6194.0000     12.5641     63.5684      2.5243      0.0091     15.4634     72.8897    -49.1011     21.1271     16.6048     18.2784 
  6194.5000     12.5616     59.3544      2.5268      0.0155     16.3253     73.5471    -49.6606     20.9975     17.3014     20.5721 
  6195.0000     12.5301     56.7122      2.5324      0.0062     16.1730     75.2701    -49.8397     20.8115     16.8537     23.1537 
  6195.5000     12.5003     58.3658      2.5241      0.0079     14.9298     78.0693    -49.9486     20.5529     15.6859     24.5902 
  6196.0000     12.5109     61.6028      2.5274      0.0168     13.9538     77.7544    -49.7459     20.2940     15.0399     23.9274 
  6196.5000     12.5234     64.0979      2.5338      0.0295     13.4514     75.8979    -49.7579     20.1363     14.8501     22.3781 
  6197.0000     12.5359     62.3520      2.5410      0.0432     14.2590     75.6066    -49.5701     20.0738     15.2899     20.9291 
