~VERSION INFORMATION
 VERS.                           2.00:        CWLS LOG ASCII STANDARD - VERSION 2.00
 WRAP.                             NO:        ONE LINE PER DEPTH STEP
~WELL INFORMATION
#MNEM.UNIT                   DATA             INFORMATION
#----------             --------------        ------------------------------
 STRT.F                      372.0000:        START DEPTH
 STOP.F                     9939.0000:        STOP DEPTH
 STEP.F                        0.5000:        STEP VALUE
 NULL.                      -999.2500:        NULL VALUE
 COMP.                     USGS/NPR-A:        COMPANY
 LOC .                     31 15E 19W:        LOCATION
 DATE.                        4/30/78:        LOG DATE
 WELL.                 SOUTH MEADE #1:        WELL
 UWI .                   501632000100:        UNIQUE WELL ID
 API .                   501632000100:        UNIQUE WELL IDENTIFIER
 FLD .                        WILDCAT:        FIELD
 CNTY.                    NORTH SLOPE:        COUNTY
 STAT.                         ALASKA:        STATE
 CTRY.                            USA:        COUNTRY
 OPER.                     USGS/NPR-A:        OPERATOR
 SRVC.                   SCHLUMBERGER:        SERVICE COMPANY
 LAT .                         0.0000:        LATITUDE
 LON .                         0.0000:        LONGITUDE
 DIGS.               CENTER LINE DATA:        DIGITIZING COMPANY
~CURVE INFORMATION      
#MNEM        .UNIT         API CODE           CURVE DESCRIPTION
#-----------------      --------------        ------------------------------
 DEPT        .F                      :        1  DEPTH
 CALI        .IN                     :        2  
 GR          .GAPI                   :        3  
 RHOB        .G/C3                   :        4  
 DRHO        .G/C3                   :        5  
 NPHI        .%                      :        6  
 DT          .US/F                   :        7  
 SP          .MV                     :        8  
 ILD         .OHMM                   :        9  
 ILM         .OHMM                   :        10 
 LL8         .OHMM                   :        11 
~PARAMETER INFORMATION
#MNEM.UNIT                  VALUE             DESCRIPTION OF MNEMONIC
#---------             ---------------        ------------------------------
 EKB .F                       60.0000:        KELLY BUSHING
 TD  .F                     9945.0000:        TOTAL DEPTH
 BHT .F                      214.0000:        BOTTOM HOLE TEMPERATURE
 BS  .                        12.2500:        BIT SIZE
 FD  .                        11.5000:        FLUID DENSITY
 CSIZ.                        13.3750:        CASING SIZE
 CBD .F                     2615.0000:        CASING DRILLER 1
 CBL .F                     2614.0000:        CASING LOGGER 1
 DFT .                  MISCELLANEOUS:        TYPE FLUID IN HOLE
 DFV .                        98.0000:        VISCOSITY
 DFPH.                        10.0000:        PH
 DFL .                         3.6000:        FLUID LOSS
 RMS .                         1.7900:        RM
 MST .F                       61.0000:        RM MEAS. TEMP.
 RMF .                         1.2800:        RMF
 MFST.F                       49.0000:        RMF MEAS. TEMP.
 RMC .                         2.4600:        RMC
 MCST.F                       59.0000:        RMC MEAS. TEMP.
~OTHER INFORMATION
~A    DEPTH        CALI          GR        RHOB        DRHO        NPHI          DT          SP         ILD         ILM         LL8 
# ...
  8668.0000      9.0883     66.7012      2.6814      0.0595     13.6757     78.8658    -16.2292     20.9153     24.3418     24.2016 
  8668.5000      9.0844     66.1614      2.6736      0.0517     14.1551     82.8545    -16.2114     21.1297     26.2033     32.3975 
  8669.0000      9.0805     65.1649      2.6841      0.0586     14.2529     86.3408    -16.0142     21.8223     27.8361     40.0356 
  8669.5000      9.0766     62.9400      2.7176      0.0808     14.0634     81.5427    -15.8189     22.5360     28.3898     44.8990 
  8670.0000      9.0727     59.6654      2.6834      0.0824     13.3680     76.2788    -15.6780     23.7952     28.7105     45.4657 
  8670.5000      9.0688     58.8038      2.6700      0.0310     12.3790     74.4071    -15.5746     25.1124     29.0346     39.8721 
  8671.0000      9.0649     59.5157      2.7059      0.0332     11.8677     74.2912    -15.1046     26.2394     28.6120     34.0462 
  8671.5000      9.0432     61.4470      2.6984      0.0188     11.7124     73.2958    -14.9143     26.2267     28.0432     29.0038 
  8672.0000      9.0811     63.7131      2.6901      0.0325     11.7023     74.1028    -14.6663     24.3136     26.6522     32.8507 
  8672.5000      9.1313     66.3595      2.6906      0.0318     12.0830     77.8217    -14.3666     21.5333     23.9566     40.4065 
  8673.0000      9.1549     67.9199      2.6818      0.0206     12.4229     82.4741    -14.1005     19.0710     20.7478     32.9920 
  8673.5000      9.1871     67.5949      2.6607      0.0183     12.5020     87.5590    -13.9602     16.8902     17.9688     21.5038 
  8674.0000      9.2090     67.2701      2.6431      0.0086     12.2580     85.1210    -13.6532     15.0702     15.5619     16.6297 
  8674.5000      9.2580     69.1186      2.6244      0.0272     12.5087     80.6042    -13.3168     13.7426     13.4771     15.1285 
  8675.0000      9.2844     71.3041      2.6092      0.0612     13.2012     77.3768    -13.2091     12.5320     11.6716     16.5654 
  8675.5000      9.4351     72.5134      2.6169      0.1112     15.0605     75.6537    -13.0231     11.7061     10.1080     17.4806 
  8676.0000     10.0240     72.6977      2.5638      0.1069     16.3519     75.4380    -12.8237     11.3401      9.8608     13.9962 
  8676.5000     10.2486     72.4028      2.4765      0.0842     17.5262     76.5748    -12.7273     10.8840     10.6415     11.3707 
  8677.0000      9.9085     71.8999      2.3850      0.0555     18.3953     75.5603    -12.7697     10.3481     11.8884     11.9291 
  8677.5000      9.6739     71.3394      2.3428      0.0871     18.8818     75.1571    -12.5459      9.8386     11.9907     13.9615 
  8678.0000     10.2814     70.7756      2.3097      0.0728     19.9492     75.7756    -12.3221      9.3542     10.5403     17.9023 
  8678.5000     10.5949     70.2119      2.3505      0.0823     21.1495     77.0197    -12.1078      8.9717      8.6574     18.0570 
  8679.0000     10.5852     70.2110      2.3887      0.1119     22.2250     74.9546    -11.9901      8.6592      7.3048     11.9305 
  8679.5000      9.6823     71.3282      2.3693      0.1131     21.7873     73.7130    -11.9457      8.3575      7.4481      8.5300 
  8680.0000     10.4893     73.2532      2.2634      0.1102     21.2203     74.6632    -11.8689      8.0663      7.7937      8.2760 
  8680.5000     11.7163     74.5601      2.1822      0.1044     21.2268     76.9260    -11.9584      7.8950      8.0105      9.3352 
  8681.0000     12.2772     74.3195      2.1774      0.1028     24.8064     80.0328    -12.0183      7.7774      7.9717     10.5739 
  8681.5000     12.8483     72.7747      2.1888      0.0971     26.7204     82.1327    -12.0939      7.7168      7.9330     10.7888 
  8682.0000     13.0282     70.0970      2.2191      0.1029     26.4620     84.9818    -12.1351      7.7492      7.9906      9.9857 
  8682.5000     11.5472     68.8757      2.2552      0.0949     25.6313     87.2899    -11.9914      7.8458      8.1000     10.8590 
  8683.0000     11.2864     68.5478      2.2542      0.1045     24.8005     82.7875    -12.1987      7.9922      8.1531     12.6221 
  8683.5000     11.3681     68.3469      2.2084      0.0911     24.6333     79.2368    -12.3198      8.0486      8.2608     12.0429 
  8684.0000     11.7196     70.3543      2.2058      0.0704     25.1897     82.7094    -12.3506      8.1046      8.3604     10.1150 
  8684.5000     11.4603     73.3634      2.2810      0.1005     26.1887     87.1635    -12.3350      8.1755      8.3343      9.1204 
  8685.0000     10.4821     75.3162      2.2610      0.1062     26.7753     89.3983    -12.3889      8.2470      8.2923      9.2013 
  8685.5000     10.9303     75.7232      2.2318      0.0954     25.6138     88.6757    -12.4427      8.1623      8.2557     10.6210 
  8686.0000     11.5899     75.3158      2.2186      0.1007     25.5501     85.0465    -12.4786      7.9934      8.2399     16.2416 
  8686.5000     11.9598     74.4037      2.2534      0.1156     25.7264     80.3969    -12.4227      7.9783      8.2678     15.6350 
  8687.0000     12.2614     73.3567      2.3274      0.1150     25.8382     77.7562    -12.3416      8.2366      8.4086     11.2469 
  8687.5000     12.1358     72.8986      2.3972      0.1109     25.6393     79.5412    -12.3912      8.6891      8.7434      9.6477 
  8688.0000     10.3691     72.9609      2.3514      0.1370     22.4300     83.2716    -12.4650      8.8194      9.3543      9.9051 
  8688.5000     10.7871     74.0413      2.3521      0.1363     23.3804     90.4590    -12.5156      8.9116     10.0079     10.5819 
  8689.0000     11.3854     74.8668      2.4231      0.1534     23.9959     96.1444    -12.5318      9.0671     10.7071     11.7276 
  8689.5000     11.1678     74.9338      2.4769      0.1547     23.6460     94.0543    -12.6676      9.6228     11.4248     13.1199 
  8690.0000     11.2685     73.8367      2.5396      0.1356     22.4028     87.0609    -12.7277     10.3231     12.1710     14.9507 
  8690.5000     11.0304     72.8852      2.5671      0.1014     20.5103     79.2184    -12.7467     11.0745     12.9659     15.7238 
  8691.0000     10.7029     72.8225      2.6349      0.0828     19.4725     77.4773    -12.7658     11.8805     13.7990     17.7024 
  8691.5000     10.3080     73.1189      2.6809      0.0823     19.0609     80.1195    -12.8047     12.1819     14.4540     21.0014 
  8692.0000     10.1011     73.1593      2.6464      0.0232     18.1498     82.7364    -12.8645     12.1603     14.3477     24.9871 
  8692.5000      9.9879     73.0063      2.6388      0.0042     17.1761     84.5679    -12.6958     12.1022     13.7520     21.0619 
  8693.0000      9.9810     72.7266      2.6522      0.0142     16.6685     81.8346    -12.7772     11.9959     12.8473     17.3323 
  8693.5000      9.9753     73.0382      2.6569      0.0242     16.4905     79.5142    -12.6943     11.8127     12.0977     15.2316 
  8694.0000      9.9587     73.2964      2.6405      0.0241     16.3318     79.3997    -12.3573     11.6020     11.9059     13.5543 
  8694.5000     10.1089     73.5098      2.6484      0.0705     16.7885     79.8611    -12.1958     11.3168     11.7411     12.7951 
  8695.0000     10.2260     73.5280      2.6799      0.1607     18.0307     81.8817    -12.2994     11.0386     11.5975     13.7134 
  8695.5000     10.3822     72.5525      2.6563      0.1733     18.8518     84.1117    -12.2946     10.5949     11.3752     15.0306 
  8696.0000     10.8744     71.9153      2.6039      0.1352     19.3645     84.8159    -12.2980      9.8962     11.0524     15.9992 
  8696.5000     10.9422     71.0799      2.6121      0.0868     19.4221     84.5875    -12.2754      9.3273     10.4465     15.0933 
  8697.0000     10.8681     70.2285      2.5850      0.0312     19.0980     84.5705    -12.2754      8.7911      9.4025     12.6061 
  8697.5000     10.2145     68.9529      2.5780      0.0134     18.4644     84.5744    -12.0944      8.2858      8.4629     11.1449 
  8698.0000     10.2664     67.5795      2.5894      0.0640     18.2769     81.7385    -11.9505      7.8095      7.6172     10.6252 
