~VERSION INFORMATION
 VERS.                           2.00:        CWLS LOG ASCII STANDARD - VERSION 2.00
 WRAP.                             NO:        ONE LINE PER DEPTH STEP
~WELL INFORMATION
#MNEM.UNIT                   DATA             INFORMATION
#----------             --------------        ------------------------------
 STRT.F                       79.0000:        START DEPTH
 STOP.F                     6686.0000:        STOP DEPTH
 STEP.F                        0.5000:        STEP VALUE
 NULL.                      -999.2500:        NULL VALUE
 COMP.                  HUSKY OIL CO.:        COMPANY  
 LOC .                   10  18N  16W:        LOCATION   
 DATE.                        3/28/81:        LOG DATE 
 WELL.           KUYANAK TEST WELL #1:        WELL     
 UWI .                   501632000300:        UNIQUE WELL ID 
 API .                   501632000300:        UNIQUE WELL IDENTIFIER 
 FLD .                        WILDCAT:        FIELD    
 CNTY.                    NORTH SLOPE:        COUNTY  
 STAT.                         ALASKA:        STATE   
 CTRY.                            USA:        COUNTRY 
 OPER.                  HUSKY OIL CO.:        OPERATOR  
 SRVC.                            440:        SERVICE COMPANY 
 LAT .                         0.0000:        LATITUDE
 LON .                         0.0000:        LONGITUDE
 DIGS.                             65:        DIGITIZING COMPANY 
~CURVE INFORMATION      
#MNEM        .UNIT         API CODE           CURVE DESCRIPTION
#-----------------      --------------        ------------------------------
 DEPT        .F                      :        1  DEPTH
 SP          .MV                     :        2  
 ILM         .OHMM                   :        3  
 ILD         .OHMM                   :        4  
 SFL         .OHMM                   :        5  
 LLD         .OHMM                   :        6  
 LLS         .OHMM                   :        7  
 MSFL        .OHMM                   :        8  
 NPHI        .%                      :        9  
 CAL         .IN                     :        10 
 GR          .GAPI                   :        11 
 RHOB        .G/C3                   :        12 
 DRHO        .G/C3                   :        13 
 DT          .US/F                   :        14 
~PARAMETER INFORMATION       
#MNEM.UNIT                  VALUE             DESCRIPTION OF MNEMONIC
#---------             ---------------        ------------------------------
 EKB .F                       28.0000:        KELLY BUSHING
 TD  .F                     6690.0000:        TOTAL DEPTH
 BS  .                         0.0000:        BIT SIZE
 CSIZ.                         0.0000:        CASING SIZE
 CBD .F                        0.0000:        CASING DRILLER 1
 CBL .F                        0.0000:        CASING LOGGER 1
~OTHER INFORMATION
~A    DEPTH          SP         ILM         ILD         SFL         LLD         LLS        MSFL        NPHI         CAL          GR        RHOB        DRHO          DT  
# ...
   103.0000    -47.5581      2.4446      2.3676      3.3731   -999.2500   -999.2500   -999.2500     47.9903     17.9780     63.5139      2.2327      0.0310    183.4701  
   103.5000    -48.5125      2.5668      3.0812      5.2616   -999.2500   -999.2500   -999.2500     45.1682     17.9782     63.2678      2.2213      0.0225    191.0056  
   104.0000    -48.9725      2.7816      4.0097     10.3371   -999.2500   -999.2500   -999.2500     40.9100     17.9783     64.1575      2.2303      0.0307    168.9698  
   104.5000    -49.2845      2.9984      7.6545     20.9203   -999.2500   -999.2500   -999.2500     40.4923     17.9785     65.0460      2.2332      0.0321    175.9379  
   105.0000    -49.6646      3.2313     14.3898     19.5621   -999.2500   -999.2500   -999.2500     41.3504     17.9787     65.2084      2.2522      0.0428    180.2277  
   105.5000    -50.2148      3.5735      8.8080     10.0936   -999.2500   -999.2500   -999.2500     42.2229     17.9789     66.8864      2.2597      0.0412    180.7961  
   106.0000    -50.7670      3.4247      4.8733      4.5448   -999.2500   -999.2500   -999.2500     43.6593     17.9791     68.5843      2.2910      0.0565    183.3260  
   106.5000    -51.2883      3.1731      4.3683      5.8995   -999.2500   -999.2500   -999.2500     44.1687     17.9793     69.1872      2.2614      0.0453    168.8291  
   107.0000    -52.3895      2.8937      4.4609     10.8554   -999.2500   -999.2500   -999.2500     44.2196     17.9795     71.4220      2.2304      0.0403    167.9538  
   107.5000    -53.7339      2.9359      4.7197      9.7310   -999.2500   -999.2500   -999.2500     45.5472     17.9796     75.4121      2.2118      0.0425    168.9367  
   108.0000    -55.6127      3.0227      5.3596      3.8077   -999.2500   -999.2500   -999.2500     48.6158     17.9798     78.3128      2.1750      0.0475    156.6496  
   108.5000    -57.4213      3.0144      6.2162      3.1300   -999.2500   -999.2500   -999.2500     53.8054     17.9800     78.6771      2.1354      0.0593    158.1443  
   109.0000    -58.5739      2.9949      5.3556      3.6703   -999.2500   -999.2500   -999.2500     54.9068     17.9802     78.0102      2.1165      0.1008    160.8875  
   109.5000    -59.3396      2.9756      4.5862      5.3271   -999.2500   -999.2500   -999.2500     53.3415     17.9804     79.5081      2.0902      0.1168    165.7072  
   110.0000    -59.5581      2.9564      4.3886      8.0342   -999.2500   -999.2500   -999.2500     52.5984     17.9806     82.6056      2.0457      0.0782    169.1558  
   110.5000    -59.0014      2.9738      4.4208     11.0556   -999.2500   -999.2500   -999.2500     51.2472     17.9808     85.6315      2.0905      0.0245    170.1814  
   111.0000    -58.1287      3.0673      4.5907     13.1649   -999.2500   -999.2500   -999.2500     50.1164     17.9809     85.9256      2.1892      0.0307    169.3861  
   111.5000    -57.2336      3.0996      5.0261     14.6016   -999.2500   -999.2500   -999.2500     51.5171     17.9811     84.1773      2.2078      0.0371    165.3774  
   112.0000    -56.4775      3.3424      5.6593     16.2271   -999.2500   -999.2500   -999.2500     51.7732     17.9813     82.4009      2.2199      0.0409    163.7490  
   112.5000    -56.0486      3.6134      5.9972     17.3695   -999.2500   -999.2500   -999.2500     49.8473     17.9815     80.6100      2.2430      0.0531    165.2579  
   113.0000    -56.0704      3.7384      6.3044     18.5055   -999.2500   -999.2500   -999.2500     48.1022     17.9817     79.3427      2.2472      0.0515    165.3414  
   113.5000    -56.3541      3.7886      6.7627     19.5252   -999.2500   -999.2500   -999.2500     46.7452     17.9819     80.5291      2.2590      0.0500    164.4952  
   114.0000    -56.8663      3.8862      7.0323     20.1319   -999.2500   -999.2500   -999.2500     47.2718     17.9821     82.1474      2.2459      0.0326    162.9706  
   114.5000    -57.2023      3.9743      7.3126     21.3824   -999.2500   -999.2500   -999.2500     49.4080     17.9823     83.0059      2.2416      0.0285    161.9311  
   115.0000    -57.0132      4.0447      7.4896     22.7427   -999.2500   -999.2500   -999.2500     50.1667     17.9824     83.5570      2.2420      0.0193    161.1089  
   115.5000    -56.5614      4.1282      7.5400     23.2012   -999.2500   -999.2500   -999.2500     49.7314     17.9826     85.4494      2.2417      0.0143    160.7340  
   116.0000    -56.3287      4.2357      7.5906     22.4756   -999.2500   -999.2500   -999.2500     48.9443     17.9828     85.8406      2.2472      0.0154    160.5111  
   116.5000    -56.3623      4.3014      7.6417     22.5326   -999.2500   -999.2500   -999.2500     48.2318     17.9830     86.4638      2.2526      0.0125    160.1017  
   117.0000    -56.4782      4.2891      7.6930     22.9759   -999.2500   -999.2500   -999.2500     47.3356     17.9832     89.3579      2.2581      0.0160    160.2252  
   117.5000    -56.4966      4.3211      7.6828     23.2995   -999.2500   -999.2500   -999.2500     46.8475     17.9834     90.5240      2.2652      0.0252    160.4873  
   118.0000    -56.1707      4.4154      7.9429     23.4878   -999.2500   -999.2500   -999.2500     48.1983     17.9836     87.8683      2.2729      0.0317    160.5925  
   118.5000    -55.7339      4.5232      8.0519     24.0680   -999.2500   -999.2500   -999.2500     48.7219     17.9837     84.1041      2.2829      0.0387    160.8039  
   119.0000    -55.7395      4.6389      8.3097     25.0187   -999.2500   -999.2500   -999.2500     49.2317     17.9839     82.6537      2.2922      0.0483    160.8005  
   119.5000    -56.5462      4.7129      8.6612     25.7808   -999.2500   -999.2500   -999.2500     49.9772     17.9841     82.2057      2.2784      0.0386    160.6654  
   120.0000    -57.3508      4.7343      8.8543     27.2082   -999.2500   -999.2500   -999.2500     49.7341     17.9843     83.6012      2.2720      0.0307    160.6728  
   120.5000    -58.2187      4.8374      9.0516     28.4100   -999.2500   -999.2500   -999.2500     48.6611     17.9845     85.5523      2.2623      0.0290    160.2115  
   121.0000    -59.0270      4.9202      9.4104     29.5222   -999.2500   -999.2500   -999.2500     49.5081     17.9847     86.3040      2.2666      0.0407    160.1741  
   121.5000    -59.8832      4.9945      9.8276     29.9364   -999.2500   -999.2500   -999.2500     50.7157     17.9849     87.0106      2.2644      0.0467    161.1484  
   122.0000    -60.7531      4.9745     10.1292     30.2515   -999.2500   -999.2500   -999.2500     51.8820     17.9850     85.6665      2.2692      0.0474    162.2668  
   122.5000    -61.6230      5.0867     10.4904     30.5198   -999.2500   -999.2500   -999.2500     51.7161     17.9852     82.2448      2.2545      0.0353    163.2357  
   123.0000    -62.4825      5.1193     10.7876     30.9144   -999.2500   -999.2500   -999.2500     51.9095     17.9854     81.0799      2.2381      0.0204    163.6637  
   123.5000    -63.2869      5.1850     10.8032     31.2498   -999.2500   -999.2500   -999.2500     52.1814     17.9856     81.6051      2.2359      0.0292    163.6542  
   124.0000    -64.0913      5.1847     10.9145     31.4015   -999.2500   -999.2500   -999.2500     53.1401     17.9858     81.4296      2.2478      0.0503    164.3438  
   124.5000    -64.6926      5.1706     11.0440     30.8481   -999.2500   -999.2500   -999.2500     53.6054     17.9860     80.3387      2.2555      0.0610    165.0117  
   125.0000    -64.7367      5.1896     10.9781     30.2156   -999.2500   -999.2500   -999.2500     52.4439     17.9862     79.3069      2.2628      0.0645    165.0549  
   125.5000    -64.7945      5.2182     10.7176     29.7901   -999.2500   -999.2500   -999.2500     51.3898     17.9863     79.8682      2.2464      0.0606    165.0880  
   126.0000    -64.8261      5.0905     10.4256     30.2822   -999.2500   -999.2500   -999.2500     49.9477     17.9865     81.9816      2.2326      0.0647    165.3297  
   126.5000    -64.8480      4.9670     10.2164     27.8863   -999.2500   -999.2500   -999.2500     48.7855     17.9867     82.8591      2.2147      0.0746    166.1145  
