~VERSION INFORMATION
 VERS.                           2.00:        CWLS LOG ASCII STANDARD - VERSION 2.00
 WRAP.                             NO:        ONE LINE PER DEPTH STEP
~WELL INFORMATION
#MNEM.UNIT                   DATA             INFORMATION
#----------             --------------        ------------------------------
 STRT.F                      372.0000:        START DEPTH
 STOP.F                     9939.0000:        STOP DEPTH
 STEP.F                        0.5000:        STEP VALUE
 NULL.                      -999.2500:        NULL VALUE
 COMP.                     USGS/NPR-A:        COMPANY
 LOC .                     31 15E 19W:        LOCATION
 DATE.                        4/30/78:        LOG DATE
 WELL.                 SOUTH MEADE #1:        WELL
 UWI .                   501632000100:        UNIQUE WELL ID
 API .                   501632000100:        UNIQUE WELL IDENTIFIER
 FLD .                        WILDCAT:        FIELD
 CNTY.                    NORTH SLOPE:        COUNTY
 STAT.                         ALASKA:        STATE
 CTRY.                            USA:        COUNTRY
 OPER.                     USGS/NPR-A:        OPERATOR
 SRVC.                   SCHLUMBERGER:        SERVICE COMPANY
 LAT .                         0.0000:        LATITUDE
 LON .                         0.0000:        LONGITUDE
 DIGS.               CENTER LINE DATA:        DIGITIZING COMPANY
~CURVE INFORMATION      
#MNEM        .UNIT         API CODE           CURVE DESCRIPTION
#-----------------      --------------        ------------------------------
 DEPT        .F                      :        1  DEPTH
 CALI        .IN                     :        2  
 GR          .GAPI                   :        3  
 RHOB        .G/C3                   :        4  
 DRHO        .G/C3                   :        5  
 NPHI        .%                      :        6  
 DT          .US/F                   :        7  
 SP          .MV                     :        8  
 ILD         .OHMM                   :        9  
 ILM         .OHMM                   :        10 
 LL8         .OHMM                   :        11 
~PARAMETER INFORMATION
#MNEM.UNIT                  VALUE             DESCRIPTION OF MNEMONIC
#---------             ---------------        ------------------------------
 EKB .F                       60.0000:        KELLY BUSHING
 TD  .F                     9945.0000:        TOTAL DEPTH
 BHT .F                      214.0000:        BOTTOM HOLE TEMPERATURE
 BS  .                        12.2500:        BIT SIZE
 FD  .                        11.5000:        FLUID DENSITY
 CSIZ.                        13.3750:        CASING SIZE
 CBD .F                     2615.0000:        CASING DRILLER 1
 CBL .F                     2614.0000:        CASING LOGGER 1
 DFT .                  MISCELLANEOUS:        TYPE FLUID IN HOLE
 DFV .                        98.0000:        VISCOSITY
 DFPH.                        10.0000:        PH
 DFL .                         3.6000:        FLUID LOSS
 RMS .                         1.7900:        RM
 MST .F                       61.0000:        RM MEAS. TEMP.
 RMF .                         1.2800:        RMF
 MFST.F                       49.0000:        RMF MEAS. TEMP.
 RMC .                         2.4600:        RMC
 MCST.F                       59.0000:        RMC MEAS. TEMP.
~OTHER INFORMATION
~A    DEPTH        CALI          GR        RHOB        DRHO        NPHI          DT          SP         ILD         ILM         LL8 
# ...
  9918.5000      8.5206   -999.2500      2.6700      0.0372      8.3797     58.3906    -33.3926     44.8135     71.6751    106.8736 
  9919.0000      8.5399   -999.2500      2.6573      0.0316      7.8749     57.8898    -33.7797     48.4524     83.3862    145.4352 
  9919.5000      8.5424   -999.2500      2.6516      0.0260      7.6103     57.7192    -34.2491     50.9119     89.7163    174.3061 
  9920.0000      8.5422   -999.2500      2.6613      0.0257      7.3702     57.9999    -34.9481     51.6401     96.9127    178.0108 
  9920.5000      8.5420   -999.2500      2.6710      0.0306      6.4560     59.3025    -35.6616     53.9202    100.2989    179.4768 
  9921.0000      8.5256   -999.2500      2.6540      0.0267      5.1583     62.0564    -36.4596     58.6226     91.1295    204.7995 
  9921.5000      8.5003   -999.2500      2.6378      0.0189      3.4220     62.8221    -36.8232     68.6606     82.4463    243.8822 
  9922.0000      8.4751   -999.2500      2.6489      0.0175      1.4448     60.5487    -36.8733     74.1536     78.2402    230.2649 
  9922.5000      8.4623   -999.2500      2.6447      0.0237      0.1070     58.0870    -36.8056     74.6222     74.5693    170.0140 
  9923.0000      8.4636   -999.2500      2.6635      0.0483     -1.2308     55.4382    -36.5730     70.2527     69.3344    122.4988 
  9923.5000      8.4650   -999.2500      2.6476      0.0469     -1.5778     55.6799    -36.0100     63.1811     58.3015    103.9066 
  9924.0000      8.4664   -999.2500      2.6317      0.0305     -1.6643     57.7893    -34.8934     51.9645     50.2021     92.6013 
  9924.5000      8.4685   -999.2500      2.6278      0.0295     -1.7391     60.1936    -33.6615     41.1646     44.9306     84.0538 
  9925.0000      8.4593   -999.2500      2.6592      0.0357     -1.7320     60.7967    -32.3089     32.0143     43.0283     95.0002 
  9925.5000      8.4670   -999.2500      2.6881      0.0479     -1.7520     60.4051    -30.9320     25.9042     75.9251    127.9101 
  9926.0000      8.4698   -999.2500      2.6969      0.0615     -1.7309     59.9391    -29.6229     27.3382    343.7838    219.2941 
  9926.5000      8.4366   -999.2500      2.6928      0.0752     -1.7279     59.8165    -28.0597     32.5126   1540.3223    248.9875 
  9927.0000      8.3282   -999.2500      2.6673      0.0735     -1.7307     60.1215    -27.1044     45.1792   1608.4120    166.8748 
  9927.5000      8.2961   -999.2500      2.6332      0.0609     -1.7122     59.9260    -25.7908     27.5993    511.4674    100.7634 
  9928.0000      8.3019   -999.2500      2.6151      0.0418     -1.7129     58.6520    -24.9399     16.8600    109.7475     53.2736 
  9928.5000      8.4249   -999.2500      2.6242      0.0442     -1.7225     58.8988    -24.3043     10.8850      9.9164     12.9299 
  9929.0000      8.5218   -999.2500      2.6342      0.0536     -1.7563     60.0356    -23.9330      9.1687      8.1465      7.2129 
  9929.5000      8.5981   -999.2500      2.6383      0.0398     -1.7938     60.6023    -22.7772      8.7782      7.9786      6.7244 
  9930.0000      8.6586   -999.2500      2.6364      0.0280     -1.7996     60.0003    -21.1841      8.5574      8.4729      8.9538 
  9930.5000      8.7192   -999.2500      2.6687      0.0301     -1.7943     59.6292    -19.8916      8.3705     14.5487     14.6302 
  9931.0000      8.7453   -999.2500      2.7040      0.0315     -1.7540     58.8264    -17.6212      8.2789     28.8837     24.1444 
  9931.5000      8.4418   -999.2500      2.6967      0.0171     -1.7356     58.7705    -16.6819      8.2193     51.0983     39.3091 
  9932.0000      8.4311   -999.2500      2.7043      0.0178     -1.7188     60.2420    -15.7142      8.1820     66.7437     47.2680 
  9932.5000      8.5604   -999.2500      2.7155      0.0307     -1.7246     61.4228    -15.0386      8.2363     65.3091     50.1782 
  9933.0000      8.5977   -999.2500      2.7108      0.0574     -1.7323     61.5423    -14.5626      8.2910     61.9491     51.5694 
  9933.5000      8.5697   -999.2500      2.6854      0.0546     -1.7002     60.7671    -14.1790      8.4758     59.3930     52.0698 
  9934.0000      8.4097   -999.2500      2.6642      0.0430     -1.6834     59.2421    -13.7955      8.6468     57.1169     52.1461 
  9934.5000      8.1936   -999.2500      2.6736      0.0371     -1.6690     57.5789   -999.2500   -999.2500   -999.2500   -999.2500 
  9935.0000      8.1316   -999.2500      2.6971      0.0223     -1.6546     56.4514   -999.2500   -999.2500   -999.2500   -999.2500 
  9935.5000      8.2373   -999.2500      2.7048      0.0327     -1.6402     55.8591   -999.2500   -999.2500   -999.2500   -999.2500 
  9936.0000      8.4026   -999.2500      2.7155      0.0323     -1.6258     55.3526   -999.2500   -999.2500   -999.2500   -999.2500 
  9936.5000      8.2619   -999.2500      2.6805      0.0262     -1.6114     54.9233   -999.2500   -999.2500   -999.2500   -999.2500 
  9937.0000      8.2258   -999.2500      2.6426      0.0466     -1.5970     54.9309   -999.2500   -999.2500   -999.2500   -999.2500 
  9937.5000      8.1314   -999.2500      2.6172      0.0850     -1.5826   -999.2500   -999.2500   -999.2500   -999.2500   -999.2500 
  9938.0000      7.7923   -999.2500      2.6098      0.1175     -1.9108   -999.2500   -999.2500   -999.2500   -999.2500   -999.2500 
  9938.5000      7.3607   -999.2500      2.5993      0.1431     -2.4925   -999.2500   -999.2500   -999.2500   -999.2500   -999.2500 
  9939.0000      7.2381   -999.2500      2.6171      0.1590     -2.4919   -999.2500   -999.2500   -999.2500   -999.2500   -999.2500 
