~VERSION INFORMATION
 VERS.                           2.00:        CWLS LOG ASCII STANDARD - VERSION 2.00
 WRAP.                             NO:        ONE LINE PER DEPTH STEP
~WELL INFORMATION
#MNEM.UNIT                   DATA             INFORMATION
#----------             --------------        ------------------------------
 STRT.F                      372.0000:        START DEPTH
 STOP.F                     9939.0000:        STOP DEPTH
 STEP.F                        0.5000:        STEP VALUE
 NULL.                      -999.2500:        NULL VALUE
 COMP.                     USGS/NPR-A:        COMPANY
 LOC .                     31 15E 19W:        LOCATION
 DATE.                        4/30/78:        LOG DATE
 WELL.                 SOUTH MEADE #1:        WELL
 UWI .                   501632000100:        UNIQUE WELL ID
 API .                   501632000100:        UNIQUE WELL IDENTIFIER
 FLD .                        WILDCAT:        FIELD
 CNTY.                    NORTH SLOPE:        COUNTY
 STAT.                         ALASKA:        STATE
 CTRY.                            USA:        COUNTRY
 OPER.                     USGS/NPR-A:        OPERATOR
 SRVC.                   SCHLUMBERGER:        SERVICE COMPANY
 LAT .                         0.0000:        LATITUDE
 LON .                         0.0000:        LONGITUDE
 DIGS.               CENTER LINE DATA:        DIGITIZING COMPANY
~CURVE INFORMATION      
#MNEM        .UNIT         API CODE           CURVE DESCRIPTION
#-----------------      --------------        ------------------------------
 DEPT        .F                      :        1  DEPTH
 CALI        .IN                     :        2  
 GR          .GAPI                   :        3  
 RHOB        .G/C3                   :        4  
 DRHO        .G/C3                   :        5  
 NPHI        .%                      :        6  
 DT          .US/F                   :        7  
 SP          .MV                     :        8  
 ILD         .OHMM                   :        9  
 ILM         .OHMM                   :        10 
 LL8         .OHMM                   :        11 
~PARAMETER INFORMATION
#MNEM.UNIT                  VALUE             DESCRIPTION OF MNEMONIC
#---------             ---------------        ------------------------------
 EKB .F                       60.0000:        KELLY BUSHING
 TD  .F                     9945.0000:        TOTAL DEPTH
 BHT .F                      214.0000:        BOTTOM HOLE TEMPERATURE
 BS  .                        12.2500:        BIT SIZE
 FD  .                        11.5000:        FLUID DENSITY
 CSIZ.                        13.3750:        CASING SIZE
 CBD .F                     2615.0000:        CASING DRILLER 1
 CBL .F                     2614.0000:        CASING LOGGER 1
 DFT .                  MISCELLANEOUS:        TYPE FLUID IN HOLE
 DFV .                        98.0000:        VISCOSITY
 DFPH.                        10.0000:        PH
 DFL .                         3.6000:        FLUID LOSS
 RMS .                         1.7900:        RM
 MST .F                       61.0000:        RM MEAS. TEMP.
 RMF .                         1.2800:        RMF
 MFST.F                       49.0000:        RMF MEAS. TEMP.
 RMC .                         2.4600:        RMC
 MCST.F                       59.0000:        RMC MEAS. TEMP.
~OTHER INFORMATION
~A    DEPTH        CALI          GR        RHOB        DRHO        NPHI          DT          SP         ILD         ILM         LL8 
# ...
  4276.0000     18.0078     75.2145      2.4380      0.0884     30.3675     91.2649    -51.8391      8.9607      7.0824      7.5116 
  4276.5000     18.0079     74.6938      2.4492      0.0503     31.0969     86.4495    -51.8230      9.1701      7.1090      7.4870 
  4277.0000     18.0080     72.8581      2.4497      0.0338     29.6905     88.2130    -51.8068      9.3843      7.1419      7.4774 
  4277.5000     18.0081     71.5506      2.4414      0.0438     28.4388     87.5980    -51.7907      9.5691      7.1971      7.5022 
  4278.0000     18.0082     70.6393      2.4015      0.0628     28.8834     89.0625    -51.7746      9.4957      7.2388      7.6133 
  4278.5000     18.0082     70.7353      2.3660      0.0664     29.8876     90.2362    -51.7584      9.3539      7.2744      7.6629 
  4279.0000     18.0083     72.0693      2.3255      0.0541     31.3736     83.5757    -51.7423      9.1404      7.2946      7.7084 
  4279.5000     18.0084     74.2661      2.3311      0.0290     32.3885     82.0478    -51.7356      8.9542      7.3149      7.7464 
  4280.0000     18.0085     74.7016      2.3460      0.0158     32.3941     83.5366    -51.7449      8.8368      7.3352      7.7846 
  4280.5000     18.0086     74.7824      2.3639      0.0435     31.6059     87.8587    -51.7542      8.8182      7.3555      7.8114 
  4281.0000     18.0087     74.9024      2.3772      0.0626     31.9531     85.8750    -51.7636      8.7998      7.3759      7.7740 
  4281.5000     18.0088     74.9795      2.3852      0.0506     32.4207     83.8555    -51.7729      8.7825      7.3964      7.7368 
  4282.0000     18.0089     75.3024      2.4416      0.0465     30.7153     84.8725    -51.7822      8.7978      7.3711      7.6997 
  4282.5000     18.0090     75.2807      2.4663      0.0587     29.4399     85.9173    -51.7916      8.8794      7.3452      7.6629 
  4283.0000     18.0091     73.7098      2.4576      0.0695     29.1159     87.5067    -51.8009      8.9619      7.3209      7.6262 
  4283.5000     18.0092     72.8680      2.4445      0.0803     29.5569     84.5965    -51.8102      9.0834      7.2968      7.5897 
  4284.0000     18.0093     73.2769      2.4323      0.0673     30.7886     87.3952    -51.8196      9.3105      7.2728      7.5534 
  4284.5000     18.0094     74.3678      2.3966      0.0435     31.1404     95.9036    -51.8289      9.5245      7.2480      7.5172 
  4285.0000     18.0095     75.1858      2.3965      0.0387     31.3495     86.7539    -51.8382      9.5563      7.2233      7.5219 
  4285.5000     18.0096     75.5741      2.4206      0.0503     31.8388     84.6232    -51.8476      9.5833      7.1755      7.5886 
  4286.0000     18.0096     74.4760      2.4222      0.0407     32.3463     82.2133    -51.8569      9.5490      7.1142      7.6558 
  4286.5000     18.0097     72.0450      2.3928      0.0311     32.3079     89.7760    -51.8663      9.4951      7.0701      7.7237 
  4287.0000     18.0098     70.5524      2.4048      0.0615     31.6267     91.1890    -51.8756      9.3631      7.0494      7.7922 
  4287.5000     18.0099     70.4609      2.4173      0.0723     31.4838     90.2227    -51.8849      9.1947      7.0762      7.8608 
  4288.0000     18.0100     71.8009      2.3873      0.0355     31.8018     85.2558    -51.8943      8.8696      7.1484      7.9222 
  4288.5000     18.0101     73.9766      2.3516      0.0197     31.3356     94.6876    -51.9036      8.5560      7.2212      7.9182 
  4289.0000     18.0102     72.9946      2.3195      0.0225     30.0410     98.4418    -51.9129      8.2535      7.1985      7.7807 
  4289.5000     18.0103     71.5648      2.2440      0.0348     32.9400    100.6520    -51.9223      7.9617      6.3564      7.6433 
  4290.0000     18.0104     70.7813      2.1619      0.0264     35.6957    104.7882    -51.9282      7.6802      5.7276      7.3975 
  4290.5000     18.0105     69.9131      2.1504      0.0086     38.3468     85.5227    -51.9190      7.4086      5.7425      7.1596 
  4291.0000     18.0106     68.8583      2.2270      0.0118     37.3569     81.8570    -51.9098      7.2930      5.8567      6.9468 
  4291.5000     18.0107     69.6373      2.2371      0.0318     36.0840     84.4961    -51.9006      7.2442      5.8832      6.7532 
  4292.0000     18.0108     72.4216      2.1732      0.0396     36.5922     84.2237    -51.8915      7.2380      5.8624      6.7699 
  4292.5000     18.0109     75.3929      2.1475      0.0220     36.3399     81.5531    -51.8944      7.3048      5.8147      6.8792 
  4293.0000     18.0110     75.3454      2.2398      0.0118     34.7566     84.0353    -51.9069      7.4804      6.1544      7.1308 
  4293.5000     18.0110     73.8281      2.4294      0.0023     32.2291     85.4989    -51.9193      7.8050      6.6526      7.5237 
  4294.0000     18.0111     73.8116      2.5089      0.0051     27.3164     86.6646    -51.9317      8.4297      7.1910      7.9382 
  4294.5000     18.0112     75.5677      2.5345      0.0145     25.9355     87.9766    -51.9441      9.1043      7.7632      8.2413 
  4295.0000     18.0113     78.3295      2.5223      0.0120     25.4724     89.2266    -51.9565      9.6334      8.0365      8.4133 
  4295.5000     18.0114     81.1322      2.4969      0.0042     24.2686     91.0392    -51.9675      9.9391      8.1802      8.5618 
  4296.0000     18.0115     82.5573      2.4793      0.0045     23.6926     90.2338    -51.9584     10.2135      8.2402      8.5658 
  4296.5000     18.0116     81.4881      2.4842      0.0139     25.2257     85.2819    -51.9493     10.3767      8.2673      8.5697 
  4297.0000     18.0117     80.6132      2.4826      0.0280     25.7947     85.2326    -51.9380     10.3618      8.2135      8.5706 
  4297.5000     18.0118     79.8596      2.4893      0.0473     25.8248     89.4255    -51.9244     10.2185      8.1554      8.5416 
  4298.0000     18.0119     78.8756      2.4612      0.0491     26.4656     87.6815    -51.9108     10.0580      7.7753      8.5128 
  4298.5000     18.0120     76.8035      2.4405      0.0457     27.3163     88.2955    -51.8972      9.9162      7.5890      8.4840 
  4299.0000     18.0121     74.7010      2.4456      0.0428     28.0667     87.4361    -51.8836      9.8632      7.6929      8.4385 
  4299.5000     18.0122     74.4912      2.4633      0.0552     27.3254     82.5639    -51.8700      9.8106      7.8139      8.3818 
  4300.0000     18.0123     75.4502      2.4769      0.0574     26.2397     86.8902    -51.8564      9.7582      7.8361      8.3254 
  4300.5000     18.0124     76.4873      2.4475      0.0475     26.2919     81.7256    -51.8428      9.7254      7.8393      8.2694 
  4301.0000     18.0124     77.0517      2.4358      0.0334     28.4293     80.5619    -51.7141      9.7030      7.7541      8.2138 
  4301.5000     18.0125     76.9320      2.4103      0.0152     28.9352     80.0510    -51.5720      9.6806      7.8001      8.2017 
  4302.0000     18.0126     76.8903      2.4475      0.0166     27.4523     78.9349    -51.7073      9.7514      7.9392      8.2128 
  4302.5000     18.0127     77.4253      2.4636      0.0219     26.4459     87.7342    -51.6531      9.8559      7.9113      8.2365 
  4303.0000     18.0128     76.7472      2.4767      0.0363     27.1951     95.0835    -51.5620      9.9616      7.6489      8.2708 
  4303.5000     18.0129     74.4291      2.5086      0.0729     28.2852     92.7090    -51.7095     10.0683      7.2883      8.3720 
  4304.0000     18.0130     72.5451      2.4729      0.0763     28.0370     90.5191    -51.9764     10.1476      7.5891      8.4744 
  4304.5000     18.0131     72.2986      2.4402      0.0518     25.7636     91.2340    -51.6888     10.2034      8.0639      8.5543 
  4305.0000     18.0132     73.4366      2.4654      0.0748     24.4011     92.5082    -51.5820     10.1698      8.1546      8.5939 
  4305.5000     18.0133     74.3485      2.4593      0.0700     24.5720     90.0691    -51.5554     10.1167      8.2049      8.6337 
  4306.0000     18.0134     75.5056      2.4548      0.0750     25.6461     83.7421    -51.2800      9.9968      8.1638      8.6443 
