~VERSION INFORMATION
 VERS.                           2.00:        CWLS LOG ASCII STANDARD - VERSION 2.00
 WRAP.                             NO:        ONE LINE PER DEPTH STEP
~WELL INFORMATION
#MNEM.UNIT                   DATA             INFORMATION
#----------             --------------        ------------------------------
 STRT.F                      372.0000:        START DEPTH
 STOP.F                     9939.0000:        STOP DEPTH
 STEP.F                        0.5000:        STEP VALUE
 NULL.                      -999.2500:        NULL VALUE
 COMP.                     USGS/NPR-A:        COMPANY
 LOC .                     31 15E 19W:        LOCATION
 DATE.                        4/30/78:        LOG DATE
 WELL.                 SOUTH MEADE #1:        WELL
 UWI .                   501632000100:        UNIQUE WELL ID
 API .                   501632000100:        UNIQUE WELL IDENTIFIER
 FLD .                        WILDCAT:        FIELD
 CNTY.                    NORTH SLOPE:        COUNTY
 STAT.                         ALASKA:        STATE
 CTRY.                            USA:        COUNTRY
 OPER.                     USGS/NPR-A:        OPERATOR
 SRVC.                   SCHLUMBERGER:        SERVICE COMPANY
 LAT .                         0.0000:        LATITUDE
 LON .                         0.0000:        LONGITUDE
 DIGS.               CENTER LINE DATA:        DIGITIZING COMPANY
~CURVE INFORMATION      
#MNEM        .UNIT         API CODE           CURVE DESCRIPTION
#-----------------      --------------        ------------------------------
 DEPT        .F                      :        1  DEPTH
 CALI        .IN                     :        2  
 GR          .GAPI                   :        3  
 RHOB        .G/C3                   :        4  
 DRHO        .G/C3                   :        5  
 NPHI        .%                      :        6  
 DT          .US/F                   :        7  
 SP          .MV                     :        8  
 ILD         .OHMM                   :        9  
 ILM         .OHMM                   :        10 
 LL8         .OHMM                   :        11 
~PARAMETER INFORMATION
#MNEM.UNIT                  VALUE             DESCRIPTION OF MNEMONIC
#---------             ---------------        ------------------------------
 EKB .F                       60.0000:        KELLY BUSHING
 TD  .F                     9945.0000:        TOTAL DEPTH
 BHT .F                      214.0000:        BOTTOM HOLE TEMPERATURE
 BS  .                        12.2500:        BIT SIZE
 FD  .                        11.5000:        FLUID DENSITY
 CSIZ.                        13.3750:        CASING SIZE
 CBD .F                     2615.0000:        CASING DRILLER 1
 CBL .F                     2614.0000:        CASING LOGGER 1
 DFT .                  MISCELLANEOUS:        TYPE FLUID IN HOLE
 DFV .                        98.0000:        VISCOSITY
 DFPH.                        10.0000:        PH
 DFL .                         3.6000:        FLUID LOSS
 RMS .                         1.7900:        RM
 MST .F                       61.0000:        RM MEAS. TEMP.
 RMF .                         1.2800:        RMF
 MFST.F                       49.0000:        RMF MEAS. TEMP.
 RMC .                         2.4600:        RMC
 MCST.F                       59.0000:        RMC MEAS. TEMP.
~OTHER INFORMATION
~A    DEPTH        CALI          GR        RHOB        DRHO        NPHI          DT          SP         ILD         ILM         LL8 
# ...
  4916.5000     18.0206     78.9697      2.1391      0.0202     30.1300     83.4543    -44.8688     10.0287      8.2606      8.8264 
  4917.0000     18.0235     79.5235      2.1975      0.0351     29.6362     84.3469    -45.0376     10.0077      8.2677      8.7310 
  4917.5000     18.0265     79.8366      2.1581      0.0300     29.1337     79.0092    -44.8443      9.9867      8.2971      8.6366 
  4918.0000     17.9516     81.2286      2.1270      0.0207     28.9684     79.8295    -44.9507      9.9658      8.2695      8.5668 
  4918.5000     17.0389     82.5282      2.1708     -0.0004     28.9111     80.7555    -45.1786      9.9554      8.1432      8.6572 
  4919.0000     18.0174     82.4971      2.2270      0.0161     28.8486     80.6930    -45.1431      9.9460      8.0907      8.8032 
  4919.5000     18.0185     81.2312      2.2356      0.0141     28.7861     81.3730    -44.6074      9.9367      8.2705      8.9674 
  4920.0000     18.0196     81.6477      2.2153      0.0077     27.8774     80.9402    -44.4292      9.9274      8.5798      9.1346 
  4920.5000     18.0207     83.6379      2.2563      0.0191     26.8155     80.4678    -44.4221      9.9181      8.7461      9.1594 
  4921.0000     17.1279     84.3334      2.3173      0.0362     25.7536     79.6745    -44.4277      9.9088      8.7523      9.1830 
  4921.5000     16.4214     84.3615      2.3510      0.0645     25.0839     78.5489    -43.7770      9.9107      8.7306      9.2087 
  4922.0000     16.3733     83.3563      2.3077      0.0897     24.9123     77.8380    -43.1900      9.9698      8.7687      9.3046 
  4922.5000     17.4292     80.6009      2.2462      0.1026     24.6713     78.3157    -43.6180     10.1251      8.9946      9.4807 
  4923.0000     17.8296     78.5872      2.2456      0.1166     24.3675     79.3888    -44.4543     10.2829      9.1339      9.6639 
  4923.5000     17.9908     77.5646      2.2846      0.1296     24.1673     80.7717    -44.6632     10.4432      9.2370      9.8270 
  4924.0000     17.7154     77.2844      2.2887      0.1329     23.8930     81.6282    -44.5069     10.5913      9.3390      9.9165 
  4924.5000     17.0725     77.3267      2.3236      0.1262     23.5815     81.9644    -44.3729     10.7109      9.3759      9.8443 
  4925.0000     16.4656     77.1059      2.4061      0.1325     23.2699     81.1726    -44.7058     10.8047      9.3537      9.7725 
  4925.5000     17.0675     74.8040      2.4220      0.1265     22.9584     78.2530    -45.0890     10.8765      9.2891      9.6973 
  4926.0000     17.4213     74.3225      2.3761      0.1063     22.6468     78.7398    -45.1049     11.0092      9.1725      9.5959 
  4926.5000     17.5392     75.6293      2.3431      0.0887     22.7928     80.5969    -45.0383     11.0370      9.1094      9.5020 
  4927.0000     18.0270     76.1187      2.3245      0.0681     23.5534     79.0892    -44.8930     11.0645      9.1476      9.5148 
  4927.5000     17.9261     76.3863      2.3331      0.0722     24.3139     77.5885    -44.7818     11.0921      9.2007      9.5748 
  4928.0000     17.8695     76.9220      2.3642      0.0656     24.9377     75.8412    -44.6468     11.1240      9.2423      9.6353 
  4928.5000     18.1532     77.2677      2.4043      0.0850     24.9892     75.0016    -44.2159     11.1580      9.2800      9.6961 
  4929.0000     17.0056     76.4269      2.4327      0.0964     24.4960     74.2498    -43.9754     11.1931      9.3178      9.7664 
  4929.5000     16.7217     74.6077      2.4472      0.0868     23.2854     81.3820    -43.9627     11.2385      9.3558      9.8578 
  4930.0000     17.5787     72.8047      2.4600      0.0943     23.0272     85.7829    -44.3443     11.2534      9.3940      9.8592 
  4930.5000     17.4544     71.4071      2.4705      0.1115     23.5863     92.6921    -44.7585     11.1506      9.3631      9.8607 
  4931.0000     17.5086     71.8246      2.4255      0.0922     24.4458     99.8374    -44.7995     10.9882      9.1974      9.8621 
  4931.5000     17.8720     74.5679      2.3666      0.0672     25.4856     99.6687    -45.2424     10.8083      9.0347      9.7809 
  4932.0000     18.1507     78.2033      2.3366      0.0352     26.0294     90.5772    -45.5489     10.6445      8.6487      9.6732 
  4932.5000     18.1615     78.3375      2.3467      0.0254     27.0483     88.7810    -45.5758     10.3344      8.0749      9.5674 
  4933.0000     18.1723     75.9477      2.3415      0.0500     29.0564     84.6265    -45.6270     10.0333      7.4527      9.2087 
  4933.5000     17.9255     75.2041      2.2885      0.0595     31.5410     79.4850    -45.5001      9.7410      7.0529      8.8448 
  4934.0000     18.0294     76.4094      2.2175      0.0421     34.9395     77.6532    -45.4731      9.5035      7.0365      8.4952 
  4934.5000     18.0296     76.9682      2.1745      0.0452     36.1798     80.2427    -45.4608      9.3204      7.1358      8.1594 
  4935.0000     18.0299     78.3547      2.1733      0.0561     35.4401     82.7734    -45.3202      9.1408      7.1928      7.9947 
  4935.5000     18.0301     80.0120      2.1831      0.0495     32.8392     86.2327    -45.1951      9.0603      7.2504      7.8937 
  4936.0000     18.0303     81.5938      2.2005      0.0404     30.8347     80.4404    -45.0394      9.0185      7.3084      7.8694 
  4936.5000     18.0305     81.1788      2.2200      0.0467     30.0149     85.3828    -44.8157      8.9769      7.3267      7.8452 
  4937.0000     18.0307     80.3706      2.2321      0.0300     29.7299     87.5535    -44.5921      8.9356      7.3354      7.8211 
  4937.5000     18.0310     79.7581      2.2728      0.0415     29.6780     85.6172    -44.4999      8.9186      7.3335      7.8395 
  4938.0000     18.0312     79.9043      2.2813      0.0630     29.8459     81.7874    -44.3674      8.9481      7.3167      7.9191 
  4938.5000     18.0314     79.7181      2.2472      0.0553     29.9777     81.4125    -44.2112      8.9806      7.3008      7.9496 
  4939.0000     18.0316     78.3553      2.2070      0.0327     30.1291     76.4786    -44.1297      9.0203      7.2849      7.9190 
  4939.5000     18.0318     76.9925      2.1617      0.0382     30.8402     90.4449    -44.1489      9.0600      7.2691      7.8886 
  4940.0000     18.0321     77.8647      2.1741      0.0468     31.5985     91.9191    -44.2907      9.0903      7.2533      7.8125 
  4940.5000     18.0323     76.9779      2.2925      0.0628     30.3061     88.9742    -44.3702      9.0903      7.2296      7.6932 
  4941.0000     18.0325     74.6369      2.3701      0.0737     29.1458     89.3596    -43.8978      9.0862      7.2014      7.5972 
  4941.5000     18.0327     72.7893      2.3302      0.0616     28.9165     81.5351    -43.5933      9.0136      7.1733      7.5063 
  4942.0000     18.0329     72.4152      2.2081      0.0395     29.4880     79.0927    -43.8475      8.9415      7.1452      7.4172 
  4942.5000     18.0332     73.3882      2.1588      0.0261     31.4624     81.5784    -44.2858      8.8700      7.1065      7.3604 
  4943.0000     18.0334     74.2613      2.0729      0.0164     33.7103     86.0378    -44.2673      8.7917      7.0680      7.3040 
  4943.5000     18.0336     74.5329      2.0487      0.0248     35.0018     85.5196    -43.9188      8.7111      7.0150      7.2480 
  4944.0000     18.0338     74.1938      2.0819      0.0427     35.8365     84.4351    -43.8041      8.6312      6.9649      7.2228 
  4944.5000     18.0340     73.2480      2.0980      0.0386     35.5093     81.1007    -43.8346      8.5548      6.9246      7.2160 
  4945.0000     18.0343     72.1886      2.1097      0.0293     31.0396     82.3467    -43.8160      8.5337      6.9171      7.2601 
  4945.5000     18.0345     71.6293      2.1147      0.0297     31.8647     82.8956    -43.8214      8.5126      6.9096      7.3060 
  4946.0000     18.0347     72.1789      2.1212      0.0251     34.4896     84.4642    -43.8106      8.4916      6.9385      7.3572 
  4946.5000     18.0349     72.8313      2.1500      0.0153     36.1286     87.3480    -43.7381      8.4707      6.9916      7.4088 
