~VERSION INFORMATION
 VERS.                           2.00:        CWLS LOG ASCII STANDARD - VERSION 2.00
 WRAP.                             NO:        ONE LINE PER DEPTH STEP
~WELL INFORMATION
#MNEM.UNIT                   DATA             INFORMATION
#----------             --------------        ------------------------------
 STRT.F                       79.0000:        START DEPTH
 STOP.F                     6686.0000:        STOP DEPTH
 STEP.F                        0.5000:        STEP VALUE
 NULL.                      -999.2500:        NULL VALUE
 COMP.                  HUSKY OIL CO.:        COMPANY  
 LOC .                   10  18N  16W:        LOCATION   
 DATE.                        3/28/81:        LOG DATE 
 WELL.           KUYANAK TEST WELL #1:        WELL     
 UWI .                   501632000300:        UNIQUE WELL ID 
 API .                   501632000300:        UNIQUE WELL IDENTIFIER 
 FLD .                        WILDCAT:        FIELD    
 CNTY.                    NORTH SLOPE:        COUNTY  
 STAT.                         ALASKA:        STATE   
 CTRY.                            USA:        COUNTRY 
 OPER.                  HUSKY OIL CO.:        OPERATOR  
 SRVC.                            440:        SERVICE COMPANY 
 LAT .                         0.0000:        LATITUDE
 LON .                         0.0000:        LONGITUDE
 DIGS.                             65:        DIGITIZING COMPANY 
~CURVE INFORMATION      
#MNEM        .UNIT         API CODE           CURVE DESCRIPTION
#-----------------      --------------        ------------------------------
 DEPT        .F                      :        1  DEPTH
 SP          .MV                     :        2  
 ILM         .OHMM                   :        3  
 ILD         .OHMM                   :        4  
 SFL         .OHMM                   :        5  
 LLD         .OHMM                   :        6  
 LLS         .OHMM                   :        7  
 MSFL        .OHMM                   :        8  
 NPHI        .%                      :        9  
 CAL         .IN                     :        10 
 GR          .GAPI                   :        11 
 RHOB        .G/C3                   :        12 
 DRHO        .G/C3                   :        13 
 DT          .US/F                   :        14 
~PARAMETER INFORMATION       
#MNEM.UNIT                  VALUE             DESCRIPTION OF MNEMONIC
#---------             ---------------        ------------------------------
 EKB .F                       28.0000:        KELLY BUSHING
 TD  .F                     6690.0000:        TOTAL DEPTH
 BS  .                         0.0000:        BIT SIZE
 CSIZ.                         0.0000:        CASING SIZE
 CBD .F                        0.0000:        CASING DRILLER 1
 CBL .F                        0.0000:        CASING LOGGER 1
~OTHER INFORMATION
~A    DEPTH          SP         ILM         ILD         SFL         LLD         LLS        MSFL        NPHI         CAL          GR        RHOB        DRHO          DT  
# ...
  5791.0000    -86.4446   -999.2500   -999.2500   -999.2500      9.1786      9.9069      3.5163     23.0397      9.6669     84.6685      2.4870      0.0157     74.6706  
  5791.5000    -86.1088   -999.2500   -999.2500   -999.2500      8.9881      9.5843      2.0110     22.7064      9.7339     86.6334      2.4742      0.0160     74.8887  
  5792.0000    -85.5890   -999.2500   -999.2500   -999.2500      8.4442      9.1973      1.5370     21.6494      9.7367     87.7197      2.4620      0.0146     75.3882  
  5792.5000    -85.4727   -999.2500   -999.2500   -999.2500      7.9378      8.8036      2.0109     21.0156      9.7517     86.2744      2.4533      0.0315     76.0841  
  5793.0000    -85.2070   -999.2500   -999.2500   -999.2500      7.6108      8.1874      2.7067     20.9285      9.9037     85.0345      2.4719      0.0528     76.9955  
  5793.5000    -85.1564   -999.2500   -999.2500   -999.2500      7.3985      7.9716      2.8111     20.6556     10.1105     83.4726      2.4886      0.0906     77.3661  
  5794.0000    -85.2468   -999.2500   -999.2500   -999.2500      7.3000      7.9616      2.5004     19.8957      9.8849     81.8686      2.4886      0.1426     77.5670  
  5794.5000    -85.3466   -999.2500   -999.2500   -999.2500      7.3745      8.0679      2.3246     19.9633      9.8294     81.0109      2.4778      0.1626     77.4499  
  5795.0000    -85.5145   -999.2500   -999.2500   -999.2500      7.5563      8.3146      2.6422     20.3313      9.8254     80.8420      2.4922      0.1755     76.9335  
  5795.5000    -85.6731   -999.2500   -999.2500   -999.2500      7.9152      8.7691      3.4150     20.3865      9.8090     81.1997      2.4840      0.1873     76.5181  
  5796.0000    -85.7493   -999.2500   -999.2500   -999.2500      8.3293      9.4386      3.7786     20.3411      9.7509     82.8932      2.4298      0.1757     75.8232  
  5796.5000    -85.9061   -999.2500   -999.2500   -999.2500      8.7940      9.6617      3.3856     20.5548      9.9337     84.3214      2.4387      0.1868     75.0196  
  5797.0000    -85.6914   -999.2500   -999.2500   -999.2500      8.9364      9.5555      2.9871     20.8966     10.3055     84.8864      2.4454      0.1980     75.0624  
  5797.5000    -85.3979   -999.2500   -999.2500   -999.2500      8.5328      9.2070      2.7557     21.2433     10.0340     84.3960      2.4322      0.1910     75.5238  
  5798.0000    -85.2161   -999.2500   -999.2500   -999.2500      8.4032      8.9690      2.7819     21.5530      9.9301     84.1550      2.4116      0.1262     76.4967  
  5798.5000    -85.2109   -999.2500   -999.2500   -999.2500      8.4012      8.8965      3.0165     21.6309      9.9651     84.2212      2.4065      0.1019     77.1787  
  5799.0000    -86.0347   -999.2500   -999.2500   -999.2500      8.4068      8.8914      3.0101     21.3757      9.6969     84.4142      2.3909      0.1030     76.7419  
  5799.5000    -86.4326   -999.2500   -999.2500   -999.2500      8.1829      8.8862      2.7464     20.6840      9.7141     84.7480      2.4029      0.0974     76.8009  
  5800.0000    -86.1909   -999.2500   -999.2500   -999.2500      8.1911      8.8999      2.5473     20.5477      9.8685     84.9154      2.4396      0.1141     76.8523  
  5800.5000    -85.9260   -999.2500   -999.2500   -999.2500      8.2281      8.9250      2.9672     20.4669     10.1898     83.8640      2.4106      0.1333     76.9529  
  5801.0000    -85.7580   -999.2500   -999.2500   -999.2500      8.2761      8.9501      3.2750     20.5675     10.5112     82.6278      2.4018      0.1247     77.6932  
  5801.5000    -85.6431   -999.2500   -999.2500   -999.2500      8.3250      8.9371      3.3631     21.1756     10.6320     82.9699      2.4126      0.1395     77.6288  
  5802.0000    -85.5943   -999.2500   -999.2500   -999.2500      8.0422      8.8500      3.3641     21.6950     10.6347     84.5196      2.3973      0.1766     77.0122  
  5802.5000    -85.6561   -999.2500   -999.2500   -999.2500      7.6926      8.5653      3.4173     21.8679     10.0015     86.0150      2.3631      0.1748     77.1110  
  5803.0000    -85.8891   -999.2500   -999.2500   -999.2500      7.4656      8.2433      3.9424     22.1264     10.0178     86.5254      2.3510      0.1566     77.3384  
  5803.5000    -86.2964   -999.2500   -999.2500   -999.2500      7.3655      8.1015      3.8459     22.5431     10.8474     85.9264      2.3815      0.1728     77.6655  
  5804.0000    -86.9130   -999.2500   -999.2500   -999.2500      7.3373      8.0348      3.2617     22.5904     10.9708     84.4784      2.4120      0.1856     78.0864  
  5804.5000    -87.1400   -999.2500   -999.2500   -999.2500      7.3093      8.0544      2.8432     22.2093     10.7944     83.6615      2.4358      0.1953     78.3013  
  5805.0000    -87.1494   -999.2500   -999.2500   -999.2500      7.3521      7.9351      2.9218     21.8791     10.5910     82.4707      2.4348      0.1711     78.6333  
  5805.5000    -87.0219   -999.2500   -999.2500   -999.2500      7.4011      7.9824      3.1822     21.6477     10.2322     81.9406      2.4260      0.0982     78.8366  
  5806.0000    -86.9856   -999.2500   -999.2500   -999.2500      7.5928      8.1377      3.9378     21.3090     10.4060     82.4863      2.4287      0.1051     78.1657  
  5806.5000    -86.9315   -999.2500   -999.2500   -999.2500      7.8717      8.3844      5.1527     21.2565     10.5798     83.0319      2.4455      0.1248     77.4917  
  5807.0000    -86.8066   -999.2500   -999.2500   -999.2500      8.0320      8.6126      5.7942     21.4381     10.7537     83.5776      2.4623      0.1323     77.2670  
  5807.5000    -87.0471   -999.2500   -999.2500   -999.2500      8.1932      8.8843      5.2766     21.1937     10.9275     84.1232      2.4791      0.1185     76.8548  
  5808.0000    -87.3371   -999.2500   -999.2500   -999.2500      8.4362      9.1636      4.7713     20.9493     11.1014     85.0076      2.4701      0.0957     76.3136  
  5808.5000    -87.3613   -999.2500   -999.2500   -999.2500      8.6233      9.3661      4.4855     20.8943     10.9240     86.5491      2.4429      0.1037     75.9335  
  5809.0000    -86.8665   -999.2500   -999.2500   -999.2500      8.7154      9.5732      4.0393     21.2893     10.3653     87.6957      2.4317      0.1251     75.6444  
  5809.5000    -86.7292   -999.2500   -999.2500   -999.2500      8.6975      9.6008      3.7757     22.1271      9.9282     88.8817      2.4458      0.1541     75.3553  
  5810.0000    -86.2983   -999.2500   -999.2500   -999.2500      8.4074      8.8828      3.5265     23.1894      9.9982     88.9268      2.4222      0.1414     76.0681  
  5810.5000    -86.0193   -999.2500   -999.2500   -999.2500      7.9947      8.3221      3.0122     23.7698      9.9585     87.6532      2.3929      0.1234     77.3169  
  5811.0000    -85.9200   -999.2500   -999.2500   -999.2500      7.5019      7.9873      2.9725     23.3587      9.7544     86.3797      2.4049      0.1096     78.2735  
  5811.5000    -86.0579   -999.2500   -999.2500   -999.2500      7.2714      7.7913      3.8679     22.7226      9.9918     85.6361      2.4169      0.1002     78.7495  
  5812.0000    -86.2943   -999.2500   -999.2500   -999.2500      7.1901      7.7321      4.3562     22.3427     10.2619     85.5210      2.4288      0.1414     78.8856  
  5812.5000    -86.5023   -999.2500   -999.2500   -999.2500      7.2804      7.7979      3.5598     22.3898     10.0026     85.7787      2.4173      0.1485     78.8220  
  5813.0000    -86.4363   -999.2500   -999.2500   -999.2500      7.4745      8.0870      2.9350     22.7861      9.9799     86.6895      2.3832      0.1257     78.2889  
  5813.5000    -86.5368   -999.2500   -999.2500   -999.2500      7.9368      8.4599      2.8898     23.4903     10.0578     88.3198      2.3698      0.1121     77.9187  
  5814.0000    -86.3611   -999.2500   -999.2500   -999.2500      7.9334      8.6673      2.8750     24.2585     10.0437     90.3464      2.3776      0.1185     77.1796  
  5814.5000    -86.1735   -999.2500   -999.2500   -999.2500      7.5207      8.2949      2.8539     24.7597     10.1171     92.1608      2.4108      0.1601     76.5883  
