~VERSION INFORMATION
 VERS.                           2.00:        CWLS LOG ASCII STANDARD - VERSION 2.00
 WRAP.                             NO:        ONE LINE PER DEPTH STEP
~WELL INFORMATION
#MNEM.UNIT                   DATA             INFORMATION
#----------             --------------        ------------------------------
 STRT.F                       79.0000:        START DEPTH
 STOP.F                     6686.0000:        STOP DEPTH
 STEP.F                        0.5000:        STEP VALUE
 NULL.                      -999.2500:        NULL VALUE
 COMP.                  HUSKY OIL CO.:        COMPANY  
 LOC .                   10  18N  16W:        LOCATION   
 DATE.                        3/28/81:        LOG DATE 
 WELL.           KUYANAK TEST WELL #1:        WELL     
 UWI .                   501632000300:        UNIQUE WELL ID 
 API .                   501632000300:        UNIQUE WELL IDENTIFIER 
 FLD .                        WILDCAT:        FIELD    
 CNTY.                    NORTH SLOPE:        COUNTY  
 STAT.                         ALASKA:        STATE   
 CTRY.                            USA:        COUNTRY 
 OPER.                  HUSKY OIL CO.:        OPERATOR  
 SRVC.                            440:        SERVICE COMPANY 
 LAT .                         0.0000:        LATITUDE
 LON .                         0.0000:        LONGITUDE
 DIGS.                             65:        DIGITIZING COMPANY 
~CURVE INFORMATION      
#MNEM        .UNIT         API CODE           CURVE DESCRIPTION
#-----------------      --------------        ------------------------------
 DEPT        .F                      :        1  DEPTH
 SP          .MV                     :        2  
 ILM         .OHMM                   :        3  
 ILD         .OHMM                   :        4  
 SFL         .OHMM                   :        5  
 LLD         .OHMM                   :        6  
 LLS         .OHMM                   :        7  
 MSFL        .OHMM                   :        8  
 NPHI        .%                      :        9  
 CAL         .IN                     :        10 
 GR          .GAPI                   :        11 
 RHOB        .G/C3                   :        12 
 DRHO        .G/C3                   :        13 
 DT          .US/F                   :        14 
~PARAMETER INFORMATION       
#MNEM.UNIT                  VALUE             DESCRIPTION OF MNEMONIC
#---------             ---------------        ------------------------------
 EKB .F                       28.0000:        KELLY BUSHING
 TD  .F                     6690.0000:        TOTAL DEPTH
 BS  .                         0.0000:        BIT SIZE
 CSIZ.                         0.0000:        CASING SIZE
 CBD .F                        0.0000:        CASING DRILLER 1
 CBL .F                        0.0000:        CASING LOGGER 1
~OTHER INFORMATION
~A    DEPTH          SP         ILM         ILD         SFL         LLD         LLS        MSFL        NPHI         CAL          GR        RHOB        DRHO          DT  
# ...
  4471.0000    -31.0087   -999.2500   -999.2500   -999.2500      5.4319      7.2613      4.4992     38.1229     14.5849     95.7874      2.5594   -999.2500     96.0968  
  4471.5000    -31.2992   -999.2500   -999.2500   -999.2500      5.2685      7.0865      4.0125     39.0939     14.2200     95.7727      2.5572   -999.2500     96.2618  
  4472.0000    -31.4406   -999.2500   -999.2500   -999.2500      5.1064      7.0355      3.5062     40.4789     14.4100     97.3567      2.5406   -999.2500     96.2995  
  4472.5000    -31.5158   -999.2500   -999.2500   -999.2500      4.9988      6.9850      3.2602     41.9820     14.7133     98.7235      2.4888   -999.2500     96.5335  
  4473.0000    -31.6246   -999.2500   -999.2500   -999.2500      4.9149      6.9348      3.0764     43.0400     14.7796     98.3266      2.4349   -999.2500     96.7675  
  4473.5000    -31.6257   -999.2500   -999.2500   -999.2500      4.8021      6.8850      2.8390     44.2865     14.8219     97.0079      2.4089   -999.2500     96.8327  
  4474.0000    -31.6897   -999.2500   -999.2500   -999.2500      4.7198      6.8355      2.5219     45.6405     14.7907     94.1939      2.4325   -999.2500     96.5726  
  4474.5000    -31.7400   -999.2500   -999.2500   -999.2500      4.6769      6.7864      2.6384     44.8679     14.5363     91.4031      2.4462   -999.2500     96.2005  
  4475.0000    -31.7335   -999.2500   -999.2500   -999.2500      4.7089      6.7377      2.8225     44.2908     14.5088     91.1404      2.4485   -999.2500     94.7807  
  4475.5000    -31.7173   -999.2500   -999.2500   -999.2500      4.7283      6.6748      2.7554     43.7144     14.5159     91.8651      2.4602   -999.2500     92.0525  
  4476.0000    -31.7193   -999.2500   -999.2500   -999.2500      4.7311      6.5962      2.6371     42.9093     14.2394     92.8950      2.4615   -999.2500     89.4157  
  4476.5000    -31.6958   -999.2500   -999.2500   -999.2500      4.7340      6.5185      2.7579     42.1158     14.0019     91.4678      2.4598   -999.2500     85.9766  
  4477.0000    -31.7570   -999.2500   -999.2500   -999.2500      4.7368      6.4417      3.2894     40.0427     14.1541     89.9262      2.4536   -999.2500     84.4125  
  4477.5000    -31.7243   -999.2500   -999.2500   -999.2500      4.7396      6.5203      4.8314     38.6053     14.4642     88.8320      2.4228   -999.2500     84.1659  
  4478.0000    -31.7163   -999.2500   -999.2500   -999.2500      4.9764      7.0107      8.0634     38.1107     14.7537     89.7030      2.3826   -999.2500     84.5334  
  4478.5000    -31.7441   -999.2500   -999.2500   -999.2500      5.3192      7.6658     10.7108     36.9038     15.6961     91.4419      2.3470   -999.2500     84.9337  
  4479.0000    -31.8400   -999.2500   -999.2500   -999.2500      5.7150      8.3821     12.0151     34.7153     15.4991     90.5991      2.3291   -999.2500     86.5199  
  4479.5000    -31.8905   -999.2500   -999.2500   -999.2500      6.3977      9.1654     12.2132     33.0043     14.6407     89.7398      2.3591   -999.2500     88.7757  
  4480.0000    -32.0551   -999.2500   -999.2500   -999.2500      6.7754      9.1132     11.8480     32.5750     13.8831     90.5346      2.3547   -999.2500     89.9849  
  4480.5000    -32.2747   -999.2500   -999.2500   -999.2500      7.1027      8.6440     11.3793     33.6714     13.8099     91.1978      2.3060   -999.2500     90.9989  
  4481.0000    -32.4386   -999.2500   -999.2500   -999.2500      6.9074      8.1828     11.1278     35.2852     14.2250     91.2791      2.2871   -999.2500     94.5164  
  4481.5000    -32.4986   -999.2500   -999.2500   -999.2500      6.4790      7.7462     10.3500     36.1129     14.7734     92.6896      2.2755   -999.2500     97.8515  
  4482.0000    -32.5648   -999.2500   -999.2500   -999.2500      6.0772      7.3329      7.9334     35.9718     14.7694     95.6889      2.3091   -999.2500     97.2853  
  4482.5000    -32.6026   -999.2500   -999.2500   -999.2500      5.7004      6.9416      6.0792     35.8008     14.9414     98.2499      2.4024   -999.2500     99.8478  
  4483.0000    -32.6171   -999.2500   -999.2500   -999.2500      5.3469      6.7520      4.6889     35.9405     14.9948     98.2971      2.4145   -999.2500    101.7488  
  4483.5000    -32.6317   -999.2500   -999.2500   -999.2500      5.0298      6.6393      4.2380     36.1409     15.0276     97.1695      2.3837   -999.2500     99.7270  
  4484.0000    -32.7505   -999.2500   -999.2500   -999.2500      4.9531      6.5284      4.5706     37.8603     14.7265     96.1194      2.3415   -999.2500     97.2813  
  4484.5000    -32.7889   -999.2500   -999.2500   -999.2500      4.8775      6.4195      5.4573     39.7800     14.1958     95.0472      2.3089   -999.2500     95.3486  
  4485.0000    -32.6591   -999.2500   -999.2500   -999.2500      4.8158      6.2720      6.1679     41.3386     14.3105     94.7932      2.3367   -999.2500     95.2306  
  4485.5000    -32.6066   -999.2500   -999.2500   -999.2500      4.8425      6.1267      6.1618     43.1518     14.3694     94.3105      2.4081   -999.2500     96.4550  
  4486.0000    -32.5876   -999.2500   -999.2500   -999.2500      4.8791      6.0148      6.0624     45.6570     13.8506     93.1705      2.4394   -999.2500     93.7114  
  4486.5000    -32.5631   -999.2500   -999.2500   -999.2500      4.9225      6.3495      6.0390     46.9957     13.8874     90.3279      2.4456   -999.2500     90.6199  
  4487.0000    -32.4492   -999.2500   -999.2500   -999.2500      4.9662      6.7447      6.8155     46.9812     13.9478     87.9883      2.4687   -999.2500     86.7153  
  4487.5000    -32.3942   -999.2500   -999.2500   -999.2500      5.0657      7.1645      8.7152     45.4301     14.3046     86.2226      2.4657   -999.2500     85.0591  
  4488.0000    -32.3743   -999.2500   -999.2500   -999.2500      5.2306      7.6153     11.8113     42.6175     15.0352     87.4274      2.4317   -999.2500     85.3808  
  4488.5000    -32.4080   -999.2500   -999.2500   -999.2500      5.8022      8.1212     13.7008     39.8713     15.5588     88.7507      2.4088   -999.2500     85.8014  
  4489.0000    -32.5469   -999.2500   -999.2500   -999.2500      7.0018      8.6606     14.2382     36.6926     15.1353     88.7899      2.3994   -999.2500     85.8525  
  4489.5000    -32.6513   -999.2500   -999.2500   -999.2500      8.1830      9.2325     14.4541     33.6955     14.6043     88.4311      2.3815   -999.2500     85.4559  
  4490.0000    -32.9900   -999.2500   -999.2500   -999.2500      8.0899      9.5244     14.3105     32.2427     14.4262     91.6117      2.2715   -999.2500     85.7267  
  4490.5000    -33.2358   -999.2500   -999.2500   -999.2500      7.9855      9.8255     14.1204     31.8356     13.8051     91.2198      2.2065   -999.2500     86.5251  
  4491.0000    -33.4222   -999.2500   -999.2500   -999.2500      7.9475      9.8679     13.9553     31.5088     13.7208     89.8942      2.2171   -999.2500     87.1526  
  4491.5000    -33.5528   -999.2500   -999.2500   -999.2500      7.9016      9.8209     13.7401     30.5333     13.8034     89.7425      2.3219   -999.2500     87.2178  
  4492.0000    -34.0774   -999.2500   -999.2500   -999.2500      7.6749      9.7742     13.6480     29.9013     13.8621     90.9619      2.5040   -999.2500     88.1285  
  4492.5000    -34.1632   -999.2500   -999.2500   -999.2500      7.4911      9.7276     13.6812     29.6850     13.7800     91.7141      2.5469   -999.2500     90.5414  
  4493.0000    -34.4211   -999.2500   -999.2500   -999.2500      7.4593      9.7253     14.0391     30.0796     14.1807     91.3449      2.5743   -999.2500     93.8169  
  4493.5000    -34.5716   -999.2500   -999.2500   -999.2500      7.4483      9.7508     15.0586     30.5632     14.2524     90.2644      2.5995   -999.2500     93.6188  
  4494.0000    -34.8393   -999.2500   -999.2500   -999.2500      7.3234      9.5700     15.0743     31.4775     14.3167     87.5581      2.5647   -999.2500     88.9751  
  4494.5000    -35.1784   -999.2500   -999.2500   -999.2500      7.1134      9.1567     12.2307     32.7889     14.2488     82.8176      2.4998   -999.2500     84.0840  
