~VERSION INFORMATION
 VERS.                           2.00:        CWLS LOG ASCII STANDARD - VERSION 2.00
 WRAP.                             NO:        ONE LINE PER DEPTH STEP
~WELL INFORMATION
#MNEM.UNIT                   DATA             INFORMATION
#----------             --------------        ------------------------------
 STRT.F                       79.0000:        START DEPTH
 STOP.F                     6686.0000:        STOP DEPTH
 STEP.F                        0.5000:        STEP VALUE
 NULL.                      -999.2500:        NULL VALUE
 COMP.                  HUSKY OIL CO.:        COMPANY  
 LOC .                   10  18N  16W:        LOCATION   
 DATE.                        3/28/81:        LOG DATE 
 WELL.           KUYANAK TEST WELL #1:        WELL     
 UWI .                   501632000300:        UNIQUE WELL ID 
 API .                   501632000300:        UNIQUE WELL IDENTIFIER 
 FLD .                        WILDCAT:        FIELD    
 CNTY.                    NORTH SLOPE:        COUNTY  
 STAT.                         ALASKA:        STATE   
 CTRY.                            USA:        COUNTRY 
 OPER.                  HUSKY OIL CO.:        OPERATOR  
 SRVC.                            440:        SERVICE COMPANY 
 LAT .                         0.0000:        LATITUDE
 LON .                         0.0000:        LONGITUDE
 DIGS.                             65:        DIGITIZING COMPANY 
~CURVE INFORMATION      
#MNEM        .UNIT         API CODE           CURVE DESCRIPTION
#-----------------      --------------        ------------------------------
 DEPT        .F                      :        1  DEPTH
 SP          .MV                     :        2  
 ILM         .OHMM                   :        3  
 ILD         .OHMM                   :        4  
 SFL         .OHMM                   :        5  
 LLD         .OHMM                   :        6  
 LLS         .OHMM                   :        7  
 MSFL        .OHMM                   :        8  
 NPHI        .%                      :        9  
 CAL         .IN                     :        10 
 GR          .GAPI                   :        11 
 RHOB        .G/C3                   :        12 
 DRHO        .G/C3                   :        13 
 DT          .US/F                   :        14 
~PARAMETER INFORMATION       
#MNEM.UNIT                  VALUE             DESCRIPTION OF MNEMONIC
#---------             ---------------        ------------------------------
 EKB .F                       28.0000:        KELLY BUSHING
 TD  .F                     6690.0000:        TOTAL DEPTH
 BS  .                         0.0000:        BIT SIZE
 CSIZ.                         0.0000:        CASING SIZE
 CBD .F                        0.0000:        CASING DRILLER 1
 CBL .F                        0.0000:        CASING LOGGER 1
~OTHER INFORMATION
~A    DEPTH          SP         ILM         ILD         SFL         LLD         LLS        MSFL        NPHI         CAL          GR        RHOB        DRHO          DT  
# ...
  3151.0000    -41.6646   -999.2500   -999.2500   -999.2500      6.3029      7.6859      2.7384     39.0515     17.9721     84.3984      2.1619   -999.2500     93.1301  
  3151.5000    -41.6110   -999.2500   -999.2500   -999.2500      6.3844      7.7790      3.6000     39.0249     17.1265     85.0039      2.1856   -999.2500     96.2257  
  3152.0000    -41.5417   -999.2500   -999.2500   -999.2500      6.6208      7.8733      4.8049     38.6773     16.5808     86.7629      2.1946   -999.2500     96.6914  
  3152.5000    -41.4920   -999.2500   -999.2500   -999.2500      6.8760      7.9325      4.8418     38.0444     16.9732     88.4301      2.2036   -999.2500     94.5667  
  3153.0000    -41.4970   -999.2500   -999.2500   -999.2500      6.9589      7.9008      4.6679     37.3014     16.9611     89.8122      2.2209   -999.2500     96.9084  
  3153.5000    -41.5020   -999.2500   -999.2500   -999.2500      6.7784      7.8693      4.6453     36.9137     15.8661     89.7027      2.2235   -999.2500     97.4265  
  3154.0000    -41.5144   -999.2500   -999.2500   -999.2500      6.4233      7.8198      4.6444     36.3066     15.9172     87.4571      2.2033   -999.2500     97.0852  
  3154.5000    -41.6330   -999.2500   -999.2500   -999.2500      6.2061      7.7273      4.6827     35.6859     16.2828     84.9461      2.1570   -999.2500     97.2857  
  3155.0000    -42.1059   -999.2500   -999.2500   -999.2500      6.5341      7.7310      4.8346     36.1947     16.4853     84.5881      2.1490   -999.2500     97.5304  
  3155.5000    -42.0839   -999.2500   -999.2500   -999.2500      6.9154      7.7916      5.2334     37.1719     16.1085     84.3107      2.1682   -999.2500     97.4405  
  3156.0000    -41.8482   -999.2500   -999.2500   -999.2500      7.1143      7.9041      5.9031     38.2098     15.6144     84.0532      2.1679   -999.2500     97.2318  
  3156.5000    -41.5496   -999.2500   -999.2500   -999.2500      6.5186      8.3835      6.4437     37.8787     15.6643     83.2703      2.1343   -999.2500     96.8992  
  3157.0000    -41.4937   -999.2500   -999.2500   -999.2500      5.5732      8.0947      6.0296     37.0780     15.6701     81.4421      2.0965   -999.2500     95.9905  
  3157.5000    -41.4511   -999.2500   -999.2500   -999.2500      4.1676      7.7291      5.5009     37.6172     15.9506     80.9935      2.0699   -999.2500     95.5370  
  3158.0000    -41.3928   -999.2500   -999.2500   -999.2500      4.0058      7.3024      5.2396     38.9902     16.5939     82.7521      2.0209   -999.2500     95.0835  
  3158.5000    -41.3244   -999.2500   -999.2500   -999.2500      5.0092      7.0374      5.3378     39.2122     17.9103     83.6730      1.9278   -999.2500     95.8975  
  3159.0000    -41.7242   -999.2500   -999.2500   -999.2500      5.8049      6.9035      5.6814     38.2370     17.1722     83.4718      1.8923   -999.2500     97.9441  
  3159.5000    -42.0029   -999.2500   -999.2500   -999.2500      6.0643      7.0125      5.8998     37.0762     15.9730     83.2006      1.8857   -999.2500     99.5669  
  3160.0000    -41.7046   -999.2500   -999.2500   -999.2500      5.9891      7.2964      5.5375     38.4219     16.6594     84.1539      1.9542   -999.2500    101.1935  
  3160.5000    -41.5015   -999.2500   -999.2500   -999.2500      5.9112      7.5918      4.9781     41.3676     17.3728     86.2653      2.0405   -999.2500     98.8854  
  3161.0000    -41.5421   -999.2500   -999.2500   -999.2500      6.0559      7.7573      4.4443     41.2386     17.4789     85.5097      2.0945   -999.2500     97.7917  
  3161.5000    -41.5992   -999.2500   -999.2500   -999.2500      6.0055      7.8037      3.9033     40.5847     17.1100     83.5669      2.1557   -999.2500     97.6994  
  3162.0000    -41.6039   -999.2500   -999.2500   -999.2500      6.2066      7.9336      3.4583     40.0984     17.1843     81.5590      2.2072   -999.2500     97.5796  
  3162.5000    -41.5650   -999.2500   -999.2500   -999.2500      6.9582      8.1784      3.8357     38.9901     17.7393     81.0053      2.2289   -999.2500     97.5664  
  3163.0000    -41.5277   -999.2500   -999.2500   -999.2500      6.9243      7.2706      4.3645     38.0929     17.8070     82.2968      2.1992   -999.2500     97.4292  
  3163.5000    -41.6225   -999.2500   -999.2500   -999.2500      6.7279     16.4887      4.7438     38.1514     17.5271     84.2288      2.1677   -999.2500     97.3769  
  3164.0000    -41.5616   -999.2500   -999.2500   -999.2500      6.6071      7.1822      5.0116     38.7591     17.0958     83.9476      2.1450   -999.2500     95.7919  
  3164.5000    -41.4710   -999.2500   -999.2500   -999.2500      6.5703      7.0222      5.2944     40.6078     16.8299     83.3971      2.1288   -999.2500     96.8822  
  3165.0000    -41.4869   -999.2500   -999.2500   -999.2500      6.1186      7.2454      5.4352     43.0315     16.5640     82.9127      2.0877   -999.2500     97.7356  
  3165.5000    -41.3322   -999.2500   -999.2500   -999.2500      5.4475      7.6373      5.2196     44.1754     16.5898     82.3871      2.0317   -999.2500     96.7457  
  3166.0000    -41.1619   -999.2500   -999.2500   -999.2500      5.5972      7.7157      4.8942     44.3215     16.8913     82.2697      2.0519   -999.2500     96.3826  
  3166.5000    -41.0547   -999.2500   -999.2500   -999.2500      6.0326      7.6415      4.5591     43.0898     16.9189     82.5419      2.1093   -999.2500     95.8767  
  3167.0000    -41.0404   -999.2500   -999.2500   -999.2500      6.5897      7.5680      4.8600     41.6969     16.7870     82.6658      2.1567   -999.2500     94.9462  
  3167.5000    -40.6238   -999.2500   -999.2500   -999.2500      6.9433      8.1162      5.2180     40.0303     16.7216     83.0750      2.2009   -999.2500     94.3306  
  3168.0000    -40.5274   -999.2500   -999.2500   -999.2500      7.2206      7.7718      5.4774     37.7291     16.9230     83.4808      2.2109   -999.2500     93.7580  
  3168.5000    -40.6983   -999.2500   -999.2500   -999.2500      7.3761      5.8629      5.6247     36.0287     17.5126     82.7569      2.1530   -999.2500     96.3948  
  3169.0000    -40.6256   -999.2500   -999.2500   -999.2500      7.4143      5.5655      5.7344     36.5922     17.8362     81.3974      2.1036   -999.2500     97.6489  
  3169.5000    -40.5878   -999.2500   -999.2500   -999.2500      7.4721      6.1655      5.8215     37.1728     17.7153     80.6995      2.0739   -999.2500     99.7159  
  3170.0000    -40.5337   -999.2500   -999.2500   -999.2500      7.3531      7.2849      5.1654     37.7183     17.2417     82.0708      2.0646   -999.2500    102.0897  
  3170.5000    -40.4542   -999.2500   -999.2500   -999.2500      7.2255      8.6074      4.5832     38.2403     16.2246     84.7374      2.0714   -999.2500    101.3534  
  3171.0000    -40.3747   -999.2500   -999.2500   -999.2500      7.4239      7.0686      4.2466     38.6450     16.0177     88.0236      2.0899   -999.2500    100.7346  
  3171.5000    -40.2952   -999.2500   -999.2500   -999.2500      7.6278      6.4404      4.1349     37.9915     16.0955     89.4910      2.1647   -999.2500    100.3827  
  3172.0000    -40.1975   -999.2500   -999.2500   -999.2500      7.1398      8.8630      3.9748     36.7802     16.0049     88.7853      2.2322   -999.2500     99.3184  
  3172.5000    -40.1326   -999.2500   -999.2500   -999.2500      6.1893     17.4949      3.7437     36.0563     16.2390     87.2056      2.2140   -999.2500     98.4447  
  3173.0000    -40.2205   -999.2500   -999.2500   -999.2500      5.3653     11.6368      3.7616     36.4832     16.2604     85.9159      2.1707   -999.2500     98.4938  
  3173.5000    -40.3083   -999.2500   -999.2500   -999.2500      5.1280      6.9947      3.9064     37.2771     16.2726     85.2849      2.1169   -999.2500     98.1205  
  3174.0000    -40.3961   -999.2500   -999.2500   -999.2500      5.5781      6.9638      4.3976     38.4845     16.6090     85.1583      2.0741   -999.2500     97.9349  
  3174.5000    -40.3305   -999.2500   -999.2500   -999.2500      5.1482      7.0630      5.0221     39.5037     16.9347     85.1104      2.0523   -999.2500     97.7345  
