~VERSION INFORMATION
 VERS.                           2.00:        CWLS LOG ASCII STANDARD - VERSION 2.00
 WRAP.                             NO:        ONE LINE PER DEPTH STEP
~WELL INFORMATION
#MNEM.UNIT                   DATA             INFORMATION
#----------             --------------        ------------------------------
 STRT.F                      372.0000:        START DEPTH
 STOP.F                     9939.0000:        STOP DEPTH
 STEP.F                        0.5000:        STEP VALUE
 NULL.                      -999.2500:        NULL VALUE
 COMP.                     USGS/NPR-A:        COMPANY
 LOC .                     31 15E 19W:        LOCATION
 DATE.                        4/30/78:        LOG DATE
 WELL.                 SOUTH MEADE #1:        WELL
 UWI .                   501632000100:        UNIQUE WELL ID
 API .                   501632000100:        UNIQUE WELL IDENTIFIER
 FLD .                        WILDCAT:        FIELD
 CNTY.                    NORTH SLOPE:        COUNTY
 STAT.                         ALASKA:        STATE
 CTRY.                            USA:        COUNTRY
 OPER.                     USGS/NPR-A:        OPERATOR
 SRVC.                   SCHLUMBERGER:        SERVICE COMPANY
 LAT .                         0.0000:        LATITUDE
 LON .                         0.0000:        LONGITUDE
 DIGS.               CENTER LINE DATA:        DIGITIZING COMPANY
~CURVE INFORMATION      
#MNEM        .UNIT         API CODE           CURVE DESCRIPTION
#-----------------      --------------        ------------------------------
 DEPT        .F                      :        1  DEPTH
 CALI        .IN                     :        2  
 GR          .GAPI                   :        3  
 RHOB        .G/C3                   :        4  
 DRHO        .G/C3                   :        5  
 NPHI        .%                      :        6  
 DT          .US/F                   :        7  
 SP          .MV                     :        8  
 ILD         .OHMM                   :        9  
 ILM         .OHMM                   :        10 
 LL8         .OHMM                   :        11 
~PARAMETER INFORMATION
#MNEM.UNIT                  VALUE             DESCRIPTION OF MNEMONIC
#---------             ---------------        ------------------------------
 EKB .F                       60.0000:        KELLY BUSHING
 TD  .F                     9945.0000:        TOTAL DEPTH
 BHT .F                      214.0000:        BOTTOM HOLE TEMPERATURE
 BS  .                        12.2500:        BIT SIZE
 FD  .                        11.5000:        FLUID DENSITY
 CSIZ.                        13.3750:        CASING SIZE
 CBD .F                     2615.0000:        CASING DRILLER 1
 CBL .F                     2614.0000:        CASING LOGGER 1
 DFT .                  MISCELLANEOUS:        TYPE FLUID IN HOLE
 DFV .                        98.0000:        VISCOSITY
 DFPH.                        10.0000:        PH
 DFL .                         3.6000:        FLUID LOSS
 RMS .                         1.7900:        RM
 MST .F                       61.0000:        RM MEAS. TEMP.
 RMF .                         1.2800:        RMF
 MFST.F                       49.0000:        RMF MEAS. TEMP.
 RMC .                         2.4600:        RMC
 MCST.F                       59.0000:        RMC MEAS. TEMP.
~OTHER INFORMATION
~A    DEPTH        CALI          GR        RHOB        DRHO        NPHI          DT          SP         ILD         ILM         LL8 
# ...
  9278.0000      9.9715     65.6295      2.4783      0.1407     15.3276     56.2891    -31.5903     27.4955    137.7143     97.2607 
  9278.5000      9.5349     70.4925      2.5014      0.1597     14.2775     55.6186    -30.7662     24.8100     32.4693     45.4556 
  9279.0000      9.7141     73.2121      2.4938      0.1471     13.4962     56.1588    -29.9421     26.8671     28.6112     38.5209 
  9279.5000      9.8569     73.3940      2.5205      0.1213     14.2117     56.5892    -29.1772     27.3189     29.4359     35.8020 
  9280.0000     10.2096     70.9633      2.5517      0.0816     14.6601     57.2271    -28.6387     27.3503     30.2797     36.1431 
  9280.5000     10.0292     68.2823      2.5929      0.0567     14.5961     57.7790    -28.1964     26.8050     30.1872     39.1606 
  9281.0000      9.8178     66.2473      2.6504      0.1108     14.4605     57.0380    -27.8605     26.2705     30.1322     40.3174 
  9281.5000      9.9878     63.3806      2.6386      0.1477     14.2692     56.3817    -27.8505     26.0743     30.4260     37.1966 
  9282.0000      9.8007     61.1602      2.6196      0.1665     14.3189     56.5013    -27.9117     29.2557     31.3511     34.6391 
  9282.5000      9.4175     58.9341      2.5705      0.1539     14.3924     55.5724    -27.9986     33.9118     33.5272     37.1098 
  9283.0000      9.3446     56.7734      2.5355      0.1131     13.9708     56.0542    -28.0856     38.1832     39.2906     50.7565 
  9283.5000      9.1811     56.2177      2.5662      0.1680     12.5006     56.9169    -28.1725     42.9925     49.6540     68.2068 
  9284.0000      9.0095     56.1866      2.5508      0.1710     10.5953     58.7198    -27.6564     48.4076     52.2992     69.0586 
  9284.5000      9.3407     57.7228      2.5420      0.1374      9.7677     60.2447    -26.3870     53.7108     57.0593     78.2508 
  9285.0000      9.8348     60.5881      2.5119      0.1018      9.4625     60.7627    -24.4578     58.2785     64.6750     91.1837 
  9285.5000     10.3228     62.8890      2.4585      0.0773      9.7612     60.7936    -22.3804     61.4698     83.2109     85.2841 
  9286.0000     10.6846     60.6620      2.4480      0.0747     10.4006     60.1921    -20.5348     60.5745    107.0591     56.9863 
  9286.5000      9.9275     58.4960      2.4781      0.0913     11.0854     59.9880    -18.5669     56.6569    121.3772     72.8847 
  9287.0000      9.0929     58.4411      2.5201      0.0464     11.7702     60.2725    -17.5838     47.8479     87.9435    107.0192 
  9287.5000      9.0271     61.0618      2.5519      0.0250     12.0438     61.2311    -16.4462     39.4434     41.5663    121.8778 
  9288.0000      9.0181     65.3236      2.5590      0.0591     12.0958     62.5640    -16.2564     32.5151     26.9738     63.7805 
  9288.5000      9.0865     66.1323      2.6067      0.0728     13.6729     63.4278    -16.3486     29.4320     28.7862     28.4349 
  9289.0000      9.2096     63.1812      2.5703      0.0459     14.9530     64.1845    -16.1941     32.7502     57.3851     33.9858 
  9289.5000      9.3265     60.2436      2.5515      0.0524     14.8588     65.0594    -15.8310     37.5615     68.6361     95.2090 
  9290.0000      9.0752     61.2335      2.5140      0.0674     13.5487     66.1120    -15.3664     33.5194     28.5071    301.6189 
  9290.5000      8.9906     64.1548      2.4607      0.0792     11.4289     66.6583    -14.8195     29.8373     21.6022    129.3805 
  9291.0000      9.3074     64.5433      2.4233      0.1062     11.3669     66.4964    -13.5821     29.5210     23.3749     36.7195 
  9291.5000      9.7310     62.2137      2.3564      0.1165     13.1362     65.5493    -13.1112     34.4354     32.2782     34.3115 
  9292.0000      9.8065     58.4525      2.3317      0.1210     14.9055     64.9633    -12.4790     34.6992     44.5728     40.9843 
  9292.5000      9.7440     56.5377      2.4068      0.1401     15.1389     64.3773    -11.9217     32.7702     50.3098     52.8089 
  9293.0000      9.4146     58.4441      2.4396      0.1556     14.6160     64.0207    -11.3172     31.0690     49.8740     73.1934 
  9293.5000      9.1022     62.4104      2.4568      0.1279     14.2187     64.4649    -10.7572     29.4561     40.9832    106.0044 
  9294.0000      8.7775     68.6765      2.4954      0.1592     14.3552     64.9090    -10.1065     28.2704     34.1249     76.0792 
  9294.5000      8.7748     76.7820      2.5477      0.1800     15.3571     65.3933     -9.4460     27.5355     30.2691     44.1884 
  9295.0000      9.2466     80.1126      2.5638      0.1623     16.6141     65.8079     -9.0618     26.7253     27.5551     34.8617 
  9295.5000      8.9236     82.0527      2.6170      0.1606     17.9476     65.3604     -8.6964     25.2608     24.7589     30.2895 
  9296.0000      8.9829     84.5432      2.6237      0.1205     19.1813     64.9129     -8.1663     23.6774     23.6611     30.7922 
  9296.5000      9.3206     85.6477      2.6345      0.1074     19.7023     64.4654     -7.7955     22.3943     23.3630     31.7164 
  9297.0000      9.7974     84.0685      2.6480      0.1336     19.4032     64.8181     -7.5642     24.5522     24.9128     30.6152 
  9297.5000      9.7907     82.2515      2.6235      0.1142     18.9878     65.6756     -7.3792     26.4925     28.9796     29.8343 
  9298.0000      9.5004     78.7503      2.6090      0.0551     18.4246     66.7207     -7.2531     27.7417     33.7102     33.7197 
  9298.5000      9.4017     73.0050      2.6162      0.0046     17.1194     66.0910     -7.2772     29.0011     34.1243     66.9308 
  9299.0000      9.0546     70.4833      2.6104     -0.0069     15.6316     65.2314     -7.4434     29.4610     32.0061     74.8940 
  9299.5000      8.6119     70.3298      2.5854      0.0249     15.1065     64.5674     -7.5462     29.4046     25.9805     58.1621 
  9300.0000      8.5936     74.4521      2.5249      0.0514     15.2222     63.9871     -7.6903     27.1638     19.8783     78.9387 
  9300.5000      8.6231     79.6027      2.4481      0.0605     16.2461     63.7533     -7.8720     25.0937     16.3616     50.9484 
  9301.0000      8.6999     80.9897      2.4249      0.1247     17.0629     64.1256     -8.3219     23.1401     16.9544     28.2173 
  9301.5000      9.0385     79.0993      2.4253      0.1197     18.0442     64.8688     -8.7125     23.4840     24.6728     21.0354 
  9302.0000      9.2990     74.6790      2.5287      0.1134     21.5314     65.5930     -9.0745     24.3904     29.2996     23.4990 
  9302.5000      9.1496     69.0162      2.6039      0.1068     22.9466     66.2238     -9.6772     25.9564     44.7566     43.9198 
  9303.0000      9.2667     64.0539      2.6268      0.0692     19.8121     66.7659     -9.9277     27.6231     52.8668     91.3007 
  9303.5000      8.7502     61.9870      2.6278      0.0865     14.4058     67.3739    -10.2095     32.8520     49.3683    152.5627 
  9304.0000      8.9695     63.9264      2.5899      0.0885     10.7892     68.1071    -10.3246     36.5315     46.1013    131.8483 
  9304.5000      9.0752     65.4576      2.5653      0.0445      9.7579     68.2807    -10.2794     33.5269     53.3536    119.6012 
  9305.0000      8.8218     65.3138      2.5495      0.0345     10.5785     68.3847    -10.2619     27.4206     68.4650     76.7416 
  9305.5000      8.7795     63.4828      2.5381      0.0797     11.5928     68.2950    -10.2059     34.2561     70.5424     32.0792 
  9306.0000      8.8292     60.1141      2.5098      0.1269     12.9440     68.3181    -10.1498     29.4400     46.6866     31.0684 
  9306.5000      9.2308     60.9674      2.4018      0.1201     14.5010     68.4635    -10.0754     23.6209     23.4844     59.9469 
  9307.0000      9.4076     66.2732      2.3045      0.0753     15.1638     68.6754     -9.9811     20.5735     11.0699     79.1504 
  9307.5000      8.7965     72.0310      2.2277      0.0666     15.4617     68.8371     -9.7504     18.1753     10.9431     33.6933 
  9308.0000      9.3250     76.4288      2.2078      0.0914     21.3244     68.7079     -9.6364     16.3718     13.2604     20.0352 
