~VERSION INFORMATION
 VERS.                           2.00:        CWLS LOG ASCII STANDARD - VERSION 2.00
 WRAP.                             NO:        ONE LINE PER DEPTH STEP
~WELL INFORMATION
#MNEM.UNIT                   DATA             INFORMATION
#----------             --------------        ------------------------------
 STRT.F                      372.0000:        START DEPTH
 STOP.F                     9939.0000:        STOP DEPTH
 STEP.F                        0.5000:        STEP VALUE
 NULL.                      -999.2500:        NULL VALUE
 COMP.                     USGS/NPR-A:        COMPANY
 LOC .                     31 15E 19W:        LOCATION
 DATE.                        4/30/78:        LOG DATE
 WELL.                 SOUTH MEADE #1:        WELL
 UWI .                   501632000100:        UNIQUE WELL ID
 API .                   501632000100:        UNIQUE WELL IDENTIFIER
 FLD .                        WILDCAT:        FIELD
 CNTY.                    NORTH SLOPE:        COUNTY
 STAT.                         ALASKA:        STATE
 CTRY.                            USA:        COUNTRY
 OPER.                     USGS/NPR-A:        OPERATOR
 SRVC.                   SCHLUMBERGER:        SERVICE COMPANY
 LAT .                         0.0000:        LATITUDE
 LON .                         0.0000:        LONGITUDE
 DIGS.               CENTER LINE DATA:        DIGITIZING COMPANY
~CURVE INFORMATION      
#MNEM        .UNIT         API CODE           CURVE DESCRIPTION
#-----------------      --------------        ------------------------------
 DEPT        .F                      :        1  DEPTH
 CALI        .IN                     :        2  
 GR          .GAPI                   :        3  
 RHOB        .G/C3                   :        4  
 DRHO        .G/C3                   :        5  
 NPHI        .%                      :        6  
 DT          .US/F                   :        7  
 SP          .MV                     :        8  
 ILD         .OHMM                   :        9  
 ILM         .OHMM                   :        10 
 LL8         .OHMM                   :        11 
~PARAMETER INFORMATION
#MNEM.UNIT                  VALUE             DESCRIPTION OF MNEMONIC
#---------             ---------------        ------------------------------
 EKB .F                       60.0000:        KELLY BUSHING
 TD  .F                     9945.0000:        TOTAL DEPTH
 BHT .F                      214.0000:        BOTTOM HOLE TEMPERATURE
 BS  .                        12.2500:        BIT SIZE
 FD  .                        11.5000:        FLUID DENSITY
 CSIZ.                        13.3750:        CASING SIZE
 CBD .F                     2615.0000:        CASING DRILLER 1
 CBL .F                     2614.0000:        CASING LOGGER 1
 DFT .                  MISCELLANEOUS:        TYPE FLUID IN HOLE
 DFV .                        98.0000:        VISCOSITY
 DFPH.                        10.0000:        PH
 DFL .                         3.6000:        FLUID LOSS
 RMS .                         1.7900:        RM
 MST .F                       61.0000:        RM MEAS. TEMP.
 RMF .                         1.2800:        RMF
 MFST.F                       49.0000:        RMF MEAS. TEMP.
 RMC .                         2.4600:        RMC
 MCST.F                       59.0000:        RMC MEAS. TEMP.
~OTHER INFORMATION
~A    DEPTH        CALI          GR        RHOB        DRHO        NPHI          DT          SP         ILD         ILM         LL8 
# ...
  3666.0000     17.9940     83.0174      2.5403      0.0219     31.2533     87.8930    -55.3643      8.1808      7.0924      5.5662 
  3666.5000     17.9939     82.1208      2.5500      0.0349     31.0799     90.2860    -55.1112      8.1661      7.1338      5.3685 
  3667.0000     17.9938     80.7197      2.5453      0.0337     30.9859     87.9226    -54.9304      8.1515      7.1755      5.1908 
  3667.5000     17.9936     79.4196      2.5203      0.0324     31.2089     83.0714    -55.3207      8.1369      7.2272      5.0736 
  3668.0000     17.9935     77.2782      2.4879      0.0349     31.9517     80.1333    -55.6268      8.1355      7.1490      5.1621 
  3668.5000     17.9934     76.2397      2.4748      0.0493     32.5125     87.4219    -55.7268      8.0826      6.9976      5.2929 
  3669.0000     17.9932     76.4153      2.4787      0.0677     32.5094     86.5420    -55.6878      7.9961      6.6545      5.4141 
  3669.5000     17.9931     77.1370      2.4945      0.0916     32.6763     86.5828    -55.7214      7.9253      6.3282      5.5659 
  3670.0000     17.9930     75.6584      2.4846      0.0873     34.4042     87.1241    -55.6791      7.8605      6.2905      5.6607 
  3670.5000     17.9928     74.4638      2.4707      0.0681     36.2821     88.8072    -55.6126      7.8277      6.4206      5.6351 
  3671.0000     17.9927     73.2279      2.4952      0.0772     36.1525     98.5947    -55.4821      7.8846      6.6726      5.6095 
  3671.5000     17.9926     74.0627      2.5229      0.0986     35.4638    103.1057    -55.6156      7.9577      6.9344      5.5841 
  3672.0000     17.9924     74.2393      2.5284      0.0822     34.2090     94.6202    -55.2824      8.0172      7.1718      5.6361 
  3672.5000     17.9923     74.1000      2.5375      0.0998     32.7990     93.1535    -54.5984      7.8661      7.1620      5.7234 
  3673.0000     17.9922     74.2108      2.5158      0.1095     32.4276     95.0092    -53.7073      7.7179      7.1379      5.8333 
  3673.5000     17.9921     74.6798      2.4790      0.0893     32.5762     92.8826    -53.2957      7.6576      6.7352      5.9968 
  3674.0000     17.9919     75.7309      2.4147      0.0489     32.5921     88.3172    -54.0503      7.6576      6.3563      6.0501 
  3674.5000     17.9918     77.6985      2.3553      0.0463     32.7274     91.6972    -54.9521      7.8469      6.3863      6.0681 
  3675.0000     17.9917     79.3736      2.3272      0.0493     32.9419     93.4987    -55.3975      8.0428      6.4839      6.0327 
  3675.5000     17.9915     80.4498      2.2742      0.0184     33.2866     96.1658    -55.5136      8.2302      6.8101      5.9889 
  3676.0000     17.9914     80.8440      2.2569     -0.0115     32.3189     90.9143    -55.5294      8.4220      7.1457      5.9635 
  3676.5000     17.9913     79.3662      2.2078     -0.0176     31.2295     91.3433    -55.5469      8.3790      7.4978      5.9544 
  3677.0000     17.9911     76.6765      2.1337     -0.0013     31.0379     92.6552    -55.3770      8.1750      7.4260      6.0390 
  3677.5000     17.9910     75.8065      2.0405      0.0109     30.9735     91.3161    -55.2635      7.9759      7.2041      6.1682 
  3678.0000     17.9909     75.4874      1.9473      0.0068     31.9788     92.5009    -55.1686      8.1098      6.9826      6.2549 
  3678.5000     17.9907     75.3678      1.9145     -0.0004     32.9841     91.2434    -55.0652      8.3012      6.8088      6.2790 
  3679.0000     17.9906     75.8519      1.9009     -0.0093     33.7959     87.7332    -55.0547      8.5086      6.8803      6.2337 
  3679.5000     17.9905     76.4240      1.9058     -0.0180     33.7810     88.9464    -55.0129      8.7212      7.0434      6.1845 
  3680.0000     17.9903     75.9408      1.9245     -0.0244     33.6820     90.2453    -54.9889      8.8772      7.2972      6.1358 
  3680.5000     17.9902     75.4801      1.9426     -0.0213     33.4799     90.7149    -55.0750      8.9638      7.3777      6.0874 
  3681.0000     17.9901     75.1967      1.9484     -0.0065     33.1760     92.0921    -55.4378      9.0512      7.3663      6.0531 
  3681.5000     17.9899     74.2835      1.9509      0.0023     33.0526     92.5314    -55.6334      8.9915      7.1460      6.0263 
  3682.0000     17.9898     72.1850      1.9571     -0.0041     33.2304     93.4190    -55.5268      8.8485      6.8525      5.9996 
  3682.5000     17.9897     70.5617      2.0252     -0.0048     33.7456     95.5884    -55.4910      8.6463      6.5711      6.0104 
  3683.0000     17.9896     70.5800      2.0512      0.0018     34.5936     95.1017    -55.5205      8.4488      6.3012      6.0649 
  3683.5000     17.9894     71.2103      2.0353      0.0126     35.3562     96.5509    -55.6365      8.2905      6.1135      5.9929 
  3684.0000     17.9893     70.8724      2.0007      0.0003     36.6136     94.6292    -55.7262      8.1303      5.9778      5.8780 
  3684.5000     17.9892     70.3278      1.9694     -0.0004     38.1056     93.1547    -55.7919      7.9012      5.8451      5.7509 
  3685.0000     17.9890     71.1577      1.9210     -0.0044     39.3121     92.4612    -55.7450      7.7087      5.7154      5.6174 
  3685.5000     17.9889     73.1608      1.8885     -0.0071     39.4723     90.5629    -55.5258      7.5209      5.6167      5.4871 
  3686.0000     17.9888     73.3661      1.8855     -0.0057     38.2867     94.5570    -55.2707      7.3376      5.5815      5.3714 
  3686.5000     17.9886     74.2468      1.9041      0.0027     37.2366     96.0711    -55.0460      7.3023      5.8216      5.3037 
  3687.0000     17.9885     75.5120      1.9831      0.0231     36.6224     95.4728    -54.9042      7.5325      6.1131      5.2367 
  3687.5000     17.9884     75.9402      2.1329      0.0476     35.8032     96.3299    -55.0834      7.8270      6.3276      5.3578 
  3688.0000     17.9882     76.9134      2.2920      0.0615     34.7391     98.3207    -54.8438      8.0431      6.2940      5.7366 
  3688.5000     17.9881     78.1503      2.4481      0.0603     33.4676     97.3477    -54.4522      8.0151      6.2847      6.1067 
  3689.0000     17.9880     78.0497      2.5075      0.0456     32.2880     94.8380    -53.6171      7.9481      6.2847      6.1485 
  3689.5000     17.9878     77.0281      2.5390      0.0550     32.0484     90.2011    -52.9967      8.2052      6.4033      6.1402 
  3690.0000     17.9877     77.0059      2.5259      0.0577     32.6658     86.1249    -53.2413      8.5493      6.6269      6.1181 
  3690.5000     17.9876     79.1225      2.4722      0.0339     33.6947     83.0728    -53.6121      8.9080      6.8489      6.0162 
  3691.0000     17.9874     80.9676      2.4713      0.0207     32.9324     82.9993    -53.9596      9.2816      7.1139      5.9017 
  3691.5000     17.9873     81.4423      2.5182      0.0153     30.5917     84.0681    -54.4374      9.4933      7.7503      5.8460 
  3692.0000     17.9872     80.8346      2.5903      0.0635     28.3263     85.7874    -54.7453      9.6403      8.6332      6.1634 
  3692.5000     17.9870     80.4507      2.6308      0.1009     26.0376     87.4467    -54.7848      9.7633      9.0078      6.6305 
  3693.0000     17.9869     80.3805      2.6008      0.0989     25.9589     88.1983    -54.4780      9.6136      8.8713      7.1275 
  3693.5000     17.9868     79.8904      2.5751      0.0849     26.5010     90.2128    -54.5943      9.2053      8.4904      7.1543 
  3694.0000     17.9867     79.1438      2.5370      0.0568     27.7238     89.1346    -54.9765      8.8144      8.1234      7.1813 
  3694.5000     17.9865     78.8274      2.5017      0.0257     28.8025     86.6066    -55.2790      8.8678      7.7722      7.1308 
  3695.0000     17.9864     78.9304      2.5044      0.0167     30.2609     86.9241    -55.2320      9.1556      7.5512      7.0441 
  3695.5000     17.9863     78.8467      2.5105      0.0154     31.1607     86.2537    -55.1441      9.3394      7.6645      6.8668 
  3696.0000     17.9861     79.2238      2.5065      0.0169     30.8705     86.0172    -55.0639      9.2925      7.9927      6.5627 
