~VERSION INFORMATION
 VERS.                           2.00:        CWLS LOG ASCII STANDARD - VERSION 2.00
 WRAP.                             NO:        ONE LINE PER DEPTH STEP
~WELL INFORMATION
#MNEM.UNIT                   DATA             INFORMATION
#----------             --------------        ------------------------------
 STRT.F                       79.0000:        START DEPTH
 STOP.F                     6686.0000:        STOP DEPTH
 STEP.F                        0.5000:        STEP VALUE
 NULL.                      -999.2500:        NULL VALUE
 COMP.                  HUSKY OIL CO.:        COMPANY  
 LOC .                   10  18N  16W:        LOCATION   
 DATE.                        3/28/81:        LOG DATE 
 WELL.           KUYANAK TEST WELL #1:        WELL     
 UWI .                   501632000300:        UNIQUE WELL ID 
 API .                   501632000300:        UNIQUE WELL IDENTIFIER 
 FLD .                        WILDCAT:        FIELD    
 CNTY.                    NORTH SLOPE:        COUNTY  
 STAT.                         ALASKA:        STATE   
 CTRY.                            USA:        COUNTRY 
 OPER.                  HUSKY OIL CO.:        OPERATOR  
 SRVC.                            440:        SERVICE COMPANY 
 LAT .                         0.0000:        LATITUDE
 LON .                         0.0000:        LONGITUDE
 DIGS.                             65:        DIGITIZING COMPANY 
~CURVE INFORMATION      
#MNEM        .UNIT         API CODE           CURVE DESCRIPTION
#-----------------      --------------        ------------------------------
 DEPT        .F                      :        1  DEPTH
 SP          .MV                     :        2  
 ILM         .OHMM                   :        3  
 ILD         .OHMM                   :        4  
 SFL         .OHMM                   :        5  
 LLD         .OHMM                   :        6  
 LLS         .OHMM                   :        7  
 MSFL        .OHMM                   :        8  
 NPHI        .%                      :        9  
 CAL         .IN                     :        10 
 GR          .GAPI                   :        11 
 RHOB        .G/C3                   :        12 
 DRHO        .G/C3                   :        13 
 DT          .US/F                   :        14 
~PARAMETER INFORMATION       
#MNEM.UNIT                  VALUE             DESCRIPTION OF MNEMONIC
#---------             ---------------        ------------------------------
 EKB .F                       28.0000:        KELLY BUSHING
 TD  .F                     6690.0000:        TOTAL DEPTH
 BS  .                         0.0000:        BIT SIZE
 CSIZ.                         0.0000:        CASING SIZE
 CBD .F                        0.0000:        CASING DRILLER 1
 CBL .F                        0.0000:        CASING LOGGER 1
~OTHER INFORMATION
~A    DEPTH          SP         ILM         ILD         SFL         LLD         LLS        MSFL        NPHI         CAL          GR        RHOB        DRHO          DT  
# ...
  5335.0000    -90.5227   -999.2500   -999.2500   -999.2500      5.9309      6.3332      2.4900     30.1097     12.0023     86.2084      2.2310      0.1665     89.0648  
  5335.5000    -90.6285   -999.2500   -999.2500   -999.2500      6.0329      6.4016      2.3392     30.3620     12.5575     87.0444      2.2547      0.1866     87.6001  
  5336.0000    -90.7344   -999.2500   -999.2500   -999.2500      5.9991      6.4542      2.1809     29.9951     12.0333     88.3536      2.2515      0.1876     91.3299  
  5336.5000    -90.7950   -999.2500   -999.2500   -999.2500      5.9559      6.4422      2.1927     29.6282     12.1236     89.1467      2.1947      0.1639     87.2386  
  5337.0000    -90.8454   -999.2500   -999.2500   -999.2500      5.8553      6.3648      3.4760     29.7844     12.6121     89.2690      2.1717      0.1689     85.8698  
  5337.5000    -90.8587   -999.2500   -999.2500   -999.2500      5.6569      6.2195      5.4961     30.0521     13.1491     90.0310      2.1536      0.1724     85.4097  
  5338.0000    -90.8478   -999.2500   -999.2500   -999.2500      5.4581      6.0678      3.9897     30.0115     13.2139     90.5657      2.1404      0.1596     85.0683  
  5338.5000    -90.4926   -999.2500   -999.2500   -999.2500      5.2689      5.9186      1.7673     30.2416     12.7168     90.9154      2.1809      0.1777     85.8722  
  5339.0000    -90.0403   -999.2500   -999.2500   -999.2500      5.0945      5.7730      2.8507     30.2266     12.1882     91.2394      2.2336      0.1924     86.5822  
  5339.5000    -90.0354   -999.2500   -999.2500   -999.2500      4.9341      5.6310      3.6088     29.7344     11.1359     90.8133      2.2716      0.1925     87.2942  
  5340.0000    -90.0740   -999.2500   -999.2500   -999.2500      4.7422      5.3307      2.4360     26.9805     11.1185     86.3868      2.3130      0.1831     88.5893  
  5340.5000    -90.1460   -999.2500   -999.2500   -999.2500      4.6331      5.0451      1.8402     24.2726     11.0189     80.4564      2.4046      0.2120     87.1858  
  5341.0000    -90.1976   -999.2500   -999.2500   -999.2500      4.6431      4.9108      1.6579     22.9933     10.7198     76.2492      2.4495      0.2046     87.5682  
  5341.5000    -90.1567   -999.2500   -999.2500   -999.2500      4.9099      5.1322      1.6705     22.1680     10.0420     74.4529      2.4874      0.1826     84.2900  
  5342.0000    -90.1159   -999.2500   -999.2500   -999.2500      5.5662      5.7499      2.3422     20.5896      9.7787     72.9952      2.5201      0.2144     83.6285  
  5342.5000    -90.0751   -999.2500   -999.2500   -999.2500      6.1125      6.4418      4.7353     19.9008     10.2148     72.4726      2.4498      0.2237     81.9198  
  5343.0000    -90.1652   -999.2500   -999.2500   -999.2500      7.0203      7.4637      6.9474     19.1862     10.5843     74.2213      2.3653      0.1990     81.0761  
  5343.5000    -90.2959   -999.2500   -999.2500   -999.2500      8.7088      8.8729      7.9358     18.4180     10.4584     76.1885      2.3563      0.1751     81.1897  
  5344.0000    -90.4266   -999.2500   -999.2500   -999.2500     10.5513     10.5483      8.5355     18.6833     10.6047     77.5609      2.3803      0.1596     81.7836  
  5344.5000    -90.5414   -999.2500   -999.2500   -999.2500     11.8161     12.0989      8.8296     19.3809     10.4985     76.8355      2.3946      0.0867     79.8879  
  5345.0000    -90.6521   -999.2500   -999.2500   -999.2500     11.0193     11.3875      7.4567     20.2901     10.5236     76.5112      2.4728      0.0746     79.5756  
  5345.5000    -90.7627   -999.2500   -999.2500   -999.2500      9.8483     10.3667      5.1430     20.9636      9.8572     75.0324      2.5488      0.1209     79.9975  
  5346.0000    -90.8245   -999.2500   -999.2500   -999.2500      8.9755      9.4374      5.7846     20.3865      9.7018     74.6941      2.5727      0.1296     80.6408  
  5346.5000    -90.8553   -999.2500   -999.2500   -999.2500      8.6406      8.7253      6.8573     19.1911     10.1705     74.7101      2.4917      0.1145     81.4870  
  5347.0000    -90.6119   -999.2500   -999.2500   -999.2500      8.6808      8.8730      6.9233     18.0784     10.6689     73.5200      2.4680      0.1497     81.9994  
  5347.5000    -90.3410   -999.2500   -999.2500   -999.2500      8.9162      9.0494      7.6219     17.6667     10.6607     71.2869      2.4482      0.1865     82.1342  
  5348.0000    -90.0967   -999.2500   -999.2500   -999.2500      9.4986      9.5998      8.3714     16.8957     10.4590     70.2903      2.3981      0.1856     81.8141  
  5348.5000    -89.8525   -999.2500   -999.2500   -999.2500     10.2119     10.1836      8.8352     16.1247     10.2712     71.5811      2.3979      0.1769     81.3178  
  5349.0000    -89.6501   -999.2500   -999.2500   -999.2500     10.5823     10.8029      9.1057     16.7001     10.0565     72.7794      2.3887      0.1620     80.0776  
  5349.5000    -89.4916   -999.2500   -999.2500   -999.2500     10.6437     11.4122      8.8861     17.4053     10.3118     72.8878      2.3799      0.1649     78.3765  
  5350.0000    -89.3332   -999.2500   -999.2500   -999.2500     10.8087     11.4360      8.7555     18.1104     10.0587     72.1616      2.3933      0.1831     78.0632  
  5350.5000    -89.2657   -999.2500   -999.2500   -999.2500     10.9010     11.4598      8.6379     17.9889     10.1307     71.3317      2.4462      0.2069     78.5592  
  5351.0000    -89.2399   -999.2500   -999.2500   -999.2500     11.0023     11.4836      8.3480     17.0854     10.5020     71.6832      2.4547      0.1771     78.6054  
  5351.5000    -89.2142   -999.2500   -999.2500   -999.2500     10.5776     11.2186      7.7299     16.2363     10.2206     72.6860      2.4369      0.1488     78.9000  
  5352.0000    -89.1945   -999.2500   -999.2500   -999.2500      9.9315     10.4953      5.7957     15.8689      9.9063     72.5605      2.4730      0.1546     79.6573  
  5352.5000    -89.1895   -999.2500   -999.2500   -999.2500      9.7630     10.2827      3.5238     15.5154     10.0497     70.4250      2.4567      0.1479     80.1805  
  5353.0000    -89.1845   -999.2500   -999.2500   -999.2500      9.7675     10.3175      3.4731     15.5423     10.1874     69.5849      2.4650      0.1554     79.7856  
  5353.5000    -89.1795   -999.2500   -999.2500   -999.2500     10.2647     10.3962      6.2401     16.1213      9.9469     70.5617      2.4565      0.1617     79.3310  
  5354.0000    -89.1745   -999.2500   -999.2500   -999.2500     10.5803     10.9360      8.0507     18.0369      9.8798     71.7048      2.4565      0.1751     78.7121  
  5354.5000    -89.1278   -999.2500   -999.2500   -999.2500     11.0370     11.4858      7.6958     20.6281     10.1316     72.7580      2.4377      0.1422     78.2712  
  5355.0000    -89.0506   -999.2500   -999.2500   -999.2500     11.4510     11.5984      7.7887     22.5548     10.1773     73.6653      2.3987      0.0675     78.2361  
  5355.5000    -88.9734   -999.2500   -999.2500   -999.2500     11.6076     11.8360      8.0637     22.3855      9.8547     73.9428      2.4133      0.0019     78.5061  
  5356.0000    -88.8963   -999.2500   -999.2500   -999.2500     11.6114     12.1846      8.2651     20.4214      9.2056     73.2020      2.4059      0.0386     78.6987  
  5356.5000    -88.8996   -999.2500   -999.2500   -999.2500     11.2336     11.8805      8.0279     18.9892      9.6599     72.8392      2.3694      0.1550     78.2964  
  5357.0000    -89.0278   -999.2500   -999.2500   -999.2500     10.4529     10.8716      5.8445     18.8959     10.3791     73.8823      2.3257      0.1861     79.1224  
  5357.5000    -89.1491   -999.2500   -999.2500   -999.2500      9.5428      9.9086      4.6498     19.8082     10.1716     76.0378      2.3536      0.2082     77.7498  
  5358.0000    -89.2015   -999.2500   -999.2500   -999.2500      9.6973     10.0107      6.0468     20.7205     10.3175     77.6560      2.3396      0.2281     77.3664  
  5358.5000    -89.2539   -999.2500   -999.2500   -999.2500     11.1163     11.5768      8.7403     21.4145     10.4634     79.3618      2.3023      0.2243     76.5699  
