~VERSION INFORMATION
 VERS.                           2.00:        CWLS LOG ASCII STANDARD - VERSION 2.00
 WRAP.                             NO:        ONE LINE PER DEPTH STEP
~WELL INFORMATION
#MNEM.UNIT                   DATA             INFORMATION
#----------             --------------        ------------------------------
 STRT.F                      372.0000:        START DEPTH
 STOP.F                     9939.0000:        STOP DEPTH
 STEP.F                        0.5000:        STEP VALUE
 NULL.                      -999.2500:        NULL VALUE
 COMP.                     USGS/NPR-A:        COMPANY
 LOC .                     31 15E 19W:        LOCATION
 DATE.                        4/30/78:        LOG DATE
 WELL.                 SOUTH MEADE #1:        WELL
 UWI .                   501632000100:        UNIQUE WELL ID
 API .                   501632000100:        UNIQUE WELL IDENTIFIER
 FLD .                        WILDCAT:        FIELD
 CNTY.                    NORTH SLOPE:        COUNTY
 STAT.                         ALASKA:        STATE
 CTRY.                            USA:        COUNTRY
 OPER.                     USGS/NPR-A:        OPERATOR
 SRVC.                   SCHLUMBERGER:        SERVICE COMPANY
 LAT .                         0.0000:        LATITUDE
 LON .                         0.0000:        LONGITUDE
 DIGS.               CENTER LINE DATA:        DIGITIZING COMPANY
~CURVE INFORMATION      
#MNEM        .UNIT         API CODE           CURVE DESCRIPTION
#-----------------      --------------        ------------------------------
 DEPT        .F                      :        1  DEPTH
 CALI        .IN                     :        2  
 GR          .GAPI                   :        3  
 RHOB        .G/C3                   :        4  
 DRHO        .G/C3                   :        5  
 NPHI        .%                      :        6  
 DT          .US/F                   :        7  
 SP          .MV                     :        8  
 ILD         .OHMM                   :        9  
 ILM         .OHMM                   :        10 
 LL8         .OHMM                   :        11 
~PARAMETER INFORMATION
#MNEM.UNIT                  VALUE             DESCRIPTION OF MNEMONIC
#---------             ---------------        ------------------------------
 EKB .F                       60.0000:        KELLY BUSHING
 TD  .F                     9945.0000:        TOTAL DEPTH
 BHT .F                      214.0000:        BOTTOM HOLE TEMPERATURE
 BS  .                        12.2500:        BIT SIZE
 FD  .                        11.5000:        FLUID DENSITY
 CSIZ.                        13.3750:        CASING SIZE
 CBD .F                     2615.0000:        CASING DRILLER 1
 CBL .F                     2614.0000:        CASING LOGGER 1
 DFT .                  MISCELLANEOUS:        TYPE FLUID IN HOLE
 DFV .                        98.0000:        VISCOSITY
 DFPH.                        10.0000:        PH
 DFL .                         3.6000:        FLUID LOSS
 RMS .                         1.7900:        RM
 MST .F                       61.0000:        RM MEAS. TEMP.
 RMF .                         1.2800:        RMF
 MFST.F                       49.0000:        RMF MEAS. TEMP.
 RMC .                         2.4600:        RMC
 MCST.F                       59.0000:        RMC MEAS. TEMP.
~OTHER INFORMATION
~A    DEPTH        CALI          GR        RHOB        DRHO        NPHI          DT          SP         ILD         ILM         LL8 
# ...
  1775.0000   -999.2500     82.0840   -999.2500   -999.2500   -999.2500    100.8644    -17.6183     11.9751     10.1092     10.5607 
  1775.5000   -999.2500     81.1593   -999.2500   -999.2500   -999.2500    101.4565    -18.4396     12.0224     10.1315     10.5394 
  1776.0000   -999.2500     82.5669   -999.2500   -999.2500   -999.2500    101.4695    -18.7961     12.0699     10.1538     10.4554 
  1776.5000   -999.2500     83.9744   -999.2500   -999.2500   -999.2500    101.1323    -19.4825     12.0364     10.1761     10.3778 
  1777.0000   -999.2500     85.5122   -999.2500   -999.2500   -999.2500    100.7952    -20.2458     11.9898     10.1985     10.3338 
  1777.5000   -999.2500     86.1552   -999.2500   -999.2500   -999.2500    100.5035    -20.9765     11.9434     10.2209     10.2901 
  1778.0000   -999.2500     85.8133   -999.2500   -999.2500   -999.2500    100.4032    -21.7349     11.8972     10.1630     10.2465 
  1778.5000   -999.2500     84.4619   -999.2500   -999.2500   -999.2500    101.0222    -22.0389     11.8511     10.0823     10.2092 
  1779.0000   -999.2500     83.9379   -999.2500   -999.2500   -999.2500    101.3679    -22.2249     11.8053     10.0021     10.1954 
  1779.5000   -999.2500     84.5596   -999.2500   -999.2500   -999.2500    100.5602    -22.0512     11.7596      9.9226     10.1146 
  1780.0000   -999.2500     88.0793   -999.2500   -999.2500   -999.2500     99.8209    -21.7303     11.7140      9.8438     10.0345 
  1780.5000   -999.2500     90.7169   -999.2500   -999.2500   -999.2500     99.8277    -21.3174     11.6687      9.7655      9.9549 
  1781.0000   -999.2500     91.3680   -999.2500   -999.2500   -999.2500     99.3810    -20.8739     11.6235      9.6879      9.8760 
  1781.5000   -999.2500     89.4240   -999.2500   -999.2500   -999.2500    100.5877    -20.6612     11.5785      9.6109      9.7991 
  1782.0000   -999.2500     85.6918   -999.2500   -999.2500   -999.2500     99.0756    -20.8070     11.5337      9.5530      9.7667 
  1782.5000   -999.2500     83.8840   -999.2500   -999.2500   -999.2500     96.8744    -20.6497     11.4891      9.5530      9.7736 
  1783.0000   -999.2500     85.4358   -999.2500   -999.2500   -999.2500     95.6571    -20.0595     11.4446      9.5530      9.8665 
  1783.5000   -999.2500     87.6844   -999.2500   -999.2500   -999.2500     95.0394    -19.1645     11.5306      9.5746      9.9604 
  1784.0000   -999.2500     88.6740   -999.2500   -999.2500   -999.2500     94.1262    -17.9717     11.6222      9.6463     10.2064 
  1784.5000   -999.2500     87.0629   -999.2500   -999.2500   -999.2500     93.7136    -16.1784     11.7146      9.8652     10.8432 
  1785.0000   -999.2500     84.2047   -999.2500   -999.2500   -999.2500     92.2466    -14.8067     12.0316     10.3159     11.5384 
  1785.5000   -999.2500     81.6273   -999.2500   -999.2500   -999.2500     89.9836    -14.2010     12.5899     10.7870     12.2782 
  1786.0000   -999.2500     80.4325   -999.2500   -999.2500   -999.2500     87.9237    -14.4598     13.1740     11.2798     12.7233 
  1786.5000   -999.2500     80.5880   -999.2500   -999.2500   -999.2500     86.9759    -14.9143     13.7853     11.7950     13.1584 
  1787.0000   -999.2500     82.3527   -999.2500   -999.2500   -999.2500     86.8846    -15.0727     14.4250     12.3337     13.6084 
  1787.5000   -999.2500     84.1863   -999.2500   -999.2500   -999.2500     89.0643    -14.9956     15.0943     12.8817     14.0738 
  1788.0000   -999.2500     85.0766   -999.2500   -999.2500   -999.2500     91.5268    -14.9019     15.7947     13.4494     14.5551 
  1788.5000   -999.2500     84.4939   -999.2500   -999.2500   -999.2500     94.6960    -14.9598     16.5275     14.0420     14.9733 
  1789.0000   -999.2500     84.1715   -999.2500   -999.2500   -999.2500     96.2516    -15.6802     17.2944     14.6607     15.1629 
  1789.5000   -999.2500     84.4983   -999.2500   -999.2500   -999.2500     95.6840    -16.3626     17.0777     15.2234     15.0592 
  1790.0000   -999.2500     86.5691   -999.2500   -999.2500   -999.2500     94.4929    -16.6341     16.8109     15.0484     14.6853 
  1790.5000   -999.2500     88.3178   -999.2500   -999.2500   -999.2500     92.7479    -16.6531     16.5484     14.5327     14.1962 
  1791.0000   -999.2500     88.7597   -999.2500   -999.2500   -999.2500     91.9241    -17.3623     16.2899     13.9871     13.4758 
  1791.5000   -999.2500     88.4987   -999.2500   -999.2500   -999.2500     92.6943    -18.4513     16.0354     13.4621     13.0554 
  1792.0000   -999.2500     87.6401   -999.2500   -999.2500   -999.2500     93.8701    -18.6030     15.7930     12.9567     12.8623 
  1792.5000   -999.2500     85.5607   -999.2500   -999.2500   -999.2500     95.2090    -17.7981     15.5683     12.7827     12.7179 
  1793.0000   -999.2500     84.4289   -999.2500   -999.2500   -999.2500     94.7074    -16.9425     15.3467     12.7777     12.7836 
  1793.5000   -999.2500     85.1302   -999.2500   -999.2500   -999.2500     93.6995    -15.8650     15.1283     12.7728     12.8497 
  1794.0000   -999.2500     85.0212   -999.2500   -999.2500   -999.2500     93.0392    -14.1600     14.9130     12.7679     12.9161 
  1794.5000   -999.2500     84.7918   -999.2500   -999.2500   -999.2500     92.6492    -12.0173     14.7073     12.7629     12.9360 
  1795.0000   -999.2500     84.9072   -999.2500   -999.2500   -999.2500     93.5663    -10.5315     14.8221     12.7580     12.8358 
  1795.5000   -999.2500     84.8157   -999.2500   -999.2500   -999.2500     94.9188    -11.1593     14.9377     12.7531     12.7363 
  1796.0000   -999.2500     83.6826   -999.2500   -999.2500   -999.2500     95.8926    -11.9231     15.0543     12.6949     12.6444 
  1796.5000   -999.2500     81.2600   -999.2500   -999.2500   -999.2500     97.1595    -12.4182     15.1717     12.5198     12.5726 
  1797.0000   -999.2500     80.2667   -999.2500   -999.2500   -999.2500     97.2675    -13.0038     15.2014     12.3472     12.5012 
  1797.5000   -999.2500     79.3236   -999.2500   -999.2500   -999.2500     97.2921    -14.0238     15.0002     12.1769     12.4302 
  1798.0000   -999.2500     78.7098   -999.2500   -999.2500   -999.2500     99.2433    -15.6112     14.8017     12.0090     12.3596 
  1798.5000   -999.2500     79.5423   -999.2500   -999.2500   -999.2500     97.8104    -16.5956     14.6058     11.8434     12.2894 
  1799.0000   -999.2500     80.7779   -999.2500   -999.2500   -999.2500     95.0098    -16.8328     14.4125     11.6800     12.2196 
  1799.5000   -999.2500     83.3767   -999.2500   -999.2500   -999.2500     91.2722    -16.4614     14.2218     11.5190     12.1502 
  1800.0000   -999.2500     80.3321   -999.2500   -999.2500   -999.2500     95.1693    -15.3931     14.0336     11.3601     12.0726 
  1800.5000   -999.2500     83.2699   -999.2500   -999.2500   -999.2500     91.5166    -14.1722     13.8478     11.3183     11.9730 
  1801.0000   -999.2500     85.5608   -999.2500   -999.2500   -999.2500     88.6229    -13.7358     13.6646     11.2846     11.8741 
  1801.5000   -999.2500     86.9841   -999.2500   -999.2500   -999.2500     89.3629    -14.4704     13.4837     11.2510     11.7761 
  1802.0000   -999.2500     86.1236   -999.2500   -999.2500   -999.2500     93.2192    -15.1557     13.3053     11.2175     11.7212 
  1802.5000   -999.2500     82.8458   -999.2500   -999.2500   -999.2500     98.1286    -15.4000     13.1292     11.1841     11.7076 
  1803.0000   -999.2500     81.1026   -999.2500   -999.2500   -999.2500     98.8495    -15.2417     12.9554     11.1508     11.6962 
  1803.5000   -999.2500     81.7985   -999.2500   -999.2500   -999.2500     95.8442    -14.6317     12.8970     11.1176     11.7114 
  1804.0000   -999.2500     82.7139   -999.2500   -999.2500   -999.2500     92.1341    -13.8408     13.1209     11.0845     11.7266 
  1804.5000   -999.2500     82.7422   -999.2500   -999.2500   -999.2500     89.7344    -13.1890     13.3488     11.2879     12.1085 
  1805.0000   -999.2500     82.1307   -999.2500   -999.2500   -999.2500     87.2940    -12.1552     13.7564     11.9130     12.5497 
