~VERSION INFORMATION
 VERS.                           2.00:        CWLS LOG ASCII STANDARD - VERSION 2.00
 WRAP.                             NO:        ONE LINE PER DEPTH STEP
~WELL INFORMATION
#MNEM.UNIT                   DATA             INFORMATION
#----------             --------------        ------------------------------
 STRT.F                      372.0000:        START DEPTH
 STOP.F                     9939.0000:        STOP DEPTH
 STEP.F                        0.5000:        STEP VALUE
 NULL.                      -999.2500:        NULL VALUE
 COMP.                     USGS/NPR-A:        COMPANY
 LOC .                     31 15E 19W:        LOCATION
 DATE.                        4/30/78:        LOG DATE
 WELL.                 SOUTH MEADE #1:        WELL
 UWI .                   501632000100:        UNIQUE WELL ID
 API .                   501632000100:        UNIQUE WELL IDENTIFIER
 FLD .                        WILDCAT:        FIELD
 CNTY.                    NORTH SLOPE:        COUNTY
 STAT.                         ALASKA:        STATE
 CTRY.                            USA:        COUNTRY
 OPER.                     USGS/NPR-A:        OPERATOR
 SRVC.                   SCHLUMBERGER:        SERVICE COMPANY
 LAT .                         0.0000:        LATITUDE
 LON .                         0.0000:        LONGITUDE
 DIGS.               CENTER LINE DATA:        DIGITIZING COMPANY
~CURVE INFORMATION      
#MNEM        .UNIT         API CODE           CURVE DESCRIPTION
#-----------------      --------------        ------------------------------
 DEPT        .F                      :        1  DEPTH
 CALI        .IN                     :        2  
 GR          .GAPI                   :        3  
 RHOB        .G/C3                   :        4  
 DRHO        .G/C3                   :        5  
 NPHI        .%                      :        6  
 DT          .US/F                   :        7  
 SP          .MV                     :        8  
 ILD         .OHMM                   :        9  
 ILM         .OHMM                   :        10 
 LL8         .OHMM                   :        11 
~PARAMETER INFORMATION
#MNEM.UNIT                  VALUE             DESCRIPTION OF MNEMONIC
#---------             ---------------        ------------------------------
 EKB .F                       60.0000:        KELLY BUSHING
 TD  .F                     9945.0000:        TOTAL DEPTH
 BHT .F                      214.0000:        BOTTOM HOLE TEMPERATURE
 BS  .                        12.2500:        BIT SIZE
 FD  .                        11.5000:        FLUID DENSITY
 CSIZ.                        13.3750:        CASING SIZE
 CBD .F                     2615.0000:        CASING DRILLER 1
 CBL .F                     2614.0000:        CASING LOGGER 1
 DFT .                  MISCELLANEOUS:        TYPE FLUID IN HOLE
 DFV .                        98.0000:        VISCOSITY
 DFPH.                        10.0000:        PH
 DFL .                         3.6000:        FLUID LOSS
 RMS .                         1.7900:        RM
 MST .F                       61.0000:        RM MEAS. TEMP.
 RMF .                         1.2800:        RMF
 MFST.F                       49.0000:        RMF MEAS. TEMP.
 RMC .                         2.4600:        RMC
 MCST.F                       59.0000:        RMC MEAS. TEMP.
~OTHER INFORMATION
~A    DEPTH        CALI          GR        RHOB        DRHO        NPHI          DT          SP         ILD         ILM         LL8 
# ...
  2415.5000   -999.2500     70.0832   -999.2500   -999.2500   -999.2500     91.6835     -5.7568     10.8406     10.5115     12.2199 
  2416.0000   -999.2500     70.1783   -999.2500   -999.2500   -999.2500     91.4207     -6.0769     10.9101     10.5877     11.8880 
  2416.5000   -999.2500     70.5967   -999.2500   -999.2500   -999.2500     90.5779     -6.4111     10.9800     10.6644     11.5652 
  2417.0000   -999.2500     71.6121   -999.2500   -999.2500   -999.2500     92.4879     -6.1876     11.0504     10.7417     11.6829 
  2417.5000   -999.2500     73.0727   -999.2500   -999.2500   -999.2500     93.1914     -6.5270     11.1213     10.8195     12.1436 
  2418.0000   -999.2500     75.6544   -999.2500   -999.2500   -999.2500     93.1184     -7.5499     11.3476     10.8980     12.6306 
  2418.5000   -999.2500     77.7569   -999.2500   -999.2500   -999.2500     92.1479     -8.5324     11.6652     11.0473     13.0906 
  2419.0000   -999.2500     77.5487   -999.2500   -999.2500   -999.2500     91.5228     -8.5477     11.9916     11.2346     13.0483 
  2419.5000   -999.2500     77.0295   -999.2500   -999.2500   -999.2500     91.6626     -8.4108     12.3272     11.4251     13.0062 
  2420.0000   -999.2500     77.9669   -999.2500   -999.2500   -999.2500     92.5185     -8.3604     12.6722     11.6188     12.9744 
  2420.5000   -999.2500     79.6650   -999.2500   -999.2500   -999.2500     91.6321     -9.1791     13.0269     11.8158     13.5634 
  2421.0000   -999.2500     80.0309   -999.2500   -999.2500   -999.2500     90.0812     -9.7748     13.3914     12.0161     14.1791 
  2421.5000   -999.2500     79.5382   -999.2500   -999.2500   -999.2500     88.1995     -9.8092     13.6674     12.2199     14.2240 
  2422.0000   -999.2500     78.5034   -999.2500   -999.2500   -999.2500     85.8042     -8.8951     13.4951     12.2827     13.8674 
  2422.5000   -999.2500     78.5588   -999.2500   -999.2500   -999.2500     84.7222     -8.1029     13.3250     12.0401     13.5198 
  2423.0000   -999.2500     79.6763   -999.2500   -999.2500   -999.2500     86.3379     -7.2351     13.1571     11.8023     13.3564 
  2423.5000   -999.2500     81.4264   -999.2500   -999.2500   -999.2500     88.4148     -6.4624     12.9912     11.5692     13.6190 
  2424.0000   -999.2500     83.8297   -999.2500   -999.2500   -999.2500     90.3436     -5.6593     12.8349     11.5412     13.8868 
  2424.5000   -999.2500     82.9049   -999.2500   -999.2500   -999.2500     91.4287     -5.5951     12.8548     11.7317     13.6003 
  2425.0000   -999.2500     80.8690   -999.2500   -999.2500   -999.2500     90.3819     -5.7565     12.8746     11.8543     13.3654 
  2425.5000   -999.2500     79.4346   -999.2500   -999.2500   -999.2500     89.2474     -5.9179     12.8946     11.7731     13.6290 
  2426.0000   -999.2500     76.6434   -999.2500   -999.2500   -999.2500     87.4624     -5.8800     12.9145     11.6925     13.6984 
  2426.5000   -999.2500     74.6633   -999.2500   -999.2500   -999.2500     87.0487     -5.1326     12.9345     11.6125     13.1625 
  2427.0000   -999.2500     74.5265   -999.2500   -999.2500   -999.2500     88.3325     -4.1219     12.8915     11.4684     12.6476 
  2427.5000   -999.2500     75.6567   -999.2500   -999.2500   -999.2500     88.7673     -3.3109     12.4690     11.1576     12.1528 
  2428.0000   -999.2500     76.5962   -999.2500   -999.2500   -999.2500     91.0130     -3.7732     12.0602     11.1134     11.6773 
  2428.5000   -999.2500     77.4965   -999.2500   -999.2500   -999.2500     93.3000     -5.3560     11.6649     11.0851     11.7662 
  2429.0000   -999.2500     78.8482   -999.2500   -999.2500   -999.2500     92.8846     -6.8333     11.2826     11.0569     11.8710 
  2429.5000   -999.2500     81.0985   -999.2500   -999.2500   -999.2500     93.2686     -8.4319     10.9127     11.0288     12.0265 
  2430.0000   -999.2500     85.0649   -999.2500   -999.2500   -999.2500     92.1882     -9.7877     11.0443     11.1782     12.3741 
  2430.5000   -999.2500     84.1936   -999.2500   -999.2500   -999.2500     90.7808    -10.5122     11.3243     11.4425     12.3235 
  2431.0000   -999.2500     82.1908   -999.2500   -999.2500   -999.2500     90.8260    -10.9664     11.6115     11.7129     12.5831 
  2431.5000   -999.2500     81.3536   -999.2500   -999.2500   -999.2500     91.4603    -11.2343     12.2185     12.1092     13.0464 
  2432.0000   -999.2500     81.0923   -999.2500   -999.2500   -999.2500     90.6138    -11.2168     12.9184     12.7823     13.9670 
  2432.5000   -999.2500     80.5092   -999.2500   -999.2500   -999.2500     88.7006    -11.5876     13.6584     13.4929     15.0972 
  2433.0000   -999.2500     79.0857   -999.2500   -999.2500   -999.2500     85.4254    -12.3988     14.4408     14.2430     16.1647 
  2433.5000   -999.2500     75.1135   -999.2500   -999.2500   -999.2500     82.0974    -12.7404     15.2681     15.0348     17.3078 
  2434.0000   -999.2500     71.6216   -999.2500   -999.2500   -999.2500     79.3104    -12.8977     16.1427     15.8807     18.5317 
  2434.5000   -999.2500     69.1379   -999.2500   -999.2500   -999.2500     77.5641    -13.1244     17.0674     16.8582     19.8421 
  2435.0000   -999.2500     65.8843   -999.2500   -999.2500   -999.2500     78.6933    -13.6621     17.9413     17.8958     21.2452 
  2435.5000   -999.2500     64.3562   -999.2500   -999.2500   -999.2500     80.0097    -14.8022     18.7567     18.9973     22.7475 
  2436.0000   -999.2500     62.6280   -999.2500   -999.2500   -999.2500     81.9693    -15.5792     19.6091     20.1666     24.3560 
  2436.5000   -999.2500     61.2163   -999.2500   -999.2500   -999.2500     82.4701    -15.3160     20.5003     20.4905     25.3287 
  2437.0000   -999.2500     59.9796   -999.2500   -999.2500   -999.2500     80.3271    -14.7886     20.7935     20.0165     24.5408 
  2437.5000   -999.2500     58.1695   -999.2500   -999.2500   -999.2500     76.8626    -14.3425     19.8165     19.5534     23.1680 
  2438.0000   -999.2500     57.4749   -999.2500   -999.2500   -999.2500     73.2670    -14.1331     18.8853     18.9664     21.8719 
  2438.5000   -999.2500     57.0966   -999.2500   -999.2500   -999.2500     74.6922    -14.0461     17.9979     17.9208     20.6484 
  2439.0000   -999.2500     57.4684   -999.2500   -999.2500   -999.2500     77.7093    -13.5902     17.1522     16.9329     19.4933 
  2439.5000   -999.2500     58.2407   -999.2500   -999.2500   -999.2500     81.5150    -12.3200     16.6911     16.2805     19.0763 
  2440.0000   -999.2500     59.7907   -999.2500   -999.2500   -999.2500     85.9745    -10.8030     16.6299     15.8585     18.6912 
  2440.5000   -999.2500     63.7213   -999.2500   -999.2500   -999.2500     86.6342     -9.4429     16.5689     15.4956     18.3139 
  2441.0000   -999.2500     69.4894   -999.2500   -999.2500   -999.2500     84.7288     -7.8711     16.5081     15.2823     17.7010 
  2441.5000   -999.2500     72.5148   -999.2500   -999.2500   -999.2500     83.2785     -6.6798     16.4475     15.0719     16.9085 
  2442.0000   -999.2500     75.1284   -999.2500   -999.2500   -999.2500     82.1589     -6.2072     16.4991     14.9613     16.1515 
  2442.5000   -999.2500     77.3896   -999.2500   -999.2500   -999.2500     83.3307     -5.8761     16.6265     14.9902     15.4283 
  2443.0000   -999.2500     77.4872   -999.2500   -999.2500   -999.2500     84.7756     -5.5182     16.7256     15.1880     15.0919 
  2443.5000   -999.2500     76.7765   -999.2500   -999.2500   -999.2500     85.9547     -5.1809     16.8116     15.5594     16.3057 
  2444.0000   -999.2500     76.8298   -999.2500   -999.2500   -999.2500     85.4943     -5.1158     16.8981     15.9924     17.6171 
  2444.5000   -999.2500     75.0517   -999.2500   -999.2500   -999.2500     84.2064     -5.8332     17.0247     16.4360     18.9629 
  2445.0000   -999.2500     70.9642   -999.2500   -999.2500   -999.2500     82.8246     -6.8791     17.1615     16.5437     18.7612 
  2445.5000   -999.2500     68.0747   -999.2500   -999.2500   -999.2500     81.1135     -8.0579     17.2995     16.6071     18.5617 
