~VERSION INFORMATION
 VERS.                           2.00:        CWLS LOG ASCII STANDARD - VERSION 2.00
 WRAP.                             NO:        ONE LINE PER DEPTH STEP
~WELL INFORMATION
#MNEM.UNIT                   DATA             INFORMATION
#----------             --------------        ------------------------------
 STRT.F                      372.0000:        START DEPTH
 STOP.F                     9939.0000:        STOP DEPTH
 STEP.F                        0.5000:        STEP VALUE
 NULL.                      -999.2500:        NULL VALUE
 COMP.                     USGS/NPR-A:        COMPANY
 LOC .                     31 15E 19W:        LOCATION
 DATE.                        4/30/78:        LOG DATE
 WELL.                 SOUTH MEADE #1:        WELL
 UWI .                   501632000100:        UNIQUE WELL ID
 API .                   501632000100:        UNIQUE WELL IDENTIFIER
 FLD .                        WILDCAT:        FIELD
 CNTY.                    NORTH SLOPE:        COUNTY
 STAT.                         ALASKA:        STATE
 CTRY.                            USA:        COUNTRY
 OPER.                     USGS/NPR-A:        OPERATOR
 SRVC.                   SCHLUMBERGER:        SERVICE COMPANY
 LAT .                         0.0000:        LATITUDE
 LON .                         0.0000:        LONGITUDE
 DIGS.               CENTER LINE DATA:        DIGITIZING COMPANY
~CURVE INFORMATION      
#MNEM        .UNIT         API CODE           CURVE DESCRIPTION
#-----------------      --------------        ------------------------------
 DEPT        .F                      :        1  DEPTH
 CALI        .IN                     :        2  
 GR          .GAPI                   :        3  
 RHOB        .G/C3                   :        4  
 DRHO        .G/C3                   :        5  
 NPHI        .%                      :        6  
 DT          .US/F                   :        7  
 SP          .MV                     :        8  
 ILD         .OHMM                   :        9  
 ILM         .OHMM                   :        10 
 LL8         .OHMM                   :        11 
~PARAMETER INFORMATION
#MNEM.UNIT                  VALUE             DESCRIPTION OF MNEMONIC
#---------             ---------------        ------------------------------
 EKB .F                       60.0000:        KELLY BUSHING
 TD  .F                     9945.0000:        TOTAL DEPTH
 BHT .F                      214.0000:        BOTTOM HOLE TEMPERATURE
 BS  .                        12.2500:        BIT SIZE
 FD  .                        11.5000:        FLUID DENSITY
 CSIZ.                        13.3750:        CASING SIZE
 CBD .F                     2615.0000:        CASING DRILLER 1
 CBL .F                     2614.0000:        CASING LOGGER 1
 DFT .                  MISCELLANEOUS:        TYPE FLUID IN HOLE
 DFV .                        98.0000:        VISCOSITY
 DFPH.                        10.0000:        PH
 DFL .                         3.6000:        FLUID LOSS
 RMS .                         1.7900:        RM
 MST .F                       61.0000:        RM MEAS. TEMP.
 RMF .                         1.2800:        RMF
 MFST.F                       49.0000:        RMF MEAS. TEMP.
 RMC .                         2.4600:        RMC
 MCST.F                       59.0000:        RMC MEAS. TEMP.
~OTHER INFORMATION
~A    DEPTH        CALI          GR        RHOB        DRHO        NPHI          DT          SP         ILD         ILM         LL8 
# ...
  3025.5000     17.9756     65.4525      2.0255      0.0133     37.8465     92.0190    -54.7515     11.0434      9.1031      9.8029 
  3026.0000     17.9756     64.3281      2.0306      0.0137     37.5951     94.5685    -55.5162     11.3315      9.3493      9.9796 
  3026.5000     17.9757     64.2807      2.0385      0.0178     37.2874     92.8439    -55.9148     11.3310      9.4941     10.0805 
  3027.0000     17.9757     64.0075      2.0296      0.0152     37.0996     93.3744    -56.3999     10.9457      9.5281     10.0806 
  3027.5000     17.9757     63.5757      2.0148      0.0075     37.9735     89.6980    -56.3785     10.6104      9.4624      9.9549 
  3028.0000     17.9758     64.0159      2.0077      0.0243     40.6741     87.1528    -56.3430     10.5733      8.6876      9.6114 
  3028.5000     17.9758     65.1017      1.9980      0.0292     39.8662     89.8341    -55.0226     10.9665      7.1616      9.1784 
  3029.0000     17.9758     66.1251      1.9980      0.0179     38.1657     85.3144    -53.9287     11.3744      7.4363      8.8656 
  3029.5000     17.9758     67.0199      1.9979      0.0204     36.4652     84.2552    -51.8314     11.4371      7.8939      8.6942 
  3030.0000     17.9759     66.5700      2.0122      0.0281     35.0102     82.5766    -49.9542     10.8924      8.3780      8.8527 
  3030.5000     17.9759     64.0382      2.0489      0.0358     35.0731     83.6945    -48.6044     10.3294      8.4592      9.1463 
  3031.0000     17.9759     62.1805      2.0627      0.0324     35.5371     83.6679    -50.1139     10.0220      8.4343      9.1212 
  3031.5000     17.9760     61.9910      2.0720      0.0252     36.0382     86.8707    -52.4590      9.9652      7.9759      9.1060 
  3032.0000     17.9760     62.3655      2.0992      0.0268     36.1617     90.7388    -54.0941     10.1907      8.0571      9.2671 
  3032.5000     17.9760     62.5113      2.1055      0.0231     35.1048     92.8032    -55.0860     10.8819      8.7520      9.7199 
  3033.0000     17.9761     61.2834      2.0961      0.0228     34.2144     94.1072    -55.6843     11.6200      9.5067     10.1475 
  3033.5000     17.9761     61.1979      2.1006      0.0325     34.0551     87.2577    -56.2330     11.8720      9.6227     10.5408 
  3034.0000     17.9761     61.0925      2.1073      0.0456     33.6315     82.4160    -56.1920     11.7189      9.4191     10.7581 
  3034.5000     17.9762     59.9724      2.0891      0.0417     32.8088     83.8073    -55.8983     11.5716      9.4079     10.7273 
  3035.0000     17.9762     59.5762      2.0620      0.0270     31.9033     88.0219    -55.3415     11.4263      9.3997     10.5744 
  3035.5000     17.9762     60.9007      2.0611      0.0276     30.9978     84.8117    -54.5544     11.3103      9.5053     10.5429 
  3036.0000     17.9762     62.9454      2.0756      0.0315     30.3507     89.7015    -54.1212     11.2929      9.9228     10.7958 
  3036.5000     17.9763     63.0751      2.0663      0.0207     30.5460     94.8217    -54.2200     12.1736     10.3718     11.3028 
  3037.0000     17.9763     60.7473      2.0820      0.0266     31.3629     96.0098    -55.2429     13.3229     10.7909     11.8337 
  3037.5000     17.9763     59.8710      2.1009      0.0373     31.9037     96.6309    -56.7206     13.9713     11.2269     12.3894 
  3038.0000     17.9764     60.7263      2.0959      0.0384     31.5938    110.3582    -58.4934     14.4443     11.6424     12.8843 
  3038.5000     17.9764     60.1962      2.0592      0.0214     31.4006    133.6663    -58.8260     14.7515     12.0102     13.1884 
  3039.0000     17.9764     58.8296      2.0003      0.0145     31.9613     68.4774    -58.5668     14.7271     12.3304     13.3509 
  3039.5000     17.9765     57.4584      1.9997      0.0128     34.0292     82.4954    -58.2873     14.3769     11.6877     13.3256 
  3040.0000     17.9765     56.3130      2.0230      0.0178     36.0971     96.5134    -57.9491     14.0423      9.8490     12.8646 
  3040.5000     17.9765     55.7995      2.0553      0.0312     36.5067     89.6886    -57.5527     13.7154      9.0975     12.2894 
  3041.0000     17.9765     54.5700      2.0894      0.0433     34.7803     71.0557    -56.4188     13.4316      9.8155     12.5176 
  3041.5000     17.9766     53.9617      2.1015      0.0508     32.2079     91.8295    -55.2849     13.2238     10.9973     12.8741 
  3042.0000     17.9766     53.7788      2.1008      0.0388     31.2838    113.5786    -55.4684     13.7598     12.2389     13.2146 
  3042.5000     17.9766     53.3553      2.0974      0.0310     30.8911     89.2369    -56.3579     14.4372     12.8671     13.7471 
  3043.0000     17.9767     52.5004      2.1101      0.0277     30.6063     71.2269    -58.3539     15.2277     13.5837     14.4687 
  3043.5000     17.9767     49.6427      2.1246      0.0408     30.2325     55.5460    -60.6744     16.0615     14.3731     15.3275 
  3044.0000     17.9767     48.0040      2.1221      0.0339     29.2570     69.2295    -62.6830     17.0617     15.2084     15.6904 
  3044.5000     17.9768     49.9496      2.1155      0.0220     27.6314     88.3967    -62.7797     18.4867     16.0923     16.0410 
  3045.0000     17.9768     52.2912      2.1150      0.0126     26.6555     90.7672    -62.9210     20.0307     16.2567     16.3995 
  3045.5000     17.9768     53.9853      2.1398      0.0329     27.2450     87.9807    -62.6273     21.4241     16.2162     16.7659 
  3046.0000     17.9769     55.7511      2.1328      0.0510     29.3279     83.0191    -61.7474     20.7618     16.1751     17.1406 
  3046.5000     17.9769     57.3239      2.1290      0.0461     31.5270     83.4966    -60.5002     19.3582     13.8857     17.3578 
  3047.0000     17.9769     58.1427      2.1442      0.0590     33.5292     82.0569    -59.2423     18.0495     11.4373     17.3249 
  3047.5000     17.9769     57.9169      2.1354      0.0603     34.5389     83.4253    -57.9937     16.8292     10.2494     16.0466 
  3048.0000     17.9770     56.8420      2.1245      0.0467     33.8956     84.2918    -58.3852     16.2242     11.3028     14.6444 
  3048.5000     17.9770     55.6957      2.1333      0.0487     32.8583     85.7333    -60.3405     16.7779     12.6005     13.9716 
  3049.0000     17.9770     54.6199      2.1440      0.0544     30.9433     86.6917    -61.1466     18.8421     13.2044     13.6527 
  3049.5000     17.9771     54.4417      2.1485      0.0632     29.0282     84.9310    -61.4284     19.7114     13.6958     14.4077 
  3050.0000     17.9771     54.7485      2.1521      0.0502     28.9206     83.4899    -61.3365     19.4412     14.7152     15.2882 
  3050.5000     17.9771     54.9859      2.1228      0.0493     30.0239     82.5203    -61.2426     18.9659     15.6977     15.8265 
  3051.0000     17.9772     53.7581      2.1076      0.0465     30.9938     83.8393    -60.6753     18.6524     15.8016     15.5857 
  3051.5000     17.9772     52.2380      2.0986      0.0382     30.3997     85.0729    -60.2416     18.4996     15.4645     14.6912 
  3052.0000     17.9772     50.3191      2.0932      0.0281     29.3704     83.0822    -59.4644     19.4297     15.0417     14.2976 
  3052.5000     17.9772     48.4571      2.1053      0.0199     28.0871     82.4668    -59.2203     20.5616     16.2590     14.3874 
  3053.0000     17.9773     47.8943      2.1147      0.0307     27.4550     81.8131    -59.2222     21.3238     19.9776     15.3642 
  3053.5000     17.9773     48.2158      2.1065      0.0364     28.0013     80.9468    -59.2347     21.0684     20.4968     16.2725 
  3054.0000     17.9773     49.0666      2.0985      0.0314     28.8224     78.4939    -59.9464     20.6139     20.3975     17.0260 
  3054.5000     17.9774     51.1324      2.0822      0.0345     29.4924     85.6145    -61.0186     21.2604     20.6773     17.2384 
  3055.0000     17.9774     56.1102      2.0466      0.0300     30.2219     90.1326    -62.1024     23.4884     21.3558     16.8494 
  3055.5000     17.9774     60.0412      2.0064      0.0164     30.9514     97.1698    -62.5703     27.1023     21.5540     16.3022 
