~VERSION INFORMATION
 VERS.                           2.00:        CWLS LOG ASCII STANDARD - VERSION 2.00
 WRAP.                             NO:        ONE LINE PER DEPTH STEP
~WELL INFORMATION
#MNEM.UNIT                   DATA             INFORMATION
#----------             --------------        ------------------------------
 STRT.F                       79.0000:        START DEPTH
 STOP.F                     6686.0000:        STOP DEPTH
 STEP.F                        0.5000:        STEP VALUE
 NULL.                      -999.2500:        NULL VALUE
 COMP.                  HUSKY OIL CO.:        COMPANY  
 LOC .                   10  18N  16W:        LOCATION   
 DATE.                        3/28/81:        LOG DATE 
 WELL.           KUYANAK TEST WELL #1:        WELL     
 UWI .                   501632000300:        UNIQUE WELL ID 
 API .                   501632000300:        UNIQUE WELL IDENTIFIER 
 FLD .                        WILDCAT:        FIELD    
 CNTY.                    NORTH SLOPE:        COUNTY  
 STAT.                         ALASKA:        STATE   
 CTRY.                            USA:        COUNTRY 
 OPER.                  HUSKY OIL CO.:        OPERATOR  
 SRVC.                            440:        SERVICE COMPANY 
 LAT .                         0.0000:        LATITUDE
 LON .                         0.0000:        LONGITUDE
 DIGS.                             65:        DIGITIZING COMPANY 
~CURVE INFORMATION      
#MNEM        .UNIT         API CODE           CURVE DESCRIPTION
#-----------------      --------------        ------------------------------
 DEPT        .F                      :        1  DEPTH
 SP          .MV                     :        2  
 ILM         .OHMM                   :        3  
 ILD         .OHMM                   :        4  
 SFL         .OHMM                   :        5  
 LLD         .OHMM                   :        6  
 LLS         .OHMM                   :        7  
 MSFL        .OHMM                   :        8  
 NPHI        .%                      :        9  
 CAL         .IN                     :        10 
 GR          .GAPI                   :        11 
 RHOB        .G/C3                   :        12 
 DRHO        .G/C3                   :        13 
 DT          .US/F                   :        14 
~PARAMETER INFORMATION       
#MNEM.UNIT                  VALUE             DESCRIPTION OF MNEMONIC
#---------             ---------------        ------------------------------
 EKB .F                       28.0000:        KELLY BUSHING
 TD  .F                     6690.0000:        TOTAL DEPTH
 BS  .                         0.0000:        BIT SIZE
 CSIZ.                         0.0000:        CASING SIZE
 CBD .F                        0.0000:        CASING DRILLER 1
 CBL .F                        0.0000:        CASING LOGGER 1
~OTHER INFORMATION
~A    DEPTH          SP         ILM         ILD         SFL         LLD         LLS        MSFL        NPHI         CAL          GR        RHOB        DRHO          DT  
# ...
   967.0000    -29.1330      4.2364      5.4274      3.5029   -999.2500   -999.2500   -999.2500     42.8582     18.0040     91.0807      2.3918      0.0453    125.3582  
   967.5000    -29.2129      4.5660      5.3712      4.6953   -999.2500   -999.2500   -999.2500     42.3586     18.0040     90.3377      2.3642      0.0358    125.9902  
   968.0000    -29.1199      4.9213      5.4229      6.5280   -999.2500   -999.2500   -999.2500     42.5880     18.0040     87.4565      2.3733      0.0545    124.7774  
   968.5000    -28.9261      5.2498      5.7161      8.2588   -999.2500   -999.2500   -999.2500     43.3392     18.0041     84.7128      2.3828      0.0606    123.7684  
   969.0000    -28.7987      5.7026      6.2039      8.3993   -999.2500   -999.2500   -999.2500     44.3762     18.0041     84.9789      2.3795      0.0544    123.4977  
   969.5000    -28.6969      6.1979      6.7333      7.7531   -999.2500   -999.2500   -999.2500     45.6726     18.0041     85.8400      2.3762      0.0609    123.8710  
   970.0000    -28.7779      6.7363      7.1821      7.5746   -999.2500   -999.2500   -999.2500     46.5349     18.0041     86.5709      2.3729      0.0708    126.2802  
   970.5000    -29.0317      6.9923      7.6361      7.4002   -999.2500   -999.2500   -999.2500     47.5402     18.0041     88.0043      2.3841      0.0684    128.4736  
   971.0000    -29.2856      7.0447      7.8901      7.2297   -999.2500   -999.2500   -999.2500     47.7511     18.0041     89.1336      2.3872      0.0587    128.9181  
   971.5000    -29.4562      7.0976      7.9884      7.1847   -999.2500   -999.2500   -999.2500     47.3052     18.0041     89.0713      2.4010      0.0626    129.0749  
   972.0000    -29.5855      7.1195      8.0420      7.1580   -999.2500   -999.2500   -999.2500     47.7127     18.0041     89.2346      2.3934      0.0615    129.0746  
   972.5000    -29.6618      7.1096      7.9695      7.1313   -999.2500   -999.2500   -999.2500     48.6501     18.0041     90.2111      2.3771      0.0537    129.0799  
   973.0000    -29.6695      7.0996      7.8976      7.1048   -999.2500   -999.2500   -999.2500     48.6682     18.0041     91.5140      2.3855      0.0599    129.2554  
   973.5000    -29.6772      7.0897      7.8264      7.0672   -999.2500   -999.2500   -999.2500     47.9666     18.0041     92.9894      2.3955      0.0806    129.6320  
   974.0000    -29.6824      7.0798      7.7558      7.0224   -999.2500   -999.2500   -999.2500     47.3472     18.0041     92.4594      2.4002      0.0845    130.6576  
   974.5000    -29.5364      7.0695      7.6858      6.8353   -999.2500   -999.2500   -999.2500     46.9737     18.0041     92.3524      2.4079      0.0851    132.4872  
   975.0000    -29.3903      7.0585      7.6164      6.6359   -999.2500   -999.2500   -999.2500     47.0817     18.0041     92.7154      2.4043      0.0734    133.8375  
   975.5000    -29.2443      7.0474      7.5474      6.5845   -999.2500   -999.2500   -999.2500     47.1641     18.0041     92.3393      2.3990      0.0605    134.6970  
   976.0000    -29.1637      7.0364      7.4790      6.6396   -999.2500   -999.2500   -999.2500     46.9129     18.0041     92.4107      2.3902      0.0473    133.2903  
   976.5000    -29.1751      7.0254      7.4112      6.7099   -999.2500   -999.2500   -999.2500     46.8637     18.0041     93.4787      2.3766      0.0369    131.9203  
   977.0000    -29.1864      7.0144      7.3440      6.7810   -999.2500   -999.2500   -999.2500     47.8094     18.0042     95.4137      2.3776      0.0514    131.3511  
   977.5000    -29.2208      7.0034      7.2775      6.8475   -999.2500   -999.2500   -999.2500     48.5158     18.0042     96.2309      2.3708      0.0521    131.4300  
   978.0000    -29.2743      6.9780      7.2178      6.9095   -999.2500   -999.2500   -999.2500     48.4439     18.0042     95.5106      2.3659      0.0528    132.6313  
   978.5000    -29.3278      6.9475      7.1601      6.9879   -999.2500   -999.2500   -999.2500     47.8449     18.0042     94.5205      2.3779      0.0617    133.9409  
   979.0000    -29.3813      6.9171      7.1028      7.0672   -999.2500   -999.2500   -999.2500     46.5037     18.0042     93.9758      2.3833      0.0656    134.8766  
   979.5000    -29.4348      6.8868      7.0460      7.1474   -999.2500   -999.2500   -999.2500     44.9059     18.0042     92.3948      2.4055      0.0820    134.0827  
   980.0000    -29.2269      6.8334      6.9897      7.2286   -999.2500   -999.2500   -999.2500     43.0334     18.0042     91.6845      2.4019      0.0863    132.9081  
   980.5000    -29.1564      6.7534      6.9338      7.2482   -999.2500   -999.2500   -999.2500     41.7703     18.0042     91.4186      2.4068      0.0770    131.0327  
   981.0000    -29.1004      6.6743      6.8929      7.1640   -999.2500   -999.2500   -999.2500     41.7150     18.0042     90.5074      2.3997      0.0794    129.9076  
   981.5000    -29.0444      6.5961      6.8585      7.0753   -999.2500   -999.2500   -999.2500     42.8052     18.0042     90.3543      2.4082      0.0845    129.7246  
   982.0000    -28.9885      6.5121      6.8242      6.8924   -999.2500   -999.2500   -999.2500     44.5082     18.0042     90.6907      2.3999      0.0751    130.1268  
   982.5000    -28.9325      6.4141      6.7902      6.7142   -999.2500   -999.2500   -999.2500     46.2111     18.0042     91.0731      2.3868      0.0686    130.7567  
   983.0000    -28.8767      6.3175      6.7562      6.5601   -999.2500   -999.2500   -999.2500     47.6374     18.0042     90.7611      2.3949      0.0732    131.4036  
   983.5000    -28.9441      6.2224      6.7225      6.4348   -999.2500   -999.2500   -999.2500     48.6709     18.0042     89.3826      2.4079      0.0775    132.9822  
   984.0000    -29.1480      6.1820      6.6889      6.3392   -999.2500   -999.2500   -999.2500     48.9128     18.0042     87.5599      2.4053      0.0632    133.5444  
   984.5000    -29.3519      6.1914      6.6971      6.3460   -999.2500   -999.2500   -999.2500     47.7559     18.0042     87.4747      2.4108      0.0605    133.4166  
   985.0000    -29.5558      6.2008      6.7060      6.3528   -999.2500   -999.2500   -999.2500     47.0443     18.0042     87.4233      2.4125      0.0683    133.5221  
   985.5000    -29.7597      6.2102      6.7149      6.3597   -999.2500   -999.2500   -999.2500     46.5532     18.0043     86.7782      2.4182      0.0743    133.5358  
   986.0000    -29.7614      6.2197      6.7238      6.3682   -999.2500   -999.2500   -999.2500     46.2206     18.0043     85.7843      2.4127      0.0649    133.0197  
   986.5000    -29.7042      6.2291      6.7327      6.3849   -999.2500   -999.2500   -999.2500     45.8879     18.0043     86.6939      2.4047      0.0587    133.6720  
   987.0000    -29.6469      6.2386      6.7416      6.4017   -999.2500   -999.2500   -999.2500     45.5489     18.0043     89.2122      2.4020      0.0673    133.6160  
   987.5000    -29.0627      6.2391      6.7506      6.4184   -999.2500   -999.2500   -999.2500     45.4091     18.0043     91.4195      2.3911      0.0583    132.5857  
   988.0000    -28.6228      6.2391      6.7595      6.4308   -999.2500   -999.2500   -999.2500     46.5822     18.0043     92.7816      2.3536      0.0403    133.3106  
   988.5000    -28.5357      6.2392      6.7684      6.4263   -999.2500   -999.2500   -999.2500     48.1342     18.0043     92.7088      2.3562      0.0534    134.3160  
   989.0000    -28.6693      6.2393      6.7774      6.4218   -999.2500   -999.2500   -999.2500     50.0204     18.0043     92.7567      2.3670      0.0676    135.7305  
   989.5000    -28.9891      6.2393      6.7967      6.4172   -999.2500   -999.2500   -999.2500     51.9855     18.0043     93.1175      2.3818      0.0756    137.5972  
   990.0000    -29.3499      6.2394      6.8255      6.4127   -999.2500   -999.2500   -999.2500     51.0781     18.0043     94.3245      2.3700      0.0594    139.0906  
   990.5000    -29.7108      6.2395      6.8544      6.4081   -999.2500   -999.2500   -999.2500     49.8503     18.0043     94.7235      2.3534      0.0508    137.8538  
