~VERSION INFORMATION
 VERS.                           2.00:        CWLS LOG ASCII STANDARD - VERSION 2.00
 WRAP.                             NO:        ONE LINE PER DEPTH STEP
~WELL INFORMATION
#MNEM.UNIT                   DATA             INFORMATION
#----------             --------------        ------------------------------
 STRT.F                       79.0000:        START DEPTH
 STOP.F                     6686.0000:        STOP DEPTH
 STEP.F                        0.5000:        STEP VALUE
 NULL.                      -999.2500:        NULL VALUE
 COMP.                  HUSKY OIL CO.:        COMPANY  
 LOC .                   10  18N  16W:        LOCATION   
 DATE.                        3/28/81:        LOG DATE 
 WELL.           KUYANAK TEST WELL #1:        WELL     
 UWI .                   501632000300:        UNIQUE WELL ID 
 API .                   501632000300:        UNIQUE WELL IDENTIFIER 
 FLD .                        WILDCAT:        FIELD    
 CNTY.                    NORTH SLOPE:        COUNTY  
 STAT.                         ALASKA:        STATE   
 CTRY.                            USA:        COUNTRY 
 OPER.                  HUSKY OIL CO.:        OPERATOR  
 SRVC.                            440:        SERVICE COMPANY 
 LAT .                         0.0000:        LATITUDE
 LON .                         0.0000:        LONGITUDE
 DIGS.                             65:        DIGITIZING COMPANY 
~CURVE INFORMATION      
#MNEM        .UNIT         API CODE           CURVE DESCRIPTION
#-----------------      --------------        ------------------------------
 DEPT        .F                      :        1  DEPTH
 SP          .MV                     :        2  
 ILM         .OHMM                   :        3  
 ILD         .OHMM                   :        4  
 SFL         .OHMM                   :        5  
 LLD         .OHMM                   :        6  
 LLS         .OHMM                   :        7  
 MSFL        .OHMM                   :        8  
 NPHI        .%                      :        9  
 CAL         .IN                     :        10 
 GR          .GAPI                   :        11 
 RHOB        .G/C3                   :        12 
 DRHO        .G/C3                   :        13 
 DT          .US/F                   :        14 
~PARAMETER INFORMATION       
#MNEM.UNIT                  VALUE             DESCRIPTION OF MNEMONIC
#---------             ---------------        ------------------------------
 EKB .F                       28.0000:        KELLY BUSHING
 TD  .F                     6690.0000:        TOTAL DEPTH
 BS  .                         0.0000:        BIT SIZE
 CSIZ.                         0.0000:        CASING SIZE
 CBD .F                        0.0000:        CASING DRILLER 1
 CBL .F                        0.0000:        CASING LOGGER 1
~OTHER INFORMATION
~A    DEPTH          SP         ILM         ILD         SFL         LLD         LLS        MSFL        NPHI         CAL          GR        RHOB        DRHO          DT  
# ...
  2719.0000    -40.4099   -999.2500   -999.2500   -999.2500      7.7295      6.9301      4.6246     40.6549     15.7660     71.1644      2.2244   -999.2500     97.0789  
  2719.5000    -40.4818   -999.2500   -999.2500   -999.2500      7.7224      7.2304      4.4769     41.6376     15.7783     71.0186      2.1976   -999.2500     98.1283  
  2720.0000    -40.4691   -999.2500   -999.2500   -999.2500      9.0921      7.5560      3.6254     41.4463     15.8190     71.4704      2.1633   -999.2500     96.7219  
  2720.5000    -40.3462   -999.2500   -999.2500   -999.2500     10.0751      7.7810      2.7262     40.8263     15.7942     72.4610      2.1674   -999.2500     95.3719  
  2721.0000    -40.3102   -999.2500   -999.2500   -999.2500      7.9788      7.8340      2.3863     41.1817     15.6191     73.0443      2.1909   -999.2500     96.9302  
  2721.5000    -40.2743   -999.2500   -999.2500   -999.2500      7.0157      7.8874      2.6276     42.6374     15.6153     73.0247      2.2216   -999.2500     97.2049  
  2722.0000    -40.2383   -999.2500   -999.2500   -999.2500      6.8315      7.9411      3.1874     44.7414     15.4087     73.2266      2.2346   -999.2500     96.5394  
  2722.5000    -40.2024   -999.2500   -999.2500   -999.2500      6.6569      7.8247      3.4204     44.6154     15.5343     74.2957      2.2230   -999.2500     94.8433  
  2723.0000    -40.1014   -999.2500   -999.2500   -999.2500      6.5834      7.6624      3.5104     44.1476     16.2481     75.3648      2.2250   -999.2500     93.9371  
  2723.5000    -39.9653   -999.2500   -999.2500   -999.2500      6.5106      7.1713      3.6840     43.3482     16.5394     76.2062      2.2231   -999.2500     92.7388  
  2724.0000    -39.8292   -999.2500   -999.2500   -999.2500      6.4959      5.4840      3.7816     42.1915     16.2847     76.4627      2.2178   -999.2500     94.2432  
  2724.5000    -39.7048   -999.2500   -999.2500   -999.2500      6.5713      5.6712      3.6507     40.3371     15.9791     76.7808      2.2303   -999.2500     96.3285  
  2725.0000    -39.7156   -999.2500   -999.2500   -999.2500      6.6848      6.4309      3.6429     39.5121     15.5227     77.1538      2.2318   -999.2500     95.4241  
  2725.5000    -39.8108   -999.2500   -999.2500   -999.2500      6.7784      7.5740      3.5289     39.0329     15.6784     77.7462      2.2154   -999.2500     96.1762  
  2726.0000    -39.9060   -999.2500   -999.2500   -999.2500      6.8673      6.2821      3.2898     38.9484     15.9531     78.1486      2.2133   -999.2500     97.1432  
  2726.5000    -40.0012   -999.2500   -999.2500   -999.2500      6.9578      4.4642      3.1742     39.8902     15.6833     78.2781      2.2266   -999.2500     96.4581  
  2727.0000    -40.0964   -999.2500   -999.2500   -999.2500      7.0525      6.0945      3.1662     40.5530     14.9945     78.3068      2.2360   -999.2500     96.1347  
  2727.5000    -40.1916   -999.2500   -999.2500   -999.2500      7.1484      9.1748      3.4804     41.1710     15.1585     77.8216      2.2295   -999.2500     96.5654  
  2728.0000    -40.2868   -999.2500   -999.2500   -999.2500      7.2457      9.1462      4.4495     42.4124     15.5481     77.1651      2.2100   -999.2500     99.2875  
  2728.5000    -40.3820   -999.2500   -999.2500   -999.2500      7.3029      7.7744      5.6677     43.2516     15.2390     76.7059      2.1967   -999.2500    102.7044  
  2729.0000    -40.1779   -999.2500   -999.2500   -999.2500      7.1586      7.9155      5.5523     45.0540     15.3864     76.8338      2.1813   -999.2500    103.7903  
  2729.5000    -40.1847   -999.2500   -999.2500   -999.2500      7.0172      8.0591      4.9499     45.5927     15.2174     77.2605      2.1399   -999.2500    103.5873  
  2730.0000    -40.2097   -999.2500   -999.2500   -999.2500      6.8017      8.2008      4.2684     44.0256     14.6208     78.0413      2.0838   -999.2500     99.9338  
  2730.5000    -40.2318   -999.2500   -999.2500   -999.2500      6.5853      8.2008      4.0181     40.7075     13.6294     78.6169      2.0992   -999.2500     98.2126  
  2731.0000    -40.3150   -999.2500   -999.2500   -999.2500      6.3469      7.7513      3.6427     40.8424     13.5905     78.1743      2.1470   -999.2500     99.2422  
  2731.5000    -40.2707   -999.2500   -999.2500   -999.2500      6.0146      7.1420      3.0420     41.0358     14.1761     77.4994      2.1795   -999.2500     97.1226  
  2732.0000    -40.1426   -999.2500   -999.2500   -999.2500      5.7445      6.9845      2.2585     41.0934     14.8597     77.4642      2.1536   -999.2500     95.6486  
  2732.5000    -39.9650   -999.2500   -999.2500   -999.2500      5.6452      6.9143      1.3684     41.2439     15.3282     77.4338      2.1690   -999.2500     93.9896  
  2733.0000    -39.7875   -999.2500   -999.2500   -999.2500      5.7525      7.3837      1.2091     43.3003     16.0761     77.4033      2.2240   -999.2500     94.2700  
  2733.5000    -39.5602   -999.2500   -999.2500   -999.2500      5.8728      7.4730      1.5060     45.2653     16.6992     77.4118      2.2349   -999.2500     95.6009  
  2734.0000    -39.5152   -999.2500   -999.2500   -999.2500      6.4027      7.6714      2.3570     46.0909     16.4204     78.0810      2.2119   -999.2500     96.9644  
  2734.5000    -39.6503   -999.2500   -999.2500   -999.2500      7.0263      8.1544      4.2471     45.5114     14.1700     78.7503      2.2287   -999.2500     97.5422  
  2735.0000    -39.6461   -999.2500   -999.2500   -999.2500      7.4023      8.7207      5.7697     44.5630     13.9272     79.4032      2.2587   -999.2500     97.4112  
  2735.5000    -39.4743   -999.2500   -999.2500   -999.2500      7.1996      8.7992      6.2393     43.6050     14.0663     80.0660      2.2780   -999.2500     97.2901  
  2736.0000    -39.4613   -999.2500   -999.2500   -999.2500      5.4420      8.3404      6.0449     44.1373     14.7688     80.7987      2.2630   -999.2500     97.3181  
  2736.5000    -39.5319   -999.2500   -999.2500   -999.2500      6.2905      8.0803      5.9629     45.3926     14.9687     81.4111      2.2288   -999.2500     97.5245  
  2737.0000    -39.6752   -999.2500   -999.2500   -999.2500      6.7075      8.0333      5.9753     45.7768     14.6085     81.6407      2.1798   -999.2500     97.5816  
  2737.5000    -39.7436   -999.2500   -999.2500   -999.2500      6.4106      7.9424      5.9990     44.6487     14.9743     81.1825      2.1561   -999.2500     97.4463  
  2738.0000    -39.7147   -999.2500   -999.2500   -999.2500      6.1336      7.7096      5.9148     43.7447     15.9730     80.4438      2.1896   -999.2500     97.9274  
  2738.5000    -39.6920   -999.2500   -999.2500   -999.2500      6.5158      7.6439      5.4975     42.9741     16.8098     81.0482      2.2332   -999.2500     99.0051  
  2739.0000    -39.6937   -999.2500   -999.2500   -999.2500      6.8788      7.8319      5.0397     42.7603     16.8091     81.9755      2.2429   -999.2500     99.2489  
  2739.5000    -39.6954   -999.2500   -999.2500   -999.2500      7.0265     11.8769      4.9745     42.7270     16.4154     82.8101      2.2479   -999.2500     99.4848  
  2740.0000    -39.6968   -999.2500   -999.2500   -999.2500      6.6985      8.4815      5.0916     42.2659     15.8825     82.5819      2.2439   -999.2500     99.6433  
  2740.5000    -39.6981   -999.2500   -999.2500   -999.2500      6.5872      8.0270      5.0186     41.6988     15.2645     80.9907      2.2600   -999.2500     98.8614  
  2741.0000    -39.6995   -999.2500   -999.2500   -999.2500      6.6116      8.0174      4.0341     41.8162     15.2038     80.4928      2.2734   -999.2500     97.5249  
  2741.5000    -39.7008   -999.2500   -999.2500   -999.2500      6.6183      7.8547      3.1563     41.8328     15.0810     80.9588      2.2690   -999.2500     97.6353  
  2742.0000    -39.5049   -999.2500   -999.2500   -999.2500      6.5858      7.6954      2.6729     41.4356     14.4258     81.3686      2.2629   -999.2500     98.1260  
  2742.5000    -39.4775   -999.2500   -999.2500   -999.2500      6.5545      7.5347      2.8229     40.3664     13.1528     81.3013      2.2480   -999.2500     98.5472  
