~VERSION INFORMATION
 VERS.                           2.00:        CWLS LOG ASCII STANDARD - VERSION 2.00
 WRAP.                             NO:        ONE LINE PER DEPTH STEP
~WELL INFORMATION
#MNEM.UNIT                   DATA             INFORMATION
#----------             --------------        ------------------------------
 STRT.F                       79.0000:        START DEPTH
 STOP.F                     6686.0000:        STOP DEPTH
 STEP.F                        0.5000:        STEP VALUE
 NULL.                      -999.2500:        NULL VALUE
 COMP.                  HUSKY OIL CO.:        COMPANY  
 LOC .                   10  18N  16W:        LOCATION   
 DATE.                        3/28/81:        LOG DATE 
 WELL.           KUYANAK TEST WELL #1:        WELL     
 UWI .                   501632000300:        UNIQUE WELL ID 
 API .                   501632000300:        UNIQUE WELL IDENTIFIER 
 FLD .                        WILDCAT:        FIELD    
 CNTY.                    NORTH SLOPE:        COUNTY  
 STAT.                         ALASKA:        STATE   
 CTRY.                            USA:        COUNTRY 
 OPER.                  HUSKY OIL CO.:        OPERATOR  
 SRVC.                            440:        SERVICE COMPANY 
 LAT .                         0.0000:        LATITUDE
 LON .                         0.0000:        LONGITUDE
 DIGS.                             65:        DIGITIZING COMPANY 
~CURVE INFORMATION      
#MNEM        .UNIT         API CODE           CURVE DESCRIPTION
#-----------------      --------------        ------------------------------
 DEPT        .F                      :        1  DEPTH
 SP          .MV                     :        2  
 ILM         .OHMM                   :        3  
 ILD         .OHMM                   :        4  
 SFL         .OHMM                   :        5  
 LLD         .OHMM                   :        6  
 LLS         .OHMM                   :        7  
 MSFL        .OHMM                   :        8  
 NPHI        .%                      :        9  
 CAL         .IN                     :        10 
 GR          .GAPI                   :        11 
 RHOB        .G/C3                   :        12 
 DRHO        .G/C3                   :        13 
 DT          .US/F                   :        14 
~PARAMETER INFORMATION       
#MNEM.UNIT                  VALUE             DESCRIPTION OF MNEMONIC
#---------             ---------------        ------------------------------
 EKB .F                       28.0000:        KELLY BUSHING
 TD  .F                     6690.0000:        TOTAL DEPTH
 BS  .                         0.0000:        BIT SIZE
 CSIZ.                         0.0000:        CASING SIZE
 CBD .F                        0.0000:        CASING DRILLER 1
 CBL .F                        0.0000:        CASING LOGGER 1
~OTHER INFORMATION
~A    DEPTH          SP         ILM         ILD         SFL         LLD         LLS        MSFL        NPHI         CAL          GR        RHOB        DRHO          DT  
# ...
  2287.0000    -39.6873   -999.2500   -999.2500   -999.2500      6.0647      6.8504      2.7937     43.9538     14.2317     82.0001      2.0621   -999.2500    107.5412  
  2287.5000    -39.7011   -999.2500   -999.2500   -999.2500      5.9551      6.7670      2.4619     42.8341     14.4267     81.2780      2.1217   -999.2500    105.6532  
  2288.0000    -39.6975   -999.2500   -999.2500   -999.2500      5.8878      6.6845      2.7096     41.2783     15.2355     81.4678      2.1984   -999.2500    104.6890  
  2288.5000    -39.6918   -999.2500   -999.2500   -999.2500      5.9140      6.7039      3.1411     40.6956     15.6976     82.1442      2.2305   -999.2500    103.7097  
  2289.0000    -39.6861   -999.2500   -999.2500   -999.2500      5.9332      6.7295      3.3608     39.8191     15.2384     82.2020      2.2249   -999.2500    103.9625  
  2289.5000    -39.6814   -999.2500   -999.2500   -999.2500      5.9459      6.9416      3.1625     38.8919     13.9681     81.6401      2.2257   -999.2500    104.2106  
  2290.0000    -39.7111   -999.2500   -999.2500   -999.2500      5.9585      6.9948      3.0259     38.8213     13.7505     80.3839      2.2221   -999.2500    105.4575  
  2290.5000    -39.7407   -999.2500   -999.2500   -999.2500      6.1635      6.9543      3.0994     39.0790     13.9339     78.7613      2.2081   -999.2500    103.4333  
  2291.0000    -39.7704   -999.2500   -999.2500   -999.2500      6.3879      6.9198      3.1799     38.7268     13.9612     76.7270      2.1740   -999.2500    102.9673  
  2291.5000    -39.8001   -999.2500   -999.2500   -999.2500      6.6205      6.9250      3.4478     38.3613     14.3634     77.1218      2.1181   -999.2500    102.6975  
  2292.0000    -39.6323   -999.2500   -999.2500   -999.2500      6.4882      7.0962      3.8285     38.9296     15.7114     79.6868      2.0794   -999.2500    101.1759  
  2292.5000    -39.9321   -999.2500   -999.2500   -999.2500      6.2680      7.2014      4.0665     40.0849     16.1610     82.0831      2.0870   -999.2500    103.3527  
  2293.0000    -40.2319   -999.2500   -999.2500   -999.2500      6.1367      7.2177      4.1204     42.0410     16.7778     81.9174      2.1225   -999.2500    104.1713  
  2293.5000    -40.5316   -999.2500   -999.2500   -999.2500      6.1953      7.2340      4.1972     43.1334     16.0387     81.2028      2.1620   -999.2500    102.9703  
  2294.0000    -40.8314   -999.2500   -999.2500   -999.2500      6.3450      7.2502      4.2830     42.6410     15.2815     81.2684      2.1665   -999.2500    103.4155  
  2294.5000    -40.9862   -999.2500   -999.2500   -999.2500      6.4425      7.2612      4.3240     40.8633     15.3947     82.7487      2.1531   -999.2500    103.4355  
  2295.0000    -40.8880   -999.2500   -999.2500   -999.2500      6.4752      7.2172      4.4447     39.2849     15.6848     83.7949      2.1574   -999.2500    102.8569  
  2295.5000    -40.9778   -999.2500   -999.2500   -999.2500      6.5080      7.1034      4.6192     37.7958     16.1752     83.6516      2.1590   -999.2500    103.2336  
  2296.0000    -41.3072   -999.2500   -999.2500   -999.2500      6.5474      7.1055      4.7365     37.4089     16.4767     82.7196      2.1647   -999.2500    104.0615  
  2296.5000    -41.5363   -999.2500   -999.2500   -999.2500      6.5844      7.1735      4.7112     38.9613     16.5064     81.7875      2.1637   -999.2500    105.0228  
  2297.0000    -41.6370   -999.2500   -999.2500   -999.2500      6.5565      7.2421      4.3674     41.2575     16.2188     80.8555      2.1272   -999.2500    104.6209  
  2297.5000    -41.8138   -999.2500   -999.2500   -999.2500      6.5288      7.2381      3.9359     42.1286     15.8239     79.9235      2.0810   -999.2500    103.8057  
  2298.0000    -41.5842   -999.2500   -999.2500   -999.2500      6.1346      6.8838      4.0053     41.1312     15.5156     79.7733      2.1027   -999.2500    102.2977  
  2298.5000    -41.3679   -999.2500   -999.2500   -999.2500      5.8849      6.7166      4.6157     39.9747     15.5148     80.9760      2.1753   -999.2500    101.4621  
  2299.0000    -41.3398   -999.2500   -999.2500   -999.2500      6.0138      6.7396      4.7935     39.9861     15.6234     81.4750      2.2000   -999.2500    102.1881  
  2299.5000    -41.3849   -999.2500   -999.2500   -999.2500      6.2284      6.7627      4.7797     41.0881     15.8571     81.1731      2.2145   -999.2500    103.2935  
  2300.0000    -41.4532   -999.2500   -999.2500   -999.2500      6.4507      6.7858      4.6961     40.7570     15.9681     80.0077      2.1802   -999.2500    104.1018  
  2300.5000    -41.5165   -999.2500   -999.2500   -999.2500      6.6518      6.8091      4.5872     39.5352     16.0487     80.4539      2.1872   -999.2500    104.4971  
  2301.0000    -41.3769   -999.2500   -999.2500   -999.2500      6.6093      6.8114      4.2170     38.6701     16.0346     80.1263      2.2056   -999.2500    103.4422  
  2301.5000    -41.3018   -999.2500   -999.2500   -999.2500      6.5671      6.8099      3.7935     38.5610     16.0915     80.9080      2.2066   -999.2500    102.6796  
  2302.0000    -41.2665   -999.2500   -999.2500   -999.2500      6.5251      6.8083      3.7841     38.9821     16.3295     82.0209      2.2100   -999.2500    102.3997  
  2302.5000    -41.2410   -999.2500   -999.2500   -999.2500      6.5763      6.8487      4.4209     39.6123     16.5952     81.2030      2.2003   -999.2500    102.2048  
  2303.0000    -41.1365   -999.2500   -999.2500   -999.2500      6.6370      6.8912      4.7308     41.3568     16.9135     80.3851      2.1916   -999.2500    102.7690  
  2303.5000    -41.1513   -999.2500   -999.2500   -999.2500      6.7113      6.9697      4.6103     42.7685     16.9879     81.7875      2.1739   -999.2500    103.7022  
  2304.0000    -41.2623   -999.2500   -999.2500   -999.2500      6.8352      7.1258      4.0796     42.9805     16.7423     82.6361      2.1283   -999.2500    104.5183  
  2304.5000    -41.2606   -999.2500   -999.2500   -999.2500      6.9614      7.2853      3.3482     43.1077     16.3323     81.8527      2.1023   -999.2500    104.8608  
  2305.0000    -41.2424   -999.2500   -999.2500   -999.2500      7.0899      7.3599      2.5430     44.3601     16.8028     79.9030      2.1064   -999.2500    103.6674  
  2305.5000    -41.0735   -999.2500   -999.2500   -999.2500      6.9642      7.2028      1.6763     46.1611     17.0563     78.5301      2.0748   -999.2500    101.7068  
  2306.0000    -40.9469   -999.2500   -999.2500   -999.2500      6.6216      6.9730      1.2073     47.9220     16.5708     77.7529      2.0386   -999.2500    100.7630  
  2306.5000    -40.8801   -999.2500   -999.2500   -999.2500      6.2958      6.8105      1.5320     46.3565     15.8595     76.9547      2.0826   -999.2500    100.4388  
  2307.0000    -40.8133   -999.2500   -999.2500   -999.2500      6.2251      6.8440      2.0250     44.0484     15.4472     77.1184      2.1378   -999.2500     99.6850  
  2307.5000    -40.7465   -999.2500   -999.2500   -999.2500      6.1978      6.8776      2.2573     41.7392     15.2302     77.7952      2.1758   -999.2500     98.8255  
  2308.0000    -40.5623   -999.2500   -999.2500   -999.2500      6.1708      6.9115      2.6546     41.8356     14.8876     77.8903      2.1838   -999.2500    100.3636  
  2308.5000    -40.2521   -999.2500   -999.2500   -999.2500      6.1438      6.9455      3.7740     42.5105     14.6908     77.6805      2.1934   -999.2500    102.5673  
  2309.0000    -40.1108   -999.2500   -999.2500   -999.2500      6.1172      7.0068      4.5302     41.4592     15.0115     78.3818      2.2501   -999.2500    104.3000  
  2309.5000    -39.9695   -999.2500   -999.2500   -999.2500      6.1191      7.1271      4.3010     40.1946     15.3674     78.6406      2.2771   -999.2500    103.3154  
  2310.0000    -39.8282   -999.2500   -999.2500   -999.2500      6.0851      7.1563      2.9431     40.1201     15.7798     78.0476      2.2452   -999.2500    100.7524  
  2310.5000    -39.7263   -999.2500   -999.2500   -999.2500      6.0297      6.4943      2.5265     40.9875     15.5382     78.1042      2.2224   -999.2500     98.8688  
