~VERSION INFORMATION
 VERS.                      2.00:        CWLS LOG ASCII STANDARD - VERSION 2.00
 WRAP.                        NO:        ONE LINE PER DEPTH STEP
~WELL INFORMATION
#MNEM.UNIT               DATA            INFORMATION
#----------          ------------        ------------------------------
 STRT.F                 100.0000:        START DEPTH
 STOP.F                7938.0000:        STOP DEPTH
 STEP.F                   0.5000:        STEP VALUE
 NULL.                 -999.2500:        NULL VALUE
 COMP.                          :        COMPANY  
 WELL.             DREW POINT #1:        WELL     
 FLD .                   WILDCAT:        FIELD    
 LOC .              26  18N   8W:        LOCATION   
 CNTY.               NORTH SLOPE:        COUNTY  
 STAT.                    ALASKA:        STATE   
 CTRY.                       USA:        COUNTRY 
 DATE.                   1/17/78:        LOG DATE 
 API .              500292000200:        UNIQUE WELL IDENTIFIER 
 OPER.                          :        OPERATOR  
 SRVC.              Schlumberger:        SERVICE COMPANY 
 UWI .              500292000200:        UNIQUE WELL ID 
 LAT .                    0.0000:        LATITUDE
 LON .                    0.0000:        LONGITUDE
 DIGS.          Center Line Data:        DIGITIZING COMPANY 
~CURVE INFORMATION      
#MNEM.UNIT            API CODE           CURVE DESCRIPTION
#---------          -------------        ------------------------------
 DEPT.F                         :        1  DEPTH
 SP  .MV                        :        2
 ILD .OHMM                      :        3
 ILM .OHMM                      :        4
 LL8 .OHMM                      :        5
 GR  .GAPI                      :        6
 CALI.IN                        :        7
 DRHO.G/C3                      :        8
 RHOB.G/C3                      :        9
 NPHI.%                         :       10
 DT  .US/F                      :       11
~PARAMETER INFORMATION       
#MNEM.UNIT              VALUE            DESCRIPTION OF MNEMONIC
#---------          -------------        ------------------------------
 EKB .F                  35.0000:        KELLY BUSHING
 TD  .F                7946.0000:        TOTAL DEPTH
 BHT .F                  75.0000:        BOTTOM HOLE TEMPERATURE
 BS  .                   17.5000:        BIT SIZE
 FD  .                    9.8000:        FLUID DENSITY
 CSIZ.                   20.0000:        CASING SIZE
 CBD .F                  80.0000:        CASING DRILLER 1
 CBL .F                 106.0000:        CASING LOGGER 1
 DFT .             Miscellaneous:        TYPE FLUID IN HOLE
 DFV .                   36.0000:        VISCOSITY
 DFPH.                    7.0000:        PH
 DFL .                    0.0000:        FLUID LOSS
 RMS .                    4.5200:        RM
 MST .F                  52.0000:        RM MEAS. TEMP.
 RMF .                    2.8700:        RMF
 MFST.F                  71.0000:        RMF MEAS. TEMP.
 RMC .                    3.5000:        RMC
 MCST.F                  71.0000:        RMC MEAS. TEMP.
 UWI .              500292000200:        UNIQUE WELL ID
~OTHER INFORMATION
~A    DEPTH          SP         ILD         ILM         LL8          GR        CALI        DRHO        RHOB        NPHI          DT  
# ...
  1660.0000    -32.4160      3.7667      3.6440      5.6971     53.4195   -999.2500   -999.2500   -999.2500   -999.2500    123.8533  
  1660.5000    -31.3531      3.7891      3.6935      5.5421     55.6333   -999.2500   -999.2500   -999.2500   -999.2500    123.8335  
  1661.0000    -29.8625      3.8546      3.7695      5.2972     56.9557   -999.2500   -999.2500   -999.2500   -999.2500    124.3681  
  1661.5000    -28.1848      3.9472      3.8471      5.0632     58.5095   -999.2500   -999.2500   -999.2500   -999.2500    129.2627  
  1662.0000    -26.5819      4.1405      3.9529      4.8912     58.9849   -999.2500   -999.2500   -999.2500   -999.2500    135.8350  
  1662.5000    -24.7890      4.3433      4.2853      5.2831     58.0499   -999.2500   -999.2500   -999.2500   -999.2500    142.6882  
  1663.0000    -22.1154      4.4144      4.4876      5.7444     56.1701   -999.2500   -999.2500   -999.2500   -999.2500    145.6174  
  1663.5000    -19.6332      4.4346      4.4596      6.0122     53.9540   -999.2500   -999.2500   -999.2500   -999.2500    144.1515  
  1664.0000    -16.3938      4.4054      4.4184      6.1981     51.8378   -999.2500   -999.2500   -999.2500   -999.2500    142.5436  
  1664.5000    -14.6198      4.3525      4.3164      6.5432     50.6436   -999.2500   -999.2500   -999.2500   -999.2500    139.7122  
  1665.0000    -14.1438      4.2729      4.2168      6.5845     49.7267   -999.2500   -999.2500   -999.2500   -999.2500    132.5132  
  1665.5000    -14.5412      4.1757      4.1196      6.3742     49.2198   -999.2500   -999.2500   -999.2500   -999.2500    128.5284  
  1666.0000    -15.8469      4.0808      4.0245      6.0884     50.2298   -999.2500   -999.2500   -999.2500   -999.2500    126.8308  
  1666.5000    -19.0216      3.9880      3.9317      6.0618     51.0035   -999.2500   -999.2500   -999.2500   -999.2500    124.8543  
  1667.0000    -21.9642      3.8973      3.8409      6.2449     50.8158   -999.2500   -999.2500   -999.2500   -999.2500    125.2079  
  1667.5000    -24.8025      3.8087      3.7523      6.3211     50.3056   -999.2500   -999.2500   -999.2500   -999.2500    125.1278  
  1668.0000    -26.8958      3.7877      3.7593      6.0877     50.2427   -999.2500   -999.2500   -999.2500   -999.2500    122.9461  
  1668.5000    -28.5326      3.7836      3.7683      5.5436     50.7046   -999.2500   -999.2500   -999.2500   -999.2500    122.6613  
  1669.0000    -29.5364      3.7794      3.7772      5.3874     52.4588   -999.2500   -999.2500   -999.2500   -999.2500    126.1121  
  1669.5000    -29.6546      3.7791      3.7854      5.3964     52.5373   -999.2500   -999.2500   -999.2500   -999.2500    127.6892  
  1670.0000    -28.0085      3.7199      3.7429      5.3698     51.5866   -999.2500   -999.2500   -999.2500   -999.2500    129.2741  
  1670.5000    -25.9251      3.5432      3.6937      5.1158     50.6690   -999.2500   -999.2500   -999.2500   -999.2500    127.6176  
  1671.0000    -24.2312      3.3047      3.4525      4.6354     52.1238   -999.2500   -999.2500   -999.2500   -999.2500    128.5198  
  1671.5000    -23.2963      3.0584      3.2270      4.2317     54.9211   -999.2500   -999.2500   -999.2500   -999.2500    134.5121  
  1672.0000    -23.3996      2.8306      3.0162      4.1599     57.4448   -999.2500   -999.2500   -999.2500   -999.2500    140.3811  
  1672.5000    -23.9926      2.6197      2.8193      4.4442     58.0232   -999.2500   -999.2500   -999.2500   -999.2500    146.4310  
  1673.0000    -25.4948      2.4245      2.6231      5.0023     55.6256   -999.2500   -999.2500   -999.2500   -999.2500    143.5402  
  1673.5000    -27.5434      2.2438      2.3987      5.3237     51.2992   -999.2500   -999.2500   -999.2500   -999.2500    135.7179  
  1674.0000    -31.4116      2.0767      2.1935      5.3695     41.9556   -999.2500   -999.2500   -999.2500   -999.2500    127.4125  
  1674.5000    -36.2870      1.9219      2.0059      5.1148     37.2364   -999.2500   -999.2500   -999.2500   -999.2500    123.5320  
  1675.0000    -41.3571      1.8116      1.8343      4.8096     35.3644   -999.2500   -999.2500   -999.2500   -999.2500    124.1101  
  1675.5000    -46.7743      1.7369      1.7073      4.6169     34.7439   -999.2500   -999.2500   -999.2500   -999.2500    126.1950  
  1676.0000    -53.5410      1.7124      1.7121      4.4803     35.7698   -999.2500   -999.2500   -999.2500   -999.2500    127.0959  
  1676.5000    -58.1064      1.7107      1.7169      4.3641     37.3365   -999.2500   -999.2500   -999.2500   -999.2500    127.3993  
  1677.0000    -59.4205      1.7253      1.7218      4.4156     38.1534   -999.2500   -999.2500   -999.2500   -999.2500    127.7348  
  1677.5000    -59.9466      1.7816      1.7786      4.4760     38.5603   -999.2500   -999.2500   -999.2500   -999.2500    127.9310  
  1678.0000    -59.6610      1.9134      1.8566      4.5131     39.0325   -999.2500   -999.2500   -999.2500   -999.2500    127.9621  
  1678.5000    -59.0474      1.9694      1.9381      4.5400     39.4786   -999.2500   -999.2500   -999.2500   -999.2500    128.0910  
  1679.0000    -57.6936      2.0838      2.0410      4.5566     39.8078   -999.2500   -999.2500   -999.2500   -999.2500    128.3918  
  1679.5000    -55.2337      2.2155      2.1758      4.5803     40.5139   -999.2500   -999.2500   -999.2500   -999.2500    128.5897  
  1680.0000    -52.7739      2.3855      2.3195      4.5656     41.9840   -999.2500   -999.2500   -999.2500   -999.2500    128.7377  
  1680.5000    -50.3140      2.5631      2.4727      4.6200     45.4938   -999.2500   -999.2500   -999.2500   -999.2500    128.1433  
  1681.0000    -47.7050      2.6958      2.6360      4.6844     48.0283   -999.2500   -999.2500   -999.2500   -999.2500    127.0104  
  1681.5000    -44.5204      2.8217      2.8100      4.8693     49.7498   -999.2500   -999.2500   -999.2500   -999.2500    127.7820  
  1682.0000    -41.1783      2.9051      2.8969      5.1559     49.7599   -999.2500   -999.2500   -999.2500   -999.2500    130.5407  
  1682.5000    -37.9933      2.9870      2.9624      5.7398     49.6213   -999.2500   -999.2500   -999.2500   -999.2500    129.3854  
  1683.0000    -35.6711      3.0471      3.0294      5.9773     49.4096   -999.2500   -999.2500   -999.2500   -999.2500    127.9692  
  1683.5000    -34.3321      3.1292      3.0979      5.9406     49.1788   -999.2500   -999.2500   -999.2500   -999.2500    125.6125  
  1684.0000    -34.1797      3.2211      3.1680      5.9369     49.2659   -999.2500   -999.2500   -999.2500   -999.2500    120.6560  
  1684.5000    -35.1019      3.3227      3.2432      5.9609     49.7402   -999.2500   -999.2500   -999.2500   -999.2500    121.2437  
  1685.0000    -36.0321      3.3991      3.3555      5.9057     50.9365   -999.2500   -999.2500   -999.2500   -999.2500    120.7963  
  1685.5000    -35.8188      3.5350      3.4717      5.5766     52.3805   -999.2500   -999.2500   -999.2500   -999.2500    120.2468  
  1686.0000    -33.7980      3.6972      3.5919      5.2740     53.1855   -999.2500   -999.2500   -999.2500   -999.2500    123.0164  
  1686.5000    -31.0761      3.7878      3.7162      5.0388     53.7704   -999.2500   -999.2500   -999.2500   -999.2500    127.5776  
  1687.0000    -29.2201      3.8450      3.8325      5.2290     53.8903   -999.2500   -999.2500   -999.2500   -999.2500    130.3836  
  1687.5000    -26.2850      3.9002      3.8506      5.4571     53.6032   -999.2500   -999.2500   -999.2500   -999.2500    132.6232  
  1688.0000    -23.4664      3.9273      3.8688      5.5698     54.3882   -999.2500   -999.2500   -999.2500   -999.2500    125.5694  
  1688.5000    -21.2238      3.9836      3.8871      5.3798     55.9476   -999.2500   -999.2500   -999.2500   -999.2500    126.6285  
  1689.0000    -20.4028      4.0261      3.9055      5.1972     58.1225   -999.2500   -999.2500   -999.2500   -999.2500    130.8982  
  1689.5000    -20.1364      4.0022      3.9180      5.2566     58.5887   -999.2500   -999.2500   -999.2500   -999.2500    133.0960  
