~VERSION INFORMATION
 VERS.                      2.00:        CWLS LOG ASCII STANDARD - VERSION 2.00
 WRAP.                        NO:        ONE LINE PER DEPTH STEP
~WELL INFORMATION
#MNEM.UNIT               DATA            INFORMATION
#----------          ------------        ------------------------------
 STRT.F                 100.0000:        START DEPTH
 STOP.F                7938.0000:        STOP DEPTH
 STEP.F                   0.5000:        STEP VALUE
 NULL.                 -999.2500:        NULL VALUE
 COMP.                          :        COMPANY  
 WELL.             DREW POINT #1:        WELL     
 FLD .                   WILDCAT:        FIELD    
 LOC .              26  18N   8W:        LOCATION   
 CNTY.               NORTH SLOPE:        COUNTY  
 STAT.                    ALASKA:        STATE   
 CTRY.                       USA:        COUNTRY 
 DATE.                   1/17/78:        LOG DATE 
 API .              500292000200:        UNIQUE WELL IDENTIFIER 
 OPER.                          :        OPERATOR  
 SRVC.              Schlumberger:        SERVICE COMPANY 
 UWI .              500292000200:        UNIQUE WELL ID 
 LAT .                    0.0000:        LATITUDE
 LON .                    0.0000:        LONGITUDE
 DIGS.          Center Line Data:        DIGITIZING COMPANY 
~CURVE INFORMATION      
#MNEM.UNIT            API CODE           CURVE DESCRIPTION
#---------          -------------        ------------------------------
 DEPT.F                         :        1  DEPTH
 SP  .MV                        :        2
 ILD .OHMM                      :        3
 ILM .OHMM                      :        4
 LL8 .OHMM                      :        5
 GR  .GAPI                      :        6
 CALI.IN                        :        7
 DRHO.G/C3                      :        8
 RHOB.G/C3                      :        9
 NPHI.%                         :       10
 DT  .US/F                      :       11
~PARAMETER INFORMATION       
#MNEM.UNIT              VALUE            DESCRIPTION OF MNEMONIC
#---------          -------------        ------------------------------
 EKB .F                  35.0000:        KELLY BUSHING
 TD  .F                7946.0000:        TOTAL DEPTH
 BHT .F                  75.0000:        BOTTOM HOLE TEMPERATURE
 BS  .                   17.5000:        BIT SIZE
 FD  .                    9.8000:        FLUID DENSITY
 CSIZ.                   20.0000:        CASING SIZE
 CBD .F                  80.0000:        CASING DRILLER 1
 CBL .F                 106.0000:        CASING LOGGER 1
 DFT .             Miscellaneous:        TYPE FLUID IN HOLE
 DFV .                   36.0000:        VISCOSITY
 DFPH.                    7.0000:        PH
 DFL .                    0.0000:        FLUID LOSS
 RMS .                    4.5200:        RM
 MST .F                  52.0000:        RM MEAS. TEMP.
 RMF .                    2.8700:        RMF
 MFST.F                  71.0000:        RMF MEAS. TEMP.
 RMC .                    3.5000:        RMC
 MCST.F                  71.0000:        RMC MEAS. TEMP.
 UWI .              500292000200:        UNIQUE WELL ID
~OTHER INFORMATION
~A    DEPTH          SP         ILD         ILM         LL8          GR        CALI        DRHO        RHOB        NPHI          DT  
   100.0000   -999.2500   -999.2500   -999.2500   -999.2500     25.1383   -999.2500   -999.2500   -999.2500   -999.2500   -999.2500  
   100.5000   -999.2500   -999.2500   -999.2500   -999.2500     24.7342   -999.2500   -999.2500   -999.2500   -999.2500   -999.2500  
   101.0000   -999.2500   -999.2500   -999.2500   -999.2500     24.9611   -999.2500   -999.2500   -999.2500   -999.2500   -999.2500  
   101.5000   -999.2500   -999.2500   -999.2500   -999.2500     25.1880   -999.2500   -999.2500   -999.2500   -999.2500   -999.2500  
   102.0000   -999.2500   -999.2500   -999.2500   -999.2500     25.4148   -999.2500   -999.2500   -999.2500   -999.2500   -999.2500  
   102.5000   -999.2500   -999.2500   -999.2500   -999.2500     25.6417   -999.2500   -999.2500   -999.2500   -999.2500   -999.2500  
   103.0000   -999.2500   -999.2500   -999.2500   -999.2500     25.8686   -999.2500   -999.2500   -999.2500   -999.2500   -999.2500  
   103.5000   -999.2500   -999.2500   -999.2500   -999.2500     26.0955   -999.2500   -999.2500   -999.2500   -999.2500   -999.2500  
   104.0000   -999.2500   -999.2500   -999.2500   -999.2500     26.3224   -999.2500   -999.2500   -999.2500   -999.2500   -999.2500  
   104.5000   -999.2500   -999.2500   -999.2500   -999.2500     26.5493   -999.2500   -999.2500   -999.2500   -999.2500   -999.2500  
   105.0000   -999.2500   -999.2500   -999.2500   -999.2500     26.7762   -999.2500   -999.2500   -999.2500   -999.2500   -999.2500  
   105.5000   -999.2500   -999.2500   -999.2500   -999.2500     26.9940   -999.2500   -999.2500   -999.2500   -999.2500   -999.2500  
   106.0000      5.6490      1.7182      0.5303      1.7266     27.1991   -999.2500   -999.2500   -999.2500   -999.2500    120.0559  
   106.5000      5.2999      1.7109      0.5278      1.7171     27.4004   -999.2500   -999.2500   -999.2500   -999.2500    120.0578  
   107.0000      4.9394      1.6946      0.5293      1.7019     27.2486   -999.2500   -999.2500   -999.2500   -999.2500    120.0597  
   107.5000      4.7851      1.7196      0.5372      1.7169     27.0968   -999.2500   -999.2500   -999.2500   -999.2500    120.0616  
   108.0000      4.9460      1.7449      0.5484      1.7406     26.9450   -999.2500   -999.2500   -999.2500   -999.2500    120.0635  
   108.5000      5.2041      1.7706      0.5642      1.7512     26.7932   -999.2500   -999.2500   -999.2500   -999.2500    120.0654  
   109.0000      5.4765      1.7794      0.5703      1.7504     27.0711   -999.2500   -999.2500   -999.2500   -999.2500    120.0673  
   109.5000      5.7485      1.7817      0.5799      1.7476     28.5441   -999.2500   -999.2500   -999.2500   -999.2500    120.0692  
   110.0000      6.1364      1.7839      0.5908      1.7425     30.0171   -999.2500   -999.2500   -999.2500   -999.2500    120.0711  
   110.5000      6.6929      1.7862      0.6020      1.7443     32.4608   -999.2500   -999.2500   -999.2500   -999.2500    120.0730  
   111.0000      7.3761      1.7885      0.6066      1.7449     35.1027   -999.2500   -999.2500   -999.2500   -999.2500    120.0748  
   111.5000      8.2782      1.7908      0.6022      1.7486     36.8743   -999.2500   -999.2500   -999.2500   -999.2500    120.0767  
   112.0000      8.9174      1.7931      0.5813      1.7451     37.8621   -999.2500   -999.2500   -999.2500   -999.2500    120.0786  
   112.5000      9.2814      1.7644      0.5537      1.7198     38.4062   -999.2500   -999.2500   -999.2500   -999.2500    120.0805  
   113.0000      9.0390      1.6357      0.5461      1.6166     38.6913   -999.2500   -999.2500   -999.2500   -999.2500    120.0824  
   113.5000      8.1622      1.5163      0.5729      1.4807     39.0717   -999.2500   -999.2500   -999.2500   -999.2500    124.1319  
   114.0000      6.0646      1.4313      0.8056      1.4381     40.3563   -999.2500   -999.2500   -999.2500   -999.2500    138.4202  
   114.5000      3.4498      1.4354      1.3973      1.8539     43.9989   -999.2500   -999.2500   -999.2500   -999.2500    157.1536  
   115.0000      0.8595      1.4396      2.7204      2.9130     47.4849   -999.2500   -999.2500   -999.2500   -999.2500    175.1039  
   115.5000      0.0744      1.4730      5.2966      4.6993     48.7074   -999.2500   -999.2500   -999.2500   -999.2500    175.0795  
   116.0000     -4.3332      1.9270     10.3123      7.7507     48.0188   -999.2500   -999.2500   -999.2500   -999.2500    175.0401  
   116.5000     -8.7409      2.9126      3.3485     13.0960     46.9256   -999.2500   -999.2500   -999.2500   -999.2500    175.0366  
   117.0000    -12.4326      3.8337      3.2704     17.6493     46.1163   -999.2500   -999.2500   -999.2500   -999.2500    175.0330  
   117.5000    -16.4595      8.4887      3.6373     22.2672     46.4045   -999.2500   -999.2500   -999.2500   -999.2500    175.0294  
   118.0000    -19.4294     45.3083      4.4433     26.8036     46.6928   -999.2500   -999.2500   -999.2500   -999.2500    175.0259  
   118.5000    -21.7362    492.8302      5.1143     30.0742     46.9810   -999.2500   -999.2500   -999.2500   -999.2500    175.0223  
   119.0000    -22.8958    390.2440      5.7045     33.5257     47.2915   -999.2500   -999.2500   -999.2500   -999.2500    175.0188  
   119.5000    -23.8431     75.0590      6.3935     37.5717     47.7490   -999.2500   -999.2500   -999.2500   -999.2500    175.0152  
   120.0000    -24.8144     18.1470      6.1419     41.2259     48.5942   -999.2500   -999.2500   -999.2500   -999.2500    175.0116  
   120.5000    -25.7824     16.5886      5.7040     43.6530     49.3735   -999.2500   -999.2500   -999.2500   -999.2500    175.0081  
   121.0000    -26.5132     18.7160      5.9697     44.1860     49.4658   -999.2500   -999.2500   -999.2500   -999.2500    175.0045  
   121.5000    -27.1418     23.1494      7.0093     43.7866     49.6990   -999.2500   -999.2500   -999.2500   -999.2500    175.0009  
   122.0000    -27.5937     32.8765      8.5972     43.2181     50.5001   -999.2500   -999.2500   -999.2500   -999.2500    174.9974  
   122.5000    -27.9011     44.7509     10.6466     43.5217     50.4042   -999.2500   -999.2500   -999.2500   -999.2500    174.9938  
   123.0000    -28.0775     49.7364      9.8747     44.1284     49.0530   -999.2500   -999.2500   -999.2500   -999.2500    174.9902  
   123.5000    -28.2002     39.5022      9.2253     44.7471     48.0542   -999.2500   -999.2500   -999.2500   -999.2500    174.9867  
   124.0000    -28.3597     31.9724      9.1327     45.1472     48.5357   -999.2500   -999.2500   -999.2500   -999.2500    174.9831  
   124.5000    -28.6484     27.1796      9.0410     44.9772     49.5611   -999.2500   -999.2500   -999.2500   -999.2500    174.9796  
   125.0000    -29.0657     24.4672      8.9502     44.4991     51.9110   -999.2500   -999.2500   -999.2500   -999.2500    174.9760  
   125.5000    -29.5493     24.3789      8.8603     44.3164     53.0461   -999.2500   -999.2500   -999.2500   -999.2500    174.9724  
   126.0000    -30.2417     25.4105      8.5554     43.3075     51.7069   -999.2500   -999.2500   -999.2500   -999.2500    174.9689  
   126.5000    -30.9755     25.9205      8.4421     42.0836     49.6418   -999.2500   -999.2500   -999.2500   -999.2500    174.9653  
   127.0000    -32.1256     25.3835      8.3731     40.8749     48.8879   -999.2500   -999.2500   -999.2500   -999.2500    174.9617  
   127.5000    -33.5746     25.0350      8.3047     40.4154     48.5710   -999.2500   -999.2500   -999.2500   -999.2500    174.9582  
   128.0000    -35.4825     24.5475      8.3993     39.6391     48.2550   -999.2500   -999.2500   -999.2500   -999.2500    174.9546  
   128.5000    -37.4288     24.1023      8.5336     38.6538     47.8624   -999.2500   -999.2500   -999.2500   -999.2500    174.9510  
   129.0000    -38.6599     23.8659      8.6231     37.1167     48.1079   -999.2500   -999.2500   -999.2500   -999.2500    174.9475  
   129.5000    -39.6424     24.0141      8.6397     36.0634     48.4973   -999.2500   -999.2500   -999.2500   -999.2500    174.9439  
