~VERSION INFORMATION
 VERS.                      2.00:        CWLS LOG ASCII STANDARD - VERSION 2.00
 WRAP.                        NO:        ONE LINE PER DEPTH STEP
~WELL INFORMATION
#MNEM.UNIT               DATA            INFORMATION
#----------          ------------        ------------------------------
 STRT.F                  81.0000:        START DEPTH
 STOP.F               15400.0000:        STOP DEPTH
 STEP.F                   0.5000:        STEP VALUE
 NULL.                 -999.2500:        NULL VALUE
 COMP. USGS/NPR HUSKY OIL OPERAT:        COMPANY  
 WELL.     IKPIKPUK TEST WELL #1:        WELL     
 FLD .                   WILDCAT:        FIELD    
 LOC .              25  13N  10W:        LOCATION   
 CNTY.               NORTH SLPOE:        COUNTY  
 STAT.                    ALASKA:        STATE   
 CTRY.                       USA:        COUNTRY 
 DATE.                  11/29/78:        LOG DATE 
 API .              502792000400:        UNIQUE WELL IDENTIFIER 
 OPER. USGS/NPR HUSKY OIL OPERAT:        OPERATOR  
 SRVC.              Schlumberger:        SERVICE COMPANY 
 UWI .              502792000400:        UNIQUE WELL ID 
 LAT .                    0.0000:        LATITUDE
 LON .                    0.0000:        LONGITUDE
 DIGS.          Center Line Data:        DIGITIZING COMPANY 
~CURVE INFORMATION      
#MNEM.UNIT            API CODE           CURVE DESCRIPTION
#---------          -------------        ------------------------------
 DEPT.F                         :        1  DEPTH
 SP  .MV                        :        2
 ILD .OHMM                      :        3
 ILM .OHMM                      :        4
 LL8 .OHMM                      :        5
 GR  .GAPI                      :        6
 CALI.IN                        :        7
 RHOB.G/C3                      :        8
 DRHO.G/C3                      :        9
 NPHI.%                         :       10
 DT  .US/F                      :       11
~PARAMETER INFORMATION       
#MNEM.UNIT              VALUE            DESCRIPTION OF MNEMONIC
#---------          -------------        ------------------------------
 EKB .F                  52.0000:        KELLY BUSHING
 TD  .F               15481.0000:        TOTAL DEPTH
 BHT .F                   0.0000:        BOTTOM HOLE TEMPERATURE
 BS  .                   17.5000:        BIT SIZE
 FD  .                    9.0000:        FLUID DENSITY
 CSIZ.                   30.0000:        CASING SIZE
 CBD .F                 100.0000:        CASING DRILLER 1
 CBL .F                 101.0000:        CASING LOGGER 1
 DFT .                       Gel:        TYPE FLUID IN HOLE
 DFV .                   60.0000:        VISCOSITY
 DFPH.                    8.5000:        PH
 DFL .                   18.0000:        FLUID LOSS
 RMS .                    3.7300:        RM
 MST .F                  66.0000:        RM MEAS. TEMP.
 RMF .                    4.3900:        RMF
 MFST.F                  58.0000:        RMF MEAS. TEMP.
 RMC .                    2.5000:        RMC
 MCST.F                  57.0000:        RMC MEAS. TEMP.
 UWI .              502792000400:        UNIQUE WELL ID
~OTHER INFORMATION
~A    DEPTH          SP         ILD         ILM         LL8          GR        CALI        RHOB        DRHO        NPHI          DT  
# ...
  2151.0000    -32.1690      8.0963      7.6536     10.1075     32.4433   -999.2500   -999.2500   -999.2500     54.6896    116.5193  
  2151.5000    -28.8229      7.8821      7.3554      8.8952     32.5663   -999.2500   -999.2500   -999.2500     54.6035    112.9510  
  2152.0000    -27.0212      7.7986      7.1274      8.3414     32.4402   -999.2500   -999.2500   -999.2500     53.3591    104.4429  
  2152.5000    -29.8190      7.7496      7.2825      7.8591     32.4535   -999.2500   -999.2500   -999.2500     52.3574     99.2710  
  2153.0000    -33.1472      7.8056      7.4410      8.9444     32.2378   -999.2500   -999.2500   -999.2500     52.3718    104.0536  
  2153.5000    -35.8137      7.9507      7.6029     10.6022     32.0959   -999.2500   -999.2500   -999.2500     53.3770    105.9615  
  2154.0000    -35.5329      8.0113      7.7683     10.5914     31.3516   -999.2500   -999.2500   -999.2500     53.1914    106.4019  
  2154.5000    -34.1380      8.0724      7.8751      9.2888     30.6328   -999.2500   -999.2500   -999.2500     52.9997    105.4996  
  2155.0000    -33.6074      8.0871      7.8870      8.7654     30.8632   -999.2500   -999.2500   -999.2500     53.5891    101.8441  
  2155.5000    -34.4406      8.0346      7.7438      8.7023     32.0572   -999.2500   -999.2500   -999.2500     54.5034     99.5180  
  2156.0000    -34.2377      7.8076      7.4597      9.6860     33.4654   -999.2500   -999.2500   -999.2500     54.8298    106.0687  
  2156.5000    -33.2568      7.3751      7.1860     10.8149     34.7659   -999.2500   -999.2500   -999.2500     55.1159    110.0335  
  2157.0000    -29.3388      7.2325      6.9447     10.0640     35.0655   -999.2500   -999.2500   -999.2500     55.1393    111.9412  
  2157.5000    -24.4793      7.1084      6.8162      8.4364     34.0325   -999.2500   -999.2500   -999.2500     55.5025    114.7165  
  2158.0000    -20.1072      6.9865      6.6901      7.3472     32.1638   -999.2500   -999.2500   -999.2500     56.5296    112.3263  
  2158.5000    -17.1416      6.8667      6.6735      7.4818     31.7644   -999.2500   -999.2500   -999.2500     56.0977    109.5745  
  2159.0000    -15.9897      6.9535      6.7955      7.8899     31.7143   -999.2500   -999.2500   -999.2500     55.0489    110.0456  
  2159.5000    -16.3162      7.0546      6.9198      8.3043     31.5076   -999.2500   -999.2500   -999.2500     55.0719    111.3029  
  2160.0000    -16.6426      7.1486      7.0321      8.3901     32.0295   -999.2500   -999.2500   -999.2500     54.1366    110.1945  
  2160.5000    -16.8846      7.2300      7.1162      8.4768     33.0905   -999.2500   -999.2500   -999.2500     53.1579    111.5540  
  2161.0000    -16.2543      7.3125      7.2013      8.5739     34.2749   -999.2500   -999.2500   -999.2500     53.2208    110.4815  
  2161.5000    -15.6241      7.4218      7.2874      8.6850     35.3641   -999.2500   -999.2500   -999.2500     53.7014    108.9111  
  2162.0000    -15.3232      7.3654      7.3650      8.7976     35.8767   -999.2500   -999.2500   -999.2500     54.3091    110.2706  
  2162.5000    -15.2289      7.2299      7.1590      8.9364     35.9732   -999.2500   -999.2500   -999.2500     54.1314    109.1568  
  2163.0000    -14.8906      7.1022      6.9587      8.9372     35.6753   -999.2500   -999.2500   -999.2500     53.4682    109.9130  
  2163.5000    -15.3633      6.8920      6.7641      8.5248     34.9964   -999.2500   -999.2500   -999.2500     54.1094    111.1929  
  2164.0000    -16.0539      6.5539      6.5749      8.0920     34.0386   -999.2500   -999.2500   -999.2500     54.1839    109.2253  
  2164.5000    -16.9605      6.3941      6.3910      7.6931     33.2365   -999.2500   -999.2500   -999.2500     53.9867    112.2687  
  2165.0000    -18.3302      6.4366      6.3597      7.5315     33.2515   -999.2500   -999.2500   -999.2500     54.2081    109.4855  
  2165.5000    -20.3223      6.6142      6.4066      7.6323     33.9124   -999.2500   -999.2500   -999.2500     54.0880    111.3784  
  2166.0000    -21.9778      6.8967      6.7212      8.0001     35.6539   -999.2500   -999.2500   -999.2500     52.6912    109.5161  
  2166.5000    -23.5285      7.2105      7.0511      8.5432     37.9989   -999.2500   -999.2500   -999.2500     50.9354    103.8960  
  2167.0000    -24.0995      7.6250      7.3973      9.0938     39.7110   -999.2500   -999.2500   -999.2500     49.9126    102.8289  
  2167.5000    -24.6247      7.9475      7.7605      9.6840     40.1490   -999.2500   -999.2500   -999.2500     49.0072     97.2004  
  2168.0000    -25.4222      8.3080      8.1415     10.3036     39.7329   -999.2500   -999.2500   -999.2500     48.4604     99.5331  
  2168.5000    -26.2256      8.6848      8.3829     11.5355     39.0742   -999.2500   -999.2500   -999.2500     48.3617    103.5809  
  2169.0000    -26.5628      8.8182      8.5412     11.7086     38.6674   -999.2500   -999.2500   -999.2500     49.4984    106.1641  
  2169.5000    -25.3380      8.7815      8.4342     10.7309     38.8128   -999.2500   -999.2500   -999.2500     49.0795    108.0210  
  2170.0000    -25.3086      8.7448      8.3204      9.3688     39.1639   -999.2500   -999.2500   -999.2500     47.5231    107.3399  
  2170.5000    -26.3123      8.5825      8.1728      9.4425     39.7421   -999.2500   -999.2500   -999.2500     47.4802    107.3007  
  2171.0000    -27.2212      8.4073      8.0277      9.5167     40.0954   -999.2500   -999.2500   -999.2500     48.1956    109.0842  
  2171.5000    -26.3360      8.2358      7.8852      9.5916     39.9843   -999.2500   -999.2500   -999.2500     48.7394    110.1895  
  2172.0000    -25.4509      7.9918      7.7453      9.0961     39.5406   -999.2500   -999.2500   -999.2500     48.7377    108.1180  
  2172.5000    -25.9503      7.7272      7.6021      8.3828     39.2882   -999.2500   -999.2500   -999.2500     48.1575    105.7032  
  2173.0000    -26.8252      7.4712      7.4495      7.9135     39.8015   -999.2500   -999.2500   -999.2500     47.1279    103.7340  
  2173.5000    -28.0953      7.2238      7.2999      8.2720     40.6854   -999.2500   -999.2500   -999.2500     48.1222    104.4481  
  2174.0000    -28.0094      7.0580      7.1533      9.3470     40.8382   -999.2500   -999.2500   -999.2500     49.7149    106.1138  
  2174.5000    -27.2510      7.0290      7.0097      9.3461     40.4305   -999.2500   -999.2500   -999.2500     51.0510    104.1520  
  2175.0000    -27.2243      7.0758      7.0018      8.6945     39.9606   -999.2500   -999.2500   -999.2500     52.3903    102.9151  
  2175.5000    -27.7086      7.1029      7.0465      8.8588     40.0855   -999.2500   -999.2500   -999.2500     53.3047    103.9694  
  2176.0000    -29.3518      7.1555      7.0915      9.5262     40.9227   -999.2500   -999.2500   -999.2500     53.5605    104.4210  
  2176.5000    -28.0546      7.2614      7.1368      9.5279     41.6364   -999.2500   -999.2500   -999.2500     52.9831    108.5896  
  2177.0000    -26.4927      7.2894      7.2531      9.0003     41.4819   -999.2500   -999.2500   -999.2500     52.6095    109.3702  
  2177.5000    -26.5850      7.4389      7.4009      8.8151     41.2746   -999.2500   -999.2500   -999.2500     52.5869    105.2092  
  2178.0000    -27.9873      7.6628      7.5627      8.8288     41.7546   -999.2500   -999.2500   -999.2500     52.6638    104.0599  
  2178.5000    -30.1335      7.8934      7.7411      9.4016     42.1907   -999.2500   -999.2500   -999.2500     52.6020    104.2830  
  2179.0000    -32.3557      8.1310      7.9238     10.1707     42.5002   -999.2500   -999.2500   -999.2500     53.1171    104.2351  
  2179.5000    -33.4752      8.3758      8.1108     11.0552     42.6299   -999.2500   -999.2500   -999.2500     52.0878    108.2844  
  2180.0000    -33.7063      8.6279      8.1689     10.1017     42.9174   -999.2500   -999.2500   -999.2500     50.9730    107.7819  
  2180.5000    -33.2381      8.7949      8.1970      9.4025     43.5616   -999.2500   -999.2500   -999.2500     51.4545    105.1805  
