~VERSION INFORMATION
 VERS.                      2.00:        CWLS LOG ASCII STANDARD - VERSION 2.00
 WRAP.                        NO:        ONE LINE PER DEPTH STEP
~WELL INFORMATION
#MNEM.UNIT               DATA            INFORMATION
#----------          ------------        ------------------------------
 STRT.F                 100.0000:        START DEPTH
 STOP.F                7938.0000:        STOP DEPTH
 STEP.F                   0.5000:        STEP VALUE
 NULL.                 -999.2500:        NULL VALUE
 COMP.                          :        COMPANY  
 WELL.             DREW POINT #1:        WELL     
 FLD .                   WILDCAT:        FIELD    
 LOC .              26  18N   8W:        LOCATION   
 CNTY.               NORTH SLOPE:        COUNTY  
 STAT.                    ALASKA:        STATE   
 CTRY.                       USA:        COUNTRY 
 DATE.                   1/17/78:        LOG DATE 
 API .              500292000200:        UNIQUE WELL IDENTIFIER 
 OPER.                          :        OPERATOR  
 SRVC.              Schlumberger:        SERVICE COMPANY 
 UWI .              500292000200:        UNIQUE WELL ID 
 LAT .                    0.0000:        LATITUDE
 LON .                    0.0000:        LONGITUDE
 DIGS.          Center Line Data:        DIGITIZING COMPANY 
~CURVE INFORMATION      
#MNEM.UNIT            API CODE           CURVE DESCRIPTION
#---------          -------------        ------------------------------
 DEPT.F                         :        1  DEPTH
 SP  .MV                        :        2
 ILD .OHMM                      :        3
 ILM .OHMM                      :        4
 LL8 .OHMM                      :        5
 GR  .GAPI                      :        6
 CALI.IN                        :        7
 DRHO.G/C3                      :        8
 RHOB.G/C3                      :        9
 NPHI.%                         :       10
 DT  .US/F                      :       11
~PARAMETER INFORMATION       
#MNEM.UNIT              VALUE            DESCRIPTION OF MNEMONIC
#---------          -------------        ------------------------------
 EKB .F                  35.0000:        KELLY BUSHING
 TD  .F                7946.0000:        TOTAL DEPTH
 BHT .F                  75.0000:        BOTTOM HOLE TEMPERATURE
 BS  .                   17.5000:        BIT SIZE
 FD  .                    9.8000:        FLUID DENSITY
 CSIZ.                   20.0000:        CASING SIZE
 CBD .F                  80.0000:        CASING DRILLER 1
 CBL .F                 106.0000:        CASING LOGGER 1
 DFT .             Miscellaneous:        TYPE FLUID IN HOLE
 DFV .                   36.0000:        VISCOSITY
 DFPH.                    7.0000:        PH
 DFL .                    0.0000:        FLUID LOSS
 RMS .                    4.5200:        RM
 MST .F                  52.0000:        RM MEAS. TEMP.
 RMF .                    2.8700:        RMF
 MFST.F                  71.0000:        RMF MEAS. TEMP.
 RMC .                    3.5000:        RMC
 MCST.F                  71.0000:        RMC MEAS. TEMP.
 UWI .              500292000200:        UNIQUE WELL ID
~OTHER INFORMATION
~A    DEPTH          SP         ILD         ILM         LL8          GR        CALI        DRHO        RHOB        NPHI          DT  
# ...
  6850.0000    -17.3507      2.4418      2.1989      3.2826    142.4604     12.2900      0.1283      2.4681     44.2454    100.2298  
  6850.5000    -17.3492      2.4310      2.1971      3.3681    145.7715     12.3391      0.1241      2.4758     43.7150     99.8562  
  6851.0000    -17.2737      2.4203      2.1995      3.4541    146.5083     12.4011      0.1362      2.4900     43.1846     99.8020  
  6851.5000    -17.2500      2.4097      2.2022      3.4427    145.8180     12.4677      0.1479      2.4996     42.8305     99.7372  
  6852.0000    -17.2852      2.3991      2.2049      3.3553    144.0109     12.5343      0.1551      2.4929     44.4505     99.1014  
  6852.5000    -17.4601      2.3885      2.2077      3.3014    142.9311     12.4539      0.1507      2.4720     46.3242     99.3629  
  6853.0000    -17.6447      2.3780      2.2104      3.3261    142.7729     12.4298      0.1438      2.4550     46.6080     99.3955  
  6853.5000    -17.6780      2.3675      2.2131      3.3488    142.8495     12.4274      0.1368      2.4522     46.8918     99.2276  
  6854.0000    -17.5493      2.3571      2.2158      3.2940    142.8195     12.3729      0.1271      2.4651     47.1756     99.1095  
  6854.5000    -17.4311      2.3476      2.2233      3.2684    142.3738     12.3479      0.1263      2.4870     47.4594     99.0605  
  6855.0000    -17.3265      2.3742      2.2400      3.3378    141.4346     12.4643      0.1460      2.5052     48.0163     98.7983  
  6855.5000    -17.3000      2.4140      2.2568      3.4696    141.3147     12.4617      0.1520      2.5143     48.7231     99.5180  
  6856.0000    -17.2911      2.4544      2.2737      3.5260    140.2420     12.4569      0.1738      2.5176     46.9120     99.5786  
  6856.5000    -17.2731      2.4954      2.2907      3.5337    140.9111     12.5109      0.2033      2.5306     43.9719     99.8510  
  6857.0000    -17.2881      2.5189      2.3079      3.4884    142.6062     12.6362      0.1911      2.4854     43.9933    100.0503  
  6857.5000    -17.3799      2.5173      2.3317      3.4390    144.6828     12.5932      0.1592      2.4431     44.8296     99.9933  
  6858.0000    -17.6210      2.5156      2.3559      3.4292    146.1207     12.4466      0.1287      2.4566     45.6660    100.1101  
  6858.5000    -17.7508      2.5139      2.3804      3.4612    151.3817     12.6012      0.1162      2.4535     46.4643    100.1817  
  6859.0000    -17.7875      2.5198      2.4051      3.5593    157.3814     12.4686      0.1174      2.4466     45.5295    100.0934  
  6859.5000    -17.8249      2.5651      2.4301      3.7219    162.2864     12.3814      0.1126      2.4267     44.5946    105.3398  
  6860.0000    -17.9532      2.6111      2.4553      3.8480    167.2820     12.3376      0.1102      2.4471     42.8498    136.3408  
  6860.5000    -18.2464      2.6580      2.4865      3.9158    169.5952     12.2785      0.1241      2.4597     42.4521    140.6019  
  6861.0000    -18.5933      2.7057      2.5236      3.7634    170.2029     12.2424      0.1341      2.4698     42.9818    143.6292  
  6861.5000    -18.9352      2.7543      2.5586      3.6595    170.1470     12.2242      0.1347      2.4668     43.4443    138.7567  
  6862.0000    -18.9775      2.8078      2.5942      3.7449    170.9113     12.1857      0.1397      2.4842     42.7638    140.5320  
  6862.5000    -19.0597      2.8663      2.6302      3.9208    175.3107     12.1580      0.1047      2.4657     42.2069    137.9405  
  6863.0000    -19.0565      2.9259      2.6136      4.0631    173.5727     12.1368      0.0872      2.4482     42.7503    135.6401  
  6863.5000    -18.9314      2.9861      2.5896      4.0655    171.4849     12.1155      0.0717      2.4388     42.9398    135.2924  
  6864.0000    -18.7877      2.8576      2.5658      3.9760    169.8993     12.0738      0.0868      2.4411     42.5556    134.7454  
  6864.5000    -18.5530      2.7347      2.5421      3.8272    169.9575     12.1722      0.0810      2.4267     41.5450    134.3002  
  6865.0000    -18.2171      2.6170      2.5187      3.6905    168.9683     12.2748      0.0735      2.4246     40.7126    133.7935  
  6865.5000    -17.9157      2.5782      2.4956      3.5637    167.7148     12.3792      0.0811      2.4290     40.6949    132.5638  
  6866.0000    -29.1019      2.5230      2.0081      2.9078    169.0154     12.5041      0.0914      2.4415     41.0056    128.7975  
  6866.5000    -28.6478      2.5535      2.0591      2.9599    170.4191     12.4897      0.1019      2.4488     41.0897    129.8953  
  6867.0000    -28.6402      2.5844      2.0804      3.0843    171.1529     12.3471      0.1025      2.4533     40.8216    133.1138  
  6867.5000    -29.3525      2.6943      2.1320      3.1512    171.8867     12.2142      0.0973      2.4706     40.7888    130.6949  
  6868.0000    -29.4325      2.8175      2.1750      3.1943    171.7552     12.1653      0.0921      2.4774     41.1299    123.9445  
  6868.5000    -29.4060      2.9659      2.2117      3.1917    171.9627     12.1236      0.0952      2.4775     41.1812    119.6106  
  6869.0000    -29.3788      3.0373      2.2523      3.1889    174.3018     12.0918      0.1102      2.4787     40.7570    119.4206  
  6869.5000    -29.3971      2.9667      2.2521      3.1761    175.4557     12.0659      0.1345      2.4843     40.5884    123.6486  
  6870.0000    -29.3602      2.8822      2.2192      3.1635    174.8747     12.1239      0.1534      2.4713     40.6657    129.9011  
  6870.5000    -29.3400      2.8000      2.1704      3.0942    174.1504     12.1278      0.1609      2.4436     40.2655    133.1933  
  6871.0000    -28.9558      2.7157      2.0933      3.0610     41.4908     12.0181      0.1521      2.3923     40.0876    133.0331  
  6871.5000    -28.5716      2.6662      2.0369      3.0760     41.8917     12.0447      0.1322      2.3443     41.2016    131.8970  
  6872.0000    -28.1874      2.6075      2.0021      3.1080     42.2926     11.4040      0.1135      2.3312     43.3812    134.8886  
  6872.5000    -27.8032      2.5401      1.9678      3.1404     42.3449     10.7320      0.1484      2.3442     45.2638    141.8191  
  6873.0000    -27.6541      2.4782      1.9341      3.1177     41.9573      9.9749      0.1500      2.3501     45.4237    148.7496  
  6873.5000    -27.9370      2.4179      1.8861      3.0586     41.3125      8.3766      0.1405      2.3603     45.5714    151.9419  
  6874.0000    -28.1033      2.4117      1.8379      3.0006     40.6090      8.2956      0.1313      2.3801     45.3412    149.0639  
  6874.5000    -28.2659      2.4303      1.8700      2.9437     39.9054      8.4486      0.1494      2.3578     44.7631    144.9194  
  6875.0000    -28.3316      2.4505      1.9225      2.8901     40.1812      8.7557      0.1206      2.3394     44.5686    143.2507  
  6875.5000    -28.2869      2.5337      1.9744      2.9513     40.5743      8.9472      0.1095      2.3281     45.0231    144.3146  
  6876.0000    -28.1925      2.5904      2.0339      3.0958     39.9983      9.2887      0.1171      2.3401     45.4776    138.7552  
  6876.5000    -27.9647      2.6420      2.0985      3.1068     39.4223      9.6186      0.1171      2.3355     45.5740    132.8981  
  6877.0000    -27.7728      2.6948      2.1177      3.0297     39.2309      9.6688      0.1317      2.3297     44.5581    132.3174  
  6877.5000    -27.6227      2.7486      2.1085      2.9544     39.5191      9.5171      0.1442      2.3342     43.5695    141.8488  
  6878.0000    -27.4761      2.8034      2.0801      2.8810     40.0044      9.3628      0.1349      2.3152     42.9390    151.3802  
  6878.5000    -27.6489      2.7267      2.0462      2.9095     40.4897      9.3145      0.1207      2.2837     43.2266    135.2243  
  6879.0000    -27.7830      2.6445      2.0128      2.9557     40.3820      9.2360      0.1142      2.2615     43.8533    136.7396  
  6879.5000    -27.6968      2.5854      1.9799      3.0025     39.4213      9.1360      0.1272      2.2516     44.7675    146.1705  
