~VERSION INFORMATION
 VERS.                           2.00:        CWLS LOG ASCII STANDARD - VERSION 2.00
 WRAP.                             NO:        ONE LINE PER DEPTH STEP
~WELL INFORMATION
#MNEM.UNIT                   DATA             INFORMATION
#----------             --------------        ------------------------------
 STRT.F                      358.0000:        START DEPTH
 STOP.F                     8806.0000:        STOP DEPTH
 STEP.F                        0.5000:        STEP VALUE
 NULL.                      -999.2500:        NULL VALUE
 COMP.                      U.S. NAVY:        COMPANY
 LOC .                     22 17N 12W:        LOCATION
 DATE.                         4/5/77:        LOG DATE
 WELL.               SOUTH SIMPSON #1:        WELL
 UWI .                   502792000100:        UNIQUE WELL ID
 API .                   502792000100:        UNIQUE WELL IDENTIFIER
 FLD .                        WILDCAT:        FIELD
 CNTY.                    NORTH SLOPE:        COUNTY
 STAT.                         ALASKA:        STATE
 CTRY.                            USA:        COUNTRY
 OPER.                      U.S. NAVY:        OPERATOR
 SRVC.                   SCHLUMBERGER:        SERVICE COMPANY
 LAT .                         0.0000:        LATITUDE
 LON .                         0.0000:        LONGITUDE
 DIGS.               CENTER LINE DATA:        DIGITIZING COMPANY
~CURVE INFORMATION      
#MNEM        .UNIT         API CODE           CURVE DESCRIPTION
#-----------------      --------------        ------------------------------
 DEPT        .F                      :        1  DEPTH
 GR          .GAPI                   :        2  
 CALI        .IN                     :        3  
 DRHO        .G/C3                   :        4  
 RHOB        .G/C3                   :        5  
 NPHI        .%                      :        6  
 DT          .US/F                   :        7  
 SP          .MV                     :        8  
 ILD         .OHMM                   :        9  
 ILM         .OHMM                   :        10 
 LL8         .OHMM                   :        11 
~PARAMETER INFORMATION
#MNEM.UNIT                  VALUE             DESCRIPTION OF MNEMONIC
#---------             ---------------        ------------------------------
 EKB .F                       25.0000:        KELLY BUSHING
 TD  .F                     8807.0000:        TOTAL DEPTH
 BHT .F                      145.0000:        BOTTOM HOLE TEMPERATURE
 BS  .                        13.5000:        BIT SIZE
 FD  .                        10.7000:        FLUID DENSITY
 CSIZ.                        16.0000:        CASING SIZE
 CBD .F                     2175.0000:        CASING DRILLER 1
 CBL .F                     2175.0000:        CASING LOGGER 1
 DFT .                  MISCELLANEOUS:        TYPE FLUID IN HOLE
 DFV .                        47.0000:        VISCOSITY
 DFPH.                        10.5000:        PH
 DFL .                         5.0000:        FLUID LOSS
 RMS .                         2.3000:        RM
 MST .F                       60.0000:        RM MEAS. TEMP.
 RMF .                         1.5400:        RMF
 MFST.F                       54.0000:        RMF MEAS. TEMP.
 RMC .                         2.7300:        RMC
 MCST.F                       54.0000:        RMC MEAS. TEMP.
~OTHER INFORMATION
~A    DEPTH          GR        CALI        DRHO        RHOB        NPHI          DT          SP         ILD         ILM         LL8 
# ...
  5482.0000     81.2682     14.9759      0.1018      2.4056     40.3725     97.9167    -33.6549      4.4734      4.9175      5.0602 
  5482.5000     81.4575     15.1273      0.1096      2.4403     38.4526     94.2984    -33.4374      4.5450      4.8588      4.9984 
  5483.0000     83.7673     15.6626      0.1794      2.4528     36.8626     92.2220    -33.4497      4.6177      5.0152      5.0526 
  5483.5000     86.0771     16.2948      0.1431      2.4280     38.5457     87.3206    -33.3858      4.8244      5.2479      5.4184 
  5484.0000     88.3869     16.7552      0.0998      2.4720     39.8419     85.1305    -33.4828      5.0483      5.4914      6.0594 
  5484.5000     89.7813     17.0403      0.0785      2.5003     37.9791     84.4203    -33.5692      5.2826      5.7462      6.7762 
  5485.0000     90.3021     17.0077      0.0794      2.5079     36.1974     86.4173    -33.6782      5.5277      6.0128      6.9217 
  5485.5000     90.8188     14.8905      0.1040      2.5156     37.1064     88.7802    -33.8013      5.7842      6.1065      6.9589 
  5486.0000     89.9006     15.3379      0.0717      2.5232     37.9862     87.9355    -33.9177      5.8773      6.1718      6.9032 
  5486.5000     88.8841     16.1827      0.0560      2.5276     37.6804     86.8940    -33.8841      5.9185      6.2379      6.8480 
  5487.0000     88.7085     16.6454      0.0560      2.5285     37.0611     87.6814    -33.9220      5.9599      6.3047      6.7701 
  5487.5000     88.9447     16.2852      0.0674      2.5294     36.6260     89.0205    -33.8965      6.0016      6.3660      6.6817 
  5488.0000     89.1810     16.3465      0.0788      2.5004     35.7571     90.7397    -33.8920      6.0436      6.3993      6.5944 
  5488.5000     90.2635     15.3749      0.1328      2.5125     35.6797     87.8341    -33.8619      5.9484      6.3753      6.5756 
  5489.0000     91.3688     14.9292      0.1778      2.4972     36.4828     85.1629    -33.7134      5.7763      6.3221      6.7792 
  5489.5000     91.6277     15.0332      0.1506      2.4748     38.4412     84.3541    -33.5277      5.5850      6.2468      7.0132 
  5490.0000     91.7291     14.8888      0.1122      2.4525     40.0032     81.8938    -33.4625      5.4001      6.1797      7.0695 
  5490.5000     91.8305     14.4829      0.0848      2.4258     40.6513     84.9694    -33.4725      5.2213      6.1181      6.7268 
  5491.0000     91.9320     14.1648      0.0832      2.4023     41.3435     92.7175    -33.6942      5.0484      5.9515      6.4007 
  5491.5000     92.0334     13.9533      0.0895      2.3580     42.2179     97.0852    -33.8695      4.8812      5.7543      6.0905 
  5492.0000     91.2266     13.7418      0.0512      2.2671     42.4038     99.4060    -33.9265      4.7438      5.5553      5.7952 
  5492.5000     89.3210     13.6989      0.0643      2.2158     42.4816     97.5849    -33.8631      4.6393      5.2930      5.5143 
  5493.0000     85.6988     13.7704      0.0265      2.1962     43.0479     94.0857    -33.8056      4.5371      5.1519      5.3080 
  5493.5000     82.0766     14.0555      0.0534      2.3019     43.7479     92.1345    -33.6902      4.4371      5.0548      5.2078 
  5494.0000     78.4545     14.5418      0.1669      2.4333     44.0504     95.7329    -33.6605      4.4199      4.9595      5.1096 
  5494.5000     77.3686     15.1505      0.1903      2.4000     43.9368     97.7026    -33.5835      4.4671      4.8703      5.0132 
  5495.0000     76.6004     15.9245      0.1724      2.3577     43.3771    101.2529    -33.6647      4.6069      4.9147      5.0728 
  5495.5000     75.8322     16.4370      0.1663      2.3076     42.8648     97.5185    -33.7168      4.7511      5.0809      5.2616 
  5496.0000     75.0641     16.8483      0.1751      2.2222     41.8739     90.8257    -33.8771      4.8998      5.2701      5.4574 
  5496.5000     75.1435     16.7886      0.1804      2.2191     41.1070     88.5320    -34.0864      5.0672      5.4662      5.6606 
  5497.0000     75.6984     16.9459      0.1856      2.2630     40.7846     87.0730    -34.0791      5.2558      5.6763      5.8857 
  5497.5000     76.5942     17.0501      0.1892      2.2958     40.4001     87.7312    -33.8487      5.4207      5.7745      6.1260 
  5498.0000     77.6395     16.8917      0.1717      2.2996     38.7541     87.9232    -33.5871      5.5101      5.8698      6.3761 
  5498.5000     78.4253     16.7757      0.1655      2.2734     37.2611     86.5704    -33.4822      5.6011      5.9667      6.6364 
  5499.0000     78.4941     16.4267      0.1788      2.2472     38.8937     87.8063    -33.3355      5.6935      6.0652      6.8587 
  5499.5000     77.9152     16.4279      0.1722      2.2210     40.5118     86.7615    -33.2044      5.7682      6.1292      6.8853 
  5500.0000     77.2730     16.7699      0.1599      2.1901     41.6034     88.7264    -33.2251      5.7209      6.0790      6.6716 
  5500.5000     76.6309     17.0606      0.1554      2.1593     41.7874     87.3026    -33.2703      5.6740      6.0291      6.3835 
  5501.0000     76.3849     17.0537      0.1551      2.1261     41.9460     90.4560    -33.2684      5.6274      5.9797      6.1079 
  5501.5000     76.6860     17.0138      0.1547      2.1428     42.6561     91.7530    -33.0989      5.5813      5.9306      5.9244 
  5502.0000     78.1423     16.6183      0.1540      2.1850     43.2876     87.7464    -32.9966      5.5355      5.8820      5.8829 
  5502.5000     79.7476     15.8595      0.1446      2.2413     42.1895     86.9414    -33.0835      5.4529      5.8249      5.9914 
  5503.0000     81.6909     16.2334      0.1396      2.2790     40.5660     86.7726    -33.2416      5.3366      5.7014      6.1019 
  5503.5000     85.1666     16.7676      0.1314      2.2769     40.3665     84.5611    -33.2751      5.2227      5.5805      6.2145 
  5504.0000     88.6424     17.1512      0.1252      2.2070     42.3800     87.0288    -33.2108      5.0770      5.4622      6.3292 
  5504.5000     91.3159     17.0104      0.1244      2.2002     44.8990     85.6129    -33.2432      4.9203      5.3464      6.4460 
  5505.0000     92.0773     16.8422      0.1488      2.2273     46.5608     83.5076    -33.4122      4.7684      5.2330      6.7147 
  5505.5000     91.6054     16.6947      0.1408      2.2122     45.4029     89.1965    -33.5317      4.6212      5.1221      6.7303 
  5506.0000     89.6901     17.0007      0.1397      2.2114     44.1021    105.5775    -33.5200      4.4786      5.0135      6.0811 
  5506.5000     87.7086     16.8466      0.1568      2.2410     45.0076    115.1033    -33.5667      4.3452      4.9577      5.4651 
  5507.0000     87.2576     16.7308      0.1444      2.2747     46.1656     99.8065    -33.7780      4.3242      4.9349      5.2230 
  5507.5000     87.2718     16.9462      0.1343      2.3141     46.9509     95.2425    -33.9653      4.3033      4.9122      5.2154 
  5508.0000     87.9435     16.6369      0.1589      2.2812     46.7104     95.7623    -33.9021      4.3255      4.8897      5.3543 
  5508.5000     89.7127     16.7538      0.1611      2.2412     46.1345     91.3637    -33.7655      4.3654      4.8881      5.4968 
  5509.0000     90.6686     16.7615      0.1562      2.2012     45.1932     92.1711    -33.6704      4.4058      4.8881      5.6432 
  5509.5000     88.4650     16.4611      0.1579      2.2049     44.9368     95.3781    -33.4541      4.4465      4.9303      5.7900 
  5510.0000     85.1576     16.2384      0.1929      2.3273     44.7573     96.1733    -33.3926      4.5344      5.0018      5.8455 
  5510.5000     82.7560     16.7297      0.2343      2.3799     42.8316     97.0399    -33.5434      4.6428      5.0743      5.9048 
  5511.0000     82.4255     17.0725      0.2460      2.4048     40.3171     94.2252    -33.4533      4.7538      5.1478      5.9699 
  5511.5000     82.7755     17.0755      0.2416      2.4094     38.5288     93.5968    -33.2855      4.8675      5.2224      6.0357 
  5512.0000     83.9032     17.0708      0.2120      2.3831     37.4647     90.3364    -33.2800      4.9771      5.2981      6.1022 
