~VERSION INFORMATION
 VERS.                           2.00:        CWLS LOG ASCII STANDARD - VERSION 2.00
 WRAP.                             NO:        ONE LINE PER DEPTH STEP
~WELL INFORMATION
#MNEM.UNIT                   DATA             INFORMATION
#----------             --------------        ------------------------------
 STRT.F                      358.0000:        START DEPTH
 STOP.F                     8806.0000:        STOP DEPTH
 STEP.F                        0.5000:        STEP VALUE
 NULL.                      -999.2500:        NULL VALUE
 COMP.                      U.S. NAVY:        COMPANY
 LOC .                     22 17N 12W:        LOCATION
 DATE.                         4/5/77:        LOG DATE
 WELL.               SOUTH SIMPSON #1:        WELL
 UWI .                   502792000100:        UNIQUE WELL ID
 API .                   502792000100:        UNIQUE WELL IDENTIFIER
 FLD .                        WILDCAT:        FIELD
 CNTY.                    NORTH SLOPE:        COUNTY
 STAT.                         ALASKA:        STATE
 CTRY.                            USA:        COUNTRY
 OPER.                      U.S. NAVY:        OPERATOR
 SRVC.                   SCHLUMBERGER:        SERVICE COMPANY
 LAT .                         0.0000:        LATITUDE
 LON .                         0.0000:        LONGITUDE
 DIGS.               CENTER LINE DATA:        DIGITIZING COMPANY
~CURVE INFORMATION      
#MNEM        .UNIT         API CODE           CURVE DESCRIPTION
#-----------------      --------------        ------------------------------
 DEPT        .F                      :        1  DEPTH
 GR          .GAPI                   :        2  
 CALI        .IN                     :        3  
 DRHO        .G/C3                   :        4  
 RHOB        .G/C3                   :        5  
 NPHI        .%                      :        6  
 DT          .US/F                   :        7  
 SP          .MV                     :        8  
 ILD         .OHMM                   :        9  
 ILM         .OHMM                   :        10 
 LL8         .OHMM                   :        11 
~PARAMETER INFORMATION
#MNEM.UNIT                  VALUE             DESCRIPTION OF MNEMONIC
#---------             ---------------        ------------------------------
 EKB .F                       25.0000:        KELLY BUSHING
 TD  .F                     8807.0000:        TOTAL DEPTH
 BHT .F                      145.0000:        BOTTOM HOLE TEMPERATURE
 BS  .                        13.5000:        BIT SIZE
 FD  .                        10.7000:        FLUID DENSITY
 CSIZ.                        16.0000:        CASING SIZE
 CBD .F                     2175.0000:        CASING DRILLER 1
 CBL .F                     2175.0000:        CASING LOGGER 1
 DFT .                  MISCELLANEOUS:        TYPE FLUID IN HOLE
 DFV .                        47.0000:        VISCOSITY
 DFPH.                        10.5000:        PH
 DFL .                         5.0000:        FLUID LOSS
 RMS .                         2.3000:        RM
 MST .F                       60.0000:        RM MEAS. TEMP.
 RMF .                         1.5400:        RMF
 MFST.F                       54.0000:        RMF MEAS. TEMP.
 RMC .                         2.7300:        RMC
 MCST.F                       54.0000:        RMC MEAS. TEMP.
~OTHER INFORMATION
~A    DEPTH          GR        CALI        DRHO        RHOB        NPHI          DT          SP         ILD         ILM         LL8 
# ...
  2706.5000     75.7669     15.1470      0.1109      2.4440     44.8439    107.7153    -36.4908      6.9880      5.9799      6.5880 
  2707.0000     76.0861     15.1432      0.1042      2.4264     44.9202    107.6057    -36.5663      7.0460      6.0172      6.6427 
  2707.5000     76.4053     15.1396      0.0848      2.4087     45.6120    108.5790    -36.5384      7.1044      6.0547      6.6978 
  2708.0000     76.4439     15.1499      0.0822      2.4074     46.7327    111.6036    -36.5095      7.1634      6.0194      6.7534 
  2708.5000     76.4148     15.1603      0.0942      2.4366     48.8345    110.7183    -36.4403      7.2229      5.9517      6.8095 
  2709.0000     76.3858     15.1706      0.0974      2.4503     50.7121    109.8202    -36.3110      7.2828      5.8847      6.8660 
  2709.5000     76.3567     15.1843      0.1083      2.4628     51.3666    107.0452    -36.1445      7.2643      5.8184      6.8494 
  2710.0000     76.3276     15.1982      0.1142      2.4676     50.6363    105.0074    -36.1266      7.2105      5.7529      6.7988 
  2710.5000     76.2985     15.2121      0.1031      2.4487     50.1489    107.3747    -36.1636      7.1572      5.6882      6.7485 
  2711.0000     76.4540     15.1996      0.0996      2.4187     50.1709    108.9573    -36.2663      7.1043      5.6241      6.6986 
  2711.5000     77.1854     15.1862      0.1031      2.4326     49.8080    113.3451    -36.3690      7.0517      5.5599      6.6491 
  2712.0000     77.9168     15.1727      0.0912      2.4432     49.4638    115.6214    -36.5535      6.9996      5.4963      6.5999 
  2712.5000     78.6481     15.1720      0.0837      2.4620     49.4042    111.9827    -36.8097      6.9478      5.4334      6.5511 
  2713.0000     79.3795     15.2197      0.0964      2.4433     49.9134    111.8367    -37.0104      6.8964      5.3735      6.5026 
  2713.5000     79.6094     15.2673      0.0899      2.4233     51.4778    112.2236    -36.9770      6.8454      5.4573      6.4545 
  2714.0000     79.5944     15.2839      0.0956      2.4138     53.5804    113.7692    -36.9556      6.7948      5.5573      6.4068 
  2714.5000     79.0267     15.2979      0.0895      2.4118     52.8961    116.2669    -37.0002      6.8836      5.6590      6.4754 
  2715.0000     78.2317     15.3588      0.0780      2.4256     51.1532    115.3298    -37.0587      6.9898      5.7627      6.5754 
  2715.5000     77.4367     15.2633      0.0666      2.4336     50.2487    111.3108    -36.9801      7.1143      5.8682      6.6769 
  2716.0000     76.5577     15.0958      0.0882      2.4518     49.2783    109.1585    -37.1295      7.2681      5.9757      6.8179 
  2716.5000     75.6484     15.1607      0.0953      2.4574     49.9798    112.5744    -37.2482      7.4251      6.0851      6.9653 
  2717.0000     74.5736     15.2257      0.0910      2.4513     50.5936    109.4509    -37.0714      7.5856      6.0992      7.1158 
  2717.5000     72.3754     15.1690      0.0911      2.4469     50.0528    110.8967    -36.7920      7.7495      6.1126      7.2695 
  2718.0000     72.5392     15.0244      0.1007      2.4412     48.5306    111.1028    -36.7485      7.9170      6.1260      7.4266 
  2718.5000     72.7293     14.8798      0.0969      2.4354     47.0592    106.4719    -36.8423      8.0881      6.1205      7.5871 
  2719.0000     73.3694     14.7351      0.0844      2.4542     45.5878    102.3557    -36.8461      8.2234      6.1044      7.7351 
  2719.5000     74.6176     14.7417      0.0963      2.4828     45.6938    100.3774    -36.7299      8.0982      6.0884      7.6173 
  2720.0000     75.6642     14.8481      0.1038      2.4623     46.2618    101.5091    -36.5474      7.9749      6.0724      7.5013 
  2720.5000     76.7001     14.9545      0.0862      2.4394     46.7732    103.5923    -36.4799      7.8534      6.0565      7.3871 
  2721.0000     77.7361     15.0608      0.0834      2.4269     46.1575    107.1010    -36.4269      7.7478      6.0391      7.3000 
  2721.5000     78.7720     15.1277      0.0976      2.4369     45.3572    108.8827    -36.3100      7.6675      5.9982      7.2244 
  2722.0000     79.5958     15.1844      0.0863      2.4415     45.5879    108.9749    -36.1101      7.5880      5.9576      7.1495 
  2722.5000     79.1933     15.2410      0.0756      2.4250     46.5915    107.7162    -35.9471      7.5093      5.9173      7.0753 
  2723.0000     78.7908     15.2977      0.0988      2.4513     46.9648    109.0072    -36.0588      7.4315      5.8773      7.0020 
  2723.5000     78.3883     15.3114      0.1126      2.4573     47.3424    112.2938    -36.3384      7.3544      5.8375      6.9294 
  2724.0000     77.9906     15.3209      0.0983      2.4413     47.6970    108.2209    -36.6295      7.2782      5.7980      6.8576 
  2724.5000     77.5951     15.3304      0.0886      2.4309     48.0515    110.7991    -36.8599      7.2027      5.7588      6.7865 
  2725.0000     77.4418     15.3399      0.0802      2.4150     48.4061    113.5943    -36.9540      7.1378      5.7198      6.7354 
  2725.5000     77.6550     15.3492      0.0800      2.4036     48.7607    111.5118    -36.9895      7.1426      5.6811      6.7399 
  2726.0000     77.8682     15.3567      0.0968      2.4263     49.2509    112.3172    -36.8560      7.1474      5.6727      6.7444 
  2726.5000     78.0814     15.3642      0.1068      2.4368     49.6495    113.0675    -36.6807      7.1521      5.7251      6.7489 
  2727.0000     78.2946     15.3730      0.0990      2.4461     49.6983    111.2732    -36.5639      7.1569      5.7780      6.7534 
  2727.5000     78.1268     15.3640      0.1031      2.4427     49.5487    112.6917    -36.4206      7.1617      5.8259      6.7579 
  2728.0000     77.7013     15.3182      0.0762      2.4185     49.7562    115.4561    -36.3546      7.1665      5.8408      6.7624 
  2728.5000     77.2679     15.2724      0.0588      2.4218     49.6614    114.3197    -36.3699      7.1713      5.8558      6.7669 
  2729.0000     76.8345     15.2308      0.0524      2.4344     48.2500    113.5766    -36.2688      7.1761      5.8515      6.7714 
  2729.5000     76.4011     15.2088      0.0706      2.4545     46.8387    110.5818    -36.3082      7.1808      5.7950      6.7760 
  2730.0000     76.8767     15.1868      0.0811      2.4530     46.4546    107.1441    -36.3231      7.1856      5.7391      6.7805 
  2730.5000     77.4124     15.1648      0.0881      2.4439     47.0246    108.5079    -36.3380      7.1805      5.6837      6.7697 
  2731.0000     78.0705     15.1138      0.0664      2.4185     47.6211    109.0122    -36.4232      7.1231      5.6288      6.7156 
  2731.5000     79.9388     15.0564      0.0654      2.4222     48.2176    109.5581    -36.5731      7.0662      5.5745      6.6620 
  2732.0000     81.8072     15.1102      0.0807      2.4298     49.3814    111.1565    -36.5334      7.0097      5.5207      6.6087 
  2732.5000     83.6756     15.1480      0.0743      2.4319     49.5882    111.5586    -36.6157      6.9537      5.5152      6.5559 
  2733.0000     85.5440     15.1647      0.0905      2.4535     48.9330    111.6379    -36.8320      6.9341      5.5667      6.5431 
  2733.5000     87.4124     15.1962      0.1068      2.4638     48.8584    113.4965    -36.9651      6.9317      5.6187      6.5409 
  2734.0000     87.7350     15.2640      0.0879      2.4473     49.5599    111.2498    -37.0287      6.9293      5.6681      6.5386 
  2734.5000     86.1060     15.2716      0.0856      2.4347     50.3491    113.5103    -37.0926      6.9269      5.7109      6.5364 
  2735.0000     83.8401     15.2792      0.0743      2.4296     50.6118    114.8983    -37.0650      6.9245      5.7541      6.5341 
  2735.5000     80.8405     15.2759      0.0594      2.4219     50.1430    114.8924    -36.8421      6.9221      5.7976      6.5319 
  2736.0000     77.8409     15.2010      0.0735      2.4071     49.6720    113.4214    -36.7807      6.9198      5.8414      6.5296 
  2736.5000     74.8413     15.1262      0.0957      2.4340     49.3239    111.5214    -36.7915      6.9174      5.8855      6.5274 
