~VERSION INFORMATION
 VERS.                           2.00:        CWLS LOG ASCII STANDARD - VERSION 2.00
 WRAP.                             NO:        ONE LINE PER DEPTH STEP
~WELL INFORMATION
#MNEM.UNIT                   DATA             INFORMATION
#----------             --------------        ------------------------------
 STRT.F                      358.0000:        START DEPTH
 STOP.F                     8806.0000:        STOP DEPTH
 STEP.F                        0.5000:        STEP VALUE
 NULL.                      -999.2500:        NULL VALUE
 COMP.                      U.S. NAVY:        COMPANY
 LOC .                     22 17N 12W:        LOCATION
 DATE.                         4/5/77:        LOG DATE
 WELL.               SOUTH SIMPSON #1:        WELL
 UWI .                   502792000100:        UNIQUE WELL ID
 API .                   502792000100:        UNIQUE WELL IDENTIFIER
 FLD .                        WILDCAT:        FIELD
 CNTY.                    NORTH SLOPE:        COUNTY
 STAT.                         ALASKA:        STATE
 CTRY.                            USA:        COUNTRY
 OPER.                      U.S. NAVY:        OPERATOR
 SRVC.                   SCHLUMBERGER:        SERVICE COMPANY
 LAT .                         0.0000:        LATITUDE
 LON .                         0.0000:        LONGITUDE
 DIGS.               CENTER LINE DATA:        DIGITIZING COMPANY
~CURVE INFORMATION      
#MNEM        .UNIT         API CODE           CURVE DESCRIPTION
#-----------------      --------------        ------------------------------
 DEPT        .F                      :        1  DEPTH
 GR          .GAPI                   :        2  
 CALI        .IN                     :        3  
 DRHO        .G/C3                   :        4  
 RHOB        .G/C3                   :        5  
 NPHI        .%                      :        6  
 DT          .US/F                   :        7  
 SP          .MV                     :        8  
 ILD         .OHMM                   :        9  
 ILM         .OHMM                   :        10 
 LL8         .OHMM                   :        11 
~PARAMETER INFORMATION
#MNEM.UNIT                  VALUE             DESCRIPTION OF MNEMONIC
#---------             ---------------        ------------------------------
 EKB .F                       25.0000:        KELLY BUSHING
 TD  .F                     8807.0000:        TOTAL DEPTH
 BHT .F                      145.0000:        BOTTOM HOLE TEMPERATURE
 BS  .                        13.5000:        BIT SIZE
 FD  .                        10.7000:        FLUID DENSITY
 CSIZ.                        16.0000:        CASING SIZE
 CBD .F                     2175.0000:        CASING DRILLER 1
 CBL .F                     2175.0000:        CASING LOGGER 1
 DFT .                  MISCELLANEOUS:        TYPE FLUID IN HOLE
 DFV .                        47.0000:        VISCOSITY
 DFPH.                        10.5000:        PH
 DFL .                         5.0000:        FLUID LOSS
 RMS .                         2.3000:        RM
 MST .F                       60.0000:        RM MEAS. TEMP.
 RMF .                         1.5400:        RMF
 MFST.F                       54.0000:        RMF MEAS. TEMP.
 RMC .                         2.7300:        RMC
 MCST.F                       54.0000:        RMC MEAS. TEMP.
~OTHER INFORMATION
~A    DEPTH          GR        CALI        DRHO        RHOB        NPHI          DT          SP         ILD         ILM         LL8 
# ...
  3255.5000     70.2458     17.1260      0.0429      2.4691     31.6016     96.9268    -40.6012      9.2739      8.0507      8.7331 
  3256.0000     69.6037     17.1246      0.0297      2.4465     31.5951     97.2402    -40.4360      9.2956      8.0642      8.7535 
  3256.5000     69.2180     17.1233      0.0381      2.4601     30.7812     96.2190    -40.4042      9.3173      8.0093      8.7740 
  3257.0000     69.8701     17.1220      0.0478      2.4819     29.7894     95.5153    -40.4925      9.3041      7.9548      8.7617 
  3257.5000     71.6078     17.1206      0.0633      2.5037     29.2472     93.6566    -40.6575      9.2884      7.9006      8.7470 
  3258.0000     73.8273     17.1193      0.0671      2.5138     29.8223     92.4649    -40.8686      9.2620      7.8608      8.7123 
  3258.5000     75.4708     17.1180      0.0652      2.5124     30.8323     94.8176    -40.3663      9.1803      7.8250      8.6355 
  3259.0000     77.1143     17.1166      0.0594      2.5067     31.9332     96.2809    -39.9980      9.0994      7.7893      8.5593 
  3259.5000     77.4826     17.1153      0.0536      2.5008     33.0676     97.4382    -39.6147      9.0191      7.7538      8.4838 
  3260.0000     77.6051     17.1143      0.0488      2.5009     33.3846     98.5676    -39.4030      8.9396      7.7185      8.4090 
  3260.5000     77.7275     17.1142      0.0716      2.5197     32.8630    100.1113    -39.2210      8.8607      7.6833      8.3348 
  3261.0000     78.0048     17.1142      0.0861      2.5166     32.3465     98.2951    -39.1735      8.7826      7.6483      8.2613 
  3261.5000     78.3609     17.1141      0.0953      2.5314     31.8251     95.2062    -39.1672      8.7051      7.6134      8.1885 
  3262.0000     78.9393     17.1141      0.0943      2.5314     31.8066     95.2439    -38.8303      8.6822      7.5787      8.1741 
  3262.5000     80.0315     17.1140      0.0816      2.5153     33.2039     96.0416    -38.5777      8.7226      7.6061      8.2121 
  3263.0000     80.1954     17.1139      0.0714      2.5007     34.0381     97.1897    -38.4084      8.7632      7.6406      8.2503 
  3263.5000     79.1861     17.1139      0.0581      2.4947     33.8710     99.0441    -38.2920      8.8254      7.6753      8.3033 
  3264.0000     78.1767     17.1138      0.0439      2.4697     33.6058     97.9797    -38.2001      8.8987      7.7102      8.3721 
  3264.5000     77.1674     17.1138      0.0400      2.4612     33.6342     97.6870    -38.6497      8.9726      7.7452      8.4414 
  3265.0000     76.7455     17.1137      0.0509      2.4579     33.3437     97.1872    -38.9506      9.0470      7.7158      8.5113 
  3265.5000     77.3277     17.1137      0.0623      2.4708     32.5329     93.6422    -39.1386      9.1222      7.4790      8.5818 
  3266.0000     79.4215     17.1136      0.0668      2.4842     31.1213     95.9353    -38.7299      9.0920      7.1658      8.5600 
  3266.5000     81.6727     17.1135      0.0693      2.4960     31.9034     98.2478    -38.2255      9.0540      6.8657      8.5242 
  3267.0000     83.9238     17.1135      0.0838      2.5079     33.6205    100.4242    -38.0037      9.0161      6.5782      8.2598 
  3267.5000     86.1749     17.1134      0.0968      2.5086     35.6492    104.6740    -37.5020      8.5840      6.3027      7.8347 
  3268.0000     88.1698     17.1165      0.1065      2.5070     37.1621    110.2693    -37.0682      8.1414      6.1765      7.4217 
  3268.5000     88.8299     17.1197      0.1090      2.5053     37.7836    118.8771    -36.6865      7.7122      6.1737      7.1766 
  3269.0000     89.1178     17.1230      0.1072      2.4944     38.1050    109.3736    -36.5581      7.4902      6.1709      6.9906 
  3269.5000     88.1921     17.1263      0.1005      2.4948     37.3112    106.1923    -36.3807      7.2960      6.2236      6.8095 
  3270.0000     87.2074     17.1295      0.0479      2.4781     36.9524    102.7324    -36.3779      7.1676      6.2880      6.7486 
  3270.5000     85.9491     17.1328      0.0559      2.4503     36.6766    104.6359    -36.3460      7.1911      6.3531      6.7707 
  3271.0000     82.3351     17.1361      0.0512      2.4571     35.9793    110.8835    -36.2404      7.4702      6.5804      6.8785 
  3271.5000     79.3502     17.1393      0.0416      2.4652     35.1523    100.4791    -36.1636      7.7994      6.7643      7.1816 
  3272.0000     77.9573     17.1426      0.0602      2.5126     32.6547     96.6068    -36.1478      8.1431      6.9534      7.4980 
  3272.5000     79.7901     17.1459      0.0725      2.5032     30.7774     92.5007    -36.1703      8.5019      7.1478      7.8284 
  3273.0000     80.4353     17.1491      0.0657      2.4913     31.3758     92.3484    -36.1681      8.8766      7.3476      8.1734 
  3273.5000     80.5973     17.1524      0.0609      2.4917     31.9877     96.5332    -36.3232      8.9961      7.5530      8.4684 
  3274.0000     80.7630     17.1557      0.0774      2.5108     32.4278     96.5819    -36.3618      9.0359      7.6960      8.5063 
  3274.5000     81.1079     17.1589      0.0722      2.5100     32.4484     99.1530    -36.3826      9.0759      7.6699      8.5443 
  3275.0000     81.3277     17.1622      0.0725      2.5040     32.4778     95.9979    -36.2489      9.1058      7.6438      8.5586 
  3275.5000     80.9359     17.1655      0.0814      2.5005     32.9327     97.8868    -36.1843      9.0012      7.6179      8.4603 
  3276.0000     80.7580     17.1687      0.0838      2.4912     34.1960    104.9101    -36.1506      8.8979      7.5625      8.3632 
  3276.5000     80.6659     17.1720      0.0688      2.4779     35.8670    108.1213    -36.0895      8.7957      7.5057      8.2672 
  3277.0000     80.4055     17.1753      0.0803      2.5018     35.8164    103.2982    -35.8559      8.6948      7.4494      8.1723 
  3277.5000     80.2015     17.1785      0.0986      2.5387     35.0731    102.4627    -35.6513      8.5949      7.3935      8.0784 
  3278.0000     80.1932     17.1818      0.0819      2.5213     33.9355    100.5200    -35.5295      8.4963      7.3380      7.9857 
  3278.5000     80.1605     17.1830      0.0862      2.5073     34.2326     98.5720    -35.5062      8.3987      7.2829      7.8940 
  3279.0000     79.8165     17.1836      0.1076      2.5233     35.2357    104.4069    -35.2639      8.3023      7.2283      7.8034 
  3279.5000     79.9926     17.1842      0.0862      2.5039     36.0135    100.9175    -34.8833      8.2070      7.1740      7.6741 
  3280.0000     79.7816     17.1848      0.0746      2.5014     36.4028     96.0762    -34.7595      8.1763      7.0949      7.4846 
  3280.5000     79.9123     17.1854      0.0828      2.5132     36.2336     97.2767    -34.6990      8.1535      6.9671      7.2998 
  3281.0000     79.6171     17.1860      0.1006      2.5274     36.9890    100.0614    -34.7444      8.1308      6.8416      7.1195 
  3281.5000     79.5168     17.1866      0.1107      2.5465     38.4999    101.2363    -34.9000      8.1081      6.7184      6.9437 
  3282.0000     79.8338     17.1872      0.1004      2.5452     39.2422    103.1361    -35.1531      8.0855      6.6570      6.8355 
  3282.5000     80.0820     17.1878      0.0850      2.5323     37.7891    101.8093    -35.4232      8.0629      6.6375      6.8155 
  3283.0000     80.5855     17.1884      0.0667      2.5147     36.6866    100.6058    -35.5889      8.0404      6.6459      6.8960 
  3283.5000     81.6851     17.1890      0.0507      2.4970     36.3700     98.9996    -35.5989      8.0412      6.7029      7.0802 
  3284.0000     82.7847     17.1896      0.0453      2.4793     36.0535     97.5958    -35.4349      8.0478      6.7604      7.2694 
  3284.5000     82.4919     17.1902      0.0447      2.4732     36.2772    101.2894    -35.1916      8.0545      6.8184      7.4635 
  3285.0000     81.1352     17.1908      0.0473      2.4857     36.5779    101.3671    -34.9483      8.0611      6.8769      7.6611 
  3285.5000     80.1726     17.1914      0.0554      2.4982     35.9967    100.9689    -34.7050      8.0677      6.9359      7.6526 
