~VERSION INFORMATION
 VERS.                           2.00:        CWLS LOG ASCII STANDARD - VERSION 2.00
 WRAP.                             NO:        ONE LINE PER DEPTH STEP
~WELL INFORMATION
#MNEM.UNIT                   DATA             INFORMATION
#----------             --------------        ------------------------------
 STRT.F                      358.0000:        START DEPTH
 STOP.F                     8806.0000:        STOP DEPTH
 STEP.F                        0.5000:        STEP VALUE
 NULL.                      -999.2500:        NULL VALUE
 COMP.                      U.S. NAVY:        COMPANY
 LOC .                     22 17N 12W:        LOCATION
 DATE.                         4/5/77:        LOG DATE
 WELL.               SOUTH SIMPSON #1:        WELL
 UWI .                   502792000100:        UNIQUE WELL ID
 API .                   502792000100:        UNIQUE WELL IDENTIFIER
 FLD .                        WILDCAT:        FIELD
 CNTY.                    NORTH SLOPE:        COUNTY
 STAT.                         ALASKA:        STATE
 CTRY.                            USA:        COUNTRY
 OPER.                      U.S. NAVY:        OPERATOR
 SRVC.                   SCHLUMBERGER:        SERVICE COMPANY
 LAT .                         0.0000:        LATITUDE
 LON .                         0.0000:        LONGITUDE
 DIGS.               CENTER LINE DATA:        DIGITIZING COMPANY
~CURVE INFORMATION      
#MNEM        .UNIT         API CODE           CURVE DESCRIPTION
#-----------------      --------------        ------------------------------
 DEPT        .F                      :        1  DEPTH
 GR          .GAPI                   :        2  
 CALI        .IN                     :        3  
 DRHO        .G/C3                   :        4  
 RHOB        .G/C3                   :        5  
 NPHI        .%                      :        6  
 DT          .US/F                   :        7  
 SP          .MV                     :        8  
 ILD         .OHMM                   :        9  
 ILM         .OHMM                   :        10 
 LL8         .OHMM                   :        11 
~PARAMETER INFORMATION
#MNEM.UNIT                  VALUE             DESCRIPTION OF MNEMONIC
#---------             ---------------        ------------------------------
 EKB .F                       25.0000:        KELLY BUSHING
 TD  .F                     8807.0000:        TOTAL DEPTH
 BHT .F                      145.0000:        BOTTOM HOLE TEMPERATURE
 BS  .                        13.5000:        BIT SIZE
 FD  .                        10.7000:        FLUID DENSITY
 CSIZ.                        16.0000:        CASING SIZE
 CBD .F                     2175.0000:        CASING DRILLER 1
 CBL .F                     2175.0000:        CASING LOGGER 1
 DFT .                  MISCELLANEOUS:        TYPE FLUID IN HOLE
 DFV .                        47.0000:        VISCOSITY
 DFPH.                        10.5000:        PH
 DFL .                         5.0000:        FLUID LOSS
 RMS .                         2.3000:        RM
 MST .F                       60.0000:        RM MEAS. TEMP.
 RMF .                         1.5400:        RMF
 MFST.F                       54.0000:        RMF MEAS. TEMP.
 RMC .                         2.7300:        RMC
 MCST.F                       54.0000:        RMC MEAS. TEMP.
~OTHER INFORMATION
~A    DEPTH          GR        CALI        DRHO        RHOB        NPHI          DT          SP         ILD         ILM         LL8 
# ...
  1608.5000     53.8497   -999.2500   -999.2500   -999.2500   -999.2500    105.2365    -74.9801      5.4290      5.5556      8.6406 
  1609.0000     53.4358   -999.2500   -999.2500   -999.2500   -999.2500    104.7620    -75.9491      5.3881      5.5126      8.4299 
  1609.5000     51.3561   -999.2500   -999.2500   -999.2500   -999.2500    104.5217    -78.0417      5.3475      5.4711      8.3326 
  1610.0000     48.8886   -999.2500   -999.2500   -999.2500   -999.2500    104.2762    -80.2361      5.3073      5.4299      8.5978 
  1610.5000     46.8356   -999.2500   -999.2500   -999.2500   -999.2500    104.1500    -81.1572      5.2981      5.4188      8.7847 
  1611.0000     46.0891   -999.2500   -999.2500   -999.2500   -999.2500    104.1515    -80.8750      5.2905      5.4110      8.7638 
  1611.5000     45.7196   -999.2500   -999.2500   -999.2500   -999.2500    104.1359    -80.2212      5.2829      5.4033      8.7026 
  1612.0000     46.2961   -999.2500   -999.2500   -999.2500   -999.2500    103.9511    -79.0071      5.2753      5.3955      8.6922 
  1612.5000     46.5650   -999.2500   -999.2500   -999.2500   -999.2500    103.7939    -77.6741      5.2677      5.3878      8.8049 
  1613.0000     46.7045   -999.2500   -999.2500   -999.2500   -999.2500    103.5852    -76.9729      5.2602      5.3800      8.8454 
  1613.5000     47.3108   -999.2500   -999.2500   -999.2500   -999.2500    103.3137    -76.1344      5.2526      5.3723      8.8427 
  1614.0000     48.0979   -999.2500   -999.2500   -999.2500   -999.2500    103.2002    -76.3294      5.2451      5.3646      8.7887 
  1614.5000     48.9005   -999.2500   -999.2500   -999.2500   -999.2500    103.2621    -76.8381      5.2376      5.3569      8.8753 
  1615.0000     49.9473   -999.2500   -999.2500   -999.2500   -999.2500    103.5897    -76.8496      5.2300      5.3492      8.9099 
  1615.5000     51.1839   -999.2500   -999.2500   -999.2500   -999.2500    104.0915    -76.8007      5.2225      5.3415      8.9045 
  1616.0000     51.9998   -999.2500   -999.2500   -999.2500   -999.2500    104.4183    -77.2129      5.2150      5.3338      8.9372 
  1616.5000     52.3205   -999.2500   -999.2500   -999.2500   -999.2500    104.5800    -77.8186      5.2076      5.3262      8.9308 
  1617.0000     52.5176   -999.2500   -999.2500   -999.2500   -999.2500    104.6533    -78.2867      5.2068      5.3254      8.8803 
  1617.5000     53.1182   -999.2500   -999.2500   -999.2500   -999.2500    104.7013    -78.0857      5.2186      5.3374      8.8510 
  1618.0000     55.4820   -999.2500   -999.2500   -999.2500   -999.2500    105.3553    -76.1508      5.2304      5.3495      8.8895 
  1618.5000     60.7243   -999.2500   -999.2500   -999.2500   -999.2500    106.5548    -72.9042      5.2423      5.3617      8.9012 
  1619.0000     64.5241   -999.2500   -999.2500   -999.2500   -999.2500    109.8877    -69.5367      5.2542      5.3738      8.8958 
  1619.5000     68.8069   -999.2500   -999.2500   -999.2500   -999.2500    111.7170    -66.3075      5.3656      5.5116      8.8726 
  1620.0000     72.5071   -999.2500   -999.2500   -999.2500   -999.2500    112.0515    -62.9741      5.5307      5.6816      8.7996 
  1620.5000     74.7675   -999.2500   -999.2500   -999.2500   -999.2500    109.8205    -60.0119      5.7093      5.8694      8.7253 
  1621.0000     75.3283   -999.2500   -999.2500   -999.2500   -999.2500    107.1255    -59.3923      5.8482      5.9813      8.2340 
  1621.5000     76.1984   -999.2500   -999.2500   -999.2500   -999.2500    105.4578    -61.6646      5.8560      5.9895      7.7405 
  1622.0000     74.9860   -999.2500   -999.2500   -999.2500   -999.2500    105.1862    -66.9756      5.8605      5.9939      7.8180 
  1622.5000     70.9489   -999.2500   -999.2500   -999.2500   -999.2500    104.9271    -71.3989      5.8407      5.9799      8.6237 
  1623.0000     67.7134   -999.2500   -999.2500   -999.2500   -999.2500    104.6420    -73.7020      5.7594      5.8966      9.2277 
  1623.5000     63.1984   -999.2500   -999.2500   -999.2500   -999.2500    104.4260    -75.2939      5.6552      5.7966      9.4345 
  1624.0000     54.8049   -999.2500   -999.2500   -999.2500   -999.2500    104.5097    -76.9254      5.5395      5.6780      9.3909 
  1624.5000     50.0711   -999.2500   -999.2500   -999.2500   -999.2500    104.5502    -77.9089      5.4261      5.5618      9.2343 
  1625.0000     49.3474   -999.2500   -999.2500   -999.2500   -999.2500    104.5733    -78.3761      5.3151      5.4480      9.0516 
  1625.5000     49.3989   -999.2500   -999.2500   -999.2500   -999.2500    104.9033    -78.9078      5.2064      5.3366      8.8725 
  1626.0000     49.7282   -999.2500   -999.2500   -999.2500   -999.2500    105.2140    -79.7519      5.1735      5.2918      8.6397 
  1626.5000     49.7257   -999.2500   -999.2500   -999.2500   -999.2500    105.5395    -80.1138      5.1520      5.2698      8.6390 
  1627.0000     49.2330   -999.2500   -999.2500   -999.2500   -999.2500    105.9838    -79.5916      5.1390      5.2568      8.6284 
  1627.5000     48.0857   -999.2500   -999.2500   -999.2500   -999.2500    106.0854    -78.8993      5.1674      5.2858      8.5564 
  1628.0000     46.6261   -999.2500   -999.2500   -999.2500   -999.2500    105.8874    -77.8346      5.1959      5.3150      8.4777 
  1628.5000     45.3221   -999.2500   -999.2500   -999.2500   -999.2500    105.6593    -76.4871      5.2246      5.3444      8.3996 
  1629.0000     46.4146   -999.2500   -999.2500   -999.2500   -999.2500    105.5696    -77.1744      5.2535      5.3739      8.3223 
  1629.5000     49.2675   -999.2500   -999.2500   -999.2500   -999.2500    105.4367    -79.9356      5.2825      5.4036      8.3243 
  1630.0000     50.9141   -999.2500   -999.2500   -999.2500   -999.2500    105.4099    -83.4536      5.3126      5.4366      8.6968 
  1630.5000     48.4398   -999.2500   -999.2500   -999.2500   -999.2500    105.0530    -86.1766      5.3683      5.4936      8.8804 
  1631.0000     46.9731   -999.2500   -999.2500   -999.2500   -999.2500    104.5281    -87.3635      5.4246      5.5512      8.8886 
  1631.5000     45.9884   -999.2500   -999.2500   -999.2500   -999.2500    104.3163    -88.1957      5.4814      5.6094      8.7935 
  1632.0000     44.0142   -999.2500   -999.2500   -999.2500   -999.2500    104.0206    -87.2920      5.5389      5.6675      8.7554 
  1632.5000     41.0937   -999.2500   -999.2500   -999.2500   -999.2500    103.7477    -85.7204      5.5087      5.6351      9.1533 
  1633.0000     42.3960   -999.2500   -999.2500   -999.2500   -999.2500    103.6886    -84.7917      5.4731      5.5992      9.2382 
  1633.5000     44.5899   -999.2500   -999.2500   -999.2500   -999.2500    103.6245    -82.9921      5.4338      5.5590      9.1409 
  1634.0000     45.2893   -999.2500   -999.2500   -999.2500   -999.2500    103.5585    -80.4518      5.3948      5.5191      9.0840 
  1634.5000     45.4844   -999.2500   -999.2500   -999.2500   -999.2500    103.5693    -80.6031      5.3560      5.4795      9.0590 
  1635.0000     45.3654   -999.2500   -999.2500   -999.2500   -999.2500    103.7035    -80.8878      5.3176      5.4401      9.0497 
  1635.5000     45.2750   -999.2500   -999.2500   -999.2500   -999.2500    103.9226    -81.3177      5.2794      5.4011      9.0711 
  1636.0000     45.2122   -999.2500   -999.2500   -999.2500   -999.2500    104.1776    -81.7310      5.2415      5.3623      9.0306 
  1636.5000     47.5035   -999.2500   -999.2500   -999.2500   -999.2500    104.3273    -82.7719      5.2104      5.3297      8.9400 
  1637.0000     50.1571   -999.2500   -999.2500   -999.2500   -999.2500    104.3331    -83.8287      5.1940      5.3123      8.8646 
  1637.5000     53.7290   -999.2500   -999.2500   -999.2500   -999.2500    104.4698    -84.1949      5.1955      5.3142      8.7820 
  1638.0000     58.8691   -999.2500   -999.2500   -999.2500   -999.2500    105.7627    -82.0279      5.2409      5.3764      8.6346 
  1638.5000     62.4418   -999.2500   -999.2500   -999.2500   -999.2500    108.1819    -78.0243      5.2859      5.4067      8.7316 
