~VERSION INFORMATION
 VERS.                      2.00:        CWLS LOG ASCII STANDARD - VERSION 2.00
 WRAP.                        NO:        ONE LINE PER DEPTH STEP
~WELL INFORMATION
#MNEM.UNIT               DATA            INFORMATION
#----------          ------------        ------------------------------
 STRT.F                 100.0000:        START DEPTH
 STOP.F                7938.0000:        STOP DEPTH
 STEP.F                   0.5000:        STEP VALUE
 NULL.                 -999.2500:        NULL VALUE
 COMP.                          :        COMPANY  
 WELL.             DREW POINT #1:        WELL     
 FLD .                   WILDCAT:        FIELD    
 LOC .              26  18N   8W:        LOCATION   
 CNTY.               NORTH SLOPE:        COUNTY  
 STAT.                    ALASKA:        STATE   
 CTRY.                       USA:        COUNTRY 
 DATE.                   1/17/78:        LOG DATE 
 API .              500292000200:        UNIQUE WELL IDENTIFIER 
 OPER.                          :        OPERATOR  
 SRVC.              Schlumberger:        SERVICE COMPANY 
 UWI .              500292000200:        UNIQUE WELL ID 
 LAT .                    0.0000:        LATITUDE
 LON .                    0.0000:        LONGITUDE
 DIGS.          Center Line Data:        DIGITIZING COMPANY 
~CURVE INFORMATION      
#MNEM.UNIT            API CODE           CURVE DESCRIPTION
#---------          -------------        ------------------------------
 DEPT.F                         :        1  DEPTH
 SP  .MV                        :        2
 ILD .OHMM                      :        3
 ILM .OHMM                      :        4
 LL8 .OHMM                      :        5
 GR  .GAPI                      :        6
 CALI.IN                        :        7
 DRHO.G/C3                      :        8
 RHOB.G/C3                      :        9
 NPHI.%                         :       10
 DT  .US/F                      :       11
~PARAMETER INFORMATION       
#MNEM.UNIT              VALUE            DESCRIPTION OF MNEMONIC
#---------          -------------        ------------------------------
 EKB .F                  35.0000:        KELLY BUSHING
 TD  .F                7946.0000:        TOTAL DEPTH
 BHT .F                  75.0000:        BOTTOM HOLE TEMPERATURE
 BS  .                   17.5000:        BIT SIZE
 FD  .                    9.8000:        FLUID DENSITY
 CSIZ.                   20.0000:        CASING SIZE
 CBD .F                  80.0000:        CASING DRILLER 1
 CBL .F                 106.0000:        CASING LOGGER 1
 DFT .             Miscellaneous:        TYPE FLUID IN HOLE
 DFV .                   36.0000:        VISCOSITY
 DFPH.                    7.0000:        PH
 DFL .                    0.0000:        FLUID LOSS
 RMS .                    4.5200:        RM
 MST .F                  52.0000:        RM MEAS. TEMP.
 RMF .                    2.8700:        RMF
 MFST.F                  71.0000:        RMF MEAS. TEMP.
 RMC .                    3.5000:        RMC
 MCST.F                  71.0000:        RMC MEAS. TEMP.
 UWI .              500292000200:        UNIQUE WELL ID
~OTHER INFORMATION
~A    DEPTH          SP         ILD         ILM         LL8          GR        CALI        DRHO        RHOB        NPHI          DT  
# ...
  1150.0000    -35.1517      3.1031      2.8486      4.4048     73.3941   -999.2500   -999.2500   -999.2500   -999.2500    161.4232  
  1150.5000    -34.4673      3.1338      2.8778      4.3659     74.0017   -999.2500   -999.2500   -999.2500   -999.2500    160.1745  
  1151.0000    -33.7115      3.1648      2.8994      4.3947     74.6094   -999.2500   -999.2500   -999.2500   -999.2500    156.9446  
  1151.5000    -32.7827      3.1961      2.9136      4.5074     74.5621   -999.2500   -999.2500   -999.2500   -999.2500    150.8131  
  1152.0000    -31.6315      3.2277      2.9277      4.5647     72.7530   -999.2500   -999.2500   -999.2500   -999.2500    147.5118  
  1152.5000    -30.2735      3.2596      2.9420      4.5402     70.9439   -999.2500   -999.2500   -999.2500   -999.2500    148.6297  
  1153.0000    -28.9679      3.2919      2.9563      4.4719     70.5217   -999.2500   -999.2500   -999.2500   -999.2500    149.9175  
  1153.5000    -27.9919      3.3144      2.9638      4.4418     71.9234   -999.2500   -999.2500   -999.2500   -999.2500    153.1790  
  1154.0000    -27.5555      3.2990      2.9600      4.4077     73.6234   -999.2500   -999.2500   -999.2500   -999.2500    155.1498  
  1154.5000    -27.6079      3.2769      2.9562      4.4111     74.7537   -999.2500   -999.2500   -999.2500   -999.2500    155.7783  
  1155.0000    -28.0443      3.2633      2.9296      4.3780     75.2114   -999.2500   -999.2500   -999.2500   -999.2500    155.9684  
  1155.5000    -28.7721      3.2056      2.8812      4.3567     75.7492   -999.2500   -999.2500   -999.2500   -999.2500    152.9619  
  1156.0000    -29.5247      3.1274      2.8336      4.3366     76.3761   -999.2500   -999.2500   -999.2500   -999.2500    150.5152  
  1156.5000    -29.5301      3.0512      2.7868      4.3146     76.3539   -999.2500   -999.2500   -999.2500   -999.2500    149.6407  
  1157.0000    -29.1627      2.9769      2.7407      4.2803     75.5226   -999.2500   -999.2500   -999.2500   -999.2500    149.1741  
  1157.5000    -28.7954      2.9043      2.6954      4.2380     74.4227   -999.2500   -999.2500   -999.2500   -999.2500    152.4210  
  1158.0000    -28.4281      2.8336      2.6509      4.1940     73.3674   -999.2500   -999.2500   -999.2500   -999.2500    156.4790  
  1158.5000    -28.0608      2.7929      2.6178      4.1426     72.3305   -999.2500   -999.2500   -999.2500   -999.2500    157.5962  
  1159.0000    -27.7155      2.8426      2.5945      4.0905     71.5431   -999.2500   -999.2500   -999.2500   -999.2500    158.6754  
  1159.5000    -27.4124      2.8932      2.6040      4.0564     71.0696   -999.2500   -999.2500   -999.2500   -999.2500    156.3858  
  1160.0000    -27.2842      2.9447      2.6502      4.2155     71.2280   -999.2500   -999.2500   -999.2500   -999.2500    152.8230  
  1160.5000    -27.2040      2.9971      2.6974      4.2541     73.2780   -999.2500   -999.2500   -999.2500   -999.2500    154.5846  
  1161.0000    -27.0848      3.0505      2.7465      4.2786     75.0636   -999.2500   -999.2500   -999.2500   -999.2500    153.2949  
  1161.5000    -26.9412      3.1048      2.7964      4.3025     76.3588   -999.2500   -999.2500   -999.2500   -999.2500    151.7697  
  1162.0000    -27.0413      3.1600      2.8472      4.2844     77.4250   -999.2500   -999.2500   -999.2500   -999.2500    150.8603  
  1162.5000    -27.3135      3.2163      2.8925      4.3114     77.3445   -999.2500   -999.2500   -999.2500   -999.2500    150.4134  
  1163.0000    -27.5664      3.2735      2.9126      4.3439     76.5704   -999.2500   -999.2500   -999.2500   -999.2500    150.2993  
  1163.5000    -27.6144      3.2819      2.9248      4.3647     75.6845   -999.2500   -999.2500   -999.2500   -999.2500    151.4195  
  1164.0000    -27.3979      3.2741      2.9204      4.3761     75.2038   -999.2500   -999.2500   -999.2500   -999.2500    151.7587  
  1164.5000    -27.1592      3.2664      2.9161      4.3984     75.1130   -999.2500   -999.2500   -999.2500   -999.2500    151.0776  
  1165.0000    -26.9597      3.2586      2.9117      4.4108     75.7088   -999.2500   -999.2500   -999.2500   -999.2500    151.0863  
  1165.5000    -26.6837      3.2509      2.9073      4.4276     75.9862   -999.2500   -999.2500   -999.2500   -999.2500    151.6137  
  1166.0000    -26.2445      3.2432      2.9030      4.4458     74.9190   -999.2500   -999.2500   -999.2500   -999.2500    152.1576  
  1166.5000    -25.8146      3.2355      2.8986      4.4660     74.2322   -999.2500   -999.2500   -999.2500   -999.2500    153.1075  
  1167.0000    -25.7217      3.2278      2.8909      4.4778     74.0976   -999.2500   -999.2500   -999.2500   -999.2500    151.3876  
  1167.5000    -25.9366      3.2201      2.8823      4.4541     74.0483   -999.2500   -999.2500   -999.2500   -999.2500    149.0065  
  1168.0000    -26.4222      3.2125      2.8737      4.4096     74.5857   -999.2500   -999.2500   -999.2500   -999.2500    149.1507  
  1168.5000    -26.9673      3.2048      2.8652      4.3933     75.1787   -999.2500   -999.2500   -999.2500   -999.2500    149.9359  
  1169.0000    -27.6681      3.1992      2.8566      4.3700     75.7717   -999.2500   -999.2500   -999.2500   -999.2500    152.1239  
  1169.5000    -28.6638      3.1970      2.8481      4.3457     75.6266   -999.2500   -999.2500   -999.2500   -999.2500    153.3410  
  1170.0000    -29.5257      3.1949      2.8397      4.3506     73.9398   -999.2500   -999.2500   -999.2500   -999.2500    153.2138  
  1170.5000    -31.0701      3.1928      2.8312      4.3917     71.7020   -999.2500   -999.2500   -999.2500   -999.2500    152.8870  
  1171.0000    -32.0906      3.1906      2.8482      4.4543     70.6840   -999.2500   -999.2500   -999.2500   -999.2500    150.8421  
  1171.5000    -32.7994      3.1885      2.8724      4.4960     70.1317   -999.2500   -999.2500   -999.2500   -999.2500    150.2144  
  1172.0000    -32.7104      3.1864      2.8968      4.4775     70.8434   -999.2500   -999.2500   -999.2500   -999.2500    149.7199  
  1172.5000    -32.1171      3.1842      2.9214      4.4701     71.7665   -999.2500   -999.2500   -999.2500   -999.2500    149.5658  
  1173.0000    -30.7889      3.2199      2.9462      4.5049     71.5352   -999.2500   -999.2500   -999.2500   -999.2500    149.8178  
  1173.5000    -29.6710      3.2725      2.9713      4.5435     70.5134   -999.2500   -999.2500   -999.2500   -999.2500    149.3406  
  1174.0000    -28.7361      3.2869      3.0101      4.5824     69.9527   -999.2500   -999.2500   -999.2500   -999.2500    148.1954  
  1174.5000    -27.7595      3.3291      3.0568      4.6216     70.4242   -999.2500   -999.2500   -999.2500   -999.2500    147.2860  
  1175.0000    -27.2321      3.3900      3.1046      4.6612     71.9975   -999.2500   -999.2500   -999.2500   -999.2500    146.6386  
  1175.5000    -26.9312      3.4520      3.1505      4.7011     73.4485   -999.2500   -999.2500   -999.2500   -999.2500    146.1695  
  1176.0000    -26.8916      3.5152      3.2052      4.7414     73.3953   -999.2500   -999.2500   -999.2500   -999.2500    145.4078  
  1176.5000    -27.0065      3.5795      3.2365      4.7820     71.4427   -999.2500   -999.2500   -999.2500   -999.2500    144.5238  
  1177.0000    -27.0912      3.6450      3.2578      4.8118     70.6288   -999.2500   -999.2500   -999.2500   -999.2500    144.4549  
  1177.5000    -27.0183      3.6516      3.2511      4.7289     71.0111   -999.2500   -999.2500   -999.2500   -999.2500    144.7770  
  1178.0000    -26.8429      3.6293      3.2456      4.6586     71.6650   -999.2500   -999.2500   -999.2500   -999.2500    145.4284  
  1178.5000    -26.6716      3.6071      3.2230      4.7163     72.4395   -999.2500   -999.2500   -999.2500   -999.2500    146.5831  
  1179.0000    -26.5460      3.5878      3.2330      4.7107     73.4017   -999.2500   -999.2500   -999.2500   -999.2500    147.1575  
  1179.5000    -26.5633      3.5853      3.2145      4.6539     73.7333   -999.2500   -999.2500   -999.2500   -999.2500    147.6698  
