~VERSION INFORMATION
 VERS.                      2.00:        CWLS LOG ASCII STANDARD - VERSION 2.00
 WRAP.                        NO:        ONE LINE PER DEPTH STEP
~WELL INFORMATION
#MNEM.UNIT               DATA            INFORMATION
#----------          ------------        ------------------------------
 STRT.F                  81.0000:        START DEPTH
 STOP.F               15400.0000:        STOP DEPTH
 STEP.F                   0.5000:        STEP VALUE
 NULL.                 -999.2500:        NULL VALUE
 COMP. USGS/NPR HUSKY OIL OPERAT:        COMPANY  
 WELL.     IKPIKPUK TEST WELL #1:        WELL     
 FLD .                   WILDCAT:        FIELD    
 LOC .              25  13N  10W:        LOCATION   
 CNTY.               NORTH SLPOE:        COUNTY  
 STAT.                    ALASKA:        STATE   
 CTRY.                       USA:        COUNTRY 
 DATE.                  11/29/78:        LOG DATE 
 API .              502792000400:        UNIQUE WELL IDENTIFIER 
 OPER. USGS/NPR HUSKY OIL OPERAT:        OPERATOR  
 SRVC.              Schlumberger:        SERVICE COMPANY 
 UWI .              502792000400:        UNIQUE WELL ID 
 LAT .                    0.0000:        LATITUDE
 LON .                    0.0000:        LONGITUDE
 DIGS.          Center Line Data:        DIGITIZING COMPANY 
~CURVE INFORMATION      
#MNEM.UNIT            API CODE           CURVE DESCRIPTION
#---------          -------------        ------------------------------
 DEPT.F                         :        1  DEPTH
 SP  .MV                        :        2
 ILD .OHMM                      :        3
 ILM .OHMM                      :        4
 LL8 .OHMM                      :        5
 GR  .GAPI                      :        6
 CALI.IN                        :        7
 RHOB.G/C3                      :        8
 DRHO.G/C3                      :        9
 NPHI.%                         :       10
 DT  .US/F                      :       11
~PARAMETER INFORMATION       
#MNEM.UNIT              VALUE            DESCRIPTION OF MNEMONIC
#---------          -------------        ------------------------------
 EKB .F                  52.0000:        KELLY BUSHING
 TD  .F               15481.0000:        TOTAL DEPTH
 BHT .F                   0.0000:        BOTTOM HOLE TEMPERATURE
 BS  .                   17.5000:        BIT SIZE
 FD  .                    9.0000:        FLUID DENSITY
 CSIZ.                   30.0000:        CASING SIZE
 CBD .F                 100.0000:        CASING DRILLER 1
 CBL .F                 101.0000:        CASING LOGGER 1
 DFT .                       Gel:        TYPE FLUID IN HOLE
 DFV .                   60.0000:        VISCOSITY
 DFPH.                    8.5000:        PH
 DFL .                   18.0000:        FLUID LOSS
 RMS .                    3.7300:        RM
 MST .F                  66.0000:        RM MEAS. TEMP.
 RMF .                    4.3900:        RMF
 MFST.F                  58.0000:        RMF MEAS. TEMP.
 RMC .                    2.5000:        RMC
 MCST.F                  57.0000:        RMC MEAS. TEMP.
 UWI .              502792000400:        UNIQUE WELL ID
~OTHER INFORMATION
~A    DEPTH          SP         ILD         ILM         LL8          GR        CALI        RHOB        DRHO        NPHI          DT  
# ...
  1131.0000    -66.0881      7.9425      7.6537      9.8856     31.2804   -999.2500   -999.2500   -999.2500     48.8753    113.9495  
  1131.5000    -65.5876      7.9721      7.7370      9.9557     30.7564   -999.2500   -999.2500   -999.2500     48.6793    113.5586  
  1132.0000    -64.7185      8.0017      7.8056     10.0263     30.6539   -999.2500   -999.2500   -999.2500     49.9095    112.9696  
  1132.5000    -63.1651      8.0315      7.8675     10.0880     30.8722   -999.2500   -999.2500   -999.2500     51.4600    112.2481  
  1133.0000    -60.8773      8.0613      7.8510     10.0351     32.5125   -999.2500   -999.2500   -999.2500     53.1780    111.1374  
  1133.5000    -58.5895      7.9858      7.6871      9.9824     34.3518   -999.2500   -999.2500   -999.2500     53.2517    113.7094  
  1134.0000    -53.8700      7.9012      7.2939      9.6420     36.7529   -999.2500   -999.2500   -999.2500     51.9401    121.0990  
  1134.5000    -47.8404      7.8176      6.9172      8.5424     38.9347   -999.2500   -999.2500   -999.2500     49.6028    128.0965  
  1135.0000    -41.3544      7.7348      6.5600      7.5682     39.9772   -999.2500   -999.2500   -999.2500     48.5602    133.4188  
  1135.5000    -38.0677      7.6529      6.3433      6.9356     40.2620   -999.2500   -999.2500   -999.2500     48.5021    133.3532  
  1136.0000    -36.5096      7.5740      6.3300      6.9885     39.9448   -999.2500   -999.2500   -999.2500     47.4568    131.5905  
  1136.5000    -34.9516      7.5517      6.3166      7.3552     39.3612   -999.2500   -999.2500   -999.2500     46.7114    129.7919  
  1137.0000    -34.5943      7.5295      6.3034      7.6032     39.2504   -999.2500   -999.2500   -999.2500     48.2579    128.6831  
  1137.5000    -34.3553      7.5074      6.2901      7.6074     39.1715   -999.2500   -999.2500   -999.2500     49.9862    128.6737  
  1138.0000    -34.1162      7.4853      6.2769      7.6116     38.8306   -999.2500   -999.2500   -999.2500     50.7285    129.8420  
  1138.5000    -33.8771      7.4633      6.2691      7.6158     38.2792   -999.2500   -999.2500   -999.2500     49.4637    130.8448  
  1139.0000    -33.6381      7.4414      6.2613      7.6200     37.8594   -999.2500   -999.2500   -999.2500     48.1990    131.0676  
  1139.5000    -33.3990      7.4195      6.2536      7.6287     37.8795   -999.2500   -999.2500   -999.2500     48.9778    131.6720  
  1140.0000    -33.3981      7.3977      6.2458      7.6541     37.1877   -999.2500   -999.2500   -999.2500     49.0194    132.2146  
  1140.5000    -33.3981      7.3760      6.2381      7.6796     36.1415   -999.2500   -999.2500   -999.2500     49.0510    131.2401  
  1141.0000    -33.3981      7.3543      6.2304      7.6571     35.5213   -999.2500   -999.2500   -999.2500     49.7491    131.4754  
  1141.5000    -33.3981      7.3327      6.2320      7.6099     35.8088   -999.2500   -999.2500   -999.2500     50.0423    129.9425  
  1142.0000    -33.4725      7.3111      6.2586      7.5629     37.0934   -999.2500   -999.2500   -999.2500     49.0655    127.5083  
  1142.5000    -33.7410      7.2896      6.2853      7.5162     38.5557   -999.2500   -999.2500   -999.2500     49.4900    128.7909  
  1143.0000    -34.0095      7.2682      6.3120      7.4698     39.0480   -999.2500   -999.2500   -999.2500     51.6426    129.2409  
  1143.5000    -35.1150      7.2384      6.2593      7.4237     38.6343   -999.2500   -999.2500   -999.2500     52.8333    127.1633  
  1144.0000    -36.4871      7.2031      6.2022      7.3779     37.1226   -999.2500   -999.2500   -999.2500     52.4038    125.2786  
  1144.5000    -37.8591      7.1679      6.2549      7.7805     35.3566   -999.2500   -999.2500   -999.2500     51.2400    122.6354  
  1145.0000    -39.2312      7.1329      6.3437      8.2165     35.0746   -999.2500   -999.2500   -999.2500     49.3087    119.6360  
  1145.5000    -39.0002      7.0981      6.3823      8.6771     35.8950   -999.2500   -999.2500   -999.2500     47.7488    125.1723  
  1146.0000    -38.0198      7.0635      6.3385      7.9837     36.9036   -999.2500   -999.2500   -999.2500     47.4505    127.9504  
  1146.5000    -37.0393      7.0290      6.3048      7.3109     37.8214   -999.2500   -999.2500   -999.2500     47.4642    127.6279  
  1147.0000    -36.9268      7.0060      6.3003      7.0619     38.7721   -999.2500   -999.2500   -999.2500     48.0319    125.3158  
  1147.5000    -39.1258      7.0511      6.2958      7.2780     39.7731   -999.2500   -999.2500   -999.2500     49.4267    122.5176  
  1148.0000    -42.1399      7.0965      6.2914      7.6029     41.2826   -999.2500   -999.2500   -999.2500     50.0625    119.6912  
  1148.5000    -45.1540      7.1423      6.2869      7.6301     42.4186   -999.2500   -999.2500   -999.2500     50.5429    118.6014  
  1149.0000    -48.1681      7.0786      6.2824      7.5246     42.5523   -999.2500   -999.2500   -999.2500     51.1517    117.6470  
  1149.5000    -53.0285      6.7757      6.2267      7.5000     42.5564   -999.2500   -999.2500   -999.2500     51.6669    115.3858  
  1150.0000    -57.9168      6.4857      6.0766      8.5653     42.7619   -999.2500   -999.2500   -999.2500     51.5838    114.6290  
  1150.5000    -63.1674      6.2681      5.9301      9.5738     43.0779   -999.2500   -999.2500   -999.2500     52.0285    114.0530  
  1151.0000    -64.7210      6.1736      5.7871      9.1957     43.4629   -999.2500   -999.2500   -999.2500     52.0504    113.9255  
  1151.5000    -64.6115      6.0806      5.7843      8.6021     43.6698   -999.2500   -999.2500   -999.2500     51.9004    114.0314  
  1152.0000    -63.3423      5.9890      5.8335      8.0024     43.5992   -999.2500   -999.2500   -999.2500     50.2845    113.4488  
  1152.5000    -61.8648      5.9186      5.8252      7.7521     43.6249   -999.2500   -999.2500   -999.2500     48.8282    112.4930  
  1153.0000    -60.1153      5.9157      5.7901      7.9507     44.0367   -999.2500   -999.2500   -999.2500     47.8900    111.8630  
  1153.5000    -57.0452      5.9127      5.7553      8.1624     44.0049   -999.2500   -999.2500   -999.2500     47.3613    115.2558  
  1154.0000    -51.8224      5.9098      5.7207      8.1160     42.4181   -999.2500   -999.2500   -999.2500     47.7570    120.7116  
  1154.5000    -45.5329      5.9069      5.6863      7.3876     40.7794   -999.2500   -999.2500   -999.2500     49.3578    126.4202  
  1155.0000    -39.2435      5.9040      5.6521      6.5220     39.9610   -999.2500   -999.2500   -999.2500     50.6081    129.2926  
  1155.5000    -34.7024      6.0057      5.6205      6.0003     39.3283   -999.2500   -999.2500   -999.2500     52.6808    128.2939  
  1156.0000    -33.6308      6.2351      5.7710      6.3173     39.0949   -999.2500   -999.2500   -999.2500     54.6878    125.2220  
  1156.5000    -34.0250      6.4733      5.9255      6.7122     39.4099   -999.2500   -999.2500   -999.2500     55.2017    124.2230  
  1157.0000    -34.4753      6.6788      6.0836      7.1851     39.7716   -999.2500   -999.2500   -999.2500     54.3987    123.0556  
  1157.5000    -34.9499      6.7316      6.0824      7.5617     39.9791   -999.2500   -999.2500   -999.2500     54.5634    123.7179  
  1158.0000    -34.9701      6.7849      6.0915      7.4893     40.3152   -999.2500   -999.2500   -999.2500     55.3196    125.0170  
  1158.5000    -34.5753      6.8385      6.1006      7.4175     39.9056   -999.2500   -999.2500   -999.2500     55.1002    125.7502  
  1159.0000    -33.6735      6.8926      6.1310      7.3892     39.4657   -999.2500   -999.2500   -999.2500     53.8499    126.7803  
  1159.5000    -33.2841      6.9471      6.1384      7.4749     39.8772   -999.2500   -999.2500   -999.2500     52.6482    126.0373  
  1160.0000    -33.6185      7.0013      6.3160      7.5617     40.0861   -999.2500   -999.2500   -999.2500     52.3514    123.5014  
  1160.5000    -37.3054      7.0557      6.4816      7.6815     38.9822   -999.2500   -999.2500   -999.2500     52.2144    120.8436  
