~VERSION INFORMATION
 VERS.                      2.00:        CWLS LOG ASCII STANDARD - VERSION 2.00
 WRAP.                        NO:        ONE LINE PER DEPTH STEP
~WELL INFORMATION
#MNEM.UNIT               DATA            INFORMATION
#----------          ------------        ------------------------------
 STRT.F                  92.0000:        START DEPTH
 STOP.F                7738.0000:        STOP DEPTH
 STEP.F                   0.5000:        STEP VALUE
 NULL.                 -999.2500:        NULL VALUE
 COMP.                      13.5:        COMPANY  
 WELL.           EAST SIMPSON #1:        WELL     
 FLD .                   WILDCAT:        FIELD    
 LOC .              18  18N  10W:        LOCATION   
 CNTY.                  N. SLPOE:        COUNTY  
 STAT.                    ALASKA:        STATE   
 CTRY.                       USA:        COUNTRY 
 DATE.                   2/22/79:        LOG DATE 
 API .              502792000500:        UNIQUE WELL IDENTIFIER 
 OPER.                      13.5:        OPERATOR  
 SRVC.              Schlumberger:        SERVICE COMPANY 
 UWI .              502792000500:        UNIQUE WELL ID 
 LAT .                    0.0000:        LATITUDE
 LON .                    0.0000:        LONGITUDE
 DIGS.          Center Line Data:        DIGITIZING COMPANY 
~CURVE INFORMATION      
#MNEM.UNIT            API CODE           CURVE DESCRIPTION
#---------          -------------        ------------------------------
 DEPT.F                         :        1  DEPTH
 SP  .MV                        :        2
 ILD .OHMM                      :        3
 ILM .OHMM                      :        4
 LL8 .OHMM                      :        5
 CALI.IN                        :        6
 GR  .GAPI                      :        7
 DRHO.G/C3                      :        8
 RHOB.G/C3                      :        9
 NPHI.%                         :       10
 DT  .US/F                      :       11
~PARAMETER INFORMATION       
#MNEM.UNIT              VALUE            DESCRIPTION OF MNEMONIC
#---------          -------------        ------------------------------
 EKB .F                  30.0000:        KELLY BUSHING
 TD  .F                   0.0000:        TOTAL DEPTH
 BHT .F                   0.0000:        BOTTOM HOLE TEMPERATURE
 BS  .                   17.5000:        BIT SIZE
 FD  .                   10.2000:        FLUID DENSITY
 CSIZ.                   20.0000:        CASING SIZE
 CBD .F                  90.0000:        CASING DRILLER 1
 CBL .F                  92.0000:        CASING LOGGER 1
 DFT .                       Gel:        TYPE FLUID IN HOLE
 DFV .                   70.0000:        VISCOSITY
 DFPH.                    8.0000:        PH
 DFL .                   12.0000:        FLUID LOSS
 RMS .                    3.6000:        RM
 MST .F                  75.0000:        RM MEAS. TEMP.
 RMF .                    2.2100:        RMF
 MFST.F                  75.0000:        RMF MEAS. TEMP.
 RMC .                    2.1600:        RMC
 MCST.F                  75.0000:        RMC MEAS. TEMP.
 UWI .              502792000500:        UNIQUE WELL ID
~OTHER INFORMATION
~A    DEPTH          SP         ILD         ILM         LL8        CALI          GR        DRHO        RHOB        NPHI          DT  
# ...
  1622.0000    -18.3078      5.8736      5.0526      6.7504   -999.2500     87.3264   -999.2500   -999.2500   -999.2500    128.9371  
  1622.5000    -17.9274      5.8709      5.0091      6.7058   -999.2500     86.5160   -999.2500   -999.2500   -999.2500    129.5918  
  1623.0000    -17.7158      5.8682      5.0817      6.7711   -999.2500     85.5110   -999.2500   -999.2500   -999.2500    130.0973  
  1623.5000    -17.6593      5.8788      5.1208      6.8664   -999.2500     84.6736   -999.2500   -999.2500   -999.2500    130.4601  
  1624.0000    -17.6450      5.9509      4.9572      6.8760   -999.2500     84.1423   -999.2500   -999.2500   -999.2500    130.5201  
  1624.5000    -17.7371      6.0238      5.0611      6.7766   -999.2500     84.0512   -999.2500   -999.2500   -999.2500    130.0369  
  1625.0000    -17.9987      6.0504      5.5566      6.6524   -999.2500     84.1138   -999.2500   -999.2500   -999.2500    129.9811  
  1625.5000    -18.2703      5.9395      5.7135      6.6182   -999.2500     83.7177   -999.2500   -999.2500   -999.2500    130.1554  
  1626.0000    -18.6744      5.7542      5.5546      6.7020   -999.2500     81.3287   -999.2500   -999.2500   -999.2500    130.0091  
  1626.5000    -22.9681      5.5449      5.3792      7.2852   -999.2500     78.6371   -999.2500   -999.2500   -999.2500    129.2146  
  1627.0000    -27.0926      5.3703      5.2947      7.9987   -999.2500     76.2335   -999.2500   -999.2500   -999.2500    126.6983  
  1627.5000    -32.1518      5.2556      5.2071      8.5715   -999.2500     74.4614   -999.2500   -999.2500   -999.2500    122.5635  
  1628.0000    -34.4616      5.1434      5.0644      7.7679   -999.2500     73.4804   -999.2500   -999.2500   -999.2500    118.0170  
  1628.5000    -35.3545      4.9484      4.8097      6.7887   -999.2500     73.1525   -999.2500   -999.2500   -999.2500    114.6580  
  1629.0000    -38.5961      4.7056      4.4849      6.9907   -999.2500     73.0500   -999.2500   -999.2500   -999.2500    114.0568  
  1629.5000    -42.6493      4.1208      4.0534      7.3457   -999.2500     72.8620   -999.2500   -999.2500   -999.2500    114.3304  
  1630.0000    -44.6228      3.7438      3.6131      7.4274   -999.2500     73.2138   -999.2500   -999.2500   -999.2500    114.6727  
  1630.5000    -44.9808      3.4012      3.2599      7.3050   -999.2500     74.0874   -999.2500   -999.2500   -999.2500    114.0872  
  1631.0000    -43.4649      3.0901      2.9412      7.1864   -999.2500     76.5892   -999.2500   -999.2500   -999.2500    113.1627  
  1631.5000    -40.7384      2.8508      2.7810      6.8377   -999.2500     79.0415   -999.2500   -999.2500   -999.2500    112.7997  
  1632.0000    -34.3704      2.8508      2.6658      5.4112   -999.2500     81.5963   -999.2500   -999.2500   -999.2500    113.2266  
  1632.5000    -27.0899      3.0162      2.6862      4.3985   -999.2500     84.4684   -999.2500   -999.2500   -999.2500    114.6144  
  1633.0000    -22.7969      3.2324      3.0301      5.4117   -999.2500     86.7895   -999.2500   -999.2500   -999.2500    116.7228  
  1633.5000    -21.5705      3.4926      3.4983      6.4919   -999.2500     88.5384   -999.2500   -999.2500   -999.2500    119.7819  
  1634.0000    -21.0212      4.1014      4.0779      6.9951   -999.2500     88.8822   -999.2500   -999.2500   -999.2500    123.1825  
  1634.5000    -20.9899      4.6980      4.7535      7.6149   -999.2500     88.3465   -999.2500   -999.2500   -999.2500    124.7070  
  1635.0000    -21.4420      5.2624      5.2913      8.1372   -999.2500     87.4311   -999.2500   -999.2500   -999.2500    123.6720  
  1635.5000    -22.0440      5.8915      5.4212      8.2737   -999.2500     86.5526   -999.2500   -999.2500   -999.2500    122.1076  
  1636.0000    -20.8664      6.2220      5.4963      8.0088   -999.2500     85.5779   -999.2500   -999.2500   -999.2500    120.2107  
  1636.5000    -19.3970      6.3536      5.5438      7.6347   -999.2500     84.6716   -999.2500   -999.2500   -999.2500    120.2672  
  1637.0000    -18.2774      6.3961      5.5130      7.6475   -999.2500     83.9892   -999.2500   -999.2500   -999.2500    121.1412  
  1637.5000    -17.4008      6.4206      5.4679      7.6995   -999.2500     84.5222   -999.2500   -999.2500   -999.2500    122.3212  
  1638.0000    -17.1591      6.3552      5.4294      7.5873   -999.2500     85.9001   -999.2500   -999.2500   -999.2500    123.4055  
  1638.5000    -17.4880      6.2904      5.4306      7.6847   -999.2500     87.6393   -999.2500   -999.2500   -999.2500    124.4626  
  1639.0000    -17.6542      6.2229      5.5142      7.8136   -999.2500     88.7154   -999.2500   -999.2500   -999.2500    125.0882  
  1639.5000    -17.8362      6.1380      5.5848      7.9447   -999.2500     89.0476   -999.2500   -999.2500   -999.2500    125.2587  
  1640.0000    -18.1643      6.0543      5.4842      8.1506   -999.2500     88.2296   -999.2500   -999.2500   -999.2500    124.5485  
  1640.5000    -18.3617      6.0329      5.3614      8.1658   -999.2500     87.0761   -999.2500   -999.2500   -999.2500    123.2035  
  1641.0000    -18.4889      6.0156      5.3699      7.7322   -999.2500     86.2430   -999.2500   -999.2500   -999.2500    121.2367  
  1641.5000    -19.0518      5.9984      5.4083      7.8620   -999.2500     85.8136   -999.2500   -999.2500   -999.2500    120.2088  
  1642.0000    -19.6559      5.9812      5.3493      8.0015   -999.2500     85.4747   -999.2500   -999.2500   -999.2500    119.7738  
  1642.5000    -19.1937      5.9737      5.2504      7.9568   -999.2500     84.9231   -999.2500   -999.2500   -999.2500    119.9565  
  1643.0000    -18.4844      5.9959      5.2731      7.4134   -999.2500     84.3030   -999.2500   -999.2500   -999.2500    120.6141  
  1643.5000    -18.3639      6.0618      5.4045      6.9179   -999.2500     84.3504   -999.2500   -999.2500   -999.2500    121.9883  
  1644.0000    -18.9031      6.0522      5.5004      7.8209   -999.2500     85.0750   -999.2500   -999.2500   -999.2500    123.5829  
  1644.5000    -19.2736      6.0223      5.4809      8.2294   -999.2500     85.9862   -999.2500   -999.2500   -999.2500    124.6773  
  1645.0000    -19.1430      6.0086      5.4112      8.1931   -999.2500     86.4806   -999.2500   -999.2500   -999.2500    124.5280  
  1645.5000    -18.7977      6.0002      5.3543      7.6900   -999.2500     86.6351   -999.2500   -999.2500   -999.2500    123.9213  
  1646.0000    -18.8089      5.9871      5.3358      7.4382   -999.2500     85.9478   -999.2500   -999.2500   -999.2500    123.3145  
  1646.5000    -19.0797      5.9545      5.2815      7.2690   -999.2500     84.6363   -999.2500   -999.2500   -999.2500    124.2990  
  1647.0000    -19.4549      5.9378      5.2030      7.2367   -999.2500     83.3863   -999.2500   -999.2500   -999.2500    125.2123  
  1647.5000    -19.8263      5.9230      5.1658      7.1981   -999.2500     82.9172   -999.2500   -999.2500   -999.2500    126.0036  
  1648.0000    -20.1116      5.9083      5.1572      7.1472   -999.2500     83.5605   -999.2500   -999.2500   -999.2500    127.1424  
  1648.5000    -20.0835      5.8936      5.1809      7.1146   -999.2500     84.7155   -999.2500   -999.2500   -999.2500    128.2845  
  1649.0000    -19.9216      5.8790      5.3112      7.0902   -999.2500     86.4811   -999.2500   -999.2500   -999.2500    129.5651  
  1649.5000    -19.5923      5.8644      5.4050      7.1896   -999.2500     88.2670   -999.2500   -999.2500   -999.2500    130.2347  
  1650.0000    -19.2858      5.8498      5.3611      7.9344   -999.2500     89.3781   -999.2500   -999.2500   -999.2500    128.7667  
  1650.5000    -18.9436      5.8353      5.2878      8.3055   -999.2500     89.3760   -999.2500   -999.2500   -999.2500    125.6932  
  1651.0000    -18.8236      5.8208      5.2117      8.0114   -999.2500     88.6287   -999.2500   -999.2500   -999.2500    122.9115  
  1651.5000    -18.9694      5.8064      5.2846      7.5120   -999.2500     88.1964   -999.2500   -999.2500   -999.2500    121.1209  
