~VERSION INFORMATION
 VERS.                      2.00:        CWLS LOG ASCII STANDARD - VERSION 2.00
 WRAP.                        NO:        ONE LINE PER DEPTH STEP
~WELL INFORMATION
#MNEM.UNIT               DATA            INFORMATION
#----------          ------------        ------------------------------
 STRT.F                  92.0000:        START DEPTH
 STOP.F                7738.0000:        STOP DEPTH
 STEP.F                   0.5000:        STEP VALUE
 NULL.                 -999.2500:        NULL VALUE
 COMP.                      13.5:        COMPANY  
 WELL.           EAST SIMPSON #1:        WELL     
 FLD .                   WILDCAT:        FIELD    
 LOC .              18  18N  10W:        LOCATION   
 CNTY.                  N. SLPOE:        COUNTY  
 STAT.                    ALASKA:        STATE   
 CTRY.                       USA:        COUNTRY 
 DATE.                   2/22/79:        LOG DATE 
 API .              502792000500:        UNIQUE WELL IDENTIFIER 
 OPER.                      13.5:        OPERATOR  
 SRVC.              Schlumberger:        SERVICE COMPANY 
 UWI .              502792000500:        UNIQUE WELL ID 
 LAT .                    0.0000:        LATITUDE
 LON .                    0.0000:        LONGITUDE
 DIGS.          Center Line Data:        DIGITIZING COMPANY 
~CURVE INFORMATION      
#MNEM.UNIT            API CODE           CURVE DESCRIPTION
#---------          -------------        ------------------------------
 DEPT.F                         :        1  DEPTH
 SP  .MV                        :        2
 ILD .OHMM                      :        3
 ILM .OHMM                      :        4
 LL8 .OHMM                      :        5
 CALI.IN                        :        6
 GR  .GAPI                      :        7
 DRHO.G/C3                      :        8
 RHOB.G/C3                      :        9
 NPHI.%                         :       10
 DT  .US/F                      :       11
~PARAMETER INFORMATION       
#MNEM.UNIT              VALUE            DESCRIPTION OF MNEMONIC
#---------          -------------        ------------------------------
 EKB .F                  30.0000:        KELLY BUSHING
 TD  .F                   0.0000:        TOTAL DEPTH
 BHT .F                   0.0000:        BOTTOM HOLE TEMPERATURE
 BS  .                   17.5000:        BIT SIZE
 FD  .                   10.2000:        FLUID DENSITY
 CSIZ.                   20.0000:        CASING SIZE
 CBD .F                  90.0000:        CASING DRILLER 1
 CBL .F                  92.0000:        CASING LOGGER 1
 DFT .                       Gel:        TYPE FLUID IN HOLE
 DFV .                   70.0000:        VISCOSITY
 DFPH.                    8.0000:        PH
 DFL .                   12.0000:        FLUID LOSS
 RMS .                    3.6000:        RM
 MST .F                  75.0000:        RM MEAS. TEMP.
 RMF .                    2.2100:        RMF
 MFST.F                  75.0000:        RMF MEAS. TEMP.
 RMC .                    2.1600:        RMC
 MCST.F                  75.0000:        RMC MEAS. TEMP.
 UWI .              502792000500:        UNIQUE WELL ID
~OTHER INFORMATION
~A    DEPTH          SP         ILD         ILM         LL8        CALI          GR        DRHO        RHOB        NPHI          DT  
# ...
  6182.0000    -38.1111      9.9547      9.1410     10.9035     12.9933     69.1224      0.0553      2.4648     30.7140     83.4313  
  6182.5000    -37.3552      9.6393      8.8965     10.0944     12.9864     60.3554      0.0535      2.4895     31.1790     83.0024  
  6183.0000    -37.0655      9.3340      8.7536      9.9590     12.9712     55.3769      0.0638      2.4780     30.2813     83.3794  
  6183.5000    -36.9906      9.3900      8.6129      9.8254     12.9615     51.1376      0.0590      2.4557     28.9139     83.6914  
  6184.0000    -37.3087      9.6080      8.7593      9.9705     12.9620     50.4891      0.0405      2.4251     27.0888     83.1086  
  6184.5000    -37.8679      9.8919      9.3661     10.7931     12.9721     50.8970      0.0262      2.4227     25.2637     81.9286  
  6185.0000    -38.6615     10.3586      9.8320     12.9301     12.9896     52.8751      0.0177      2.4210     25.0157     80.4919  
  6185.5000    -39.9866     10.8475     10.3211     14.8299     13.0207     53.1089      0.0065      2.4075     26.1870     79.0051  
  6186.0000    -41.3116     11.4878     10.8345     15.4911     13.0497     51.1259      0.0155      2.4065     26.4817     77.8146  
  6186.5000    -42.1869     12.1897     11.6233     15.0744     13.0395     51.0074      0.0249      2.4122     26.1906     77.3732  
  6187.0000    -42.3838     12.9208     12.3331     14.4175     13.0267     52.9821      0.0303      2.4189     26.2953     77.2125  
  6187.5000    -42.6733     13.3239     12.9167     15.1723     13.0247     54.8596      0.0297      2.4267     26.7607     77.0790  
  6188.0000    -43.2551     13.6164     12.9757     15.9667     13.0281     56.1268      0.0247      2.4465     26.4644     76.9300  
  6188.5000    -43.7157     13.4916     12.9757     16.5046     13.0275     57.1500      0.0171      2.4363     25.9530     76.8952  
  6189.0000    -43.6415     13.3680     12.8717     15.7329     13.0343     55.4796      0.0093      2.4169     25.0053     77.6825  
  6189.5000    -43.3104     13.4623     12.5781     14.6461     13.0479     50.0909      0.0195      2.4198     23.5824     78.9946  
  6190.0000    -43.2280     13.6274     12.6448     14.4993     13.0519     49.3430      0.0336      2.4399     22.6651     79.9094  
  6190.5000    -43.2405     13.7944     12.8306     14.4644     13.0545     49.9861      0.0181      2.4355     22.6476     79.3381  
  6191.0000    -43.9249     13.9635     13.0457     14.7327     13.0501     48.7484      0.0168      2.4244     22.9190     78.3037  
  6191.5000    -44.6092     14.0950     13.3719     15.0060     13.0549     46.0340      0.0267      2.4206     23.8877     76.7178  
  6192.0000    -45.2788     14.2171     13.6924     15.2843     13.0705     45.7461      0.0247      2.4275     23.4365     75.6615  
  6192.5000    -45.1126     14.3403     13.9447     15.5678     13.0861     45.9363      0.0258      2.4380     22.6160     75.7690  
  6193.0000    -44.9151     14.4646     14.2017     15.6911     13.1061     46.5885      0.0113      2.4475     22.4291     75.6773  
  6193.5000    -44.7175     14.5899     14.4634     15.7755     13.1322     46.6701      0.0129      2.4434     22.2569     75.3899  
  6194.0000    -44.7620     14.7500     14.7299     15.8603     13.1575     46.5444      0.0208      2.4172     22.9630     74.9094  
  6194.5000    -45.0258     14.9421     15.0014     15.6887     13.1391     48.6379      0.0234      2.4018     24.3589     74.6665  
  6195.0000    -45.4240     15.1368     14.9864     15.5015     13.1450     50.5399      0.0101      2.3995     25.9258     74.9455  
  6195.5000    -45.8942     15.2436     14.2491     15.3164     13.2503     52.3386      0.0194      2.4264     25.9982     75.5172  
  6196.0000    -46.3645     14.6895     13.5792     14.6487     13.2737     57.8383      0.0284      2.4501     26.4475     76.1411  
  6196.5000    -46.8348     14.1556     12.9552     13.9564     13.2691     60.3561      0.0220      2.4508     26.8700     76.6107  
  6197.0000    -47.0030     13.6411     12.3598     13.2974     13.2933     61.2710      0.0144      2.4486     27.7488     76.4998  
  6197.5000    -46.6550     13.1452     11.7918     12.8476     13.3043     65.0384      0.0111      2.4459     28.6265     76.8668  
  6198.0000    -45.5128     12.6674     11.2500     12.4129     13.2923     65.6765      0.0159      2.4521     27.8393     77.8930  
  6198.5000    -43.8047     12.2070     10.7330     11.9930     13.2993     62.9879      0.0170      2.4490     26.9440     79.1489  
  6199.0000    -42.0966     11.7633     10.3866     11.6015     13.3642     57.9703      0.0111      2.4188     26.4616     80.0568  
  6199.5000    -40.8001     11.3357     10.2601     11.3012     13.3883     56.6733      0.0095      2.4137     25.3180     80.3821  
  6200.0000    -39.7407     10.9236     10.1358     11.0088     13.3930     56.3501      0.0251      2.4222     24.4072     80.1235  
  6200.5000    -39.7126     10.9265     10.2117     10.9890     13.3970     56.1189      0.0342      2.4325     24.3948     79.8687  
  6201.0000    -40.2872     10.9441     10.2880     11.9300     13.4098     54.7275      0.0283      2.4347     24.9805     78.9030  
  6201.5000    -40.5753     10.9619     10.3650     12.9517     13.4068     54.7625      0.0361      2.4291     25.5804     77.9152  
  6202.0000    -40.6170     10.9796     10.3717     12.8378     13.4900     61.3583      0.0707      2.4447     26.1478     77.6700  
  6202.5000    -40.4338     10.9974     10.3741     12.5200     13.4608     65.6962      0.1016      2.4635     26.8090     77.7605  
  6203.0000    -40.3331     10.9104     10.3282     12.8568     13.4099     63.5486      0.0645      2.4280     28.1524     78.0861  
  6203.5000    -40.4719     10.7682     10.0969     13.0170     13.3337     61.4304      0.0294      2.4230     30.0810     79.0212  
  6204.0000    -39.8544     10.6279      9.8708     12.2667     13.3037     59.8943      0.0443      2.4447     29.1405     80.6000  
  6204.5000    -39.7090     10.4893      9.6498     11.5597     13.2910     58.6159      0.0545      2.4493     26.7673     81.5909  
  6205.0000    -39.5955     10.4390      9.3769     10.8935     13.2811     56.9773      0.0633      2.4396     24.4640     81.7470  
  6205.5000    -39.7040     10.8205      9.7431     11.5459     13.2948     54.2152      0.0556      2.4278     24.4922     81.0101  
  6206.0000    -40.0539     11.2160     10.1236     12.3548     13.2813     53.5261      0.0501      2.4142     25.0239     79.3121  
  6206.5000    -40.3018     11.6259     10.5190     12.6429     13.2758     54.3096      0.0374      2.3950     24.9025     79.4102  
  6207.0000    -40.5425     12.0509     10.9298     12.8294     13.2782     51.7610      0.0279      2.3821     24.7620     80.2218  
  6207.5000    -40.5765     12.4913     11.3567     13.0187     13.2715     48.7214      0.0331      2.3922     24.4542     80.7352  
  6208.0000    -40.9667     12.9479     11.8002     13.7640     13.2769     47.3751      0.0408      2.3949     23.7163     80.0635  
  6208.5000    -41.2473     13.3545     12.1216     14.6869     13.2849     49.4912      0.0233      2.3837     23.6248     79.0512  
  6209.0000    -41.5280     13.2893     12.3716     15.2666     13.3002     55.5254      0.0190      2.3823     24.3192     78.2481  
  6209.5000    -41.8086     13.2244     12.5858     15.3140     13.3196     61.1217      0.0342      2.4051     24.2787     77.6671  
  6210.0000    -41.9486     13.1129     12.3631     15.3616     13.3209     61.3400      0.0437      2.4259     24.4309     77.7376  
  6210.5000    -41.4386     12.8607     12.1443     14.8505     13.3188     57.4469      0.0394      2.4220     24.9476     78.6396  
  6211.0000    -40.8974     12.6134     11.9296     14.2721     13.3141     55.2717      0.0344      2.4082     25.4643     79.7065  
  6211.5000    -40.7939     12.4168     11.7197     12.5519     13.3101     55.1572      0.0425      2.4011     25.7864     80.5084  
