~VERSION INFORMATION
 VERS.                           2.00:        CWLS LOG ASCII STANDARD - VERSION 2.00
 WRAP.                             NO:        ONE LINE PER DEPTH STEP
~WELL INFORMATION
#MNEM.UNIT                   DATA             INFORMATION
#----------             --------------        ------------------------------
 STRT.F                      358.0000:        START DEPTH
 STOP.F                     8806.0000:        STOP DEPTH
 STEP.F                        0.5000:        STEP VALUE
 NULL.                      -999.2500:        NULL VALUE
 COMP.                      U.S. NAVY:        COMPANY
 LOC .                     22 17N 12W:        LOCATION
 DATE.                         4/5/77:        LOG DATE
 WELL.               SOUTH SIMPSON #1:        WELL
 UWI .                   502792000100:        UNIQUE WELL ID
 API .                   502792000100:        UNIQUE WELL IDENTIFIER
 FLD .                        WILDCAT:        FIELD
 CNTY.                    NORTH SLOPE:        COUNTY
 STAT.                         ALASKA:        STATE
 CTRY.                            USA:        COUNTRY
 OPER.                      U.S. NAVY:        OPERATOR
 SRVC.                   SCHLUMBERGER:        SERVICE COMPANY
 LAT .                         0.0000:        LATITUDE
 LON .                         0.0000:        LONGITUDE
 DIGS.               CENTER LINE DATA:        DIGITIZING COMPANY
~CURVE INFORMATION      
#MNEM        .UNIT         API CODE           CURVE DESCRIPTION
#-----------------      --------------        ------------------------------
 DEPT        .F                      :        1  DEPTH
 GR          .GAPI                   :        2  
 CALI        .IN                     :        3  
 DRHO        .G/C3                   :        4  
 RHOB        .G/C3                   :        5  
 NPHI        .%                      :        6  
 DT          .US/F                   :        7  
 SP          .MV                     :        8  
 ILD         .OHMM                   :        9  
 ILM         .OHMM                   :        10 
 LL8         .OHMM                   :        11 
~PARAMETER INFORMATION
#MNEM.UNIT                  VALUE             DESCRIPTION OF MNEMONIC
#---------             ---------------        ------------------------------
 EKB .F                       25.0000:        KELLY BUSHING
 TD  .F                     8807.0000:        TOTAL DEPTH
 BHT .F                      145.0000:        BOTTOM HOLE TEMPERATURE
 BS  .                        13.5000:        BIT SIZE
 FD  .                        10.7000:        FLUID DENSITY
 CSIZ.                        16.0000:        CASING SIZE
 CBD .F                     2175.0000:        CASING DRILLER 1
 CBL .F                     2175.0000:        CASING LOGGER 1
 DFT .                  MISCELLANEOUS:        TYPE FLUID IN HOLE
 DFV .                        47.0000:        VISCOSITY
 DFPH.                        10.5000:        PH
 DFL .                         5.0000:        FLUID LOSS
 RMS .                         2.3000:        RM
 MST .F                       60.0000:        RM MEAS. TEMP.
 RMF .                         1.5400:        RMF
 MFST.F                       54.0000:        RMF MEAS. TEMP.
 RMC .                         2.7300:        RMC
 MCST.F                       54.0000:        RMC MEAS. TEMP.
~OTHER INFORMATION
~A    DEPTH          GR        CALI        DRHO        RHOB        NPHI          DT          SP         ILD         ILM         LL8 
# ...
   510.5000     42.1032   -999.2500   -999.2500   -999.2500   -999.2500    138.7149    -71.5482      9.1838      8.2610      9.2329 
   511.0000     44.2462   -999.2500   -999.2500   -999.2500   -999.2500    148.0457    -72.2784     10.4407      9.1951      9.3304 
   511.5000     46.7886   -999.2500   -999.2500   -999.2500   -999.2500    155.3676    -73.0126     11.8697     10.2349      9.5633 
   512.0000     49.6517   -999.2500   -999.2500   -999.2500   -999.2500    164.4259    -73.7426     13.5153     11.3734     10.2248 
   512.5000     54.1074   -999.2500   -999.2500   -999.2500   -999.2500    162.5183    -74.2227     15.5074     12.5969     11.1240 
   513.0000     56.1836   -999.2500   -999.2500   -999.2500   -999.2500    158.0090    -74.4827     17.7933     13.9520     12.1022 
   513.5000     58.1077   -999.2500   -999.2500   -999.2500   -999.2500    154.5775    -74.5085     20.4161     15.4529     13.1664 
   514.0000     61.9657   -999.2500   -999.2500   -999.2500   -999.2500    152.5897    -74.1347     23.4254     17.1152     14.2302 
   514.5000     64.4637   -999.2500   -999.2500   -999.2500   -999.2500    153.4314    -73.6239     26.5855     17.4965     15.3374 
   515.0000     65.0966   -999.2500   -999.2500   -999.2500   -999.2500    154.8257    -72.9552     26.3423     16.0758     16.5307 
   515.5000     65.4092   -999.2500   -999.2500   -999.2500   -999.2500    156.2663    -72.1508     24.7197     14.2296     17.6433 
   516.0000     64.4439   -999.2500   -999.2500   -999.2500   -999.2500    158.6262    -71.4172     21.0348     12.5953     17.9549 
   516.5000     63.7700   -999.2500   -999.2500   -999.2500   -999.2500    161.5301    -70.7274     17.8992     10.9026     16.8432 
   517.0000     65.1462   -999.2500   -999.2500   -999.2500   -999.2500    159.9388    -70.2775     15.2311      9.3541     14.1920 
   517.5000     67.6229   -999.2500   -999.2500   -999.2500   -999.2500    159.3036    -69.7006     12.9606      8.0395     11.7558 
   518.0000     69.7402   -999.2500   -999.2500   -999.2500   -999.2500    159.3281    -68.8645     11.0287      7.1197     10.3075 
   518.5000     70.8046   -999.2500   -999.2500   -999.2500   -999.2500    159.3526    -68.0570      9.3847      6.6202      9.6410 
   519.0000     71.5848   -999.2500   -999.2500   -999.2500   -999.2500    161.0030    -67.4803      8.3698      6.2044      9.3719 
   519.5000     74.4832   -999.2500   -999.2500   -999.2500   -999.2500    164.2846    -67.2090      7.4698      5.4068      9.1099 
   520.0000     78.8601   -999.2500   -999.2500   -999.2500   -999.2500    165.2240    -67.5148      6.6666      5.0318      8.5177 
   520.5000     81.9900   -999.2500   -999.2500   -999.2500   -999.2500    165.9299    -67.9897      5.9498      4.7590      7.9164 
   521.0000     80.5122   -999.2500   -999.2500   -999.2500   -999.2500    166.2717    -68.7683      5.4004      4.4357      7.4407 
   521.5000     77.9043   -999.2500   -999.2500   -999.2500   -999.2500    167.0330    -69.5650      5.1942      4.2355      7.0080 
   522.0000     75.3876   -999.2500   -999.2500   -999.2500   -999.2500    166.7300    -70.0925      4.9959      4.0358      6.3931 
   522.5000     73.0766   -999.2500   -999.2500   -999.2500   -999.2500    164.8499    -70.4968      4.8051      3.8777      6.1319 
   523.0000     70.7788   -999.2500   -999.2500   -999.2500   -999.2500    160.6410    -70.5353      4.6217      3.8162      5.9899 
   523.5000     70.7233   -999.2500   -999.2500   -999.2500   -999.2500    156.8342    -70.5724      4.4452      3.7505      5.9812 
   524.0000     73.3679   -999.2500   -999.2500   -999.2500   -999.2500    153.2060    -70.5379      4.2755      3.6860      6.1522 
   524.5000     76.3251   -999.2500   -999.2500   -999.2500   -999.2500    151.8153    -70.4851      4.2440      3.6225      6.4221 
   525.0000     79.3717   -999.2500   -999.2500   -999.2500   -999.2500    153.8829    -70.3727      4.2141      3.5601      6.7551 
   525.5000     81.7839   -999.2500   -999.2500   -999.2500   -999.2500    155.4931    -69.9931      4.1845      3.5375      7.1448 
   526.0000     83.8011   -999.2500   -999.2500   -999.2500   -999.2500    156.5967    -69.5310      4.1551      3.6830      7.1773 
   526.5000     81.5764   -999.2500   -999.2500   -999.2500   -999.2500    157.3711    -69.1828      4.2158      3.8667      7.2578 
   527.0000     79.6027   -999.2500   -999.2500   -999.2500   -999.2500    157.1655    -68.7667      4.4399      4.0596      7.5478 
   527.5000     79.0770   -999.2500   -999.2500   -999.2500   -999.2500    157.2847    -68.1702      4.7060      4.2622      7.9166 
   528.0000     80.5352   -999.2500   -999.2500   -999.2500   -999.2500    158.7893    -67.2801      4.9881      4.4748      8.3057 
   528.5000     79.3896   -999.2500   -999.2500   -999.2500   -999.2500    157.8457    -66.1506      5.2870      4.6981      8.4519 
   529.0000     76.4192   -999.2500   -999.2500   -999.2500   -999.2500    155.6985    -64.8077      5.6039      4.9325      8.7251 
   529.5000     72.9574   -999.2500   -999.2500   -999.2500   -999.2500    153.7287    -64.0376      5.9398      5.1785      9.4808 
   530.0000     71.0472   -999.2500   -999.2500   -999.2500   -999.2500    152.3867    -62.9506      6.2958      5.2557     11.1391 
   530.5000     70.0394   -999.2500   -999.2500   -999.2500   -999.2500    151.4163    -64.1111      6.6731      5.2046     14.1258 
   531.0000     71.4825   -999.2500   -999.2500   -999.2500   -999.2500    150.4314    -65.0530      6.9052      5.0957     14.1463 
   531.5000     71.8583   -999.2500   -999.2500   -999.2500   -999.2500    147.5598    -65.5479      6.9801      4.9891     11.4511 
   532.0000     70.9724   -999.2500   -999.2500   -999.2500   -999.2500    143.0218    -65.0871      6.9864      4.7949     10.3934 
   532.5000     69.7736   -999.2500   -999.2500   -999.2500   -999.2500    140.8037    -64.3833      6.8486      4.7593      9.6687 
   533.0000     69.6986   -999.2500   -999.2500   -999.2500   -999.2500    140.6702    -63.7930      6.7136      4.8043      9.7505 
   533.5000     71.5203   -999.2500   -999.2500   -999.2500   -999.2500    141.3011    -62.9365      6.5812      4.8147     10.2215 
   534.0000     75.0790   -999.2500   -999.2500   -999.2500   -999.2500    145.1667    -62.0241      6.4515      4.8707     10.7152 
   534.5000     77.4017   -999.2500   -999.2500   -999.2500   -999.2500    149.3234    -61.6787      6.3449      5.0665     11.2328 
   535.0000     78.6955   -999.2500   -999.2500   -999.2500   -999.2500    153.2265    -62.3573      6.3235      5.1692     10.9873 
   535.5000     79.1999   -999.2500   -999.2500   -999.2500   -999.2500    154.8429    -63.3910      6.6985      5.3208      9.9380 
   536.0000     77.1607   -999.2500   -999.2500   -999.2500   -999.2500    155.6458    -63.5219      7.2632      5.5382      8.9890 
   536.5000     76.4004   -999.2500   -999.2500   -999.2500   -999.2500    156.5354    -62.6581      7.8755      5.8801      8.1305 
   537.0000     77.4794   -999.2500   -999.2500   -999.2500   -999.2500    155.4084    -61.7734      8.2518      6.2534      8.3853 
   537.5000     77.6746   -999.2500   -999.2500   -999.2500   -999.2500    152.6105    -61.4124      8.4227      6.5089      9.2022 
   538.0000     76.3757   -999.2500   -999.2500   -999.2500   -999.2500    151.5673    -61.7112      8.5971      6.5517     10.2295 
   538.5000     75.5074   -999.2500   -999.2500   -999.2500   -999.2500    153.4846    -62.5118      8.6531      6.5998     11.3586 
   539.0000     76.1387   -999.2500   -999.2500   -999.2500   -999.2500    155.6937    -63.5653      8.5517      6.5099     10.8276 
   539.5000     75.9681   -999.2500   -999.2500   -999.2500   -999.2500    160.7116    -64.9379      8.4514      6.2169     10.1888 
   540.0000     71.2303   -999.2500   -999.2500   -999.2500   -999.2500    162.6444    -65.9964      8.3524      5.8964      9.3312 
   540.5000     60.4822   -999.2500   -999.2500   -999.2500   -999.2500    160.7766    -66.6298      7.8135      5.5852      8.5843 
