~VERSION INFORMATION
 VERS.                      2.00:        CWLS LOG ASCII STANDARD - VERSION 2.00
 WRAP.                        NO:        ONE LINE PER DEPTH STEP
~WELL INFORMATION
#MNEM.UNIT               DATA            INFORMATION
#----------          ------------        ------------------------------
 STRT.F                  81.0000:        START DEPTH
 STOP.F               15400.0000:        STOP DEPTH
 STEP.F                   0.5000:        STEP VALUE
 NULL.                 -999.2500:        NULL VALUE
 COMP. USGS/NPR HUSKY OIL OPERAT:        COMPANY  
 WELL.     IKPIKPUK TEST WELL #1:        WELL     
 FLD .                   WILDCAT:        FIELD    
 LOC .              25  13N  10W:        LOCATION   
 CNTY.               NORTH SLPOE:        COUNTY  
 STAT.                    ALASKA:        STATE   
 CTRY.                       USA:        COUNTRY 
 DATE.                  11/29/78:        LOG DATE 
 API .              502792000400:        UNIQUE WELL IDENTIFIER 
 OPER. USGS/NPR HUSKY OIL OPERAT:        OPERATOR  
 SRVC.              Schlumberger:        SERVICE COMPANY 
 UWI .              502792000400:        UNIQUE WELL ID 
 LAT .                    0.0000:        LATITUDE
 LON .                    0.0000:        LONGITUDE
 DIGS.          Center Line Data:        DIGITIZING COMPANY 
~CURVE INFORMATION      
#MNEM.UNIT            API CODE           CURVE DESCRIPTION
#---------          -------------        ------------------------------
 DEPT.F                         :        1  DEPTH
 SP  .MV                        :        2
 ILD .OHMM                      :        3
 ILM .OHMM                      :        4
 LL8 .OHMM                      :        5
 GR  .GAPI                      :        6
 CALI.IN                        :        7
 RHOB.G/C3                      :        8
 DRHO.G/C3                      :        9
 NPHI.%                         :       10
 DT  .US/F                      :       11
~PARAMETER INFORMATION       
#MNEM.UNIT              VALUE            DESCRIPTION OF MNEMONIC
#---------          -------------        ------------------------------
 EKB .F                  52.0000:        KELLY BUSHING
 TD  .F               15481.0000:        TOTAL DEPTH
 BHT .F                   0.0000:        BOTTOM HOLE TEMPERATURE
 BS  .                   17.5000:        BIT SIZE
 FD  .                    9.0000:        FLUID DENSITY
 CSIZ.                   30.0000:        CASING SIZE
 CBD .F                 100.0000:        CASING DRILLER 1
 CBL .F                 101.0000:        CASING LOGGER 1
 DFT .                       Gel:        TYPE FLUID IN HOLE
 DFV .                   60.0000:        VISCOSITY
 DFPH.                    8.5000:        PH
 DFL .                   18.0000:        FLUID LOSS
 RMS .                    3.7300:        RM
 MST .F                  66.0000:        RM MEAS. TEMP.
 RMF .                    4.3900:        RMF
 MFST.F                  58.0000:        RMF MEAS. TEMP.
 RMC .                    2.5000:        RMC
 MCST.F                  57.0000:        RMC MEAS. TEMP.
 UWI .              502792000400:        UNIQUE WELL ID
~OTHER INFORMATION
~A    DEPTH          SP         ILD         ILM         LL8          GR        CALI        RHOB        DRHO        NPHI          DT  
# ...
   111.0000    -88.3448     14.3373      6.7069     35.1313     18.6827   -999.2500   -999.2500   -999.2500   -999.2500    189.9189  
   111.5000    -88.3336     16.7207      6.5533     36.5587     19.5250   -999.2500   -999.2500   -999.2500   -999.2500    189.5049  
   112.0000    -88.1998     16.0387      6.4762     37.8626     21.0208   -999.2500   -999.2500   -999.2500   -999.2500    188.8121  
   112.5000    -88.0173     15.2820      6.8114     39.2102     22.4006   -999.2500   -999.2500   -999.2500   -999.2500    188.2487  
   113.0000    -87.7686     14.9540      7.0350     40.4482     22.7547   -999.2500   -999.2500   -999.2500   -999.2500    188.6351  
   113.5000    -88.0448     15.2297      7.0924     40.8475     22.7290   -999.2500   -999.2500   -999.2500   -999.2500    189.8386  
   114.0000    -88.5238     16.6004      7.1503     40.8616     22.0762   -999.2500   -999.2500   -999.2500   -999.2500    190.0726  
   114.5000    -88.9694     18.6345      7.3348     41.0509     21.3852   -999.2500   -999.2500   -999.2500   -999.2500    190.0512  
   115.0000    -89.4007     19.7471      7.3643     42.1823     20.8200   -999.2500   -999.2500   -999.2500     60.0099    189.4069  
   115.5000    -89.8319     20.7688      7.4591     43.2172     20.1998   -999.2500   -999.2500   -999.2500     59.2678    187.6520  
   116.0000    -90.2631     21.4744      7.5550     44.2385     19.7779   -999.2500   -999.2500   -999.2500     59.1013    190.4371  
   116.5000    -90.6944     21.8820      7.5954     44.7994     19.6696   -999.2500   -999.2500   -999.2500     59.8099    192.9083  
   117.0000    -90.9607     22.0745      7.6125     45.2279     20.0169   -999.2500   -999.2500   -999.2500     59.8112    191.6474  
   117.5000    -90.3161     22.4292      7.6297     45.6604     20.5141   -999.2500   -999.2500   -999.2500     59.8125    192.8271  
   118.0000    -89.6716     22.7897      7.6468     46.0971     21.0125   -999.2500   -999.2500   -999.2500     59.8138    193.0273  
   118.5000    -89.1474     23.1559      7.6640     46.5379     21.6505   -999.2500   -999.2500   -999.2500     59.8150    191.6949  
   119.0000    -88.0216     23.7689      7.6742     47.0065     22.0011   -999.2500   -999.2500   -999.2500     59.8163    191.0067  
   119.5000    -87.5259     23.0439      7.6766     47.8643     21.9549   -999.2500   -999.2500   -999.2500     59.8176    190.3476  
   120.0000    -87.0240     22.6737      7.6789     48.2837     21.8724   -999.2500   -999.2500   -999.2500     59.8189    191.0952  
   120.5000    -86.3689     22.5084      7.6813     48.1668     22.1612   -999.2500   -999.2500   -999.2500     59.8202    192.4070  
   121.0000    -86.4405     22.6520      7.6840     46.6495     22.8211   -999.2500   -999.2500   -999.2500     59.8214    192.9565  
   121.5000    -86.5414     22.6940      7.7187     44.6460     23.5999   -999.2500   -999.2500   -999.2500     59.8227    193.5142  
   122.0000    -86.9312     22.1787      7.7536     43.2766     23.0004   -999.2500   -999.2500   -999.2500     59.8240    196.8805  
   122.5000    -87.4079     21.7625      7.7907     42.4872     22.5681   -999.2500   -999.2500   -999.2500     59.8253    200.3274  
   123.0000    -87.9201     21.3541      7.5277     41.6640     22.3760   -999.2500   -999.2500   -999.2500     59.8266    200.8834  
   123.5000    -89.7090     20.9388      7.3415     39.4181     22.3699   -999.2500   -999.2500   -999.2500     59.8278    200.3193  
   124.0000    -91.3527     20.4563      7.3132     35.6272     22.3658   -999.2500   -999.2500   -999.2500     59.8291    200.1831  
   124.5000    -92.8272     20.0462      7.2850     33.5388     22.3910   -999.2500   -999.2500   -999.2500     59.8304    200.8366  
   125.0000    -94.3595     19.6919      7.2568     32.9898     22.7166   -999.2500   -999.2500   -999.2500     59.8317    201.3672  
   125.5000    -95.4899     19.7216      7.2288     33.0940     22.9496   -999.2500   -999.2500   -999.2500     59.8330    201.0921  
   126.0000    -96.5899     19.7513      7.2009     33.5055     22.9129   -999.2500   -999.2500   -999.2500     59.8342    200.9491  
   126.5000    -96.4595     20.6162      7.2461     34.2455     22.8042   -999.2500   -999.2500   -999.2500     59.8355    200.4524  
   127.0000    -95.4020     21.9117      7.2958     35.2721     22.8466   -999.2500   -999.2500   -999.2500     59.8368    197.8870  
   127.5000    -93.6628     23.6018      7.3842     36.1114     22.9713   -999.2500   -999.2500   -999.2500     59.8381    197.1548  
   128.0000    -94.4803     24.5433      7.5396     36.0449     22.8729   -999.2500   -999.2500   -999.2500     59.8394    198.0554  
   128.5000    -95.9913     24.9246      7.6902     35.2612     22.7150   -999.2500   -999.2500   -999.2500     59.8406    198.4121  
   129.0000    -97.5092     23.9644      7.9101     34.4518     22.8213   -999.2500   -999.2500   -999.2500     59.8419    197.5362  
   129.5000    -99.6590     22.9624      7.9902     34.1564     23.2772   -999.2500   -999.2500   -999.2500     59.8432    199.9972  
   130.0000    -99.1719     21.5305      7.5751     33.5703     23.1408   -999.2500   -999.2500   -999.2500     59.8445    201.8390  
   130.5000    -98.6643     19.8726      6.9890     32.5995     22.8093   -999.2500   -999.2500   -999.2500     59.8457    198.0249  
   131.0000    -97.7945     19.0668      6.8343     31.1926     22.9805   -999.2500   -999.2500   -999.2500     59.8470    197.0819  
   131.5000    -97.6258     17.4367      6.5766     29.8289     23.5020   -999.2500   -999.2500   -999.2500     59.8483    196.3715  
   132.0000    -98.6030     16.2748      6.3295     27.5715     24.3068   -999.2500   -999.2500   -999.2500     59.8496    197.4990  
   132.5000    -99.8536     15.3791      6.1463     25.5171     24.5946   -999.2500   -999.2500   -999.2500     59.8509    200.0552  
   133.0000   -100.4161     14.8643      6.0788     25.1542     23.9731   -999.2500   -999.2500   -999.2500     59.8521    200.5008  
   133.5000   -101.2149     14.6406      6.4054     26.3311     22.8689   -999.2500   -999.2500   -999.2500     59.8534    200.5656  
   134.0000   -101.5692     14.3171      6.4740     28.4610     21.8804   -999.2500   -999.2500   -999.2500     59.8547    201.0779  
   134.5000   -101.1614     14.1568      6.5696     29.5806     21.3341   -999.2500   -999.2500   -999.2500     59.8560    201.4317  
   135.0000   -100.2965     14.4319      6.5667     28.7542     21.3586   -999.2500   -999.2500   -999.2500     59.8573    201.4162  
   135.5000    -98.1704     14.7668      6.5388     27.6658     21.6859   -999.2500   -999.2500   -999.2500     59.8585    199.9477  
   136.0000    -95.7801     15.1095      6.4868     26.7210     21.6486   -999.2500   -999.2500   -999.2500     59.8598    196.3980  
   136.5000    -93.0342     15.0655      6.5347     25.8306     21.5994   -999.2500   -999.2500   -999.2500     59.8611    195.3068  
   137.0000    -90.1709     14.4655      6.6734     25.4278     21.1216   -999.2500   -999.2500   -999.2500     59.8624    191.4892  
   137.5000    -87.8756     13.4339      6.9867     25.4348     20.4902   -999.2500   -999.2500   -999.2500     59.8637    189.2003  
   138.0000    -85.9292     12.5869      6.4797     25.5405     20.7110   -999.2500   -999.2500   -999.2500     59.8649    186.3293  
   138.5000    -83.6142     11.9523      6.0746     25.5916     20.8653   -999.2500   -999.2500   -999.2500     59.8662    183.8667  
   139.0000    -81.0136     11.7186      5.9640     26.1171     20.5646   -999.2500   -999.2500   -999.2500     59.8675    185.7429  
   139.5000    -80.2072     11.3873      5.8420     26.9839     20.1891   -999.2500   -999.2500   -999.2500     59.8688    192.5278  
   140.0000    -78.3107     10.8878      5.6898     26.6327     19.8137   -999.2500   -999.2500   -999.2500     59.8701    183.3534  
   140.5000    -78.9274     10.0016      5.5088     25.4909     19.4382   -999.2500   -999.2500   -999.2500     59.8713    186.0635  
