~VERSION INFORMATION
 VERS.                      2.00:        CWLS LOG ASCII STANDARD - VERSION 2.00
 WRAP.                        NO:        ONE LINE PER DEPTH STEP
~WELL INFORMATION
#MNEM.UNIT               DATA            INFORMATION
#----------          ------------        ------------------------------
 STRT.F                 100.0000:        START DEPTH
 STOP.F                7938.0000:        STOP DEPTH
 STEP.F                   0.5000:        STEP VALUE
 NULL.                 -999.2500:        NULL VALUE
 COMP.                          :        COMPANY  
 WELL.             DREW POINT #1:        WELL     
 FLD .                   WILDCAT:        FIELD    
 LOC .              26  18N   8W:        LOCATION   
 CNTY.               NORTH SLOPE:        COUNTY  
 STAT.                    ALASKA:        STATE   
 CTRY.                       USA:        COUNTRY 
 DATE.                   1/17/78:        LOG DATE 
 API .              500292000200:        UNIQUE WELL IDENTIFIER 
 OPER.                          :        OPERATOR  
 SRVC.              Schlumberger:        SERVICE COMPANY 
 UWI .              500292000200:        UNIQUE WELL ID 
 LAT .                    0.0000:        LATITUDE
 LON .                    0.0000:        LONGITUDE
 DIGS.          Center Line Data:        DIGITIZING COMPANY 
~CURVE INFORMATION      
#MNEM.UNIT            API CODE           CURVE DESCRIPTION
#---------          -------------        ------------------------------
 DEPT.F                         :        1  DEPTH
 SP  .MV                        :        2
 ILD .OHMM                      :        3
 ILM .OHMM                      :        4
 LL8 .OHMM                      :        5
 GR  .GAPI                      :        6
 CALI.IN                        :        7
 DRHO.G/C3                      :        8
 RHOB.G/C3                      :        9
 NPHI.%                         :       10
 DT  .US/F                      :       11
~PARAMETER INFORMATION       
#MNEM.UNIT              VALUE            DESCRIPTION OF MNEMONIC
#---------          -------------        ------------------------------
 EKB .F                  35.0000:        KELLY BUSHING
 TD  .F                7946.0000:        TOTAL DEPTH
 BHT .F                  75.0000:        BOTTOM HOLE TEMPERATURE
 BS  .                   17.5000:        BIT SIZE
 FD  .                    9.8000:        FLUID DENSITY
 CSIZ.                   20.0000:        CASING SIZE
 CBD .F                  80.0000:        CASING DRILLER 1
 CBL .F                 106.0000:        CASING LOGGER 1
 DFT .             Miscellaneous:        TYPE FLUID IN HOLE
 DFV .                   36.0000:        VISCOSITY
 DFPH.                    7.0000:        PH
 DFL .                    0.0000:        FLUID LOSS
 RMS .                    4.5200:        RM
 MST .F                  52.0000:        RM MEAS. TEMP.
 RMF .                    2.8700:        RMF
 MFST.F                  71.0000:        RMF MEAS. TEMP.
 RMC .                    3.5000:        RMC
 MCST.F                  71.0000:        RMC MEAS. TEMP.
 UWI .              500292000200:        UNIQUE WELL ID
~OTHER INFORMATION
~A    DEPTH          SP         ILD         ILM         LL8          GR        CALI        DRHO        RHOB        NPHI          DT  
# ...
  4270.0000    -30.4122      4.7434      5.0865      4.9070    100.0386     15.5713      0.1404      2.2198     51.0134    104.8535  
  4270.5000    -30.4074      4.7840      5.1274      4.9037    102.7043     15.5411      0.1296      2.2291     51.1759    104.7352  
  4271.0000    -30.5969      4.8250      5.1686      4.9359    103.3264     15.5489      0.1348      2.2417     51.0656    104.3294  
  4271.5000    -30.8101      4.8664      5.2102      5.0142    103.6245     15.5632      0.1458      2.2469     51.0527    105.0070  
  4272.0000    -30.9740      4.9044      5.2521      5.0637    103.2486     15.5560      0.1442      2.2372     51.4042    103.9579  
  4272.5000    -31.0440      4.8983      5.2943      5.0923    102.5174     15.5280      0.1371      2.2127     52.2632    102.1879  
  4273.0000    -31.2831      4.8921      5.2639      5.0867    102.1420     15.4844      0.1358      2.1943     53.1663    102.5774  
  4273.5000    -31.3818      4.8860      5.2277      5.0273    102.8105     15.4472      0.1370      2.1712     53.6400    101.0378  
  4274.0000    -31.2703      4.8799      5.1919      4.9481    104.1482     15.4101      0.1118      2.1863     53.6875     99.2347  
  4274.5000    -30.8583      4.8738      5.1562      4.9307    105.7918     15.4192      0.1016      2.1983     53.7406    103.3309  
  4275.0000    -30.5500      4.8676      5.1208      4.9495    106.2605     15.4581      0.1131      2.2178     53.9873    108.9051  
  4275.5000    -30.2899      4.8615      5.1454      4.9622    105.2126     15.4971      0.1265      2.2159     53.1610    109.0803  
  4276.0000    -30.1376      4.8554      5.2066      4.9683    105.4715     15.4554      0.1381      2.1994     51.8130    108.9203  
  4276.5000    -30.1635      4.8488      5.1978      4.9652    106.5001     15.3682      0.1369      2.1837     50.4949    105.0792  
  4277.0000    -30.1980      4.8407      5.1607      4.9525    105.9133     15.2779      0.1334      2.1791     49.6366    100.5830  
  4277.5000    -30.0371      4.8327      5.1712      4.9605    105.0208     15.2418      0.1227      2.1910     49.1385    102.3311  
  4278.0000    -30.0010      4.8246      5.1882      4.9258    105.1317     15.2675      0.1263      2.2134     48.8125    102.3098  
  4278.5000    -30.1382      4.8166      5.1386      4.8631    105.3302     15.2735      0.1303      2.2221     49.5173    102.1112  
  4279.0000    -29.9948      4.8086      5.0895      4.8290    103.5405     15.2587      0.1092      2.2199     50.2221    105.4839  
  4279.5000    -29.8169      4.8005      5.0755      4.8736    101.8504     15.3278      0.0958      2.2265     49.8957    105.7070  
  4280.0000    -29.8384      4.8018      5.0984      4.9098    100.2934     15.4368      0.1326      2.2297     49.3913    106.4146  
  4280.5000    -29.9927      4.8124      5.1214      4.9301     98.6794     15.3889      0.1347      2.2192     49.5836    107.2979  
  4281.0000    -30.1309      4.8231      5.1445      4.9668     97.8021     15.3442      0.1237      2.2142     50.2853    103.4550  
  4281.5000    -30.2690      4.8339      5.1677      5.0037     97.9034     15.3136      0.1292      2.2226     51.3950    101.5407  
  4282.0000    -30.3484      4.8446      5.1910      4.9870    100.0846     15.3180      0.1353      2.2273     52.6840    103.1524  
  4282.5000    -30.2571      4.8496      5.1869      4.9752    101.2306     15.3156      0.1297      2.2011     52.4939    102.8026  
  4283.0000    -30.2448      4.8230      5.1241      4.9423    100.9823     15.2918      0.1292      2.1941     52.2250    101.1786  
  4283.5000    -30.4381      4.7965      5.0620      4.8624    101.7011     15.2543      0.1285      2.1913     52.5308    102.2740  
  4284.0000    -30.9253      4.7702      5.0007      4.8136    102.9951     15.2168      0.1383      2.1976     52.9015    103.0183  
  4284.5000    -31.0594      4.7440      5.0141      4.8303    102.5703     15.2332      0.1327      2.2135     52.7478    103.5409  
  4285.0000    -31.0544      4.7248      5.0376      4.8425    102.3957     15.2507      0.1185      2.2272     52.8312    105.4254  
  4285.5000    -31.0494      4.7357      5.0612      4.8360    102.7201     15.2682      0.1248      2.2588     52.9648    106.2691  
  4286.0000    -31.0450      4.7467      5.0849      4.8754    103.0299     15.2857      0.1401      2.2478     52.3856    105.1653  
  4286.5000    -30.6890      4.7577      5.1088      4.9183    103.2622     15.3004      0.1333      2.2220     51.4554    104.0540  
  4287.0000    -30.4308      4.7687      5.1327      4.9151    103.6592     15.2796      0.1306      2.2202     50.1226    104.6259  
  4287.5000    -30.1613      4.7798      5.1568      4.9180    104.7461     15.2471      0.1382      2.2318     49.2134    104.4780  
  4288.0000    -30.1086      4.7908      5.1810      4.9352    105.1153     15.2681      0.1331      2.2207     48.8971    103.8050  
  4288.5000    -30.1852      4.8019      5.2053      4.9070    105.0638     15.2723      0.1234      2.2119     49.3472    103.3797  
  4289.0000    -30.2556      4.8130      5.1919      4.9326    104.3611     15.2778      0.1253      2.2127     50.3795    103.4064  
  4289.5000    -30.2985      4.8242      5.1780      4.9845    103.1879     15.3126      0.1267      2.2145     51.4118    103.0496  
  4290.0000    -30.3910      4.8354      5.1642      4.9987    102.8321     15.2975      0.1144      2.2038     52.3149    104.4464  
  4290.5000    -30.4373      4.8466      5.1504      4.9763    104.2990     15.2823      0.1380      2.2210     52.2025    103.2517  
  4291.0000    -30.4345      4.8568      5.1366      4.9636    104.7997     15.2671      0.1437      2.2272     51.2235    103.2499  
  4291.5000    -30.4042      4.8454      5.1229      4.9916    103.7623     15.2520      0.1285      2.2220     51.0404    102.0232  
  4292.0000    -30.4748      4.8339      5.1092      4.9650    103.3095     15.2368      0.1239      2.2123     51.1178    104.0527  
  4292.5000    -30.5691      4.8225      5.0990      4.9415    104.2915     15.2216      0.1290      2.2031     51.2355    103.9302  
  4293.0000    -30.6027      4.8111      5.0906      4.9131    105.3644     15.2065      0.1269      2.2013     51.1778    103.5714  
  4293.5000    -30.5399      4.7998      5.0821      4.8698    105.4272     15.1840      0.1277      2.2070     50.1495    105.0978  
  4294.0000    -30.5339      4.7884      5.0737      4.8730    103.6292     15.1486      0.1379      2.2173     49.0662    104.4660  
  4294.5000    -30.7584      4.7771      5.0653      4.8774    101.2816     15.1131      0.1510      2.2247     49.9724    106.1560  
  4295.0000    -31.1882      4.7658      5.0569      4.8557     99.4323     15.0777      0.1457      2.2322     51.4983    103.6203  
  4295.5000    -31.4839      4.7546      5.0485      4.8035     97.6730     15.1311      0.1289      2.2406     52.5632    103.8377  
  4296.0000    -31.3566      4.7434      5.0596      4.8206     96.1355     15.3057      0.1168      2.2542     53.6281    102.9061  
  4296.5000    -30.9371      4.7322      5.0714      4.8673     95.3295     15.4311      0.1244      2.2535     53.8414    104.6793  
  4297.0000    -30.6090      4.7210      5.0832      4.8860     97.5528     15.4228      0.1220      2.2371     53.0547    105.2950  
  4297.5000    -30.3689      4.7256      5.0950      4.9038    100.4706     15.2930      0.1322      2.2259     51.7174    106.3861  
  4298.0000    -30.0572      4.7330      5.1027      4.8980    100.6691     15.1557      0.1231      2.2197     50.5876    104.2360  
  4298.5000    -29.7692      4.7405      5.0745      4.8725    100.4092     15.0753      0.1104      2.2204     50.7090    103.7838  
  4299.0000    -29.5163      4.7480      5.0464      4.8442    100.7007     15.0575      0.1100      2.2280     51.4035    104.4017  
  4299.5000    -29.3054      4.7554      5.0185      4.8841    100.9921     15.0382      0.1091      2.2416     51.2988    103.0277  
