~VERSION INFORMATION
 VERS.                      2.00:        CWLS LOG ASCII STANDARD - VERSION 2.00
 WRAP.                        NO:        ONE LINE PER DEPTH STEP
~WELL INFORMATION
#MNEM.UNIT               DATA            INFORMATION
#----------          ------------        ------------------------------
 STRT.F                  92.0000:        START DEPTH
 STOP.F                7738.0000:        STOP DEPTH
 STEP.F                   0.5000:        STEP VALUE
 NULL.                 -999.2500:        NULL VALUE
 COMP.                      13.5:        COMPANY  
 WELL.           EAST SIMPSON #1:        WELL     
 FLD .                   WILDCAT:        FIELD    
 LOC .              18  18N  10W:        LOCATION   
 CNTY.                  N. SLPOE:        COUNTY  
 STAT.                    ALASKA:        STATE   
 CTRY.                       USA:        COUNTRY 
 DATE.                   2/22/79:        LOG DATE 
 API .              502792000500:        UNIQUE WELL IDENTIFIER 
 OPER.                      13.5:        OPERATOR  
 SRVC.              Schlumberger:        SERVICE COMPANY 
 UWI .              502792000500:        UNIQUE WELL ID 
 LAT .                    0.0000:        LATITUDE
 LON .                    0.0000:        LONGITUDE
 DIGS.          Center Line Data:        DIGITIZING COMPANY 
~CURVE INFORMATION      
#MNEM.UNIT            API CODE           CURVE DESCRIPTION
#---------          -------------        ------------------------------
 DEPT.F                         :        1  DEPTH
 SP  .MV                        :        2
 ILD .OHMM                      :        3
 ILM .OHMM                      :        4
 LL8 .OHMM                      :        5
 CALI.IN                        :        6
 GR  .GAPI                      :        7
 DRHO.G/C3                      :        8
 RHOB.G/C3                      :        9
 NPHI.%                         :       10
 DT  .US/F                      :       11
~PARAMETER INFORMATION       
#MNEM.UNIT              VALUE            DESCRIPTION OF MNEMONIC
#---------          -------------        ------------------------------
 EKB .F                  30.0000:        KELLY BUSHING
 TD  .F                   0.0000:        TOTAL DEPTH
 BHT .F                   0.0000:        BOTTOM HOLE TEMPERATURE
 BS  .                   17.5000:        BIT SIZE
 FD  .                   10.2000:        FLUID DENSITY
 CSIZ.                   20.0000:        CASING SIZE
 CBD .F                  90.0000:        CASING DRILLER 1
 CBL .F                  92.0000:        CASING LOGGER 1
 DFT .                       Gel:        TYPE FLUID IN HOLE
 DFV .                   70.0000:        VISCOSITY
 DFPH.                    8.0000:        PH
 DFL .                   12.0000:        FLUID LOSS
 RMS .                    3.6000:        RM
 MST .F                  75.0000:        RM MEAS. TEMP.
 RMF .                    2.2100:        RMF
 MFST.F                  75.0000:        RMF MEAS. TEMP.
 RMC .                    2.1600:        RMC
 MCST.F                  75.0000:        RMC MEAS. TEMP.
 UWI .              502792000500:        UNIQUE WELL ID
~OTHER INFORMATION
~A    DEPTH          SP         ILD         ILM         LL8        CALI          GR        DRHO        RHOB        NPHI          DT  
# ...
  5672.0000    -41.7877      5.5842      5.6392      7.1025     13.2399     83.4965      0.1002      2.4973     36.5487     92.1758  
  5672.5000    -41.6138      5.4474      5.4393      7.0117     13.2339     82.2971      0.0851      2.4743     34.5402     91.6311  
  5673.0000    -41.5272      5.3139      5.2840      6.8460     13.1782     82.9584      0.0986      2.4793     35.5606     91.7630  
  5673.5000    -41.5271      5.1837      5.0945      6.4494     13.3578     83.2310      0.0946      2.4820     37.0516     92.6051  
  5674.0000    -41.6084      5.0865      4.8768      6.0558     13.4574     82.3296      0.0697      2.4532     39.7605     94.0995  
  5674.5000    -41.6577      5.0263      4.7000      5.8507     13.4006     82.1138      0.0712      2.4515     40.9348     96.0531  
  5675.0000    -41.7277      4.9669      4.6427      5.8336     13.3740     83.6675      0.0623      2.4472     40.2241     98.3437  
  5675.5000    -41.8773      5.2169      4.7302      5.7837     13.3624     82.4782      0.0550      2.4408     38.5672     99.2888  
  5676.0000    -42.3538      5.5042      4.9882      5.5843     13.3258     79.5179      0.0806      2.4410     39.5011     99.3914  
  5676.5000    -43.2987      5.8072      5.3594      5.5684     13.0862     74.4079      0.0945      2.4589     40.0632     98.6841  
  5677.0000    -44.8439      6.1680      5.7583      6.4395     12.9931     67.7500      0.0432      2.4343     38.0693     95.7254  
  5677.5000    -47.7517      6.5246      6.1866      8.1511     12.9724     60.8754      0.0136      2.4195     35.1390     89.4905  
  5678.0000    -50.3082      6.9017      6.6452     12.4966     12.9684     61.0024      0.0217      2.4283     32.5165     83.4798  
  5678.5000    -52.3172      7.3007      7.1377     13.1942     12.9774     61.6639      0.0326      2.4472     30.2714     77.7913  
  5679.0000    -54.0843      7.7227      7.9328     12.5970     12.9720     59.6886      0.0241      2.4344     29.0334     76.3020  
  5679.5000    -55.8759      8.1692      8.7097     12.7264     12.9600     57.5277      0.0322      2.4425     29.2157     76.6950  
  5680.0000    -57.0774      8.6414      9.0716     13.4257     12.9281     57.1771      0.0315      2.4650     29.1104     77.0186  
  5680.5000    -57.9688      9.1409      9.2129     13.8471     12.9625     59.2569      0.0107      2.4494     28.8005     76.5214  
  5681.0000    -58.2762      9.6693      9.3564     13.5839     12.9862     58.2155      0.0098      2.4390     28.7798     76.2535  
  5681.5000    -58.1949      9.8813      9.4532     13.1690     12.9912     57.2064      0.0153      2.4369     29.0753     76.5107  
  5682.0000    -57.6254      9.9649      9.3597     12.7718     12.9901     57.6083      0.0216      2.4449     29.3750     76.8666  
  5682.5000    -57.0248     10.0493      9.2670     12.5714     12.9889     59.4258      0.0246      2.4477     29.2914     76.8387  
  5683.0000    -56.1222      9.7032      8.8586     12.6984     13.0233     61.3503      0.0210      2.4522     28.8311     76.4727  
  5683.5000    -54.8984      9.0598      8.4630     12.7954     13.0580     65.4842      0.0415      2.4808     29.9916     75.9413  
  5684.0000    -53.3149      8.4591      7.9751     10.9073     13.0906     75.2607      0.0588      2.5007     31.5835     76.3417  
  5684.5000    -51.7468      7.9242      7.2919      9.1222     13.1181     80.6838      0.0689      2.4830     32.3296     78.2890  
  5685.0000    -50.2092      7.7922      7.1466      7.4729     13.0757     79.5411      0.0696      2.4732     33.5740     81.4458  
  5685.5000    -49.5439      7.6624      7.0042      7.5917     13.0170     74.9758      0.0597      2.4426     35.3037     84.5428  
  5686.0000    -49.5687      7.5347      7.0274      8.1562     12.9620     70.4389      0.0570      2.4289     36.1354     86.9113  
  5686.5000    -50.8727      7.5703      7.1478      8.7706     12.8591     67.2524      0.0530      2.4168     35.7774     86.8636  
  5687.0000    -52.1203      7.7376      7.2704      9.4577     12.8188     65.0845      0.0343      2.4215     34.7168     83.9371  
  5687.5000    -53.6807      7.9085      7.5249     10.1247     12.8829     64.1627      0.0257      2.4419     33.6749     80.8530  
  5688.0000    -54.8684      8.2391      7.8990     10.0858     12.8459     61.0103      0.0388      2.4629     33.5069     79.8469  
  5688.5000    -55.7586      8.7340      8.3032     10.2623     12.8219     57.4004      0.0521      2.4508     33.3533     80.0767  
  5689.0000    -56.9949      9.2091      8.7280     12.1412     12.7874     58.0785      0.0411      2.4248     32.8342     81.0982  
  5689.5000    -58.5516      9.3518      9.1746     14.2717     12.8217     58.9185      0.0227      2.4096     31.9832     81.1324  
  5690.0000    -59.4454      9.4967      9.3280     14.9341     12.8231     58.7686      0.0190      2.4234     31.1210     79.7295  
  5690.5000    -59.9884      9.6115      9.4066     15.3117     12.8077     57.1023      0.0309      2.4462     29.1264     78.5492  
  5691.0000    -59.6356      9.6308      9.4859     14.4906     12.8967     56.4966      0.0378      2.4591     27.8111     78.6442  
  5691.5000    -58.1708      9.6501      9.5281     13.0254     12.9510     59.1816      0.0333      2.4474     28.3021     79.0178  
  5692.0000    -57.0646      9.6695      9.4793     12.4392     12.9454     61.9222      0.0237      2.4360     29.3082     78.9426  
  5692.5000    -56.6026      9.5225      9.4308     12.3764     12.9859     62.9416      0.0358      2.4454     30.3047     78.3689  
  5693.0000    -56.2646      9.2617      9.2663     12.6888     12.9988     63.6195      0.0392      2.4570     31.3240     77.7015  
  5693.5000    -55.3290      9.0080      8.9504     12.6288     13.0033     64.5187      0.0322      2.4494     30.5723     77.9021  
  5694.0000    -54.5168      8.7613      8.6072     11.6791     12.9739     68.4202      0.0224      2.4498     31.0476     78.9002  
  5694.5000    -53.1430      8.5214      8.2422     10.5095     13.0248     72.8483      0.0299      2.4649     31.9142     80.4157  
  5695.0000    -51.7692      8.3499      7.9202      9.2713     13.0231     72.8070      0.0297      2.4689     33.0316     82.2618  
  5695.5000    -50.4384      8.2200      7.7875      8.7429     13.0880     69.9051      0.0229      2.4647     35.1119     84.1879  
  5696.0000    -49.7845      8.1743      7.6997      8.7359     13.0959     67.2458      0.0340      2.4755     35.3091     84.8689  
  5696.5000    -49.5026      8.1289      7.6799      9.5690     13.0535     65.8517      0.0490      2.4659     35.4438     84.4014  
  5697.0000    -49.2207      8.0838      7.6601      9.7885     13.0660     66.1110      0.0558      2.4849     35.2686     83.4714  
  5697.5000    -48.4518      8.0547      7.6842      9.8380     13.0470     66.5729      0.0523      2.4973     34.2229     82.3742  
  5698.0000    -47.3712      8.0717      7.7473      9.9040     13.1014     66.2401      0.0405      2.4874     32.5134     81.8665  
  5698.5000    -46.8182      8.0887      7.8110      9.9636     13.1080     67.3913      0.0523      2.4971     30.7871     82.0196  
  5699.0000    -46.5271      8.1058      7.7218      9.9500     13.1557     69.9194      0.0680      2.4814     30.9737     82.1504  
  5699.5000    -46.0167      8.0400      7.2038      9.9139     13.2683     72.4004      0.0766      2.4800     32.4374     82.2642  
  5700.0000    -45.3962      7.5183      6.6712      9.0960     13.4321     76.1165      0.0690      2.4641     34.0919     83.2162  
  5700.5000    -44.5896      7.0305      6.1780      7.9812     13.5914     78.2238      0.0613      2.4262     35.7463     84.4059  
  5701.0000    -43.8032      6.5743      5.7340      7.2068     13.6832     80.7097      0.0750      2.4158     37.4345     86.3961  
  5701.5000    -43.1726      6.1477      5.3603      6.6758     13.6251     83.3424      0.0711      2.3596     39.6068     90.7369  
