~VERSION INFORMATION
 VERS.                      2.00:        CWLS LOG ASCII STANDARD - VERSION 2.00
 WRAP.                        NO:        ONE LINE PER DEPTH STEP
~WELL INFORMATION
#MNEM.UNIT               DATA            INFORMATION
#----------          ------------        ------------------------------
 STRT.F                  81.0000:        START DEPTH
 STOP.F               15400.0000:        STOP DEPTH
 STEP.F                   0.5000:        STEP VALUE
 NULL.                 -999.2500:        NULL VALUE
 COMP. USGS/NPR HUSKY OIL OPERAT:        COMPANY  
 WELL.     IKPIKPUK TEST WELL #1:        WELL     
 FLD .                   WILDCAT:        FIELD    
 LOC .              25  13N  10W:        LOCATION   
 CNTY.               NORTH SLPOE:        COUNTY  
 STAT.                    ALASKA:        STATE   
 CTRY.                       USA:        COUNTRY 
 DATE.                  11/29/78:        LOG DATE 
 API .              502792000400:        UNIQUE WELL IDENTIFIER 
 OPER. USGS/NPR HUSKY OIL OPERAT:        OPERATOR  
 SRVC.              Schlumberger:        SERVICE COMPANY 
 UWI .              502792000400:        UNIQUE WELL ID 
 LAT .                    0.0000:        LATITUDE
 LON .                    0.0000:        LONGITUDE
 DIGS.          Center Line Data:        DIGITIZING COMPANY 
~CURVE INFORMATION      
#MNEM.UNIT            API CODE           CURVE DESCRIPTION
#---------          -------------        ------------------------------
 DEPT.F                         :        1  DEPTH
 SP  .MV                        :        2
 ILD .OHMM                      :        3
 ILM .OHMM                      :        4
 LL8 .OHMM                      :        5
 GR  .GAPI                      :        6
 CALI.IN                        :        7
 RHOB.G/C3                      :        8
 DRHO.G/C3                      :        9
 NPHI.%                         :       10
 DT  .US/F                      :       11
~PARAMETER INFORMATION       
#MNEM.UNIT              VALUE            DESCRIPTION OF MNEMONIC
#---------          -------------        ------------------------------
 EKB .F                  52.0000:        KELLY BUSHING
 TD  .F               15481.0000:        TOTAL DEPTH
 BHT .F                   0.0000:        BOTTOM HOLE TEMPERATURE
 BS  .                   17.5000:        BIT SIZE
 FD  .                    9.0000:        FLUID DENSITY
 CSIZ.                   30.0000:        CASING SIZE
 CBD .F                 100.0000:        CASING DRILLER 1
 CBL .F                 101.0000:        CASING LOGGER 1
 DFT .                       Gel:        TYPE FLUID IN HOLE
 DFV .                   60.0000:        VISCOSITY
 DFPH.                    8.5000:        PH
 DFL .                   18.0000:        FLUID LOSS
 RMS .                    3.7300:        RM
 MST .F                  66.0000:        RM MEAS. TEMP.
 RMF .                    4.3900:        RMF
 MFST.F                  58.0000:        RMF MEAS. TEMP.
 RMC .                    2.5000:        RMC
 MCST.F                  57.0000:        RMC MEAS. TEMP.
 UWI .              502792000400:        UNIQUE WELL ID
~OTHER INFORMATION
~A    DEPTH          SP         ILD         ILM         LL8          GR        CALI        RHOB        DRHO        NPHI          DT  
# ...
 10281.0000    -43.0689     34.9434     32.2005    127.6705    124.0277     10.7468      2.5880      0.0112     12.7416     64.9340  
 10281.5000    -43.4007     45.0212     38.1353    133.6972    124.2509     10.7589      2.5837      0.0044     12.5665     63.6878  
 10282.0000    -43.7326     71.1949     44.3677    135.6209    122.6419     10.7516      2.5893      0.0105     12.0263     62.5901  
 10282.5000    -44.0644    109.0214     51.4152    139.4854    122.3575     10.7342      2.5978      0.0161     10.8188     61.7352  
 10283.0000    -44.3962    166.9455     58.6726    165.7024    120.4360     10.7169      2.6027      0.0168      9.5778     61.3012  
 10283.5000    -44.7280    171.7183     62.1328    206.4615     99.1954     10.6996      2.6073      0.0148      9.0640     60.9994  
 10284.0000    -45.0598    142.0863     66.4323    220.0012     94.2820     10.6823      2.6186      0.0109      8.9198     60.6242  
 10284.5000    -45.4324    134.4620     70.9899    187.7317     89.5175     10.6649      2.6295      0.0178      8.4035     61.3173  
 10285.0000    -45.8681    142.6768     79.4443    223.7547     86.1766     10.6556      2.6275      0.0147      7.6237     62.6525  
 10285.5000    -46.3037    145.6790     83.5815    298.4413     83.8368     10.6579      2.6119      0.0129      7.3802     63.1414  
 10286.0000    -46.7393    136.8754     80.1482    348.6804     84.1952     10.6602      2.5932      0.0109      7.7277     62.9219  
 10286.5000    -47.1750    131.9322     68.3675    311.3984     84.1021     10.6624      2.5840      0.0112      8.3484     62.7710  
 10287.0000    -47.6106    136.4361     60.9826    251.1188     80.7898     10.6647      2.5919      0.0115      8.3974     62.3646  
 10287.5000    -48.0463    124.9774     61.4246    181.2024     78.0864     10.6669      2.5985      0.0119      7.7265     62.2052  
 10288.0000    -48.4819    117.3251     63.3257    151.8553     76.4996     10.6692      2.6061      0.0123      6.9747     62.8066  
 10288.5000    -48.8796    113.4788     65.5294    189.9433     73.6702     10.6715      2.6123      0.0125      6.6362     62.9666  
 10289.0000    -48.8292    107.9598     61.3088    234.1607     67.7213     10.7055      2.6099      0.0116      6.5741     62.2552  
 10289.5000    -48.7008    102.2588     56.0800    191.8033     61.7233     10.7716      2.6049      0.0122      6.6033     60.8821  
 10290.0000    -48.5227     99.4567     53.3059    165.7587     57.9305     10.8376      2.6064      0.0130      6.6326     58.6908  
 10290.5000    -48.3446    100.6693     50.6331    154.6088     55.7372     10.9037      2.6144      0.0108      6.2084     57.2605  
 10291.0000    -48.1665    102.5696     51.0265    142.5843     56.7826     10.9698      2.6264      0.0085      5.0824     57.3653  
 10291.5000    -47.9884    108.9662     54.3277    145.6116     60.7597     11.0359      2.6420      0.0061      4.1155     58.4670  
 10292.0000    -47.8104    110.0082     52.9126    203.7091     66.8815     11.1093      2.6497      0.0162      3.4323     59.3785  
 10292.5000    -48.2038    107.1136     49.3961    309.4981     73.6705     11.1911      2.6509      0.0366      3.3488     59.6169  
 10293.0000    -48.6354    104.2952     45.6845    434.1447     81.0633     11.0585      2.6450      0.0343      3.4920     58.9512  
 10293.5000    -49.0670    108.8291     49.6358    317.6599     91.1112     10.8403      2.6310      0.0207      3.6916     57.9172  
 10294.0000    -49.4986    106.5017     66.2159    195.4631    107.5598     10.6221      2.6452      0.0196      3.9497     58.0878  
 10294.5000    -49.9302     97.7348     82.3800    184.8379    128.3382     10.4389      2.6524      0.0186      4.0389     58.9555  
 10295.0000    -50.3295     74.8549     72.3889    417.2841    154.4963     10.3853      2.6575      0.0155      4.0389     59.4443  
 10295.5000    -50.6757     58.4181     42.4266    447.6209    181.0119     10.3316      2.6607      0.0233      4.4737     59.4310  
 10296.0000    -51.0218     54.6668     32.3926     73.9091    197.4046     10.2779      2.6496      0.0181      4.9938     59.1102  
 10296.5000    -51.3679     51.2508     30.9268     48.8857    199.8640     10.2243      2.6348      0.0091      5.6829     59.0425  
 10297.0000    -51.7140     48.1729     33.9675     43.9452    199.8567     10.1936      2.6362     -0.0045      6.0639     59.7684  
 10297.5000    -52.0601     45.2798     34.8184     70.1524    199.8493     10.1810      2.6469     -0.0167      6.1049     60.4999  
 10298.0000    -52.4062     40.9722     33.0033    121.8982    199.8420     10.1684      2.6633     -0.0201      6.5876     60.6002  
 10298.5000    -52.7523     36.7071     29.1628    125.4285    199.8346     10.1558      2.6641     -0.0287      7.8769     59.9889  
 10299.0000    -53.0984     38.4476     26.4461     98.0500    199.8272     10.1432      2.6505     -0.0235      9.1551     58.7777  
 10299.5000    -53.5646     39.5509     27.4233     64.2943    199.8199     10.1306      2.6305     -0.0153      9.7623     57.7605  
 10300.0000    -54.2950     45.1754     32.6725     45.3538    199.8125     10.1179      2.6252     -0.0132      8.9000     57.1196  
 10300.5000    -55.0253     52.7789     40.1051     57.5859    199.8051     10.1053      2.6221     -0.0143      7.9985     56.7015  
 10301.0000    -55.7557     59.5915     47.0971     92.4553    199.7978     10.0927      2.6231     -0.0139      7.2484     56.6173  
 10301.5000    -56.4860     59.6769     52.3639    155.5589    199.7904     10.0801      2.6195     -0.0064      6.8011     56.4877  
 10302.0000    -57.2164     64.0880     58.2196    221.4337    199.7831     10.0675      2.6204     -0.0090      6.5702     56.2949  
 10302.5000    -57.9467     84.6941     62.0749    213.6725    199.7757     10.0549      2.6290     -0.0022      6.3809     56.1275  
 10303.0000    -58.6771    115.6438     72.3756    196.8449    199.7683     10.0423      2.6361      0.0022      6.1805     56.1145  
 10303.5000    -59.4074    179.2101     85.1389    197.2426    199.7610     10.0296      2.6447      0.0062      5.9293     56.3267  
 10304.0000    -59.4205    258.7809     99.3974    237.2445    199.7536     10.0207      2.6516      0.0050      5.8577     56.8330  
 10304.5000    -59.4514    340.5858    101.1856    448.8397    199.7463     10.0149      2.6521     -0.0021      6.1657     57.2885  
 10305.0000    -59.8606    308.7674     97.0593    597.9518    199.7389     10.0091      2.6458     -0.0039      6.8243     57.4226  
 10305.5000    -60.3405    281.6688     89.6269    520.6445    199.7315     10.0033      2.6416      0.0064      7.1658     57.2186  
 10306.0000    -60.3172    258.4084     83.0312    328.7177    199.7242      9.9976      2.6259      0.0091      7.3588     56.9689  
 10306.5000    -60.2939    242.1647     81.6479    243.6208    199.7168      9.9918      2.6145      0.0077      7.0917     56.7843  
 10307.0000    -60.2705    235.9431     81.7086    239.8794    196.5575      9.9860      2.6130      0.0154      6.3737     56.5657  
 10307.5000    -60.2472    229.8813     82.1435    232.0595    170.6782      9.9802      2.6223      0.0204      5.7493     56.0269  
 10308.0000    -60.2239    228.7002     82.6761    235.4946    154.1815      9.9744      2.6284      0.0192      5.2462     55.3777  
 10308.5000    -60.2006    227.6647     84.6230    253.3124    149.9685      9.9687      2.6323      0.0150      4.7431     55.0051  
 10309.0000    -60.1773    223.6269     88.5087    276.3739    157.4036      9.9629      2.6358      0.0110      4.3114     55.1430  
 10309.5000    -60.1834    221.4886     92.5786    285.9865    170.6305      9.9571      2.6409      0.0050      4.0773     55.4988  
 10310.0000    -60.2140    239.1449     97.1356    302.4921    181.3970      9.9513      2.6469      0.0045      3.8951     56.0105  
 10310.5000    -60.2445    253.1385     99.1369    328.2366    183.5917      9.9455      2.6483      0.0007      3.8964     56.4160  
