~VERSION INFORMATION
 VERS.                      2.00:        CWLS LOG ASCII STANDARD - VERSION 2.00
 WRAP.                        NO:        ONE LINE PER DEPTH STEP
~WELL INFORMATION
#MNEM.UNIT               DATA            INFORMATION
#----------          ------------        ------------------------------
 STRT.F                 100.0000:        START DEPTH
 STOP.F                7938.0000:        STOP DEPTH
 STEP.F                   0.5000:        STEP VALUE
 NULL.                 -999.2500:        NULL VALUE
 COMP.                          :        COMPANY  
 WELL.             DREW POINT #1:        WELL     
 FLD .                   WILDCAT:        FIELD    
 LOC .              26  18N   8W:        LOCATION   
 CNTY.               NORTH SLOPE:        COUNTY  
 STAT.                    ALASKA:        STATE   
 CTRY.                       USA:        COUNTRY 
 DATE.                   1/17/78:        LOG DATE 
 API .              500292000200:        UNIQUE WELL IDENTIFIER 
 OPER.                          :        OPERATOR  
 SRVC.              Schlumberger:        SERVICE COMPANY 
 UWI .              500292000200:        UNIQUE WELL ID 
 LAT .                    0.0000:        LATITUDE
 LON .                    0.0000:        LONGITUDE
 DIGS.          Center Line Data:        DIGITIZING COMPANY 
~CURVE INFORMATION      
#MNEM.UNIT            API CODE           CURVE DESCRIPTION
#---------          -------------        ------------------------------
 DEPT.F                         :        1  DEPTH
 SP  .MV                        :        2
 ILD .OHMM                      :        3
 ILM .OHMM                      :        4
 LL8 .OHMM                      :        5
 GR  .GAPI                      :        6
 CALI.IN                        :        7
 DRHO.G/C3                      :        8
 RHOB.G/C3                      :        9
 NPHI.%                         :       10
 DT  .US/F                      :       11
~PARAMETER INFORMATION       
#MNEM.UNIT              VALUE            DESCRIPTION OF MNEMONIC
#---------          -------------        ------------------------------
 EKB .F                  35.0000:        KELLY BUSHING
 TD  .F                7946.0000:        TOTAL DEPTH
 BHT .F                  75.0000:        BOTTOM HOLE TEMPERATURE
 BS  .                   17.5000:        BIT SIZE
 FD  .                    9.8000:        FLUID DENSITY
 CSIZ.                   20.0000:        CASING SIZE
 CBD .F                  80.0000:        CASING DRILLER 1
 CBL .F                 106.0000:        CASING LOGGER 1
 DFT .             Miscellaneous:        TYPE FLUID IN HOLE
 DFV .                   36.0000:        VISCOSITY
 DFPH.                    7.0000:        PH
 DFL .                    0.0000:        FLUID LOSS
 RMS .                    4.5200:        RM
 MST .F                  52.0000:        RM MEAS. TEMP.
 RMF .                    2.8700:        RMF
 MFST.F                  71.0000:        RMF MEAS. TEMP.
 RMC .                    3.5000:        RMC
 MCST.F                  71.0000:        RMC MEAS. TEMP.
 UWI .              500292000200:        UNIQUE WELL ID
~OTHER INFORMATION
~A    DEPTH          SP         ILD         ILM         LL8          GR        CALI        DRHO        RHOB        NPHI          DT  
# ...
  7900.0000    -25.7981     36.2812     50.1700    307.8938    106.6809      8.1487      0.0170      2.7087     19.4796     61.0592  
  7900.5000    -26.4294     36.8990     50.9842    298.6954    107.5881      8.1319      0.0240      2.7002     19.4557     61.3348  
  7901.0000    -26.8079     37.2388     50.9201    321.9231    109.5508      8.1039      0.0345      2.6909     19.3820     61.4407  
  7901.5000    -26.9195     37.9052     50.9595    308.8365    110.4367      8.0840      0.0279      2.6735     19.2633     61.5789  
  7902.0000    -26.5464     37.6924     50.5276    226.7466    109.4024      8.0946      0.0186      2.6764     19.0514     61.7999  
  7902.5000    -26.4463     37.4808     50.0994    298.3788    109.7798      8.0991      0.0212      2.7005     19.2779     62.0603  
  7903.0000    -26.5506     37.2704     50.4413    451.3160    109.5429      8.1035      0.0173      2.6961     19.1509     62.2642  
  7903.5000    -25.9673     37.0611     51.7254    479.5804    108.5286      8.1066      0.0096      2.6837     18.8088     62.2836  
  7904.0000    -25.7378     36.9958     52.3092    400.4171    108.0428      8.1084      0.0091      2.6841     18.5562     62.0936  
  7904.5000    -25.8679     37.0147     51.8313    349.7563    108.1987      8.1101      0.0120      2.6911     18.5355     61.8771  
  7905.0000    -26.1067     36.9007     49.7173    272.1083    109.2177      8.1159      0.0202      2.7009     18.8521     61.5644  
  7905.5000    -26.3284     36.4126     48.6999    247.2395    110.5828      8.1369      0.0204      2.7137     18.8493     61.0626  
  7906.0000    -26.4635     35.9368     47.8622    236.6998    109.6173      8.1304      0.0154      2.7311     18.8509     60.5661  
  7906.5000    -26.5906     35.5908     46.9099    240.5941    107.4923      8.1240      0.0180      2.7238     18.9539     60.1286  
  7907.0000    -26.4911     35.4808     45.9766    247.3005    106.1092      8.1072      0.0315      2.7258     19.1425     60.1375  
  7907.5000    -26.5963     35.6275     45.0618    218.4800    105.7249      8.1167      0.0338      2.7304     19.1301     60.2604  
  7908.0000    -26.9694     35.4136     44.2918    180.3920    104.9156      8.1262      0.0252      2.7092     19.0894     60.3595  
  7908.5000    -27.4368     35.1889     43.3327    236.6507    103.6462      8.1357      0.0113      2.6951     19.1459     60.4154  
  7909.0000    -27.7384     34.1817     40.5010   1233.0475    103.0153      8.1079      0.0134      2.6822     19.1893     60.4560  
  7909.5000    -27.9651     32.9931     38.6424    631.8907    102.0690      8.0723      0.0195      2.6711     19.0932     60.4965  
  7910.0000    -28.1532     31.7125     37.3053    181.8578     99.8654      8.0896      0.0135      2.6512     18.8298     60.6063  
  7910.5000    -28.1098     29.9739     36.2927    148.1308     97.1145      8.1084      0.0286      2.6368     17.9684     60.8013  
  7911.0000    -27.5862     28.1871     34.2546    128.9675     94.6476      8.0684      0.0452      2.6546     17.1881     61.3469  
  7911.5000    -26.9616     26.9228     31.7554     89.4502     94.1434      8.0659      0.0349      2.6653     16.0110     61.4725  
  7912.0000    -26.3010     25.7117     29.4385     72.4961     95.5999      8.1133      0.0264      2.6980     15.2233     61.0662  
  7912.5000    -25.5987     24.5548     28.5416     74.2635     97.8370      8.1442      0.0258      2.7201     14.9242     60.1579  
  7913.0000    -25.3680     23.4500     27.6324     72.9849    101.1833      8.1639      0.0142      2.7215     15.5474     59.3189  
  7913.5000    -24.9876     22.3949     26.8287     70.6988    104.7405      8.1803      0.0106      2.7180     16.2522     58.8358  
  7914.0000    -24.5709     21.3872     26.1230     72.7765    108.2053      8.1815      0.0070      2.7112     16.5995     59.0097  
  7914.5000    -24.4368     20.4249     25.0137     79.3360    107.8603      8.1826      0.0034      2.7018     16.9890     59.7747  
  7915.0000    -24.2069     19.8293     23.7666     78.9330    107.5618      8.1842      0.0102      2.7138     17.5626     60.5993  
  7915.5000    -23.9214     19.2964     22.5817     67.8635   -999.2500      8.1981      0.0115      2.7115     18.0625     61.3379  
  7916.0000    -23.9134     18.7778     21.4558     47.2824   -999.2500      8.1991      0.0065      2.6979     18.5124     61.8619  
  7916.5000    -25.6193     18.4862     20.3860     40.3868   -999.2500      8.1940      0.0015      2.6853     18.8893     62.1027  
  7917.0000    -32.9767     18.3970     20.1745     49.0684   -999.2500      8.1856      0.0017      2.6841     19.4387     62.1567  
  7917.5000    -45.1220     18.3082     20.3262     59.7902   -999.2500      8.1790      0.0081      2.6930     19.7350     62.1750  
  7918.0000    -47.3426     18.2198     20.4791     62.4853   -999.2500      8.1710      0.0145      2.7018     19.7644     62.1700  
  7918.5000    -47.8781     18.1318     20.6331     61.3383   -999.2500      8.1631      0.0233      2.7124     19.4230     62.0227  
  7919.0000    -47.7733     18.2181     20.7883     56.3582   -999.2500      8.1632      0.0216      2.7067     18.8595     61.7307  
  7919.5000    -47.6459     18.4869     20.9446     56.3574   -999.2500      8.1683      0.0103      2.6940     18.1516     61.2368  
  7920.0000    -47.6346     18.7596     20.7850     57.8132   -999.2500      8.1704      0.0032      2.6991     17.4494     60.7428  
  7920.5000    -47.6888     19.0363     20.3851     49.0783   -999.2500      8.1705      0.0061      2.7144     17.7092     60.2489  
  7921.0000    -47.7115     19.2697     19.9929     36.8538   -999.2500      8.1768      0.0204      2.7180     18.0973     60.8734  
  7921.5000    -47.5322     18.9401     19.6083     36.6613   -999.2500      8.1831      0.0165      2.7029     18.6417     61.7220  
  7922.0000    -47.7696     18.6162     19.2310     39.5010   -999.2500      8.1520      0.0054      2.6831     19.0020     62.5155  
  7922.5000    -48.2016     18.2979     19.1437     36.9826   -999.2500      8.1401      0.0008      2.6690     18.8977     62.5185  
  7923.0000    -48.4068     17.9849     19.1990     33.0232   -999.2500      8.1479     -0.0003      2.6649     18.5741     62.2541  
  7923.5000    -48.4462     17.6774     19.2543     33.1350   -999.2500      8.1541     -0.0014      2.6605     18.1496     62.1720  
  7924.0000    -48.4731     17.8556     19.3099     38.1475   -999.2500      8.1552     -0.0025      2.6504     17.7251     62.2021  
  7924.5000    -48.6915     18.1970     19.3813     42.9669   -999.2500      8.1562     -0.0044      2.6315     17.3929     62.3021  
  7925.0000    -48.4235     18.5448     19.6593     51.0953   -999.2500      8.1530     -0.0066      2.6117     17.2672     62.3824  
  7925.5000    -48.1130     18.8994     19.9412     56.2835   -999.2500      8.1257     -0.0025      2.6124     17.1476     62.3647  
  7926.0000    -48.2043     19.2607     20.2272     53.8728   -999.2500      8.1291      0.0065      2.6540     17.0734     62.4131  
  7926.5000    -48.4292     19.4590     20.5173     43.3846   -999.2500      8.1353      0.0153      2.6994     16.9815     62.4084  
  7927.0000    -48.7243     19.4238     20.8116     41.4549   -999.2500      8.1265      0.0155      2.7145     16.9147     62.3513  
  7927.5000    -48.6999     19.3886     21.1101     42.6192   -999.2500      8.1315      0.0162      2.7172     16.8013     62.4788  
  7928.0000    -48.4723     19.3535     20.7768     46.1541   -999.2500      8.1376      0.0167      2.7056     16.6398     62.7416  
  7928.5000    -48.4670     19.3184     20.4353     51.5856   -999.2500      8.1508      0.0169      2.6992     16.4741     62.8422  
  7929.0000    -48.6401     19.2834     20.0994     53.9448   -999.2500      8.1378      0.0180      2.6931     16.4189     62.7930  
  7929.5000    -48.6402     19.2485     19.7691     47.1885   -999.2500      8.1073      0.0163      2.6884     16.2727     62.7428  
