~VERSION INFORMATION
 VERS.                      2.00:        CWLS LOG ASCII STANDARD - VERSION 2.00
 WRAP.                        NO:        ONE LINE PER DEPTH STEP
~WELL INFORMATION
#MNEM.UNIT               DATA            INFORMATION
#----------          ------------        ------------------------------
 STRT.F                  92.0000:        START DEPTH
 STOP.F                7738.0000:        STOP DEPTH
 STEP.F                   0.5000:        STEP VALUE
 NULL.                 -999.2500:        NULL VALUE
 COMP.                      13.5:        COMPANY  
 WELL.           EAST SIMPSON #1:        WELL     
 FLD .                   WILDCAT:        FIELD    
 LOC .              18  18N  10W:        LOCATION   
 CNTY.                  N. SLPOE:        COUNTY  
 STAT.                    ALASKA:        STATE   
 CTRY.                       USA:        COUNTRY 
 DATE.                   2/22/79:        LOG DATE 
 API .              502792000500:        UNIQUE WELL IDENTIFIER 
 OPER.                      13.5:        OPERATOR  
 SRVC.              Schlumberger:        SERVICE COMPANY 
 UWI .              502792000500:        UNIQUE WELL ID 
 LAT .                    0.0000:        LATITUDE
 LON .                    0.0000:        LONGITUDE
 DIGS.          Center Line Data:        DIGITIZING COMPANY 
~CURVE INFORMATION      
#MNEM.UNIT            API CODE           CURVE DESCRIPTION
#---------          -------------        ------------------------------
 DEPT.F                         :        1  DEPTH
 SP  .MV                        :        2
 ILD .OHMM                      :        3
 ILM .OHMM                      :        4
 LL8 .OHMM                      :        5
 CALI.IN                        :        6
 GR  .GAPI                      :        7
 DRHO.G/C3                      :        8
 RHOB.G/C3                      :        9
 NPHI.%                         :       10
 DT  .US/F                      :       11
~PARAMETER INFORMATION       
#MNEM.UNIT              VALUE            DESCRIPTION OF MNEMONIC
#---------          -------------        ------------------------------
 EKB .F                  30.0000:        KELLY BUSHING
 TD  .F                   0.0000:        TOTAL DEPTH
 BHT .F                   0.0000:        BOTTOM HOLE TEMPERATURE
 BS  .                   17.5000:        BIT SIZE
 FD  .                   10.2000:        FLUID DENSITY
 CSIZ.                   20.0000:        CASING SIZE
 CBD .F                  90.0000:        CASING DRILLER 1
 CBL .F                  92.0000:        CASING LOGGER 1
 DFT .                       Gel:        TYPE FLUID IN HOLE
 DFV .                   70.0000:        VISCOSITY
 DFPH.                    8.0000:        PH
 DFL .                   12.0000:        FLUID LOSS
 RMS .                    3.6000:        RM
 MST .F                  75.0000:        RM MEAS. TEMP.
 RMF .                    2.2100:        RMF
 MFST.F                  75.0000:        RMF MEAS. TEMP.
 RMC .                    2.1600:        RMC
 MCST.F                  75.0000:        RMC MEAS. TEMP.
 UWI .              502792000500:        UNIQUE WELL ID
~OTHER INFORMATION
~A    DEPTH          SP         ILD         ILM         LL8        CALI          GR        DRHO        RHOB        NPHI          DT  
# ...
  2642.0000    -26.0043      7.5901      7.3031      9.4426   -999.2500     47.9620   -999.2500   -999.2500   -999.2500    106.7393  
  2642.5000    -25.5529      7.5841      7.2123      9.5007   -999.2500     34.8063   -999.2500   -999.2500   -999.2500    107.0495  
  2643.0000    -25.4281      7.5782      7.1225      9.4984   -999.2500     23.0048   -999.2500   -999.2500   -999.2500    107.7922  
  2643.5000    -25.4403      7.5722      7.1805      9.1449   -999.2500     13.7222   -999.2500   -999.2500   -999.2500    108.3211  
  2644.0000    -25.4525      7.5663      7.2576      8.8034   -999.2500      8.2700   -999.2500   -999.2500   -999.2500    107.5091  
  2644.5000    -25.2424      7.5604      7.3351      8.5683   -999.2500   -999.2500   -999.2500   -999.2500   -999.2500    106.1733  
  2645.0000    -25.8222      7.5544      7.4078     10.5086   -999.2500   -999.2500   -999.2500   -999.2500   -999.2500    104.9613  
  2645.5000    -26.0177      7.5266      7.2258     10.6131   -999.2500   -999.2500   -999.2500   -999.2500   -999.2500    104.7683  
  2646.0000    -25.1426      7.4299      7.0663     10.0668   -999.2500   -999.2500   -999.2500   -999.2500   -999.2500    105.4606  
  2646.5000    -24.2676      7.3345      6.9898      9.9156   -999.2500   -999.2500   -999.2500   -999.2500   -999.2500    106.6172  
  2647.0000    -23.3926      7.2402      6.9142      9.9262   -999.2500   -999.2500   -999.2500   -999.2500   -999.2500    107.2512  
  2647.5000    -22.5435      7.1472      6.8393      9.6504   -999.2500   -999.2500   -999.2500   -999.2500   -999.2500    108.8690  
  2648.0000    -21.9885      7.0554      6.8005      9.2890   -999.2500   -999.2500   -999.2500   -999.2500   -999.2500    110.1554  
  2648.5000    -21.4336      6.9648      6.7621      9.0300   -999.2500   -999.2500   -999.2500   -999.2500   -999.2500    111.6866  
  2649.0000    -20.8134      6.8481      6.7009      8.9335   -999.2500   -999.2500   -999.2500   -999.2500   -999.2500    113.2279  
  2649.5000    -20.1312      6.7293      6.6379      8.8135   -999.2500   -999.2500   -999.2500   -999.2500   -999.2500    113.6860  
  2650.0000    -19.4757      6.6125      6.5755      8.6671     12.5540     34.8428     -0.2901      2.5141     59.9807    113.7847  
  2650.5000    -18.7602      6.5202      6.4486      8.5295     12.5575     35.0674     -0.2898      2.5044     54.9894    113.8231  
  2651.0000    -17.4933      6.4315      6.2702      8.5931     12.5610     36.0952     -0.2921      2.5165     55.7570    113.5050  
  2651.5000    -16.8992      6.3439      6.0968      8.7373     12.5645     36.6029     -0.2921      2.5142     54.7756    112.1081  
  2652.0000    -16.9710      6.2575      5.9635      8.8301     12.5680     37.4207     -0.2920      2.4873     56.2208    109.8578  
  2652.5000    -17.0429      6.1723      5.9105      8.6122     12.5715     38.4516     -0.2920      2.4831     59.8067    107.5960  
  2653.0000    -16.3184      6.0883      5.9700      8.0589     12.5484     38.3791     -0.2920      2.4744     58.0791    106.4112  
  2653.5000    -15.2949      6.1860      6.0736      8.0892     12.5488     36.0177     -0.2919      2.4540     55.1949    106.0182  
  2654.0000    -15.1311      6.2910      6.1621      8.8734     12.5491     35.9102     -0.2919      2.4197     52.0599    104.6201  
  2654.5000    -15.4528      6.3977      6.2397      9.9726     12.5495     36.8620     -0.2918      2.3917     54.4499    103.8801  
  2655.0000    -15.2088      6.5063      6.3287     10.2748     12.5499     36.3347     -0.2918      2.3648     55.6857    104.5563  
  2655.5000    -13.9915      6.6268      6.4826      9.8815     12.5503     37.2649     -0.2918      2.3821     54.6199    106.1129  
  2656.0000    -11.9974      6.7898      6.6781      9.2612     12.5506     37.7233     -0.2917      2.3974     54.7479    108.9099  
  2656.5000    -10.3379      6.9567      6.8714      8.8950     12.5510     36.3326     -0.2917      2.4215     56.4295    108.5362  
  2657.0000    -10.0568      7.0798      7.0249      9.0743     12.5514     34.5118     -0.2916      2.4342     56.4871    107.5823  
  2657.5000     -9.7756      7.1568      7.0553      9.6199     12.5518     33.8215     -0.2916      2.4555     56.1535    106.5211  
  2658.0000     -8.4821      7.2345      7.0653     11.8910     12.5521     33.3145     -0.2916      2.4872     55.2134    106.4238  
  2658.5000   -999.2500      7.3011      7.0982     20.4626     12.5525     34.9682     -0.2915      2.5452     53.5864    106.6629  
  2659.0000   -999.2500      7.3071      7.1314     21.5288     12.5526     35.9931     -0.2915      2.5828     52.9393    106.8725  
  2659.5000   -999.2500      7.3131      7.1010     12.9227     12.5526     37.0882     -0.2914      2.6080     54.5988    107.1955  
  2660.0000   -999.2500      7.3191      6.9097     10.2414     12.5606     42.6261     -0.2898      2.5812     56.3118    108.1148  
  2660.5000   -999.2500      7.3251      6.9360      9.5697     12.5982     47.8971     -0.2500      2.5324     57.3393    108.8890  
  2661.0000   -999.2500      7.3312      7.0476     45.5112     12.6680     48.8054     -0.1407      2.5158     56.4107    108.7583  
  2661.5000   -999.2500      7.3372      7.1497   1998.1176     12.7552     49.5824     -0.0268      2.5035     54.9696    108.2486  
  2662.0000   -999.2500      7.3398      7.1813     45.6459     12.8388     51.0069      0.1076      2.4025     53.8875    107.3524  
  2662.5000   -999.2500      7.3267      7.1775     22.1476     12.7764     50.4327      0.0784      2.2038     52.4570    107.1553  
  2663.0000   -999.2500      7.3137      7.0657     16.1926     12.7037     49.3739      0.0391      2.1338     50.4501    107.3928  
  2663.5000   -999.2500      7.3007      6.9555      8.8125     12.6785     47.7111      0.0204      2.1215     49.1378    107.1781  
  2664.0000   -999.2500      7.2878      7.0476      8.2650     12.7078     47.9604      0.0267      2.1189     51.8536    106.9218  
  2664.5000   -999.2500      7.2748      7.1373      8.7973     12.7393     49.1910      0.0383      2.1208     52.7189    107.1632  
  2665.0000   -999.2500      7.2619      7.1126     10.9365     12.7766     50.7453      0.0421      2.1238     50.8619    108.2612  
  2665.5000   -999.2500      7.2490      6.9956     13.4843     12.8373     53.7282      0.0560      2.1452     48.0009    108.7669  
  2666.0000   -999.2500      7.2361      7.0150     10.6024     12.9485     60.5179      0.0582      2.1716     47.7173    109.6846  
  2666.5000   -999.2500      7.2233      7.0177      8.3365     13.3927     67.0989      0.0498      2.1839     48.8642    111.1496  
  2667.0000   -999.2500      7.2195      6.9490      8.3594     14.0095     69.5082      0.0477      2.1839     49.2789    113.6376  
  2667.5000   -999.2500      7.2204      6.9275      9.0598     14.8402     65.3071      0.0605      2.1941     49.3840    114.0514  
  2668.0000    -54.6893      7.0315      5.9587      7.0979     14.9546     60.9547      0.0425      2.1873     49.9717    115.2720  
  2668.5000    -54.9849      7.1190      6.1434      7.2570     14.2131     65.9756      0.0282      2.1740     50.6405    115.0413  
  2669.0000    -55.2805      7.2076      6.7357      7.4920     14.6221     71.5619      0.0324      2.1640     49.8033    112.7546  
  2669.5000    -55.6860      7.4494      7.1837      7.7346     15.5067     69.6224      0.0276      2.1256     45.7224    106.8015  
  2670.0000    -56.2915      7.5545      7.1599      7.9851     15.9528     66.7994      0.0215      2.1104     43.7119    102.7467  
  2670.5000    -56.9555      7.4499      7.0919      7.9125     15.9768     67.1438      0.0259      2.1245     45.7487    102.3573  
  2671.0000    -56.9633      7.3128      6.4261      7.6778     15.8214     68.6720      0.0371      2.1336     48.0135    107.1127  
  2671.5000    -56.6732      7.1725      5.8340      7.4501     15.9153     66.6871      0.0470      2.1307     49.2990    115.9204  
