~VERSION INFORMATION
 VERS.                      2.00:        CWLS LOG ASCII STANDARD - VERSION 2.00
 WRAP.                        NO:        ONE LINE PER DEPTH STEP
~WELL INFORMATION
#MNEM.UNIT               DATA            INFORMATION
#----------          ------------        ------------------------------
 STRT.F                 100.0000:        START DEPTH
 STOP.F                7938.0000:        STOP DEPTH
 STEP.F                   0.5000:        STEP VALUE
 NULL.                 -999.2500:        NULL VALUE
 COMP.                          :        COMPANY  
 WELL.             DREW POINT #1:        WELL     
 FLD .                   WILDCAT:        FIELD    
 LOC .              26  18N   8W:        LOCATION   
 CNTY.               NORTH SLOPE:        COUNTY  
 STAT.                    ALASKA:        STATE   
 CTRY.                       USA:        COUNTRY 
 DATE.                   1/17/78:        LOG DATE 
 API .              500292000200:        UNIQUE WELL IDENTIFIER 
 OPER.                          :        OPERATOR  
 SRVC.              Schlumberger:        SERVICE COMPANY 
 UWI .              500292000200:        UNIQUE WELL ID 
 LAT .                    0.0000:        LATITUDE
 LON .                    0.0000:        LONGITUDE
 DIGS.          Center Line Data:        DIGITIZING COMPANY 
~CURVE INFORMATION      
#MNEM.UNIT            API CODE           CURVE DESCRIPTION
#---------          -------------        ------------------------------
 DEPT.F                         :        1  DEPTH
 SP  .MV                        :        2
 ILD .OHMM                      :        3
 ILM .OHMM                      :        4
 LL8 .OHMM                      :        5
 GR  .GAPI                      :        6
 CALI.IN                        :        7
 DRHO.G/C3                      :        8
 RHOB.G/C3                      :        9
 NPHI.%                         :       10
 DT  .US/F                      :       11
~PARAMETER INFORMATION       
#MNEM.UNIT              VALUE            DESCRIPTION OF MNEMONIC
#---------          -------------        ------------------------------
 EKB .F                  35.0000:        KELLY BUSHING
 TD  .F                7946.0000:        TOTAL DEPTH
 BHT .F                  75.0000:        BOTTOM HOLE TEMPERATURE
 BS  .                   17.5000:        BIT SIZE
 FD  .                    9.8000:        FLUID DENSITY
 CSIZ.                   20.0000:        CASING SIZE
 CBD .F                  80.0000:        CASING DRILLER 1
 CBL .F                 106.0000:        CASING LOGGER 1
 DFT .             Miscellaneous:        TYPE FLUID IN HOLE
 DFV .                   36.0000:        VISCOSITY
 DFPH.                    7.0000:        PH
 DFL .                    0.0000:        FLUID LOSS
 RMS .                    4.5200:        RM
 MST .F                  52.0000:        RM MEAS. TEMP.
 RMF .                    2.8700:        RMF
 MFST.F                  71.0000:        RMF MEAS. TEMP.
 RMC .                    3.5000:        RMC
 MCST.F                  71.0000:        RMC MEAS. TEMP.
 UWI .              500292000200:        UNIQUE WELL ID
~OTHER INFORMATION
~A    DEPTH          SP         ILD         ILM         LL8          GR        CALI        DRHO        RHOB        NPHI          DT  
# ...
  2710.0000    -58.7645      6.5599      4.9677      9.3940     97.1005     13.5234      0.0700      2.2441     56.9451    113.0173  
  2710.5000    -61.3497      6.5422      4.8375     10.3772     97.4669     13.5296      0.0753      2.2379     55.3317    109.2151  
  2711.0000    -61.3908      6.2804      4.7107     10.5804     95.3633     13.5800      0.0841      2.2402     53.8601    110.9089  
  2711.5000    -60.7365      6.0292      4.5873      8.3437     88.5707     13.3588      0.0921      2.2468     51.4550    106.3069  
  2712.0000    -59.5485      5.7879      4.4671      6.5798     86.1909     12.9684      0.0914      2.2557     49.6562     98.3973  
  2712.5000    -57.4847      5.5564      4.3500      5.3535     85.0185     12.7885      0.0450      2.2679     47.7450    100.4980  
  2713.0000    -55.6709      5.4740      4.2360      5.0376     83.0856     12.8943      0.0478      2.3125     45.5001     99.7895  
  2713.5000    -54.9764      5.5536      4.1658      5.6289     79.0529     13.0002      0.0708      2.3439     43.7944    100.1082  
  2714.0000    -54.4297      5.6345      4.1006      5.9522     77.9435     12.9015      0.0712      2.3402     43.3178    100.8853  
  2714.5000    -53.6544      5.4999      4.0363      5.1389     76.9624     12.7407      0.0828      2.3481     41.7518    101.6984  
  2715.0000    -52.7334      5.3454      4.1165      5.0534     74.0221     12.4525      0.1021      2.3374     39.8908    104.2997  
  2715.5000    -51.7528      5.1953      4.2186      5.3096     72.0739     12.3352      0.0873      2.3076     39.0909    109.6420  
  2716.0000    -50.7399      5.0509      4.3231      5.5789     71.7532     12.3220      0.0573      2.3023     38.3771    115.6670  
  2716.5000    -49.8856      4.9604      4.3876      5.3578     72.6105     12.3088      0.0527      2.2911     38.5908    119.1383  
  2717.0000    -49.1140      4.8714      4.4119      4.9431     73.4678     12.3393      0.0475      2.2798     38.8551    118.4041  
  2717.5000    -47.8162      4.7841      4.4165      4.6627     76.1540     12.3801      0.0383      2.2705     39.1361    115.4685  
  2718.0000    -46.2437      4.6983      4.3985      4.6691     82.1421     12.4209      0.0455      2.2812     39.5342    113.4188  
  2718.5000    -44.6900      4.6140      4.3805      4.6756     87.1589     12.4523      0.0441      2.2950     40.6209    117.2388  
  2719.0000    -43.7771      4.5313      4.3626      4.6821     89.1087     12.4739      0.0513      2.3078     41.4780    119.5549  
  2719.5000    -43.6653      4.4501      4.3448      4.6690     91.4127     12.4741      0.0366      2.3153     43.0263    119.6613  
  2720.0000    -44.2235      4.3703      4.2629      4.5682     93.8035     12.4772      0.0279      2.3026     43.6384    121.7259  
  2720.5000    -45.1535      4.2919      4.1464      4.4696     96.9035     12.4878      0.0361      2.3196     43.6136    118.3854  
  2721.0000    -46.1503      4.3067      4.1450      4.3731    100.7967     12.5611      0.0504      2.3443     43.9987    119.5973  
  2721.5000    -47.1975      4.3641      4.2222      4.3123    103.0218     12.6271      0.0689      2.3623     44.9927    123.8290  
  2722.0000    -47.5583      4.4221      4.3009      4.4241    102.0605     12.6614      0.0775      2.3705     46.0300    121.6660  
  2722.5000    -47.6262      4.4810      4.3811      4.5390    100.7822     12.6956      0.0783      2.3723     46.3520    120.8346  
  2723.0000    -47.5619      4.5406      4.4627      4.6229     99.5363     12.7299      0.0684      2.3645     45.2218    122.4211  
  2723.5000    -47.5599      4.6011      4.4473      4.5311     98.0922     12.8055      0.0607      2.3461     45.3608    123.1982  
  2724.0000    -47.4399      4.6623      4.4314      4.5118     98.6401     12.9037      0.0552      2.3357     46.0266    127.9634  
  2724.5000    -47.1080      4.6554      4.4155      4.5773     98.8684     13.0361      0.0608      2.3453     46.1164    132.3932  
  2725.0000    -46.5954      4.6290      4.4100      4.5917     97.8336     13.1032      0.0636      2.3312     46.2465    132.1569  
  2725.5000    -45.9096      4.6027      4.4357      4.5870     97.4962     13.1251      0.0552      2.2895     47.2242    129.1041  
  2726.0000    -45.0548      4.5766      4.4615      4.6140     97.9022     13.1522      0.0448      2.2781     48.3367    123.3322  
  2726.5000    -44.2710      4.5506      4.4875      4.6421     98.4172     13.2306      0.0592      2.2829     50.0736    120.1860  
  2727.0000    -43.9082      4.5248      4.5190      4.6122     97.9346     13.4696      0.0733      2.2748     51.8104    118.6767  
  2727.5000    -43.8380      4.4991      4.5724      4.5420     95.4845     13.6161      0.0713      2.2657     53.0836    120.9164  
  2728.0000    -43.9718      4.4736      4.6263      4.4640     93.9884     13.6615      0.0671      2.2522     51.7942    122.9981  
  2728.5000    -44.1304      4.4527      4.6809      4.5407     94.7235     13.4993      0.0706      2.2681     48.7481    124.4126  
  2729.0000    -44.2811      4.4515      4.7362      4.5879     93.4286     13.4180      0.0797      2.2886     47.8222    124.0749  
  2729.5000    -44.5907      4.4502      4.7921      4.6356     89.6442     13.7332      0.0834      2.2900     48.6415    122.2401  
  2730.0000    -45.0720      4.4589      4.8487      4.6839     87.1898     14.2286      0.0859      2.2885     49.7711    121.5319  
  2730.5000    -45.5590      4.4747      4.9059      4.7326     89.8956     14.4290      0.0886      2.2970     51.1771    122.1578  
  2731.0000    -45.7797      4.4906      4.9638      4.7818     92.2821     14.0288      0.0900      2.2951     51.7668    123.3607  
  2731.5000    -45.8788      4.5065      5.0138      4.8154     93.7969     13.8205      0.0896      2.2889     51.1415    125.6636  
  2732.0000    -45.8764      4.5224      5.0292      4.7880     93.6626     13.7956      0.0771      2.2796     50.7894    124.9311  
  2732.5000    -45.9758      4.5384      5.0447      4.7608     93.3050     13.7872      0.0584      2.2718     50.3768    123.4100  
  2733.0000    -46.1156      4.5545      5.0601      4.7337     94.4709     13.7990      0.0606      2.2734     49.4851    122.7824  
  2733.5000    -46.3343      4.5706      5.0757      4.7835     95.8303     13.7797      0.0614      2.2748     48.8716    121.0254  
  2734.0000    -46.4100      4.5868      5.0912      4.8728     95.9443     13.7643      0.0798      2.2945     49.7903    121.1784  
  2734.5000    -46.3149      4.6030      5.1069      4.9050     95.8642     13.7736      0.0992      2.3196     50.7552    121.2295  
  2735.0000    -46.1543      4.6193      5.1225      4.8862     95.8738     13.8533      0.1061      2.3159     51.5748    120.4426  
  2735.5000    -46.1157      4.6357      5.1383      4.8675     96.8824     13.9702      0.1056      2.3047     51.2825    120.2603  
  2736.0000    -46.0944      4.6521      5.1540      4.8489     97.7935     14.1666      0.1011      2.2949     51.5771    120.4207  
  2736.5000    -46.0714      4.6685      5.1447      4.8303     97.1733     14.2736      0.0910      2.2877     51.8264    120.5368  
  2737.0000    -45.9755      4.6850      5.1300      4.8118     95.8525     14.2637      0.0806      2.2790     51.8253    120.6088  
  2737.5000    -45.8135      4.6543      5.1153      4.7934     91.1304     14.2538      0.0735      2.2686     51.4131    120.7321  
  2738.0000    -45.4202      4.5781      5.1007      4.7588     87.7412     14.2439      0.0604      2.2551     50.9999    119.9659  
  2738.5000    -44.9406      4.5032      5.0861      4.7532     86.5593     14.2340      0.0445      2.2498     50.7961    119.8338  
  2739.0000    -44.4231      4.4295      5.0715      4.6845     87.3328     14.2307      0.0535      2.2694     49.4362    122.2233  
  2739.5000    -44.1846      4.3570      5.0570      4.6716     90.4439     14.2380      0.0664      2.2840     48.3689    124.4381  
