~VERSION INFORMATION
 VERS.                      2.00:        CWLS LOG ASCII STANDARD - VERSION 2.00
 WRAP.                        NO:        ONE LINE PER DEPTH STEP
~WELL INFORMATION
#MNEM.UNIT               DATA            INFORMATION
#----------          ------------        ------------------------------
 STRT.F                  92.0000:        START DEPTH
 STOP.F                7738.0000:        STOP DEPTH
 STEP.F                   0.5000:        STEP VALUE
 NULL.                 -999.2500:        NULL VALUE
 COMP.                      13.5:        COMPANY  
 WELL.           EAST SIMPSON #1:        WELL     
 FLD .                   WILDCAT:        FIELD    
 LOC .              18  18N  10W:        LOCATION   
 CNTY.                  N. SLPOE:        COUNTY  
 STAT.                    ALASKA:        STATE   
 CTRY.                       USA:        COUNTRY 
 DATE.                   2/22/79:        LOG DATE 
 API .              502792000500:        UNIQUE WELL IDENTIFIER 
 OPER.                      13.5:        OPERATOR  
 SRVC.              Schlumberger:        SERVICE COMPANY 
 UWI .              502792000500:        UNIQUE WELL ID 
 LAT .                    0.0000:        LATITUDE
 LON .                    0.0000:        LONGITUDE
 DIGS.          Center Line Data:        DIGITIZING COMPANY 
~CURVE INFORMATION      
#MNEM.UNIT            API CODE           CURVE DESCRIPTION
#---------          -------------        ------------------------------
 DEPT.F                         :        1  DEPTH
 SP  .MV                        :        2
 ILD .OHMM                      :        3
 ILM .OHMM                      :        4
 LL8 .OHMM                      :        5
 CALI.IN                        :        6
 GR  .GAPI                      :        7
 DRHO.G/C3                      :        8
 RHOB.G/C3                      :        9
 NPHI.%                         :       10
 DT  .US/F                      :       11
~PARAMETER INFORMATION       
#MNEM.UNIT              VALUE            DESCRIPTION OF MNEMONIC
#---------          -------------        ------------------------------
 EKB .F                  30.0000:        KELLY BUSHING
 TD  .F                   0.0000:        TOTAL DEPTH
 BHT .F                   0.0000:        BOTTOM HOLE TEMPERATURE
 BS  .                   17.5000:        BIT SIZE
 FD  .                   10.2000:        FLUID DENSITY
 CSIZ.                   20.0000:        CASING SIZE
 CBD .F                  90.0000:        CASING DRILLER 1
 CBL .F                  92.0000:        CASING LOGGER 1
 DFT .                       Gel:        TYPE FLUID IN HOLE
 DFV .                   70.0000:        VISCOSITY
 DFPH.                    8.0000:        PH
 DFL .                   12.0000:        FLUID LOSS
 RMS .                    3.6000:        RM
 MST .F                  75.0000:        RM MEAS. TEMP.
 RMF .                    2.2100:        RMF
 MFST.F                  75.0000:        RMF MEAS. TEMP.
 RMC .                    2.1600:        RMC
 MCST.F                  75.0000:        RMC MEAS. TEMP.
 UWI .              502792000500:        UNIQUE WELL ID
~OTHER INFORMATION
~A    DEPTH          SP         ILD         ILM         LL8        CALI          GR        DRHO        RHOB        NPHI          DT  
# ...
  5162.0000    -51.6222      6.9693      5.9668      7.8816     16.9251     85.9081      0.0766      2.4736     33.2978     89.4806  
  5162.5000    -51.6357      6.9273      6.0065      7.7940     16.6439     83.6112      0.0867      2.4953     31.4673     89.4246  
  5163.0000    -51.6493      6.8875      6.0526      7.6982     16.1871     79.9702      0.0642      2.4760     31.3827     90.2578  
  5163.5000    -51.6628      6.8955      6.0910      7.6202     15.8813     78.3681      0.0633      2.4808     33.8458     90.7112  
  5164.0000    -51.6763      6.9860      6.4189      7.6408     16.2368     77.7631      0.0503      2.4880     36.7598     90.1579  
  5164.5000    -51.8068      7.0777      6.6410      8.4302     16.0591     77.8265      0.0309      2.4977     36.5013     87.7135  
  5165.0000    -52.0334      7.1706      6.7451      9.5365     15.2908     76.8058      0.0456      2.5236     34.3261     85.2035  
  5165.5000    -52.2949      7.2647      6.8508      9.8165     15.6764     76.5134      0.0658      2.5475     29.8695     83.8284  
  5166.0000    -52.1724      7.3600      6.9581      9.1460     15.5062     77.1363      0.0575      2.5266     29.2193     82.8241  
  5166.5000    -52.0865      7.4090      7.0563      9.0447     15.5737     79.6897      0.0560      2.5162     30.9656     82.8791  
  5167.0000    -52.0928      7.4124      7.1195      9.1464     15.3678     83.5620      0.0540      2.5139     30.7207     84.0776  
  5167.5000    -52.0907      7.4158      7.0143      9.0892     15.3521     84.4176      0.0615      2.4948     29.4282     85.1292  
  5168.0000    -51.9779      7.4193      6.7263      8.7136     15.7941     84.4823      0.0783      2.4649     30.9755     86.5791  
  5168.5000    -51.8194      7.4227      6.4044      8.2630     15.5595     85.0408      0.0594      2.4330     34.3951     90.3771  
  5169.0000    -51.7582      7.4261      6.0979      7.8357     15.6547     84.4314      0.0528      2.4473     36.9937     92.1519  
  5169.5000    -51.5339      7.3130      6.0620      7.6005     15.5696     82.7370      0.0662      2.4651     37.9678     92.4846  
  5170.0000    -51.3552      7.1962      6.0318      7.5571     15.2231     85.8095      0.0784      2.4782     38.9483     91.5863  
  5170.5000    -50.9736      7.0812      6.0057      7.5439     15.6484     88.1059      0.0856      2.4791     38.5465     90.5011  
  5171.0000    -51.0038      6.9680      5.9899      7.8162     15.3959     88.4992      0.0767      2.4696     37.3227     89.2694  
  5171.5000    -51.0455      6.8567      5.9741      8.0262     15.2139     86.9377      0.0818      2.4797     36.5977     88.9282  
  5172.0000    -51.0871      6.7471      5.9216      7.8105     15.3158     85.2559      0.0933      2.4740     36.7141     90.0211  
  5172.5000    -51.1076      6.6672      5.8656      7.4003     15.0415     83.2049      0.1053      2.4550     36.7816     91.7968  
  5173.0000    -51.0252      6.6579      5.9435      7.0116     15.0425     83.7006      0.1237      2.4654     37.0238     92.9957  
  5173.5000    -50.9637      6.6486      6.0862      7.0918     15.1633     83.6226      0.1133      2.4465     35.2886     92.2595  
  5174.0000    -51.0687      6.6393      6.2054      7.3165     15.6101     82.6494      0.0828      2.4524     33.0376     90.2984  
  5174.5000    -51.1736      6.6412      6.1725      8.1757     15.9508     84.2823      0.0786      2.4665     30.8677     87.6344  
  5175.0000    -51.2785      6.6673      6.0966      8.5925     15.8207     85.6277      0.0697      2.4538     31.3177     87.1840  
  5175.5000    -51.1981      6.6936      6.0155      8.0739     15.5781     85.1824      0.0972      2.4582     34.6567     88.9006  
  5176.0000    -51.1900      6.7199      6.0001      7.5857     15.3724     84.6415      0.0842      2.4530     37.4733     91.4002  
  5176.5000    -51.0554      6.7464      5.9942      7.5488     15.4056     86.0459      0.0792      2.4853     37.4001     93.1773  
  5177.0000    -50.8539      6.7729      6.0384      7.5121     15.3915     87.9173      0.0776      2.5040     36.8295     92.8430  
  5177.5000    -50.6523      6.7996      6.0644      7.7349     15.4808     87.4715      0.0690      2.5133     36.8378     91.0927  
  5178.0000    -50.4507      6.7623      6.0423      7.8875     15.3481     88.2482      0.0741      2.5273     37.1550     89.7289  
  5178.5000    -50.2712      6.7209      6.0171      7.8107     15.4356     89.0428      0.0724      2.5271     36.2951     89.2855  
  5179.0000    -50.3593      6.6798      6.0094      7.6906     15.2702     89.6705      0.0635      2.5271     35.6935     89.0928  
  5179.5000    -50.4474      6.5633      6.0736      7.6020     15.2653     90.1779      0.0603      2.5203     34.7728     88.6055  
  5180.0000    -50.4528      6.3965      6.1557      7.7835     15.2709     90.0142      0.0595      2.5201     33.6795     87.7012  
  5180.5000    -50.4569      6.2339      6.0315      8.0767     15.2649     90.0318      0.0637      2.5215     33.8681     88.1326  
  5181.0000    -50.4609      6.0755      5.6583      7.9886     15.3118     89.0355      0.0642      2.5232     35.3693     90.1418  
  5181.5000    -50.4650      5.9332      5.3807      7.4544     15.2962     86.0519      0.0572      2.5027     37.3573     92.4610  
  5182.0000    -50.4691      5.8019      5.1803      7.0667     15.2676     84.5201      0.0685      2.5170     36.9708     93.5788  
  5182.5000    -50.4732      5.6736      5.1160      6.9881     15.2625     85.4664      0.0565      2.4929     36.5707     92.7474  
  5183.0000    -50.4773      5.5481      5.0896      7.6712     15.2326     86.1393      0.0621      2.5034     35.2763     90.3332  
  5183.5000    -50.4814      5.4619      5.0634      8.3858     15.3354     87.5623      0.0621      2.5151     33.1255     87.8766  
  5184.0000    -50.4855      5.4525      5.0113      8.3345     15.3953     85.8834      0.0672      2.5104     32.1286     87.2372  
  5184.5000    -50.3248      5.4432      4.9578      7.5119     15.3872     83.6280      0.0570      2.4983     33.3363     88.7921  
  5185.0000    -50.0484      5.4339      4.9301      7.1258     15.4120     83.0943      0.0447      2.4868     34.3328     90.9090  
  5185.5000    -49.9783      5.4507      4.9827      7.1217     15.4350     81.2539      0.0472      2.4784     34.2709     92.5838  
  5186.0000    -49.3814      5.6112      5.0358      6.8912     15.4306     80.7687      0.0599      2.4844     33.5727     93.5104  
  5186.5000    -49.4960      5.7763      5.1197      6.7286     15.4275     84.0960      0.0713      2.4868     33.1767     94.2980  
  5187.0000    -49.4573      5.9464      5.2513      6.5698     15.3426     87.4806      0.0593      2.4858     34.0641     94.5999  
  5187.5000    -49.5055      6.1258      5.4911      6.7910     15.1559     89.5671      0.0474      2.4862     35.1593     93.0182  
  5188.0000    -49.6125      6.3782      5.7990      7.3293     15.0370     83.0700      0.0394      2.4994     34.4818     90.2410  
  5188.5000    -50.0024      6.6410      6.1242      8.8410     15.0568     76.5185      0.0546      2.5067     32.9780     86.7107  
  5189.0000    -50.3090      6.8001      6.4675     10.5375     15.1742     75.8972      0.0922      2.5198     31.0816     83.9427  
  5189.5000    -50.6155      6.9444      6.5961      9.7642     15.5116     77.3827      0.1027      2.5225     30.9163     83.5267  
  5190.0000    -50.9221      7.0941      6.4754      8.5823     15.6729     77.9414      0.0824      2.5140     32.1371     85.5368  
  5190.5000    -50.7305      7.3406      6.3904      7.8011     15.2976     78.1042      0.0705      2.5146     33.1870     88.3921  
  5191.0000    -50.6785      7.5106      6.4180      7.9354     15.3208     78.4337      0.0506      2.4828     33.9800     89.5667  
  5191.5000    -50.6526      7.4611      6.3832      8.2565     15.3857     79.1334      0.0352      2.4622     33.9471     89.6451  
