~VERSION INFORMATION
 VERS.                      2.00:        CWLS LOG ASCII STANDARD - VERSION 2.00
 WRAP.                        NO:        ONE LINE PER DEPTH STEP
~WELL INFORMATION
#MNEM.UNIT               DATA            INFORMATION
#----------          ------------        ------------------------------
 STRT.F                  81.0000:        START DEPTH
 STOP.F               15400.0000:        STOP DEPTH
 STEP.F                   0.5000:        STEP VALUE
 NULL.                 -999.2500:        NULL VALUE
 COMP. USGS/NPR HUSKY OIL OPERAT:        COMPANY  
 WELL.     IKPIKPUK TEST WELL #1:        WELL     
 FLD .                   WILDCAT:        FIELD    
 LOC .              25  13N  10W:        LOCATION   
 CNTY.               NORTH SLPOE:        COUNTY  
 STAT.                    ALASKA:        STATE   
 CTRY.                       USA:        COUNTRY 
 DATE.                  11/29/78:        LOG DATE 
 API .              502792000400:        UNIQUE WELL IDENTIFIER 
 OPER. USGS/NPR HUSKY OIL OPERAT:        OPERATOR  
 SRVC.              Schlumberger:        SERVICE COMPANY 
 UWI .              502792000400:        UNIQUE WELL ID 
 LAT .                    0.0000:        LATITUDE
 LON .                    0.0000:        LONGITUDE
 DIGS.          Center Line Data:        DIGITIZING COMPANY 
~CURVE INFORMATION      
#MNEM.UNIT            API CODE           CURVE DESCRIPTION
#---------          -------------        ------------------------------
 DEPT.F                         :        1  DEPTH
 SP  .MV                        :        2
 ILD .OHMM                      :        3
 ILM .OHMM                      :        4
 LL8 .OHMM                      :        5
 GR  .GAPI                      :        6
 CALI.IN                        :        7
 RHOB.G/C3                      :        8
 DRHO.G/C3                      :        9
 NPHI.%                         :       10
 DT  .US/F                      :       11
~PARAMETER INFORMATION       
#MNEM.UNIT              VALUE            DESCRIPTION OF MNEMONIC
#---------          -------------        ------------------------------
 EKB .F                  52.0000:        KELLY BUSHING
 TD  .F               15481.0000:        TOTAL DEPTH
 BHT .F                   0.0000:        BOTTOM HOLE TEMPERATURE
 BS  .                   17.5000:        BIT SIZE
 FD  .                    9.0000:        FLUID DENSITY
 CSIZ.                   30.0000:        CASING SIZE
 CBD .F                 100.0000:        CASING DRILLER 1
 CBL .F                 101.0000:        CASING LOGGER 1
 DFT .                       Gel:        TYPE FLUID IN HOLE
 DFV .                   60.0000:        VISCOSITY
 DFPH.                    8.5000:        PH
 DFL .                   18.0000:        FLUID LOSS
 RMS .                    3.7300:        RM
 MST .F                  66.0000:        RM MEAS. TEMP.
 RMF .                    4.3900:        RMF
 MFST.F                  58.0000:        RMF MEAS. TEMP.
 RMC .                    2.5000:        RMC
 MCST.F                  57.0000:        RMC MEAS. TEMP.
 UWI .              502792000400:        UNIQUE WELL ID
~OTHER INFORMATION
~A    DEPTH          SP         ILD         ILM         LL8          GR        CALI        RHOB        DRHO        NPHI          DT  
# ...
 13341.0000    -42.4350   1593.7405   1959.3289   1632.1586     40.3318      8.7589      2.6686      0.0222      1.4079     54.3433  
 13341.5000    -41.2754   1539.5537   1915.0161   1601.6300     41.5697      8.7399      2.6561      0.0204      1.5027     54.7311  
 13342.0000    -40.3548   1364.7059   1842.2373   1591.4315     41.4113      8.7208      2.6383      0.0139      1.5974     54.9328  
 13342.5000    -39.5010   1111.5505   1805.7321   1575.6887     40.4518      8.7017      2.6529      0.0221      1.6921     55.2022  
 13343.0000    -38.6472    797.4266   1800.9998   1540.9998     40.2063      8.6827      2.6650      0.0204      1.8474     55.4038  
 13343.5000    -37.8099    622.7338   1811.9642   1574.3364     40.3598      8.6752      2.6687      0.0102      2.0601     55.4692  
 13344.0000    -36.9747    575.0057   1802.0304   1610.7474     39.4554      8.6821      2.6677      0.0066      2.2728     55.3246  
 13344.5000    -36.2589    552.3304   1776.7532   1612.7188     38.0885      8.6889      2.6694      0.0072      2.4855     54.8145  
 13345.0000    -35.2773    585.9585   1745.2218   1633.5875     36.6163      8.6958      2.6803      0.0107      2.6961     54.2850  
 13345.5000    -34.5920    850.2971   1721.3925   1644.7629     35.6654      8.7027      2.6925      0.0129      2.8359     53.9526  
 13346.0000    -34.0523   1233.8838   1767.1278   1621.2921     35.6425      8.7096      2.6989      0.0129      2.9757     53.6872  
 13346.5000    -33.1339   1446.5427   1876.2549   1598.1571     36.8322      8.7165      2.7032      0.0088      3.0779     53.8329  
 13347.0000    -31.8692    996.5184   1942.6367   1575.3514     37.5976      8.7234      2.7034      0.0055      3.0951     54.2741  
 13347.5000    -30.8998    519.4908   1909.4366   1577.4821     38.2263      8.7303      2.6855     -0.0009      3.1124     53.9907  
 13348.0000    -29.3465    270.8135    336.9759   1624.4620     38.6741      8.7372      2.6743     -0.0060      3.1297     53.8667  
 13348.5000    -26.6302    135.6038    118.4791   1674.8683     38.7598      8.7440      2.6602     -0.0071      3.1470     54.7869  
 13349.0000    -24.9821     61.1361     53.6353   1358.3311     39.0273      8.7509      2.6411     -0.0013      3.3937     55.8984  
 13349.5000    -23.5172    186.3338    147.0824    200.2852     40.7466      8.7578      2.6326      0.0125      3.8275     56.9907  
 13350.0000    -22.3472    632.0091    403.3392    153.9630     43.9716      8.7647      2.6336      0.0467      4.2614     57.8365  
 13350.5000    -21.1782   1859.3801   1106.0636    638.4749     46.9376      8.7716      2.6454      0.1070      4.6952     57.5763  
 13351.0000    -19.9933   1602.7365    714.8362   1606.7722     47.3754      8.7785      2.6060      0.0627      6.0214     56.0707  
 13351.5000    -18.8659   1205.6569     84.8172   1536.2771     47.7934      8.7885      2.6320      0.0194      7.4252     56.0182  
 13352.0000    -17.3464    389.3141     56.8385    529.7946     50.3070      8.8012      2.6787      0.0259      7.3796     57.5718  
 13352.5000    -16.2593    147.8028    146.7386    166.7234     53.0697      8.8140      2.6759      0.0322      6.5702     59.2297  
 13353.0000    -15.3738    185.7258    444.1268    174.0302     53.3457      8.8268      2.6246      0.0440      5.7607     59.1965  
 13353.5000    -14.4883    207.1225   1344.2188    366.7796     50.0497      8.8395      2.6117      0.0581      5.5955     57.6106  
 13354.0000    -13.6028    150.0801   1701.9789   1587.5258     46.1175      8.8456      2.5828      0.0199      5.8104     55.6650  
 13354.5000    -12.6818    110.3101    443.4178   1553.5686     45.3254      8.8456      2.6145      0.0102      5.7001     55.0716  
 13355.0000    -11.2987     81.8742     59.3147   1520.3369     47.8491      8.8456      2.6539      0.0177      4.8940     56.0600  
 13355.5000    -10.3609     60.7685     40.0980    678.3068     53.1362      8.8456      2.6533      0.0205      3.9881     58.0755  
 13356.0000    -10.1031     55.3279     32.8424    158.6672     60.0110      8.8456      2.6197      0.0256      3.4888     61.3138  
 13356.5000     -9.8452     50.3745     33.9349     73.5498     67.1277      8.8456      2.6013      0.0481      3.8710     64.6660  
 13357.0000     -9.8137     49.2786     38.0486     69.1288     71.6590      8.8456      2.5972      0.0543      5.4717     66.3893  
 13357.5000     -9.9819     57.5170     42.7222     64.5890     73.8714      8.8386      2.5633      0.0400      7.1162     66.6701  
 13358.0000    -10.1564     67.1327     42.5862     82.6457     73.2312      8.8263      2.5554      0.0352      8.8315     66.0345  
 13358.5000    -10.3714    174.3493     42.4855    240.1387     69.6280      8.8140      2.5511      0.0419     10.2528     64.8009  
 13359.0000    -11.2752    321.4700     47.0527    324.1932     63.0843      8.8016      2.5567      0.0506     10.3309     62.1702  
 13359.5000    -12.1709    256.1990     51.3509    430.6917     57.0601      8.7893      2.5594      0.0161      9.7984     59.9291  
 13360.0000    -12.7993    204.1806     62.2455    444.4507     55.0158      8.7770      2.6025      0.0123      7.1474     58.4691  
 13360.5000    -13.4468    204.7379    139.0883    302.1020     54.6486      8.7646      2.6284      0.0196      4.1579     57.5138  
 13361.0000    -14.0942    239.6250    376.0926    296.2946     55.3854      8.7523      2.6316      0.0163      3.1514     57.3615  
 13361.5000    -14.7417    280.4566   1021.3629    615.8646     56.1058      8.7400      2.6247      0.0130      2.6803     57.2568  
 13362.0000    -15.3892    520.0146   1691.1758   1280.1080     56.6222      8.7276      2.6239      0.0174      2.4645     55.9570  
 13362.5000    -15.9939   1037.7000   1797.2328   1510.0532     56.6275      8.7153      2.6283      0.0173      2.1766     54.1541  
 13363.0000    -17.5506   1507.6147   1893.1841   1541.7985     56.7353      8.7070      2.6319      0.0097      1.9544     52.8233  
 13363.5000    -19.3637   1530.2747   1947.4342   1572.6978     58.3422      8.7027      2.6315     -0.0024      1.5875     52.0301  
 13364.0000    -20.2836   1553.2744   2011.1794   1585.6010     60.8405      8.6983      2.6562      0.0033      1.3642     52.3111  
 13364.5000    -21.2443   1576.6206   2077.0125   1585.7428     61.8938      8.6939      2.6757      0.0015      1.0757     53.2109  
 13365.0000    -23.0280   1600.3169   2144.9990   1610.3345     57.8713      8.6896      2.6594     -0.0057      0.9789     53.4543  
 13365.5000    -24.1979   1624.3693   2215.2124   1665.0808     48.4261      8.6852      2.6556      0.0019      1.0124     52.7402  
 13366.0000    -25.0369   1648.7842   2181.3164   1688.0203     39.1151      8.6828      2.6499      0.0048      1.0207     51.7638  
 13366.5000    -26.1355   1664.6403   2109.0315   1649.1616     34.3793      8.6807      2.6384      0.0050      0.9508     50.9679  
 13367.0000    -26.9307   1667.9810   2039.1434   1673.4713     33.9664      8.6786      2.6503      0.0052      0.8421     51.1218  
 13367.5000    -27.4873   1671.3284   1971.6198   1682.4785     36.3890      8.6764      2.6667      0.0052      0.7741     51.8534  
 13368.0000    -28.0440   1674.6816   1867.7610   1629.1578     37.9173      8.6743      2.6633      0.0049      0.7676     52.4107  
 13368.5000    -28.6006   1667.9022   1809.0500   1604.2734     37.3485      8.6722      2.6580      0.0046      0.7825     52.7943  
 13369.0000    -29.1573   1633.5444   1798.2859   1613.1305     36.8348      8.6701      2.6587      0.0093      0.9286     52.7176  
 13369.5000    -29.7139   1599.8944   1413.6829   1620.1150     37.5678      8.6680      2.6608      0.0123      0.9894     52.4244  
 13370.0000    -30.2706   1566.9375    890.3585   1612.0991     39.5999      8.6658      2.6642      0.0112      1.0672     52.9997  
 13370.5000    -30.7232   1529.4928    958.1608   1589.0586     42.0965      8.6637      2.6689      0.0097      1.1236     54.2923  
