~VERSION INFORMATION
 VERS.                           2.00:        CWLS LOG ASCII STANDARD - VERSION 2.00
 WRAP.                             NO:        ONE LINE PER DEPTH STEP
~WELL INFORMATION
#MNEM.UNIT                   DATA             INFORMATION
#----------             --------------        ------------------------------
 STRT.F                      358.0000:        START DEPTH
 STOP.F                     8806.0000:        STOP DEPTH
 STEP.F                        0.5000:        STEP VALUE
 NULL.                      -999.2500:        NULL VALUE
 COMP.                      U.S. NAVY:        COMPANY
 LOC .                     22 17N 12W:        LOCATION
 DATE.                         4/5/77:        LOG DATE
 WELL.               SOUTH SIMPSON #1:        WELL
 UWI .                   502792000100:        UNIQUE WELL ID
 API .                   502792000100:        UNIQUE WELL IDENTIFIER
 FLD .                        WILDCAT:        FIELD
 CNTY.                    NORTH SLOPE:        COUNTY
 STAT.                         ALASKA:        STATE
 CTRY.                            USA:        COUNTRY
 OPER.                      U.S. NAVY:        OPERATOR
 SRVC.                   SCHLUMBERGER:        SERVICE COMPANY
 LAT .                         0.0000:        LATITUDE
 LON .                         0.0000:        LONGITUDE
 DIGS.               CENTER LINE DATA:        DIGITIZING COMPANY
~CURVE INFORMATION      
#MNEM        .UNIT         API CODE           CURVE DESCRIPTION
#-----------------      --------------        ------------------------------
 DEPT        .F                      :        1  DEPTH
 GR          .GAPI                   :        2  
 CALI        .IN                     :        3  
 DRHO        .G/C3                   :        4  
 RHOB        .G/C3                   :        5  
 NPHI        .%                      :        6  
 DT          .US/F                   :        7  
 SP          .MV                     :        8  
 ILD         .OHMM                   :        9  
 ILM         .OHMM                   :        10 
 LL8         .OHMM                   :        11 
~PARAMETER INFORMATION
#MNEM.UNIT                  VALUE             DESCRIPTION OF MNEMONIC
#---------             ---------------        ------------------------------
 EKB .F                       25.0000:        KELLY BUSHING
 TD  .F                     8807.0000:        TOTAL DEPTH
 BHT .F                      145.0000:        BOTTOM HOLE TEMPERATURE
 BS  .                        13.5000:        BIT SIZE
 FD  .                        10.7000:        FLUID DENSITY
 CSIZ.                        16.0000:        CASING SIZE
 CBD .F                     2175.0000:        CASING DRILLER 1
 CBL .F                     2175.0000:        CASING LOGGER 1
 DFT .                  MISCELLANEOUS:        TYPE FLUID IN HOLE
 DFV .                        47.0000:        VISCOSITY
 DFPH.                        10.5000:        PH
 DFL .                         5.0000:        FLUID LOSS
 RMS .                         2.3000:        RM
 MST .F                       60.0000:        RM MEAS. TEMP.
 RMF .                         1.5400:        RMF
 MFST.F                       54.0000:        RMF MEAS. TEMP.
 RMC .                         2.7300:        RMC
 MCST.F                       54.0000:        RMC MEAS. TEMP.
~OTHER INFORMATION
~A    DEPTH          GR        CALI        DRHO        RHOB        NPHI          DT          SP         ILD         ILM         LL8 
# ...
  4353.5000     97.9594     17.1148      0.0758      2.4993     37.2673     95.1673    -32.7384      5.2972      4.7054      5.5871 
  4354.0000     97.5593     17.1141      0.0647      2.4976     37.8613     96.8203    -32.7567      5.2552      4.6671      5.5559 
  4354.5000     97.0451     17.1133      0.0535      2.4889     38.5154     97.4851    -32.7575      5.2136      4.6290      5.5249 
  4355.0000     96.7178     17.1125      0.0622      2.4845     38.5818     98.5600    -32.6314      5.1723      4.5912      5.4941 
  4355.5000     96.9554     17.1118      0.0812      2.5177     38.5972     98.8104    -32.3856      5.1314      4.5538      5.4635 
  4356.0000     96.5540     17.0963      0.0841      2.5344     38.3690     98.6470    -32.1932      5.0907      4.5166      5.4318 
  4356.5000     95.2022     17.0809      0.0784      2.5139     38.6114     98.5568    -31.8820      5.0504      4.4848      5.3937 
  4357.0000     94.3126     17.0843      0.0727      2.5122     39.6580     98.8683    -31.6687      5.0104      4.4533      5.3558 
  4357.5000     93.6737     17.0878      0.0797      2.5214     40.8262    100.2322    -31.6695      4.9707      4.4221      5.3183 
  4358.0000     93.4425     17.0912      0.0920      2.5280     42.1355     98.8751    -31.9029      4.9314      4.3910      5.2809 
  4358.5000     93.1129     17.0947      0.0943      2.4920     43.3870     98.7227    -31.6846      4.8923      4.3602      5.2439 
  4359.0000     94.0555     17.0981      0.0662      2.4680     42.9996    100.2645    -31.7955      4.8536      4.3296      5.2071 
  4359.5000     93.9413     17.1016      0.0596      2.4540     41.9358    100.6723    -31.9443      4.8239      4.2993      5.1706 
  4360.0000     94.0482     17.1050      0.0519      2.4394     41.2958    100.8998    -32.0160      4.8155      4.2691      5.1343 
  4360.5000     94.2243     17.1085      0.0429      2.4260     41.1893    101.3240    -31.7197      4.8071      4.2392      5.0983 
  4361.0000     94.4004     17.1119      0.0397      2.4226     41.3975    102.3664    -31.6284      4.7987      4.2094      5.0625 
  4361.5000     94.9230     17.1154      0.0365      2.4211     41.8019    105.8320    -31.6340      4.7903      4.1799      5.0270 
  4362.0000     96.9435     17.1188      0.0382      2.4337     41.8960     99.8940    -31.9917      4.7820      4.1633      4.9960 
  4362.5000     99.4509     17.1223      0.0414      2.4533     41.5205    102.8679    -31.7504      4.7737      4.1598      4.9918 
  4363.0000    100.9630     17.1257      0.0445      2.4600     40.8013    103.8496    -31.6000      4.7654      4.1562      4.9875 
  4363.5000    104.2040     17.1292      0.0460      2.4520     40.4707    105.6001    -31.5504      4.7571      4.1527      4.9832 
  4364.0000    107.1612     17.1326      0.0437      2.4694     41.7839    110.7009    -31.5007      4.7488      4.1491      4.9789 
  4364.5000    106.7170     17.1336      0.0367      2.4551     43.0029    102.3975    -31.4510      4.7405      4.1456      4.9747 
  4365.0000    106.4361     17.1344      0.0298      2.4336     43.3213    103.2592    -31.4013      4.7323      4.1405      4.9704 
  4365.5000    106.1022     17.1353      0.0264      2.4273     42.1468    105.1755    -31.3516      4.7240      4.1284      4.9560 
  4366.0000    104.5280     17.1361      0.0387      2.4451     40.8368    106.4189    -31.3020      4.7158      4.1164      4.9415 
  4366.5000    102.1873     17.1369      0.0568      2.4643     40.0833    105.8716    -31.2523      4.7076      4.1043      4.9271 
  4367.0000     99.2705     17.1378      0.0512      2.4683     39.9011    104.4655    -31.3494      4.6994      4.0924      4.9127 
  4367.5000     96.3354     17.1386      0.0523      2.4612     39.7603    102.4834    -31.2604      4.6912      4.0804      4.8983 
  4368.0000     93.9750     17.1394      0.0617      2.4863     39.6647    100.2758    -31.7324      4.6830      4.0685      4.8840 
  4368.5000     92.5308     17.1403      0.0691      2.5039     39.0504    102.0991    -31.6864      4.6749      4.0566      4.8698 
  4369.0000     95.1669     17.1411      0.0615      2.5081     37.7260    104.0538    -31.5862      4.6667      4.0569      4.8820 
  4369.5000     96.9959     17.1419      0.0539      2.5128     38.1195    103.4972    -31.6384      4.6690      4.0907      4.9227 
  4370.0000     99.8576     17.1423      0.0805      2.5192     39.2767    105.8204    -31.7259      4.6838      4.1248      4.9638 
  4370.5000    101.6051     17.1426      0.0956      2.5287     39.9788    101.6608    -31.8134      4.6986      4.1592      5.0052 
  4371.0000    101.7308     17.1430      0.0974      2.5500     40.8401    101.1235    -31.9008      4.7135      4.1938      5.0470 
  4371.5000     99.4542     17.1433      0.0833      2.5282     41.7393    102.3873    -31.9883      4.7284      4.2280      5.0891 
  4372.0000     96.6448     17.1436      0.0594      2.5141     41.6885    105.0975    -31.9982      4.7572      4.2622      5.1415 
  4372.5000     94.3340     17.1439      0.0491      2.5370     40.8296    104.3494    -31.7077      4.7892      4.2968      5.2361 
  4373.0000     93.4551     17.1442      0.0389      2.5066     39.0223    104.0620    -31.6824      4.8215      4.3315      5.3324 
  4373.5000     94.3579     17.1446      0.0642      2.5362     38.9894    105.8060    -31.7681      4.8541      4.3666      5.4305 
  4374.0000     95.0147     17.1449      0.0837      2.5581     39.0013    101.5037    -31.8060      4.8868      4.3690      5.5304 
  4374.5000     94.6367     17.1452      0.0653      2.5295     38.6166     94.6521    -31.5917      4.9198      4.3515      5.5297 
  4375.0000     93.1739     17.1455      0.0541      2.5031     38.2866     97.2562    -31.4630      4.9419      4.3341      5.4875 
  4375.5000     92.9362     17.1458      0.0651      2.5082     39.0268     99.0945    -31.4009      4.9343      4.3168      5.4456 
  4376.0000     96.0992     17.1462      0.0581      2.5099     40.0050    100.0542    -31.5583      4.9268      4.2995      5.4040 
  4376.5000     98.7024     17.1470      0.0556      2.4947     39.3273    101.9597    -31.6333      4.9192      4.2823      5.3627 
  4377.0000    100.8825     17.1500      0.0560      2.4886     38.4962    101.3348    -31.6010      4.9117      4.2651      5.3218 
  4377.5000    102.5089     17.1529      0.0533      2.4942     37.6205     98.9040    -31.6332      4.8952      4.2481      5.2953 
  4378.0000    103.3490     17.1558      0.0420      2.4858     37.6162    102.0804    -31.5177      4.8693      4.2311      5.2720 
  4378.5000    104.2716     17.1588      0.0463      2.4974     38.3002    101.0114    -31.2855      4.8435      4.2141      5.2488 
  4379.0000    105.7884     17.1617      0.0641      2.5023     38.9092    100.9978    -31.3870      4.8179      4.1973      5.2256 
  4379.5000    107.6278     17.1646      0.0766      2.4960     39.1533    104.3999    -31.4580      4.7924      4.1811      5.2026 
  4380.0000    109.4689     17.1676      0.0726      2.4776     39.6182    101.6093    -31.4510      4.7670      4.1649      5.1797 
  4380.5000    112.4902     17.1705      0.1154      2.4804     40.3050    100.2315    -31.3505      4.7418      4.1488      5.1569 
  4381.0000    115.5355     17.1734      0.1540      2.4777     40.7578    101.7385    -31.2551      4.7167      4.1327      5.1342 
  4381.5000    118.3871     17.1763      0.1493      2.4193     41.2366    103.4336    -31.2575      4.7008      4.1167      5.1116 
  4382.0000    120.1056     17.1757      0.0773      2.3613     41.6947    104.5802    -31.3267      4.7225      4.1580      5.1977 
  4382.5000    120.2398     17.1743      0.0697      2.3923     42.0500    104.9187    -30.9297      4.7442      4.2007      5.4821 
  4383.0000    119.1752     17.1728      0.1021      2.4102     40.2254    105.4285    -30.8668      4.7661      4.2437      5.8141 
  4383.5000    118.5132     17.1714      0.1439      2.3899     39.4302    106.0069    -30.8421      4.7880      4.2873      6.1431 
