~VERSION INFORMATION
 VERS.                      2.00:        CWLS LOG ASCII STANDARD - VERSION 2.00
 WRAP.                        NO:        ONE LINE PER DEPTH STEP
~WELL INFORMATION
#MNEM.UNIT               DATA            INFORMATION
#----------          ------------        ------------------------------
 STRT.F                  92.0000:        START DEPTH
 STOP.F                7738.0000:        STOP DEPTH
 STEP.F                   0.5000:        STEP VALUE
 NULL.                 -999.2500:        NULL VALUE
 COMP.                      13.5:        COMPANY  
 WELL.           EAST SIMPSON #1:        WELL     
 FLD .                   WILDCAT:        FIELD    
 LOC .              18  18N  10W:        LOCATION   
 CNTY.                  N. SLPOE:        COUNTY  
 STAT.                    ALASKA:        STATE   
 CTRY.                       USA:        COUNTRY 
 DATE.                   2/22/79:        LOG DATE 
 API .              502792000500:        UNIQUE WELL IDENTIFIER 
 OPER.                      13.5:        OPERATOR  
 SRVC.              Schlumberger:        SERVICE COMPANY 
 UWI .              502792000500:        UNIQUE WELL ID 
 LAT .                    0.0000:        LATITUDE
 LON .                    0.0000:        LONGITUDE
 DIGS.          Center Line Data:        DIGITIZING COMPANY 
~CURVE INFORMATION      
#MNEM.UNIT            API CODE           CURVE DESCRIPTION
#---------          -------------        ------------------------------
 DEPT.F                         :        1  DEPTH
 SP  .MV                        :        2
 ILD .OHMM                      :        3
 ILM .OHMM                      :        4
 LL8 .OHMM                      :        5
 CALI.IN                        :        6
 GR  .GAPI                      :        7
 DRHO.G/C3                      :        8
 RHOB.G/C3                      :        9
 NPHI.%                         :       10
 DT  .US/F                      :       11
~PARAMETER INFORMATION       
#MNEM.UNIT              VALUE            DESCRIPTION OF MNEMONIC
#---------          -------------        ------------------------------
 EKB .F                  30.0000:        KELLY BUSHING
 TD  .F                   0.0000:        TOTAL DEPTH
 BHT .F                   0.0000:        BOTTOM HOLE TEMPERATURE
 BS  .                   17.5000:        BIT SIZE
 FD  .                   10.2000:        FLUID DENSITY
 CSIZ.                   20.0000:        CASING SIZE
 CBD .F                  90.0000:        CASING DRILLER 1
 CBL .F                  92.0000:        CASING LOGGER 1
 DFT .                       Gel:        TYPE FLUID IN HOLE
 DFV .                   70.0000:        VISCOSITY
 DFPH.                    8.0000:        PH
 DFL .                   12.0000:        FLUID LOSS
 RMS .                    3.6000:        RM
 MST .F                  75.0000:        RM MEAS. TEMP.
 RMF .                    2.2100:        RMF
 MFST.F                  75.0000:        RMF MEAS. TEMP.
 RMC .                    2.1600:        RMC
 MCST.F                  75.0000:        RMC MEAS. TEMP.
 UWI .              502792000500:        UNIQUE WELL ID
~OTHER INFORMATION
~A    DEPTH          SP         ILD         ILM         LL8        CALI          GR        DRHO        RHOB        NPHI          DT  
    92.0000    -30.3926      3.0692      0.8266      2.8159   -999.2500   -999.2500   -999.2500   -999.2500   -999.2500   -999.2500  
    92.5000    -30.2210      5.0267      1.0292      4.0912   -999.2500   -999.2500   -999.2500   -999.2500   -999.2500   -999.2500  
    93.0000    -29.8822      2.8043      1.6126      5.9442   -999.2500   -999.2500   -999.2500   -999.2500   -999.2500   -999.2500  
    93.5000    -29.6537      2.2313      2.2537      8.6365   -999.2500   -999.2500   -999.2500   -999.2500   -999.2500   -999.2500  
    94.0000    -29.6109      3.2032      2.2094     12.0469   -999.2500   -999.2500   -999.2500   -999.2500   -999.2500   -999.2500  
    94.5000    -30.2345      5.4680      2.7722     14.9011   -999.2500   -999.2500   -999.2500   -999.2500   -999.2500   -999.2500  
    95.0000    -30.7555     10.9547      3.2772     18.4315   -999.2500     58.7307   -999.2500   -999.2500   -999.2500     49.9623  
    95.5000    -30.2704     21.9467      3.4804     22.7984   -999.2500     57.8176   -999.2500   -999.2500   -999.2500     49.9662  
    96.0000    -30.4400     23.1254      3.9893     26.7304   -999.2500     57.3066   -999.2500   -999.2500   -999.2500     49.9702  
    96.5000    -30.5673     11.1707      4.4090     28.2176   -999.2500     57.0907   -999.2500   -999.2500   -999.2500     49.9742  
    97.0000    -30.2684      9.2034      4.2557     29.7875   -999.2500     57.6515   -999.2500   -999.2500   -999.2500     49.9782  
    97.5000    -29.9200     10.7973      3.8326     31.4447   -999.2500     59.1295   -999.2500   -999.2500   -999.2500     49.9821  
    98.0000    -29.5872     12.8600      3.8653     33.1942   -999.2500     60.7953   -999.2500   -999.2500   -999.2500     49.9861  
    98.5000    -28.1826     15.7080      4.3868     35.0410   -999.2500     62.3521   -999.2500   -999.2500   -999.2500     49.9901  
    99.0000    -26.7150     20.8917      5.8702     36.3711   -999.2500     62.8434   -999.2500   -999.2500   -999.2500     59.6269  
    99.5000    -25.1159     28.2236      7.9711     37.3668   -999.2500     63.1284   -999.2500   -999.2500   -999.2500     97.1996  
   100.0000    -23.0822     33.6599      7.6236     39.7966   -999.2500     64.3625   -999.2500   -999.2500   -999.2500     76.4659  
   100.5000    -22.4305     26.4065      6.9429     42.5586   -999.2500     65.9032   -999.2500   -999.2500   -999.2500     56.9484  
   101.0000    -22.9362     22.5369      6.6180     43.8472   -999.2500     67.6183   -999.2500   -999.2500   -999.2500    100.6780  
   101.5000    -23.8330     21.4407      6.5475     42.4469   -999.2500     68.7416   -999.2500   -999.2500   -999.2500    111.6853  
   102.0000    -24.6582     20.9279      6.6120     42.5804   -999.2500     69.6491   -999.2500   -999.2500   -999.2500    141.3138  
   102.5000    -24.6624     20.9279      6.6678     46.0511   -999.2500     70.4072   -999.2500   -999.2500   -999.2500    188.3932  
   103.0000    -24.2291     20.6555      6.6245     49.2468   -999.2500     70.8382   -999.2500   -999.2500   -999.2500    179.7175  
   103.5000    -23.8336     19.6780      6.5499     50.5175   -999.2500     71.0658   -999.2500   -999.2500   -999.2500    155.7173  
   104.0000    -23.5558     19.0505      6.4667     50.6898   -999.2500     71.2827   -999.2500   -999.2500   -999.2500    134.8911  
   104.5000    -22.7423     18.4312      6.4175     50.8530   -999.2500     71.8807   -999.2500   -999.2500   -999.2500    154.9170  
   105.0000    -20.7606     18.1227      6.3582     51.6708   -999.2500     73.3345   -999.2500   -999.2500   -999.2500    138.1148  
   105.5000    -20.0070     17.7668      6.2846     51.8545   -999.2500     74.6594   -999.2500   -999.2500   -999.2500    165.9835  
   106.0000    -19.4045     18.0839      6.2977     51.3713   -999.2500     75.0850   -999.2500   -999.2500   -999.2500    175.8026  
   106.5000    -19.1225     18.5652      6.3385     50.7353   -999.2500     75.1474   -999.2500   -999.2500   -999.2500    179.3629  
   107.0000    -19.1712     19.0169      6.4608     50.1583   -999.2500     75.0055   -999.2500   -999.2500   -999.2500    189.2827  
   107.5000    -19.3028     19.0147      6.7064     49.1406   -999.2500     74.0895   -999.2500   -999.2500   -999.2500    180.3712  
   108.0000    -19.4343     18.7826      6.9039     48.9704   -999.2500     71.9028   -999.2500   -999.2500   -999.2500    175.8849  
   108.5000    -19.5658     18.5154      6.9615     49.8643   -999.2500     70.5158   -999.2500   -999.2500   -999.2500    175.2830  
   109.0000    -19.7884     18.5549      6.7911     50.3447   -999.2500     69.7553   -999.2500   -999.2500   -999.2500    175.2002  
   109.5000    -20.8517     19.3109      6.6100     48.5505   -999.2500     69.7030   -999.2500   -999.2500   -999.2500    175.0647  
   110.0000    -21.5861     20.6233      6.5478     43.4338   -999.2500     70.3717   -999.2500   -999.2500   -999.2500    174.8462  
   110.5000    -21.5426     20.7544      6.6274     42.3603   -999.2500     71.3818   -999.2500   -999.2500   -999.2500    174.7662  
   111.0000    -21.2125     20.8721      6.8236     42.8017   -999.2500     71.1397   -999.2500   -999.2500   -999.2500    174.8156  
   111.5000    -20.8351     19.9308      6.9827     43.7368   -999.2500     70.0681   -999.2500   -999.2500   -999.2500    174.9041  
   112.0000    -20.4646     18.5827      6.9898     44.3799   -999.2500     68.5103   -999.2500   -999.2500   -999.2500    175.0492  
   112.5000    -20.0942     17.7430      6.9348     44.1695   -999.2500     67.5443   -999.2500   -999.2500   -999.2500    175.1595  
   113.0000    -20.4914     17.4028      6.7232     42.4320   -999.2500     67.8796   -999.2500   -999.2500   -999.2500    175.1700  
   113.5000    -21.0958     17.1756      6.4754     40.4289   -999.2500     69.0712   -999.2500   -999.2500   -999.2500    175.1353  
   114.0000    -20.6276     16.7016      6.3085     38.5298   -999.2500     71.3663   -999.2500   -999.2500   -999.2500    174.9352  
   114.5000    -18.6453     16.2860      6.1761     37.5179   -999.2500     74.6792   -999.2500   -999.2500   -999.2500    174.7894  
   115.0000     -9.7651     15.6108      6.1310     37.6106   -999.2500     73.8536   -999.2500   -999.2500   -999.2500    174.8799  
   115.5000     -1.8278     15.2359      6.1076     37.8927   -999.2500     72.1458   -999.2500   -999.2500   -999.2500    174.9892  
   116.0000      0.0515     15.0687      6.1730     37.4886   -999.2500     71.2894   -999.2500   -999.2500   -999.2500    175.1227  
   116.5000      0.0492     15.0942      6.2946     36.5149   -999.2500     70.9111   -999.2500   -999.2500   -999.2500    175.2190  
   117.0000      0.0470     15.0662      6.5238     35.7540   -999.2500     70.7188   -999.2500   -999.2500   -999.2500    175.2406  
   117.5000      0.0447     15.1551      6.7100     35.9388   -999.2500     70.8564   -999.2500   -999.2500   -999.2500    175.2151  
   118.0000      0.0425     15.4835      6.7132     35.6549   -999.2500     71.4837   -999.2500   -999.2500   -999.2500    175.0836  
   118.5000      0.0402     15.9317      6.6689     33.7029   -999.2500     72.7950   -999.2500   -999.2500   -999.2500    174.9943  
   119.0000      0.0379     16.2635      6.6443     31.6924   -999.2500     74.3228   -999.2500   -999.2500   -999.2500    175.1276  
   119.5000      0.0357     16.4264      6.6634     31.1922   -999.2500     76.0534   -999.2500   -999.2500   -999.2500    175.6235  
   120.0000      0.0334     16.1356      6.6554     31.6482   -999.2500     77.1626   -999.2500   -999.2500   -999.2500    176.3399  
   120.5000      0.0311     15.6798      6.6309     31.8345   -999.2500     78.0470   -999.2500   -999.2500   -999.2500    177.0143  
   121.0000      0.0289     15.6754      6.5949     31.6643   -999.2500     78.3085   -999.2500   -999.2500   -999.2500    177.2680  
   121.5000      0.0266     15.8437      6.6504     31.2463   -999.2500     78.9645   -999.2500   -999.2500   -999.2500    177.4026  
