~VERSION INFORMATION
 VERS.                      2.00:        CWLS LOG ASCII STANDARD - VERSION 2.00
 WRAP.                        NO:        ONE LINE PER DEPTH STEP
~WELL INFORMATION
#MNEM.UNIT               DATA            INFORMATION
#----------          ------------        ------------------------------
 STRT.F                  81.0000:        START DEPTH
 STOP.F               15400.0000:        STOP DEPTH
 STEP.F                   0.5000:        STEP VALUE
 NULL.                 -999.2500:        NULL VALUE
 COMP. USGS/NPR HUSKY OIL OPERAT:        COMPANY  
 WELL.     IKPIKPUK TEST WELL #1:        WELL     
 FLD .                   WILDCAT:        FIELD    
 LOC .              25  13N  10W:        LOCATION   
 CNTY.               NORTH SLPOE:        COUNTY  
 STAT.                    ALASKA:        STATE   
 CTRY.                       USA:        COUNTRY 
 DATE.                  11/29/78:        LOG DATE 
 API .              502792000400:        UNIQUE WELL IDENTIFIER 
 OPER. USGS/NPR HUSKY OIL OPERAT:        OPERATOR  
 SRVC.              Schlumberger:        SERVICE COMPANY 
 UWI .              502792000400:        UNIQUE WELL ID 
 LAT .                    0.0000:        LATITUDE
 LON .                    0.0000:        LONGITUDE
 DIGS.          Center Line Data:        DIGITIZING COMPANY 
~CURVE INFORMATION      
#MNEM.UNIT            API CODE           CURVE DESCRIPTION
#---------          -------------        ------------------------------
 DEPT.F                         :        1  DEPTH
 SP  .MV                        :        2
 ILD .OHMM                      :        3
 ILM .OHMM                      :        4
 LL8 .OHMM                      :        5
 GR  .GAPI                      :        6
 CALI.IN                        :        7
 RHOB.G/C3                      :        8
 DRHO.G/C3                      :        9
 NPHI.%                         :       10
 DT  .US/F                      :       11
~PARAMETER INFORMATION       
#MNEM.UNIT              VALUE            DESCRIPTION OF MNEMONIC
#---------          -------------        ------------------------------
 EKB .F                  52.0000:        KELLY BUSHING
 TD  .F               15481.0000:        TOTAL DEPTH
 BHT .F                   0.0000:        BOTTOM HOLE TEMPERATURE
 BS  .                   17.5000:        BIT SIZE
 FD  .                    9.0000:        FLUID DENSITY
 CSIZ.                   30.0000:        CASING SIZE
 CBD .F                 100.0000:        CASING DRILLER 1
 CBL .F                 101.0000:        CASING LOGGER 1
 DFT .                       Gel:        TYPE FLUID IN HOLE
 DFV .                   60.0000:        VISCOSITY
 DFPH.                    8.5000:        PH
 DFL .                   18.0000:        FLUID LOSS
 RMS .                    3.7300:        RM
 MST .F                  66.0000:        RM MEAS. TEMP.
 RMF .                    4.3900:        RMF
 MFST.F                  58.0000:        RMF MEAS. TEMP.
 RMC .                    2.5000:        RMC
 MCST.F                  57.0000:        RMC MEAS. TEMP.
 UWI .              502792000400:        UNIQUE WELL ID
~OTHER INFORMATION
~A    DEPTH          SP         ILD         ILM         LL8          GR        CALI        RHOB        DRHO        NPHI          DT  
# ...
  3171.0000    -46.4864      6.6247      5.2423      6.0558     50.6377     15.0949      2.1197      0.0316     47.3982    105.7526  
  3171.5000    -46.4346      6.3705      5.0967      5.9620     52.2233     15.0503      2.1184      0.0319     48.0113    112.1168  
  3172.0000    -46.3567      6.1558      5.0601      5.8695     52.7677     15.0287      2.1179      0.0388     47.1684    115.8669  
  3172.5000    -46.2740      6.2443      5.0706      5.8224     53.4757     15.0071      2.1165      0.0269     45.6234    117.3935  
  3173.0000    -46.2844      6.3341      5.0883      6.0773     55.0198     15.0029      2.1201      0.0229     44.0250    123.2608  
  3173.5000    -46.2765      6.4252      5.2807      6.1954     56.8153     15.0102      2.1200      0.0200     42.4698    125.6534  
  3174.0000    -46.2327      6.5264      5.4758      6.2182     58.3491     15.0176      2.1111      0.0370     42.4186    123.9664  
  3174.5000    -46.1872      6.6376      5.6780      6.4168     59.1540     15.0249      2.1039      0.0301     43.8010    121.2572  
  3175.0000    -46.5654      6.7507      5.8812      6.6516     58.8303     15.0323      2.1062      0.0172     45.8013    115.7748  
  3175.5000    -46.5549      6.8657      5.7568      6.8951     58.1800     15.0396      2.1100      0.0198     46.5762    108.7949  
  3176.0000    -46.2863      6.9827      5.6350      6.6692     57.2048     15.0495      2.1259      0.0218     46.7854    104.5710  
  3176.5000    -46.0787      7.1017      5.5914      6.2297     57.0075     15.0600      2.1394      0.0370     46.8584    103.5713  
  3177.0000    -45.9953      7.1904      5.6238      6.1727     57.7112     15.0705      2.1389      0.0481     46.7199    105.1543  
  3177.5000    -45.9278      7.0895      5.6563      6.1666     58.1826     15.0810      2.1383      0.0505     46.5784    109.9465  
  3178.0000    -45.8277      6.9901      5.6351      6.1606     56.3705     15.0915      2.1313      0.0516     46.9458    114.1964  
  3178.5000    -45.6906      6.8908      5.5716      6.2224     54.6940     15.1020      2.1234      0.0505     47.2225    113.7763  
  3179.0000    -45.5641      6.7854      5.4835      6.2852     54.4650     15.1155      2.1081      0.0494     47.3968    111.4521  
  3179.5000    -45.4377      6.6816      5.3856      6.3062     54.2797     15.1302      2.1150      0.0500     46.4370    110.2249  
  3180.0000    -45.3113      6.5794      5.2635      6.1288     54.6340     15.1450      2.1319      0.0595     45.5530    109.9853  
  3180.5000    -45.1839      6.4787      5.1189      5.9731     54.9335     15.1598      2.1350      0.0720     44.2916    110.4520  
  3181.0000    -45.0555      6.3796      5.0207      5.9920     54.5687     15.1745      2.1119      0.0772     45.1456    111.5545  
  3181.5000    -44.9271      6.2769      4.9365      5.9815     53.8775     15.1779      2.0832      0.0641     46.6869    114.8889  
  3182.0000    -44.8039      6.1692      4.8485      5.8877     53.5876     15.1801      2.0568      0.0465     47.1012    118.0870  
  3182.5000    -44.6808      6.0634      4.8800      5.7772     53.3309     15.1822      2.0207      0.0342     46.8445    121.3624  
  3183.0000    -44.6359      5.9593      4.8789      5.8087     52.5678     15.1844      2.0028      0.0285     46.9924    123.2444  
  3183.5000    -44.6849      5.8703      4.8977      5.8606     51.6560     15.1866      2.0133      0.0246     48.1772    121.5997  
  3184.0000    -44.9170      5.8076      4.7870      5.7866     50.9567     15.1888      2.0627      0.0261     49.0578    118.4930  
  3184.5000    -45.2236      5.7455      4.6721      5.6845     51.3208     15.1701      2.1231      0.0338     49.6361    116.2887  
  3185.0000    -45.6128      5.6842      4.5536      5.5969     52.4608     15.1498      2.1565      0.0451     49.8516    116.4876  
  3185.5000    -45.7938      5.6234      4.4599      5.5107     52.8671     15.1294      2.1697      0.0424     49.9064    119.6416  
  3186.0000    -45.9456      5.5634      4.3540      5.4258     53.9615     15.1072      2.1581      0.0459     50.1892    124.7367  
  3186.5000    -46.0938      5.5039      4.2676      5.3422     55.1282     15.0723      2.1393      0.0532     50.1232    128.4091  
  3187.0000    -46.1873      5.4451      4.2634      5.3184     55.2169     15.0203      2.1023      0.0487     49.9106    127.7981  
  3187.5000    -46.2808      5.4043      4.2408      5.3179     55.3442     14.9079      2.0782      0.0412     48.7653    126.1098  
  3188.0000    -46.3636      5.4163      4.2351      5.3175     55.3570     14.7955      2.0621      0.0368     47.6928    124.4389  
  3188.5000    -46.4366      5.4283      4.2263      5.3223     55.3738     14.6831      2.0931      0.0370     48.8755    122.2363  
  3189.0000    -46.3652      5.4403      4.2221      5.3510     56.6542     14.5707      2.1051      0.0436     49.5044    121.7590  
  3189.5000    -46.2871      5.4523      4.2354      5.3690     57.6730     14.5954      2.1091      0.0479     50.1590    123.3399  
  3190.0000    -46.1814      5.4644      4.2511      5.3564     58.5210     14.6207      2.1217      0.0548     50.5443    122.9217  
  3190.5000    -46.1122      5.4765      4.2952      5.2959     59.3519     14.6528      2.1111      0.0501     50.8373    122.1401  
  3191.0000    -46.0490      5.4886      4.3397      5.3493     59.7987     14.6907      2.1134      0.0486     51.0815    122.0492  
  3191.5000    -46.2322      5.5008      4.3613      5.4916     59.3172     14.7285      2.1087      0.0529     52.4578    121.5570  
  3192.0000    -46.5502      5.5129      4.3342      5.5124     58.6120     14.7664      2.0953      0.0467     53.4322    119.2015  
  3192.5000    -46.6508      5.5344      4.3375      5.4374     58.0947     14.7154      2.0817      0.0438     53.9540    119.9783  
  3193.0000    -46.1081      5.5639      4.3630      5.4564     58.6746     14.6632      2.0595      0.0405     53.7374    119.6542  
  3193.5000    -45.9732      5.5936      4.4398      5.4831     58.7910     14.6111      2.0517      0.0348     52.6680    119.2294  
  3194.0000    -45.9891      5.6235      4.5014      5.5118     56.7035     14.5589      2.0549      0.0436     51.3968    118.8555  
  3194.5000    -46.0938      5.6535      4.5435      5.5418     55.6056     14.5067      2.0567      0.0491     51.4638    117.4294  
  3195.0000    -46.1341      5.6837      4.5429      5.5751     57.8591     14.4546      2.0603      0.0576     52.2959    115.0713  
  3195.5000    -46.1914      5.6380      4.4875      5.6088     60.1822     14.4236      2.0668      0.0736     51.9713    114.7965  
  3196.0000    -46.2745      5.5576      4.3855      5.5553     59.6948     14.4433      2.0539      0.0647     50.6795    115.2328  
  3196.5000    -46.4399      5.4783      4.3072      5.3674     58.7752     14.4631      2.0739      0.0690     49.0928    118.4790  
  3197.0000    -46.6079      5.4001      4.3009      5.2041     58.3394     14.4828      2.0791      0.0642     48.0553    120.4937  
  3197.5000    -46.6719      5.3231      4.3302      5.1058     58.7660     14.5031      2.0917      0.0661     47.7537    119.6332  
  3198.0000    -46.6312      5.2550      4.3746      5.2588     60.0531     14.5244      2.1112      0.0695     47.1014    117.8888  
  3198.5000    -46.5238      5.2551      4.3854      5.4141     60.1452     14.5848      2.1247      0.0705     46.6919    115.0550  
  3199.0000    -46.4539      5.2552      4.3556      5.4328     59.1026     14.7045      2.1038      0.0696     46.9493    113.4165  
  3199.5000    -46.3841      5.2553      4.3785      5.3946     58.3447     14.8236      2.0737      0.0448     47.0093    113.2597  
  3200.0000    -46.3142      5.2554      4.4351      5.3727     58.4700     14.7390      2.0574      0.0257     47.3447    114.7455  
  3200.5000    -46.2444      5.3051      4.4825      5.4396     58.4569     14.6544      2.0665      0.0374     47.9510    114.8902  
