~VERSION INFORMATION
 VERS.                      2.00:        CWLS LOG ASCII STANDARD - VERSION 2.00
 WRAP.                        NO:        ONE LINE PER DEPTH STEP
~WELL INFORMATION
#MNEM.UNIT               DATA            INFORMATION
#----------          ------------        ------------------------------
 STRT.F                  81.0000:        START DEPTH
 STOP.F               15400.0000:        STOP DEPTH
 STEP.F                   0.5000:        STEP VALUE
 NULL.                 -999.2500:        NULL VALUE
 COMP. USGS/NPR HUSKY OIL OPERAT:        COMPANY  
 WELL.     IKPIKPUK TEST WELL #1:        WELL     
 FLD .                   WILDCAT:        FIELD    
 LOC .              25  13N  10W:        LOCATION   
 CNTY.               NORTH SLPOE:        COUNTY  
 STAT.                    ALASKA:        STATE   
 CTRY.                       USA:        COUNTRY 
 DATE.                  11/29/78:        LOG DATE 
 API .              502792000400:        UNIQUE WELL IDENTIFIER 
 OPER. USGS/NPR HUSKY OIL OPERAT:        OPERATOR  
 SRVC.              Schlumberger:        SERVICE COMPANY 
 UWI .              502792000400:        UNIQUE WELL ID 
 LAT .                    0.0000:        LATITUDE
 LON .                    0.0000:        LONGITUDE
 DIGS.          Center Line Data:        DIGITIZING COMPANY 
~CURVE INFORMATION      
#MNEM.UNIT            API CODE           CURVE DESCRIPTION
#---------          -------------        ------------------------------
 DEPT.F                         :        1  DEPTH
 SP  .MV                        :        2
 ILD .OHMM                      :        3
 ILM .OHMM                      :        4
 LL8 .OHMM                      :        5
 GR  .GAPI                      :        6
 CALI.IN                        :        7
 RHOB.G/C3                      :        8
 DRHO.G/C3                      :        9
 NPHI.%                         :       10
 DT  .US/F                      :       11
~PARAMETER INFORMATION       
#MNEM.UNIT              VALUE            DESCRIPTION OF MNEMONIC
#---------          -------------        ------------------------------
 EKB .F                  52.0000:        KELLY BUSHING
 TD  .F               15481.0000:        TOTAL DEPTH
 BHT .F                   0.0000:        BOTTOM HOLE TEMPERATURE
 BS  .                   17.5000:        BIT SIZE
 FD  .                    9.0000:        FLUID DENSITY
 CSIZ.                   30.0000:        CASING SIZE
 CBD .F                 100.0000:        CASING DRILLER 1
 CBL .F                 101.0000:        CASING LOGGER 1
 DFT .                       Gel:        TYPE FLUID IN HOLE
 DFV .                   60.0000:        VISCOSITY
 DFPH.                    8.5000:        PH
 DFL .                   18.0000:        FLUID LOSS
 RMS .                    3.7300:        RM
 MST .F                  66.0000:        RM MEAS. TEMP.
 RMF .                    4.3900:        RMF
 MFST.F                  58.0000:        RMF MEAS. TEMP.
 RMC .                    2.5000:        RMC
 MCST.F                  57.0000:        RMC MEAS. TEMP.
 UWI .              502792000400:        UNIQUE WELL ID
~OTHER INFORMATION
~A    DEPTH          SP         ILD         ILM         LL8          GR        CALI        RHOB        DRHO        NPHI          DT  
# ...
  7251.0000    -21.6308      4.9688      4.3039      7.3545    126.6136     16.3975      2.2592      0.0054     47.7365    101.1365  
  7251.5000    -21.8710      5.4861      4.5167      6.9609    126.2929     15.5010      2.2707      0.0133     46.6275    100.8484  
  7252.0000    -22.1113      6.4228      5.4026      6.5883    122.4060     14.9650      2.2531      0.0331     46.1134    102.1205  
  7252.5000    -22.3802      7.3623      6.5490      7.5113    115.5443     14.3515      2.2354      0.0462     45.6182    106.6896  
  7253.0000    -22.6559      8.2928      7.5701     12.8315    105.7708     14.3668      2.2193      0.0380     45.4628    111.7374  
  7253.5000    -22.8878      9.3410      8.7506     16.8135     93.3797     14.6539      2.1770      0.0249     44.9037    106.0206  
  7254.0000    -23.1513     10.5217     10.1150     16.8042     76.7119     15.3736      2.1820      0.0262     44.1005     96.4633  
  7254.5000    -23.2622     11.8516     11.4659     16.0930     57.0211     14.5042      2.2753      0.0082     41.7904     84.6344  
  7255.0000    -23.3110     13.1624     12.1896     15.7094     44.8882     13.6205      2.4402     -0.0038     37.3514     72.3210  
  7255.5000    -23.3187     13.9867     12.9460     15.3768     41.1035     13.5282      2.5409      0.0179     28.3499     67.6659  
  7256.0000    -23.5231     14.8625     13.7493     15.0512     39.4091     13.4448      2.5386      0.0205     22.9432     68.5034  
  7256.5000    -23.6587     15.4857     14.3543     14.7326     38.8039     13.3741      2.5323      0.0076     22.0171     69.3743  
  7257.0000    -23.6648     15.6337     14.6125     14.9460     38.9455     13.3481      2.5270      0.0006     21.7705     69.3154  
  7257.5000    -23.7216     15.7831     14.8752     15.8426     38.9604     13.4546      2.5233      0.0010     21.6827     69.0286  
  7258.0000    -23.8466     15.9260     15.1427     16.7930     38.6252     13.5206      2.5250      0.0047     21.9399     68.7711  
  7258.5000    -23.9130     15.7395     15.2567     16.7578     39.0809     13.5508      2.5263      0.0093     22.1111     68.1938  
  7259.0000    -23.8806     15.4253     15.1095     15.6171     39.3498     13.5809      2.5268      0.0138     22.1950     67.4235  
  7259.5000    -24.2733     15.0911     14.9637     15.3840     39.8189     13.6050      2.5255      0.0324     22.1653     65.3571  
  7260.0000    -24.4805     14.2174     13.7233     15.4447     40.7859     13.5574      2.5134      0.0319     21.2864     63.2898  
  7260.5000    -24.4382     12.7279     12.3531     15.1981     41.5892     13.4012      2.5102      0.0116     19.7281     62.7327  
  7261.0000    -24.2412     11.8891     11.1198     14.4532     41.4924     13.1898      2.5156      0.0024     19.0380     63.5295  
  7261.5000    -23.9507     11.1116     10.0096     10.7211     41.6975     13.0385      2.5061      0.0059     18.6797     65.8870  
  7262.0000    -23.5137     10.3849      9.2750      9.6282     42.0275     12.9750      2.4893      0.0382     19.0306     68.4461  
  7262.5000    -22.9746      9.7058      8.7608      8.7173     42.3431     12.9313      2.4601      0.0388     19.8522     71.3866  
  7263.0000    -22.7482      9.0711      8.2882      8.4951     44.5687     13.1809      2.4180      0.0532     21.2313     74.6678  
  7263.5000    -23.0367      9.1894      8.6065      8.7620     47.6444     13.6958      2.3992      0.0882     23.6926     76.9969  
  7264.0000    -22.9379      9.3108      8.9370      9.0373     49.4046     14.2515      2.3004      0.0893     26.1596     78.0265  
  7264.5000    -22.7244      9.4338      9.1076      9.3213     51.0574     14.6510      2.2803      0.0555     30.2237     78.4339  
  7265.0000    -22.6043      9.5124      9.2264      9.6142     52.1958     15.0039      2.3240      0.0481     33.2829     77.1059  
  7265.5000    -22.7311      9.5494      9.3468      9.7764     53.4214     15.0352      2.3131      0.0585     33.7908     76.7726  
  7266.0000    -23.1846      9.5664      9.3259      9.9217     54.5598     15.3873      2.2743      0.0549     32.9093     76.3407  
  7266.5000    -23.4656      9.4194      9.1133      9.9696     55.1973     16.0381      2.2359      0.0402     32.8246     76.6657  
  7267.0000    -23.4615      9.1101      8.9055      9.4540     55.8347     15.7881      2.2600      0.0348     33.0336     76.2966  
  7267.5000    -23.3545      8.8741      8.7024      9.0066     55.8104     15.4850      2.3081      0.0558     32.9598     75.7018  
  7268.0000    -23.2242      8.6443      8.5040      9.0883     55.5769     14.8288      2.3383      0.0629     31.9983     75.7264  
  7268.5000    -23.0938      8.2564      8.2693      9.1708     56.4610     14.3255      2.3397      0.0725     32.4886     76.1206  
  7269.0000    -22.9635      7.8601      8.0259      9.2541     58.7380     14.7808      2.3308      0.0895     33.7055     77.5833  
  7269.5000    -22.8331      7.3732      7.7896      8.5634     62.4003     15.2361      2.2917      0.0924     35.6172     77.7905  
  7270.0000    -22.7028      6.9165      7.0914      7.6052     68.6278     15.2329      2.2450      0.0750     36.5821     77.5338  
  7270.5000    -22.5724      6.4880      6.2035      6.4510     78.0046     14.2868      2.2305      0.0554     37.4860     78.1260  
  7271.0000    -22.4368      6.0861      5.4741      5.7995     87.6745     14.0442      2.2717      0.0529     37.5323     79.4214  
  7271.5000    -22.3223      5.4253      4.9786      5.9307    104.2333     14.8735      2.2965      0.0657     37.3619     83.7244  
  7272.0000    -22.3099      4.6717      4.5280      6.0926    118.1422     15.3632      2.2579      0.0635     38.3798     89.0664  
  7272.5000    -22.2865      4.1345      4.1182      5.8144    130.6553     14.7912      2.1972      0.0561     40.2713     94.6689  
  7273.0000    -22.1872      4.0425      3.7454      4.9556    138.7952     15.3150      2.1519      0.0482     43.1217    101.2873  
  7273.5000    -22.2134      3.8206      3.4883      4.4036    144.6964     15.3529      2.1553      0.0381     45.0668    104.8744  
  7274.0000    -22.1918      3.6109      3.4128      4.5683    149.3327     14.8878      2.1621      0.0267     44.7334    105.9662  
  7274.5000    -22.0871      3.4617      3.3390      4.9953    144.2706     15.0908      2.1832      0.0266     44.9871    106.0657  
  7275.0000    -21.9452      3.3010      3.2667      4.9670    133.7528     15.3081      2.1697      0.0404     46.4034    106.1173  
  7275.5000    -22.2314      3.2119      3.1868      4.8694    120.7321     14.9005      2.1645      0.0404     46.6971    105.7684  
  7276.0000    -22.5292      3.2112      3.1049      4.7216    108.0937     14.8783      2.1892      0.0377     46.1708    105.1616  
  7276.5000    -22.9390      3.2104      3.0250      4.5429     98.7314     14.8819      2.2382      0.0454     45.1397    104.1682  
  7277.0000    -22.9837      3.2097      3.0475      4.3744     92.4725     14.7729      2.2637      0.0509     44.6487    101.2751  
  7277.5000    -23.0416      3.2238      3.0857      4.3329     87.8285     14.2895      2.2912      0.0477     44.5505     99.3259  
  7278.0000    -23.0380      3.2701      3.1577      4.4177     85.5953     14.1791      2.3017      0.0513     44.1326     97.9442  
  7278.5000    -22.9561      3.3170      3.2334      4.5190     85.5606     14.5396      2.3080      0.0543     43.3344     96.7491  
  7279.0000    -22.7517      3.4716      3.2546      4.6050     86.7984     14.6206      2.3018      0.0458     43.4182     96.1711  
  7279.5000    -22.5473      3.6417      3.4608      4.8157     89.5453     14.3606      2.2832      0.0289     44.4064     96.5925  
  7280.0000    -22.3257      3.8202      3.6911      4.9631     93.1809     14.4776      2.2612      0.0204     44.6620     96.7225  
  7280.5000    -22.0958      4.0074      3.9367      5.0925    101.5506     14.8461      2.2420      0.0175     44.2627     98.6209  
