~VERSION INFORMATION
 VERS.                           2.00:        CWLS LOG ASCII STANDARD - VERSION 2.00
 WRAP.                             NO:        ONE LINE PER DEPTH STEP
~WELL INFORMATION
#MNEM.UNIT                   DATA             INFORMATION
#----------             --------------        ------------------------------
 STRT.F                      358.0000:        START DEPTH
 STOP.F                     8806.0000:        STOP DEPTH
 STEP.F                        0.5000:        STEP VALUE
 NULL.                      -999.2500:        NULL VALUE
 COMP.                      U.S. NAVY:        COMPANY
 LOC .                     22 17N 12W:        LOCATION
 DATE.                         4/5/77:        LOG DATE
 WELL.               SOUTH SIMPSON #1:        WELL
 UWI .                   502792000100:        UNIQUE WELL ID
 API .                   502792000100:        UNIQUE WELL IDENTIFIER
 FLD .                        WILDCAT:        FIELD
 CNTY.                    NORTH SLOPE:        COUNTY
 STAT.                         ALASKA:        STATE
 CTRY.                            USA:        COUNTRY
 OPER.                      U.S. NAVY:        OPERATOR
 SRVC.                   SCHLUMBERGER:        SERVICE COMPANY
 LAT .                         0.0000:        LATITUDE
 LON .                         0.0000:        LONGITUDE
 DIGS.               CENTER LINE DATA:        DIGITIZING COMPANY
~CURVE INFORMATION      
#MNEM        .UNIT         API CODE           CURVE DESCRIPTION
#-----------------      --------------        ------------------------------
 DEPT        .F                      :        1  DEPTH
 GR          .GAPI                   :        2  
 CALI        .IN                     :        3  
 DRHO        .G/C3                   :        4  
 RHOB        .G/C3                   :        5  
 NPHI        .%                      :        6  
 DT          .US/F                   :        7  
 SP          .MV                     :        8  
 ILD         .OHMM                   :        9  
 ILM         .OHMM                   :        10 
 LL8         .OHMM                   :        11 
~PARAMETER INFORMATION
#MNEM.UNIT                  VALUE             DESCRIPTION OF MNEMONIC
#---------             ---------------        ------------------------------
 EKB .F                       25.0000:        KELLY BUSHING
 TD  .F                     8807.0000:        TOTAL DEPTH
 BHT .F                      145.0000:        BOTTOM HOLE TEMPERATURE
 BS  .                        13.5000:        BIT SIZE
 FD  .                        10.7000:        FLUID DENSITY
 CSIZ.                        16.0000:        CASING SIZE
 CBD .F                     2175.0000:        CASING DRILLER 1
 CBL .F                     2175.0000:        CASING LOGGER 1
 DFT .                  MISCELLANEOUS:        TYPE FLUID IN HOLE
 DFV .                        47.0000:        VISCOSITY
 DFPH.                        10.5000:        PH
 DFL .                         5.0000:        FLUID LOSS
 RMS .                         2.3000:        RM
 MST .F                       60.0000:        RM MEAS. TEMP.
 RMF .                         1.5400:        RMF
 MFST.F                       54.0000:        RMF MEAS. TEMP.
 RMC .                         2.7300:        RMC
 MCST.F                       54.0000:        RMC MEAS. TEMP.
~OTHER INFORMATION
~A    DEPTH          GR        CALI        DRHO        RHOB        NPHI          DT          SP         ILD         ILM         LL8 
# ...
  8227.0000     55.8424      8.7264      0.0015      2.5253      2.5831     61.7606    -95.6001     16.0368     23.5162    264.6979 
  8227.5000     52.1618      8.7289      0.0139      2.5388      2.4277     60.8807    -96.8245     16.3764     23.6552    182.3173 
  8228.0000     49.2212      8.7226      0.0260      2.5575      2.3520     59.9387    -98.0489     16.7232     23.7950    127.7885 
  8228.5000     52.6092      8.7302      0.0324      2.5654      2.5269     61.1874    -99.1177     16.8320     23.9357    109.6953 
  8229.0000     56.5650      8.7396      0.0247      2.5352      2.7417     61.8095    -99.2034     16.9132     24.1059    112.6502 
  8229.5000     58.6526      8.7392      0.0171      2.5247      2.9636     62.2563    -99.2891     16.9948     24.7641    122.8696 
  8230.0000     54.4818      8.7289      0.0095      2.5225      3.0552     62.1984    -99.3749     17.0768     25.4403    156.5572 
  8230.5000     46.2365      8.7186      0.0042      2.5190      2.9521     62.2279    -99.3378     17.1592     25.5806    389.9271 
  8231.0000     41.4422      8.7084      0.0047      2.5204      3.0069     61.8678    -99.2111     17.2420     25.4295    815.3065 
  8231.5000     39.1966      8.6981      0.0052      2.5221      3.1547     61.6794    -99.0844     16.9494     25.2792    801.0992 
  8232.0000     36.9510      8.6878      0.0048      2.5287      3.3060     61.4775    -98.6739     16.6573     25.1089    395.3654 
  8232.5000     36.0058      8.6776      0.0036      2.5345      3.5600     61.3818    -97.7187     16.3703     24.4041    303.3760 
  8233.0000     35.7359      8.6673      0.0078      2.5398      3.7865     61.5494    -96.4151     16.0882     23.6970    299.4094 
  8233.5000     35.5939      8.6569      0.0192      2.5448      4.2071     61.6260    -95.1116     15.7980     22.0530    250.2922 
  8234.0000     36.3632      8.6466      0.0182      2.5322      4.6332     61.9507    -93.8080     15.4671     20.5231    138.1770 
  8234.5000     37.5928      8.6362      0.0180      2.5420      5.0593     62.3681    -92.5045     15.1431     19.0994     84.3250 
  8235.0000     38.8977      8.6258      0.0357      2.5504      5.4253     62.9702    -91.2009     14.8259     18.3088     71.5164 
  8235.5000     40.2026      8.6154      0.0521      2.5548      5.6401     64.4684    -89.8974     14.5154     18.1339     44.0096 
  8236.0000     41.5075      8.6051      0.0445      2.5463      6.6856     66.3095    -89.1151     14.2113     18.8002     30.5022 
  8236.5000     42.8124      8.5947      0.0279      2.5193      7.8334     66.9105    -88.7185     13.9137     20.0298     47.5499 
  8237.0000     43.3194      8.5863      0.0151      2.4921      8.1068     67.0074    -88.8651     13.6222     19.1463     67.4236 
  8237.5000     42.4542      8.5789      0.0292      2.5084      7.2198     66.6895    -89.3272     13.3369     18.1652     55.0150 
  8238.0000     41.3486      8.6033      0.0304      2.5311      6.3188     65.2746    -89.7893     13.0575     17.2401     52.2064 
  8238.5000     41.7697      8.6457      0.0082      2.4939      6.2010     65.7667    -89.8498     12.7840     16.3753     48.5381 
  8239.0000     42.5894      8.7508      0.0380      2.5289      6.1988     66.3342    -89.7448     12.5162     15.5539     45.9823 
  8239.5000     42.1025      8.8559      0.0230      2.5328      5.8664     66.9078    -89.4715     12.2540     14.7737     43.7117 
  8240.0000     39.8395      8.9610      0.0096      2.5180      5.7689     66.9073    -89.1983     11.9886     14.0326     40.2128 
  8240.5000     33.2928      8.9825      0.0101      2.5108      6.1837     67.0053    -88.7653     11.7283     13.6040     31.9712 
  8241.0000     28.5643      8.9155      0.0103      2.5035      6.5984     68.1028    -87.5630     11.4736     13.6701     27.5125 
  8241.5000     27.6128      8.8446      0.0134      2.5069      7.3634     68.4869    -86.3606     11.2244     14.0753     23.7223 
  8242.0000     28.4468      8.7738      0.0240      2.5113      7.3761     68.9872    -85.3980     10.9806     14.4925     28.7001 
  8242.5000     31.1840      8.7030      0.0302      2.5157      7.3888     69.1652    -85.0440     10.7422     14.9202     37.4370 
  8243.0000     32.8649      8.6643      0.0352      2.5251      7.4015     68.5628    -85.1108     10.5089     15.0397     44.9978 
  8243.5000     33.7650      8.6556      0.0525      2.5480      7.4141     67.3670    -85.1776     10.2807     14.9131     59.0058 
  8244.0000     34.4869      8.6470      0.0574      2.5417      7.4801     66.4839    -85.0220     10.0574     14.5090     45.6237 
  8244.5000     36.9269      8.6383      0.0736      2.5521      7.5794     65.9156    -85.7118      9.9622     13.8749     39.5519 
  8245.0000     39.3102      8.6297      0.0529      2.5446      7.7453     65.4657    -86.6382      9.9653     13.2684     36.1627 
  8245.5000     40.9612      8.6210      0.0440      2.5294      7.2877     65.0187    -87.5646      9.9684     12.6885     33.0640 
  8246.0000     39.0157      8.6320      0.0584      2.5714      4.8336     64.3364    -88.4911     10.0015     12.1856     27.8050 
  8246.5000     34.8712      8.7261      0.0433      2.5666      3.0716     64.9838    -89.0685     10.1583     12.1600     26.0626 
  8247.0000     30.9860      8.8221      0.0039      2.5309      3.0287     65.0031    -89.1638     10.3175     12.8658     31.8638 
  8247.5000     31.0228      8.9245     -0.0009      2.5166      2.9876     64.9323    -89.2592     10.4791     13.6711     45.3390 
  8248.0000     31.0537      9.0269     -0.0011      2.5380      2.9502     63.8225    -89.3545     10.8049     14.4546     54.7378 
  8248.5000     30.2649      9.1022     -0.0017      2.5483      2.9129     62.4884    -89.3073     11.1756     15.2083     67.0108 
  8249.0000     28.2005      9.0241     -0.0010      2.5528      2.8838     62.2765    -89.2005     11.5590     16.0012     72.7539 
  8249.5000     25.5229      8.9460      0.0040      2.5550      3.3712     62.3002    -89.0937     11.9556     16.8355     74.0660 
  8250.0000     22.9586      8.8592      0.0081      2.5432      3.8585     62.7279    -88.9869     12.3658     17.6719     69.5811 
  8250.5000     19.9213      8.7578      0.0116      2.5266      4.3208     63.1058    -88.8801     12.7901     18.1350     47.3224 
  8251.0000     19.2588      8.6788      0.0258      2.5233      4.4903     63.3896    -88.5548     13.2290     18.6101     42.4474 
  8251.5000     18.8073      8.6335      0.0460      2.5476      4.5871     63.6734    -87.9838     13.6300     19.0978     37.7061 
  8252.0000     18.8964      8.6077      0.0342      2.5342      4.2779     63.3511    -87.4128     13.8457     19.3979     50.1874 
  8252.5000     19.3370      8.6768      0.0393      2.5464      3.9983     62.8150    -86.8418     14.0648     19.4563     76.4204 
  8253.0000     19.6751      8.6518      0.0481      2.5628      3.7895     62.2751    -86.0696     14.2875     19.5161     77.5731 
  8253.5000     19.9583      8.6721      0.0612      2.5715      3.7400     61.7753    -85.2786     14.5620     19.8144     60.9622 
  8254.0000     20.0474      8.6885      0.0685      2.5793      3.7454     61.8098    -84.4875     15.1681     20.6757     52.7717 
  8254.5000     20.2809      8.6941      0.0735      2.5871      3.7493     62.2078    -83.6964     15.7995     22.0388     69.5151 
  8255.0000     19.8608      8.6715      0.1044      2.5949      3.6859     62.3215    -82.5761     16.4571     23.4917     88.9876 
  8255.5000     20.2505      8.6327      0.0581      2.5814      3.5283     61.7744    -81.0977     17.1420     25.0404    118.7710 
  8256.0000     21.4300      8.6177      0.0293      2.5399      3.2919     60.7776    -79.7176     17.8555     26.6912    230.8235 
  8256.5000     22.2909      8.6179      0.0272      2.5584      3.0428     60.0868    -78.4895     18.5987     28.1042    857.4681 
  8257.0000     21.6104      8.6165      0.0275      2.5585      2.7937     59.9100    -77.1324     19.2929     28.9359    657.1130 
