~VERSION INFORMATION
 VERS.                      2.00:        CWLS LOG ASCII STANDARD - VERSION 2.00
 WRAP.                        NO:        ONE LINE PER DEPTH STEP
~WELL INFORMATION
#MNEM.UNIT               DATA            INFORMATION
#----------          ------------        ------------------------------
 STRT.F                 100.0000:        START DEPTH
 STOP.F                7938.0000:        STOP DEPTH
 STEP.F                   0.5000:        STEP VALUE
 NULL.                 -999.2500:        NULL VALUE
 COMP.                          :        COMPANY  
 WELL.             DREW POINT #1:        WELL     
 FLD .                   WILDCAT:        FIELD    
 LOC .              26  18N   8W:        LOCATION   
 CNTY.               NORTH SLOPE:        COUNTY  
 STAT.                    ALASKA:        STATE   
 CTRY.                       USA:        COUNTRY 
 DATE.                   1/17/78:        LOG DATE 
 API .              500292000200:        UNIQUE WELL IDENTIFIER 
 OPER.                          :        OPERATOR  
 SRVC.              Schlumberger:        SERVICE COMPANY 
 UWI .              500292000200:        UNIQUE WELL ID 
 LAT .                    0.0000:        LATITUDE
 LON .                    0.0000:        LONGITUDE
 DIGS.          Center Line Data:        DIGITIZING COMPANY 
~CURVE INFORMATION      
#MNEM.UNIT            API CODE           CURVE DESCRIPTION
#---------          -------------        ------------------------------
 DEPT.F                         :        1  DEPTH
 SP  .MV                        :        2
 ILD .OHMM                      :        3
 ILM .OHMM                      :        4
 LL8 .OHMM                      :        5
 GR  .GAPI                      :        6
 CALI.IN                        :        7
 DRHO.G/C3                      :        8
 RHOB.G/C3                      :        9
 NPHI.%                         :       10
 DT  .US/F                      :       11
~PARAMETER INFORMATION       
#MNEM.UNIT              VALUE            DESCRIPTION OF MNEMONIC
#---------          -------------        ------------------------------
 EKB .F                  35.0000:        KELLY BUSHING
 TD  .F                7946.0000:        TOTAL DEPTH
 BHT .F                  75.0000:        BOTTOM HOLE TEMPERATURE
 BS  .                   17.5000:        BIT SIZE
 FD  .                    9.8000:        FLUID DENSITY
 CSIZ.                   20.0000:        CASING SIZE
 CBD .F                  80.0000:        CASING DRILLER 1
 CBL .F                 106.0000:        CASING LOGGER 1
 DFT .             Miscellaneous:        TYPE FLUID IN HOLE
 DFV .                   36.0000:        VISCOSITY
 DFPH.                    7.0000:        PH
 DFL .                    0.0000:        FLUID LOSS
 RMS .                    4.5200:        RM
 MST .F                  52.0000:        RM MEAS. TEMP.
 RMF .                    2.8700:        RMF
 MFST.F                  71.0000:        RMF MEAS. TEMP.
 RMC .                    3.5000:        RMC
 MCST.F                  71.0000:        RMC MEAS. TEMP.
 UWI .              500292000200:        UNIQUE WELL ID
~OTHER INFORMATION
~A    DEPTH          SP         ILD         ILM         LL8          GR        CALI        DRHO        RHOB        NPHI          DT  
# ...
   610.0000    -72.5913      4.4695      3.6169      5.0297     74.6239   -999.2500   -999.2500   -999.2500   -999.2500    178.8506  
   610.5000    -76.8784      4.4541      3.5745      5.0357     73.8214   -999.2500   -999.2500   -999.2500   -999.2500    179.3806  
   611.0000    -80.5409      4.4389      3.5403      4.9821     72.2523   -999.2500   -999.2500   -999.2500   -999.2500    179.3024  
   611.5000    -84.5975      4.3911      3.5136      4.9291     71.1536   -999.2500   -999.2500   -999.2500   -999.2500    178.9434  
   612.0000    -87.1868      4.3459      3.4791      4.8766     72.2218   -999.2500   -999.2500   -999.2500   -999.2500    177.9889  
   612.5000    -88.5897      4.3272      3.4598      4.8246     74.3432   -999.2500   -999.2500   -999.2500   -999.2500    177.2810  
   613.0000    -88.8496      4.3664      3.4480      4.8169     76.0845   -999.2500   -999.2500   -999.2500   -999.2500    177.4706  
   613.5000    -88.6130      4.4060      3.4822      4.8405     76.3605   -999.2500   -999.2500   -999.2500   -999.2500    177.8466  
   614.0000    -88.3369      4.4459      3.5915      4.9904     75.1142   -999.2500   -999.2500   -999.2500   -999.2500    178.1646  
   614.5000    -88.2558      4.4862      3.7145      5.1112     73.5824   -999.2500   -999.2500   -999.2500   -999.2500    178.2301  
   615.0000    -87.9281      4.5269      3.8419      5.2283     72.8538   -999.2500   -999.2500   -999.2500   -999.2500    177.4210  
   615.5000    -87.4356      4.3352      3.9362      5.4948     72.3319   -999.2500   -999.2500   -999.2500   -999.2500    175.1664  
   616.0000    -86.8024      4.1331      3.6705      5.5247     71.5965   -999.2500   -999.2500   -999.2500   -999.2500    171.3888  
   616.5000    -86.2793      3.9675      3.4228      5.2581     70.7777   -999.2500   -999.2500   -999.2500   -999.2500    171.4439  
   617.0000    -86.1692      3.8890      3.2030      4.8995     70.6935   -999.2500   -999.2500   -999.2500   -999.2500    172.6421  
   617.5000    -86.6069      3.8599      3.0799      4.7108     71.9053   -999.2500   -999.2500   -999.2500   -999.2500    175.3377  
   618.0000    -88.1475      3.8891      3.0251      4.5802     73.2755   -999.2500   -999.2500   -999.2500   -999.2500    179.9779  
   618.5000    -89.9951      4.1113      3.0528      4.4533     72.0663   -999.2500   -999.2500   -999.2500   -999.2500    182.5264  
   619.0000    -92.2319      4.5793      3.3276      4.6916     69.5634   -999.2500   -999.2500   -999.2500   -999.2500    178.3449  
   619.5000    -94.1921      4.9310      3.9382      5.8841     66.7610   -999.2500   -999.2500   -999.2500   -999.2500    174.2268  
   620.0000    -96.0520      5.5944      4.6073      8.5802     60.1218   -999.2500   -999.2500   -999.2500   -999.2500    171.6588  
   620.5000    -97.6147      6.8842      5.3482     10.8148     53.0938   -999.2500   -999.2500   -999.2500   -999.2500    168.6662  
   621.0000    -98.2628      8.5639      6.0580     11.3388     48.8906   -999.2500   -999.2500   -999.2500   -999.2500    167.4438  
   621.5000    -98.4796     11.8481      6.8620     11.2378     46.1325   -999.2500   -999.2500   -999.2500   -999.2500    166.3506  
   622.0000    -98.6382     15.2339      7.9700     11.6060     45.2456   -999.2500   -999.2500   -999.2500   -999.2500    163.1877  
   622.5000    -99.0654     19.4919      9.3052     12.4932     45.1266   -999.2500   -999.2500   -999.2500   -999.2500    160.0406  
   623.0000    -98.9538     21.7709     10.3556     13.9136     45.3047   -999.2500   -999.2500   -999.2500   -999.2500    155.2054  
   623.5000    -98.5331     22.5731     11.2619     14.9106     45.2051   -999.2500   -999.2500   -999.2500   -999.2500    148.7255  
   624.0000    -97.7350     24.1927     11.8807     15.3943     44.0403   -999.2500   -999.2500   -999.2500   -999.2500    147.2566  
   624.5000    -97.3001     26.4416     12.4188     15.6094     43.4532   -999.2500   -999.2500   -999.2500   -999.2500    151.3310  
   625.0000    -97.1394     28.2888     12.9379     15.3883     43.9012   -999.2500   -999.2500   -999.2500   -999.2500    160.6324  
   625.5000    -97.0631     26.3586     12.8434     14.7393     44.5991   -999.2500   -999.2500   -999.2500   -999.2500    157.8595  
   626.0000    -96.9380     21.5438     12.2934     13.4591     47.2865   -999.2500   -999.2500   -999.2500   -999.2500    158.6711  
   626.5000    -96.8129     16.2396     10.8560     12.2798     49.5952   -999.2500   -999.2500   -999.2500   -999.2500    155.5176  
   627.0000    -96.3950     12.2413      9.5866     11.2039     50.9889   -999.2500   -999.2500   -999.2500   -999.2500    162.5670  
   627.5000    -95.6043      9.3131      8.4013      9.6235     53.2830   -999.2500   -999.2500   -999.2500   -999.2500    176.5904  
   628.0000    -94.1852      8.0885      5.9911      7.8987     57.1127   -999.2500   -999.2500   -999.2500   -999.2500    176.4131  
   628.5000    -92.6116      7.0248      4.8266      6.2048     60.7780   -999.2500   -999.2500   -999.2500   -999.2500    174.2198  
   629.0000    -90.8372      6.1011      4.3717      5.5008     64.8682   -999.2500   -999.2500   -999.2500   -999.2500    171.7137  
   629.5000    -88.8476      5.2988      4.0342      5.2253     66.5698   -999.2500   -999.2500   -999.2500   -999.2500    171.4111  
   630.0000    -86.4791      4.6020      3.8300      5.1419     65.9596   -999.2500   -999.2500   -999.2500   -999.2500    173.2429  
   630.5000    -83.7322      4.0843      3.6316      5.0599     65.1633   -999.2500   -999.2500   -999.2500   -999.2500    164.2166  
   631.0000    -81.4864      3.9910      3.4435      4.9791     64.7043   -999.2500   -999.2500   -999.2500   -999.2500    167.2095  
   631.5000    -79.4554      3.8998      3.3147      4.8362     64.6622   -999.2500   -999.2500   -999.2500   -999.2500    170.1091  
   632.0000    -77.9742      3.8112      3.2354      4.3378     65.8018   -999.2500   -999.2500   -999.2500   -999.2500    171.1276  
   632.5000    -76.8093      3.7684      3.1685      4.1916     68.3060   -999.2500   -999.2500   -999.2500   -999.2500    172.3014  
   633.0000    -75.9867      3.7260      3.1316      4.1094     69.7645   -999.2500   -999.2500   -999.2500   -999.2500    172.0700  
   633.5000    -75.5119      3.6841      3.0986      4.0863     69.9652   -999.2500   -999.2500   -999.2500   -999.2500    167.7543  
   634.0000    -75.5148      3.6532      3.0889      4.1110     68.0085   -999.2500   -999.2500   -999.2500   -999.2500    173.0253  
   634.5000    -75.5685      3.6627      3.0793      4.1359     65.2908   -999.2500   -999.2500   -999.2500   -999.2500    173.7943  
   635.0000    -75.3565      3.6722      3.0697      4.1609     64.5499   -999.2500   -999.2500   -999.2500   -999.2500    173.6432  
   635.5000    -75.0513      3.6817      3.0669      4.1861     64.7044   -999.2500   -999.2500   -999.2500   -999.2500    174.2190  
   636.0000    -74.6333      3.6913      3.0908      4.2432     64.9549   -999.2500   -999.2500   -999.2500   -999.2500    175.8741  
   636.5000    -74.2101      3.7009      3.1148      4.3479     64.8927   -999.2500   -999.2500   -999.2500   -999.2500    176.7632  
   637.0000    -74.1576      3.7191      3.1390      4.4553     64.3239   -999.2500   -999.2500   -999.2500   -999.2500    177.4988  
   637.5000    -74.4880      3.8176      3.1745      4.4925     64.4184   -999.2500   -999.2500   -999.2500   -999.2500    177.8362  
   638.0000    -74.9147      3.9188      3.2384      4.5052     64.6871   -999.2500   -999.2500   -999.2500   -999.2500    177.5086  
   638.5000    -74.9690      4.0226      3.3258      4.6425     64.8015   -999.2500   -999.2500   -999.2500   -999.2500    177.2642  
   639.0000    -74.4250      4.1292      3.4215      4.8275     65.1745   -999.2500   -999.2500   -999.2500   -999.2500    176.9449  
   639.5000    -73.5587      4.2386      3.5469      4.9646     66.5047   -999.2500   -999.2500   -999.2500   -999.2500    176.3827  
