~VERSION INFORMATION
 VERS.                      2.00:        CWLS LOG ASCII STANDARD - VERSION 2.00
 WRAP.                        NO:        ONE LINE PER DEPTH STEP
~WELL INFORMATION
#MNEM.UNIT               DATA            INFORMATION
#----------          ------------        ------------------------------
 STRT.F                  81.0000:        START DEPTH
 STOP.F               15400.0000:        STOP DEPTH
 STEP.F                   0.5000:        STEP VALUE
 NULL.                 -999.2500:        NULL VALUE
 COMP. USGS/NPR HUSKY OIL OPERAT:        COMPANY  
 WELL.     IKPIKPUK TEST WELL #1:        WELL     
 FLD .                   WILDCAT:        FIELD    
 LOC .              25  13N  10W:        LOCATION   
 CNTY.               NORTH SLPOE:        COUNTY  
 STAT.                    ALASKA:        STATE   
 CTRY.                       USA:        COUNTRY 
 DATE.                  11/29/78:        LOG DATE 
 API .              502792000400:        UNIQUE WELL IDENTIFIER 
 OPER. USGS/NPR HUSKY OIL OPERAT:        OPERATOR  
 SRVC.              Schlumberger:        SERVICE COMPANY 
 UWI .              502792000400:        UNIQUE WELL ID 
 LAT .                    0.0000:        LATITUDE
 LON .                    0.0000:        LONGITUDE
 DIGS.          Center Line Data:        DIGITIZING COMPANY 
~CURVE INFORMATION      
#MNEM.UNIT            API CODE           CURVE DESCRIPTION
#---------          -------------        ------------------------------
 DEPT.F                         :        1  DEPTH
 SP  .MV                        :        2
 ILD .OHMM                      :        3
 ILM .OHMM                      :        4
 LL8 .OHMM                      :        5
 GR  .GAPI                      :        6
 CALI.IN                        :        7
 RHOB.G/C3                      :        8
 DRHO.G/C3                      :        9
 NPHI.%                         :       10
 DT  .US/F                      :       11
~PARAMETER INFORMATION       
#MNEM.UNIT              VALUE            DESCRIPTION OF MNEMONIC
#---------          -------------        ------------------------------
 EKB .F                  52.0000:        KELLY BUSHING
 TD  .F               15481.0000:        TOTAL DEPTH
 BHT .F                   0.0000:        BOTTOM HOLE TEMPERATURE
 BS  .                   17.5000:        BIT SIZE
 FD  .                    9.0000:        FLUID DENSITY
 CSIZ.                   30.0000:        CASING SIZE
 CBD .F                 100.0000:        CASING DRILLER 1
 CBL .F                 101.0000:        CASING LOGGER 1
 DFT .                       Gel:        TYPE FLUID IN HOLE
 DFV .                   60.0000:        VISCOSITY
 DFPH.                    8.5000:        PH
 DFL .                   18.0000:        FLUID LOSS
 RMS .                    3.7300:        RM
 MST .F                  66.0000:        RM MEAS. TEMP.
 RMF .                    4.3900:        RMF
 MFST.F                  58.0000:        RMF MEAS. TEMP.
 RMC .                    2.5000:        RMC
 MCST.F                  57.0000:        RMC MEAS. TEMP.
 UWI .              502792000400:        UNIQUE WELL ID
~OTHER INFORMATION
~A    DEPTH          SP         ILD         ILM         LL8          GR        CALI        RHOB        DRHO        NPHI          DT  
# ...
 15381.0000   -999.2500    299.3093   1709.2158   1424.6298     28.2400      6.3991      2.6779      0.0640     -0.8489     51.2881  
 15381.5000   -999.2500    349.5375   1671.0917   1439.2480     52.5479      6.4077      2.6788      0.0783     -0.8603     47.9008  
 15382.0000   -999.2500    462.5353   1693.7374   1453.0643     99.8578      6.4203      2.6939      0.0945     -0.8619     44.5134  
 15382.5000   -999.2500    495.5733   1727.9861   1457.2087   -999.2500      6.4108      2.7007      0.1095     -0.8532     43.4271  
 15383.0000   -999.2500    489.2186   1778.3683   1458.5197   -999.2500      6.3871      2.6939      0.0970     -0.8865     48.4549  
 15383.5000   -999.2500    451.3254   1819.1934   1463.0338   -999.2500      6.3634      2.6817      0.0846     -0.8875     46.4226  
 15384.0000   -999.2500    459.1138   1812.7761   1462.7487   -999.2500      6.3397      2.6725      0.0733     -0.9314     45.1778  
 15384.5000   -999.2500    487.0204   1779.8733   1457.0703   -999.2500      6.3160      2.6653      0.0644     -0.9376     47.4449  
 15385.0000   -999.2500    528.5019   1726.5106   1449.6844   -999.2500      6.3606      2.6729      0.0556     -0.9612     49.7120  
 15385.5000   -999.2500    525.3445   1691.4116   1427.6503   -999.2500      6.4109      2.6872      0.0459     -1.0288     49.8804  
 15386.0000   -999.2500    504.1295   1673.6357   1402.0240   -999.2500      6.4613      2.6677      0.0264     -1.0886     53.6498  
 15386.5000   -999.2500    501.1345   1658.6453   1392.3473   -999.2500      6.5897      2.6523      0.0283     -1.1487     54.4217  
 15387.0000   -999.2500    499.8886   1616.9403   1377.6456   -999.2500      6.6611      2.6438      0.0334     -1.3568     53.6400  
 15387.5000   -999.2500    492.0384   1563.2412   1215.8282   -999.2500      6.6337      2.6323      0.0316     -1.6362     53.6427  
 15388.0000   -999.2500    463.9778   1588.1796   1193.9072   -999.2500      6.6063      2.6293      0.0525     -2.0337     53.6454  
 15388.5000   -999.2500    453.5683   1624.3060   1393.2120   -999.2500      6.5999      2.6475      0.0823     -2.5649     52.8877  
 15389.0000   -999.2500    450.8249   1661.2543   1449.9773   -999.2500      6.6167      2.6562      0.0902     -3.1831     48.8511  
 15389.5000   -999.2500   -999.2500   -999.2500   -999.2500   -999.2500      6.6334      2.6673      0.0957     -3.8363     44.2187  
 15390.0000   -999.2500   -999.2500   -999.2500   -999.2500   -999.2500      6.6596      2.6709      0.1053     -4.1618     39.5863  
 15390.5000   -999.2500   -999.2500   -999.2500   -999.2500   -999.2500      6.7351      2.6719      0.0971     -4.2158     39.8454  
 15391.0000   -999.2500   -999.2500   -999.2500   -999.2500   -999.2500      6.8105      2.6781      0.1083     -4.2136     39.3033  
 15391.5000   -999.2500   -999.2500   -999.2500   -999.2500   -999.2500      6.7710      2.7062      0.1207     -4.2111     38.9786  
 15392.0000   -999.2500   -999.2500   -999.2500   -999.2500   -999.2500      6.7273      2.6926      0.1094     -4.2121     39.3924  
 15392.5000   -999.2500   -999.2500   -999.2500   -999.2500   -999.2500      6.6848      2.6795      0.0874     -4.2076     49.2759  
 15393.0000   -999.2500   -999.2500   -999.2500   -999.2500   -999.2500      6.6423      2.6727      0.0676     -4.2127     47.5539  
 15393.5000   -999.2500   -999.2500   -999.2500   -999.2500   -999.2500      6.5999      2.6657      0.0530     -4.2026     45.8319  
 15394.0000   -999.2500   -999.2500   -999.2500   -999.2500   -999.2500      6.5810      2.6526      0.0420     -4.2071     46.9595  
 15394.5000   -999.2500   -999.2500   -999.2500   -999.2500   -999.2500      6.5708      2.6403      0.0318     -4.2204   -999.2500  
 15395.0000   -999.2500   -999.2500   -999.2500   -999.2500   -999.2500      6.5607      2.6377      0.0290     -4.2223   -999.2500  
 15395.5000   -999.2500   -999.2500   -999.2500   -999.2500   -999.2500      6.5514      2.6365      0.0338     -4.2309   -999.2500  
 15396.0000   -999.2500   -999.2500   -999.2500   -999.2500   -999.2500      6.5422      2.6503      0.0592     -4.2463   -999.2500  
 15396.5000   -999.2500   -999.2500   -999.2500   -999.2500   -999.2500      6.5330      2.6673      0.0765     -4.2639   -999.2500  
 15397.0000   -999.2500   -999.2500   -999.2500   -999.2500   -999.2500      6.5471      2.6735      0.0850     -4.2776   -999.2500  
 15397.5000   -999.2500   -999.2500   -999.2500   -999.2500   -999.2500      6.5675      2.6750      0.0917     -4.2697   -999.2500  
 15398.0000   -999.2500   -999.2500   -999.2500   -999.2500   -999.2500      6.6693      2.6833      0.1107     -4.2838   -999.2500  
 15398.5000   -999.2500   -999.2500   -999.2500   -999.2500   -999.2500      6.7711      2.6762      0.1008     -4.3106   -999.2500  
 15399.0000   -999.2500   -999.2500   -999.2500   -999.2500   -999.2500      6.9246      2.6631      0.0934     -4.3406   -999.2500  
 15399.5000   -999.2500   -999.2500   -999.2500   -999.2500   -999.2500      7.0711      2.6431      0.0700     -4.3960   -999.2500  
 15400.0000   -999.2500   -999.2500   -999.2500   -999.2500   -999.2500      7.2172      2.6257      0.0593     -4.4544   -999.2500  
