~VERSION INFORMATION
 VERS.                           2.00:        CWLS LOG ASCII STANDARD - VERSION 2.00
 WRAP.                             NO:        ONE LINE PER DEPTH STEP
~WELL INFORMATION
#MNEM.UNIT                   DATA             INFORMATION
#----------             --------------        ------------------------------
 STRT.F                      358.0000:        START DEPTH
 STOP.F                     8806.0000:        STOP DEPTH
 STEP.F                        0.5000:        STEP VALUE
 NULL.                      -999.2500:        NULL VALUE
 COMP.                      U.S. NAVY:        COMPANY
 LOC .                     22 17N 12W:        LOCATION
 DATE.                         4/5/77:        LOG DATE
 WELL.               SOUTH SIMPSON #1:        WELL
 UWI .                   502792000100:        UNIQUE WELL ID
 API .                   502792000100:        UNIQUE WELL IDENTIFIER
 FLD .                        WILDCAT:        FIELD
 CNTY.                    NORTH SLOPE:        COUNTY
 STAT.                         ALASKA:        STATE
 CTRY.                            USA:        COUNTRY
 OPER.                      U.S. NAVY:        OPERATOR
 SRVC.                   SCHLUMBERGER:        SERVICE COMPANY
 LAT .                         0.0000:        LATITUDE
 LON .                         0.0000:        LONGITUDE
 DIGS.               CENTER LINE DATA:        DIGITIZING COMPANY
~CURVE INFORMATION      
#MNEM        .UNIT         API CODE           CURVE DESCRIPTION
#-----------------      --------------        ------------------------------
 DEPT        .F                      :        1  DEPTH
 GR          .GAPI                   :        2  
 CALI        .IN                     :        3  
 DRHO        .G/C3                   :        4  
 RHOB        .G/C3                   :        5  
 NPHI        .%                      :        6  
 DT          .US/F                   :        7  
 SP          .MV                     :        8  
 ILD         .OHMM                   :        9  
 ILM         .OHMM                   :        10 
 LL8         .OHMM                   :        11 
~PARAMETER INFORMATION
#MNEM.UNIT                  VALUE             DESCRIPTION OF MNEMONIC
#---------             ---------------        ------------------------------
 EKB .F                       25.0000:        KELLY BUSHING
 TD  .F                     8807.0000:        TOTAL DEPTH
 BHT .F                      145.0000:        BOTTOM HOLE TEMPERATURE
 BS  .                        13.5000:        BIT SIZE
 FD  .                        10.7000:        FLUID DENSITY
 CSIZ.                        16.0000:        CASING SIZE
 CBD .F                     2175.0000:        CASING DRILLER 1
 CBL .F                     2175.0000:        CASING LOGGER 1
 DFT .                  MISCELLANEOUS:        TYPE FLUID IN HOLE
 DFV .                        47.0000:        VISCOSITY
 DFPH.                        10.5000:        PH
 DFL .                         5.0000:        FLUID LOSS
 RMS .                         2.3000:        RM
 MST .F                       60.0000:        RM MEAS. TEMP.
 RMF .                         1.5400:        RMF
 MFST.F                       54.0000:        RMF MEAS. TEMP.
 RMC .                         2.7300:        RMC
 MCST.F                       54.0000:        RMC MEAS. TEMP.
~OTHER INFORMATION
~A    DEPTH          GR        CALI        DRHO        RHOB        NPHI          DT          SP         ILD         ILM         LL8 
# ...
  6580.0000     58.6280     14.9847      0.0465      2.5255     20.0125     73.9160    -51.3543      6.1144      7.7361     14.8386 
  6580.5000     58.7168     14.7211      0.0621      2.5156     20.1708     77.1254    -51.4106      7.1674      8.6522     13.7145 
  6581.0000     58.9239     14.6331      0.0539      2.5049     20.5008     77.7421    -50.5382      8.4018      9.1367     12.4812 
  6581.5000     60.0673     14.6229      0.0619      2.5108     21.1105     78.8999    -49.9748      8.6416      9.6483     11.6896 
  6582.0000     63.1424     14.6266      0.0488      2.5200     21.9829     80.4786    -49.4676      8.4301      9.6942     10.9340 
  6582.5000     66.4040     14.6302      0.0461      2.5556     22.9222     81.5124    -48.9941      8.2238      9.5085     10.2524 
  6583.0000     69.2171     14.6339      0.0750      2.5912     24.8094     81.8155    -48.6912      8.1420      9.3553     10.0356 
  6583.5000     74.4764     14.6375      0.0850      2.6252     26.8590     82.3585    -48.7704      8.2008      9.2775      9.8233 
  6584.0000     78.0840     14.6411      0.0750      2.6746     31.0800     81.8294    -49.0705      8.4476      9.2286      9.7666 
  6584.5000     81.6915     14.6448      0.1285      2.7642     36.4490     80.9582    -49.3469      8.7116      9.3618      9.7605 
  6585.0000     84.0913     14.6484      0.1877      2.7903     39.7643     80.2092    -49.5276      9.3062      9.9121      9.8046 
  6585.5000     82.4807     14.6520      0.2088      2.7834     41.0873     79.3318    -49.6769      9.9413     10.5093     10.2816 
  6586.0000     81.8628     14.6557      0.1622      2.7553     41.5034     78.7031    -49.6401     10.6198     11.1425     11.0742 
  6586.5000     82.8992     14.6593      0.0972      2.7612     41.8562     77.9960    -49.7340     11.2826     11.8137     11.9237 
  6587.0000     83.9007     14.6601      0.1113      2.8057     42.0141     76.0483    -49.7046     11.9339     12.5255     12.5589 
  6587.5000     83.9040     14.6581      0.0997      2.8089     42.0453     74.5770    -49.7713     12.3239     13.2801     14.3768 
  6588.0000     80.3058     14.6561      0.0494      2.7617     40.5024     94.9513    -49.8910     12.7266     14.0632     16.2160 
  6588.5000     75.2658     14.6541     -0.0018      2.6728     37.7710     74.7767    -49.9321     13.1424     14.2877     17.9471 
  6589.0000     70.2259     14.6521     -0.0085      2.6252     34.5361     75.0125    -49.7838     12.8136     14.4040     18.3670 
  6589.5000     64.4894     14.6501      0.0015      2.5777     31.3969     75.5077    -49.6561     12.0750     13.9556     15.8586 
  6590.0000     55.9991     14.6746      0.0105      2.5336     28.2101     76.9192    -48.7938     11.3790     13.0773     13.4921 
  6590.5000     58.4067     14.7039      0.0168      2.4897     24.3570     78.4597    -49.0688     10.7231     12.2543     12.3862 
  6591.0000     59.6065     14.7333      0.0161      2.4730     21.6067     92.7814    -48.6962     10.1050     11.4830     11.9252 
  6591.5000     60.6776     14.7627      0.0264      2.4888     20.2435     83.3540    -48.1376      9.5225     10.7604     11.4814 
  6592.0000     61.4400     14.7963      0.0198      2.4879     19.5746     80.4437    -47.5955      8.9736     10.2605     10.9447 
  6592.5000     62.1747     14.8395      0.0269      2.4800     19.0333     81.4960    -46.9570      8.5300      9.8176     10.4111 
  6593.0000     63.3043     14.8826      0.0446      2.4800     18.7945     82.3645    -46.4061      8.3887      9.3938      9.8356 
  6593.5000     63.8863     14.9258      0.0728      2.4925     18.7241     82.5998    -45.7419      8.2497      8.9883      9.2646 
  6594.0000     64.3487     14.9768      0.0883      2.5050     18.4621     82.7337    -45.1365      8.1645      8.7078      8.8209 
  6594.5000     64.8111     14.9940      0.0636      2.5004     18.0389     82.6278    -44.5452      8.1540      8.6376      8.5908 
  6595.0000     64.3216     15.0112      0.0441      2.4811     17.6158     82.2750    -44.1308      8.1611      8.6388      8.5623 
  6595.5000     63.7993     15.0284      0.0293      2.4679     17.0699     82.1805    -43.8745      8.1960      8.6815      8.5348 
  6596.0000     61.7616     15.0456      0.0145      2.4616     16.6047     82.3477    -43.8767      8.2309      8.7854      8.5238 
  6596.5000     60.3763     15.0478      0.0133      2.4645     16.1722     82.8626    -44.0237      8.2807      8.8963      8.5350 
  6597.0000     60.2111     15.0317      0.0111      2.4735     15.8003     83.2301    -44.1706      8.5090      9.0086      8.5818 
  6597.5000     60.5939     14.9930      0.0090      2.4749     15.6458     82.8317    -44.2593      8.7437      9.1224      8.8244 
  6598.0000     62.9395     14.9267      0.0047      2.4812     15.7485     81.6162    -44.3569      8.9691      9.2376      9.1903 
  6598.5000     65.2725     14.8605      0.0095      2.4878     15.9782     79.8072    -44.4368      9.0823      9.3542      9.5672 
  6599.0000     66.5647     14.7942      0.0131      2.4944     16.4396     79.3036    -44.2583      9.1928      9.4594      9.9596 
  6599.5000     67.0510     14.7645      0.0061      2.4897     16.6936     78.9527    -43.9886      9.2325      9.5001     10.3681 
  6600.0000     66.3762     14.7548      0.0126      2.4899     16.7485     78.9980    -43.3404      9.2723      9.5411     10.6519 
  6600.5000     65.7014     14.7664      0.0282      2.4989     16.9529     79.7491    -42.7124      9.2453      9.5160     10.7685 
  6601.0000     65.0267     14.7868      0.0711      2.5085     17.1834     80.6029    -42.4928      9.1750      9.4444     10.3480 
  6601.5000     64.5056     14.8073      0.1116      2.5181     17.9669     82.1160    -42.2732      9.0679      9.3734     10.0469 
  6602.0000     64.6908     14.8278      0.1398      2.5092     17.7967     80.6841    -41.9086      8.9393      9.3029      9.9517 
  6602.5000     64.8760     14.8482      0.1084      2.4903     17.5224     79.8923    -41.2881      8.8125      9.2329      9.8574 
  6603.0000     65.0612     14.8654      0.0601      2.4715     17.6495     79.4245    -40.9838      8.6876      9.1635      9.7640 
  6603.5000     65.4170     14.8819      0.0266      2.4787     17.8752     81.0110    -40.7212      8.5644      9.0945      9.6715 
  6604.0000     66.8176     14.8984      0.0314      2.5394     18.4139     82.2075    -40.4027      8.4429      9.0261      9.5798 
  6604.5000     68.2379     14.9149      0.0486      2.5869     19.3504     80.9512    -40.0760      8.3305      8.9582      9.4847 
  6605.0000     69.6582     14.9303      0.0473      2.5904     19.5875     81.4034    -39.9354      8.2356      8.8909      9.3652 
  6605.5000     71.0784     14.9425      0.0384      2.5693     20.4144     81.5943    -39.6888      8.1417      8.7367      9.2471 
  6606.0000     72.4987     14.9548      0.0226      2.5482     21.3554     81.3085    -39.5771      8.0489      8.5007      9.1306 
  6606.5000     73.5213     14.9670      0.0193      2.5417     22.2368     80.9831    -39.5633      7.9571      8.2710      8.9550 
  6607.0000     74.2616     14.9529      0.0348      2.5655     22.9807     81.1216    -39.6311      7.7856      8.0476      8.7414 
  6607.5000     75.0019     14.9468      0.0435      2.6096     23.5337     81.6550    -39.7289      7.5753      7.8302      8.5449 
  6608.0000     75.7423     14.9530      0.0417      2.6380     23.9414     82.3614    -39.8440      7.3706      7.6186      8.4283 
  6608.5000     76.4826     14.9600      0.0347      2.6474     23.4996     82.9771    -39.9038      7.1715      7.4128      8.3133 
  6609.0000     76.9056     14.9404      0.0300      2.6349     22.5863     82.8022    -39.8085      6.9777      7.2125      8.1999 
  6609.5000     76.9529     14.9321      0.0280      2.6151     21.5625     82.0205    -39.6740      6.7658      7.0099      8.0242 
  6610.0000     77.0003     14.9361      0.0436      2.5906     20.8851     80.1111    -39.1790      6.5383      6.7745      7.5718 
