~VERSION INFORMATION
 VERS.                      2.00:        CWLS LOG ASCII STANDARD - VERSION 2.00
 WRAP.                        NO:        ONE LINE PER DEPTH STEP
~WELL INFORMATION
#MNEM.UNIT               DATA            INFORMATION
#----------          ------------        ------------------------------
 STRT.F                  92.0000:        START DEPTH
 STOP.F                7738.0000:        STOP DEPTH
 STEP.F                   0.5000:        STEP VALUE
 NULL.                 -999.2500:        NULL VALUE
 COMP.                      13.5:        COMPANY  
 WELL.           EAST SIMPSON #1:        WELL     
 FLD .                   WILDCAT:        FIELD    
 LOC .              18  18N  10W:        LOCATION   
 CNTY.                  N. SLPOE:        COUNTY  
 STAT.                    ALASKA:        STATE   
 CTRY.                       USA:        COUNTRY 
 DATE.                   2/22/79:        LOG DATE 
 API .              502792000500:        UNIQUE WELL IDENTIFIER 
 OPER.                      13.5:        OPERATOR  
 SRVC.              Schlumberger:        SERVICE COMPANY 
 UWI .              502792000500:        UNIQUE WELL ID 
 LAT .                    0.0000:        LATITUDE
 LON .                    0.0000:        LONGITUDE
 DIGS.          Center Line Data:        DIGITIZING COMPANY 
~CURVE INFORMATION      
#MNEM.UNIT            API CODE           CURVE DESCRIPTION
#---------          -------------        ------------------------------
 DEPT.F                         :        1  DEPTH
 SP  .MV                        :        2
 ILD .OHMM                      :        3
 ILM .OHMM                      :        4
 LL8 .OHMM                      :        5
 CALI.IN                        :        6
 GR  .GAPI                      :        7
 DRHO.G/C3                      :        8
 RHOB.G/C3                      :        9
 NPHI.%                         :       10
 DT  .US/F                      :       11
~PARAMETER INFORMATION       
#MNEM.UNIT              VALUE            DESCRIPTION OF MNEMONIC
#---------          -------------        ------------------------------
 EKB .F                  30.0000:        KELLY BUSHING
 TD  .F                   0.0000:        TOTAL DEPTH
 BHT .F                   0.0000:        BOTTOM HOLE TEMPERATURE
 BS  .                   17.5000:        BIT SIZE
 FD  .                   10.2000:        FLUID DENSITY
 CSIZ.                   20.0000:        CASING SIZE
 CBD .F                  90.0000:        CASING DRILLER 1
 CBL .F                  92.0000:        CASING LOGGER 1
 DFT .                       Gel:        TYPE FLUID IN HOLE
 DFV .                   70.0000:        VISCOSITY
 DFPH.                    8.0000:        PH
 DFL .                   12.0000:        FLUID LOSS
 RMS .                    3.6000:        RM
 MST .F                  75.0000:        RM MEAS. TEMP.
 RMF .                    2.2100:        RMF
 MFST.F                  75.0000:        RMF MEAS. TEMP.
 RMC .                    2.1600:        RMC
 MCST.F                  75.0000:        RMC MEAS. TEMP.
 UWI .              502792000500:        UNIQUE WELL ID
~OTHER INFORMATION
~A    DEPTH          SP         ILD         ILM         LL8        CALI          GR        DRHO        RHOB        NPHI          DT  
# ...
  3152.0000    -27.4266      6.9883      5.9783      7.7098     20.0052     73.4953      0.1046      2.3339     34.3307    104.2204  
  3152.5000    -27.0419      7.0490      6.0432      7.7567     20.0051     73.2908      0.0983      2.3224     35.9162    103.2203  
  3153.0000    -26.9782      7.1063      6.0943      7.8039     20.0050     73.4595      0.0975      2.3171     39.5732    103.0091  
  3153.5000    -26.7283      7.1329      6.1459      7.8515     20.0050     72.7226      0.0972      2.3186     40.3632    102.8244  
  3154.0000    -26.9322      7.1595      6.1538      7.8088     20.0049     73.0481      0.0984      2.3199     39.7489    102.3303  
  3154.5000    -27.0277      7.1863      6.1575      7.7461     20.0048     74.8149      0.1090      2.3197     39.5744    101.1523  
  3155.0000    -26.6350      7.1685      6.1881      7.6839     20.0047     77.1215      0.1085      2.3248     39.3620    101.7037  
  3155.5000    -26.4569      7.0353      6.0806      7.5957     20.0047     76.4223      0.0853      2.3080     39.3649    104.2574  
  3156.0000    -26.5918      6.9045      5.8317      7.3450     20.0046     73.9937      0.0891      2.3130     38.9052    107.7929  
  3156.5000    -26.7613      6.7761      5.5794      7.1026     20.0045     73.0607      0.0964      2.3268     39.1822    110.6683  
  3157.0000    -26.8079      6.6502      5.3928      6.8682     20.0044     77.3120      0.1030      2.3278     42.1336    111.3707  
  3157.5000    -26.6248      6.5617      5.2753      6.7766     20.0044     77.4854      0.1072      2.3046     42.4792    111.6549  
  3158.0000    -26.6104      6.4759      5.2459      6.7679     20.0043     72.8011      0.0786      2.2710     42.3331    112.9228  
  3158.5000    -26.3808      6.3913      5.1365      6.7592     20.0042     70.9675      0.0756      2.2561     42.9156    114.1648  
  3159.0000    -26.1982      6.4148      5.1425      6.7505     20.0041     70.9173      0.0717      2.2439     43.6361    114.1473  
  3159.5000    -26.0583      6.5124      5.1951      6.7418     20.0041     70.6735      0.0887      2.2565     43.3383    112.4662  
  3160.0000    -25.9362      6.6115      5.3728      6.7331     20.0040     70.6990      0.1181      2.2847     42.8223    107.5724  
  3160.5000    -25.7516      6.7121      5.5198      6.8268     20.0039     70.7105      0.1176      2.2883     41.8984    105.4149  
  3161.0000    -25.4637      6.7870      5.5926      6.9399     20.0038     73.0321      0.1336      2.3004     40.3491    108.2283  
  3161.5000    -25.3947      6.7838      5.5530      7.0548     20.0101     73.7924      0.1599      2.3082     37.3304    112.8743  
  3162.0000    -25.3257      6.7807      5.4763      7.1537     20.1281     73.6763      0.1443      2.2850     36.9725    115.8298  
  3162.5000    -25.3666      6.7776      5.3966      7.2084     20.0978     72.4794      0.1292      2.2702     39.7567    113.9949  
  3163.0000    -25.4776      6.6208      5.4196      7.0918     20.0675     72.7459      0.1163      2.2503     42.7277    111.8937  
  3163.5000    -25.2496      6.4936      5.4132      6.9770     20.0466     74.1215      0.1227      2.2580     43.0166    111.1299  
  3164.0000    -25.0683      6.4400      5.3535      6.8641     20.0239     77.9728      0.1378      2.2807     43.9835    113.0904  
  3164.5000    -25.0733      6.3868      5.2099      6.7530     19.9927     81.0911      0.1551      2.2983     45.1515    114.5782  
  3165.0000    -25.0855      6.3340      5.0598      6.6437     19.9467     81.3471      0.1548      2.2978     47.0668    114.8276  
  3165.5000    -25.2611      6.2817      4.8997      6.5362     19.8860     79.4071      0.1503      2.2965     46.0266    114.7156  
  3166.0000    -25.4367      6.2298      4.7405      6.4304     19.8379     77.0169      0.1261      2.2659     43.3722    113.6763  
  3166.5000    -25.3976      6.1784      4.7399      6.3469     19.8344     75.2455      0.1043      2.2560     41.0925    110.8096  
  3167.0000    -25.2879      6.1273      4.7142      6.2913     19.9020     74.8117      0.1148      2.2722     39.8626    109.1029  
  3167.5000    -25.1531      6.0767      4.6921      6.2362     20.0345     76.1349      0.1225      2.2769     40.3384    109.9660  
  3168.0000    -25.5317      6.0265      4.6902      6.1923     20.1582     76.5706      0.1208      2.2521     41.1291    112.5096  
  3168.5000    -25.8431      5.9768      4.6929      6.2640     20.0909     73.9237      0.1279      2.2682     41.5600    115.0506  
  3169.0000    -25.9774      6.0709      4.7327      6.3366     19.9558     69.5705      0.1535      2.2794     40.9176    116.3667  
  3169.5000    -26.1315      6.1784      4.8731      6.4100     19.8959     69.0323      0.1485      2.2790     39.5558    114.7789  
  3170.0000    -26.4841      6.2877      5.1446      6.4558     20.0778     69.5359      0.1449      2.2633     40.0264    113.0709  
  3170.5000    -26.7247      6.4944      5.4313      6.5563     20.0858     69.3235      0.1459      2.2740     42.8264    109.0833  
  3171.0000    -26.3753      6.7838      5.7397      7.2688     20.0083     68.5962      0.1589      2.2690     43.0191    102.6692  
  3171.5000    -26.1379      7.0860      6.0494      8.0588     20.0067     69.2643      0.1619      2.2548     42.4854     97.9283  
  3172.0000    -25.9156      7.3166      6.1624      8.1584     20.0051     71.1905      0.1530      2.2360     36.7828     97.7168  
  3172.5000    -25.7283      7.4012      6.3051      7.9575     20.0035     71.4052      0.1450      2.2056     35.8375     98.9970  
  3173.0000    -25.6414      7.4868      6.4863      8.0096     20.0020     71.7541      0.1385      2.1990     37.2987    101.5492  
  3173.5000    -25.7230      7.5734      6.6017      8.2043     20.0004     73.6389      0.1387      2.1917     40.5670    103.6259  
  3174.0000    -25.7271      7.6610      6.6168      8.4038     19.9988     73.0440      0.1512      2.1714     43.9552    102.8274  
  3174.5000    -25.7081      7.6582      6.6678      8.5381     19.9972     71.1899      0.1407      2.1710     41.9419    101.9219  
  3175.0000    -25.6942      7.6440      6.7237      8.4967     19.9956     74.3260      0.1442      2.1770     38.7902    101.3745  
  3175.5000    -25.6992      7.6298      6.7625      8.4555     19.9940     73.9301      0.1214      2.1505     38.8577     99.9377  
  3176.0000    -25.6252      7.6156      6.7463      8.4144     19.9924     71.3120      0.1305      2.1511     39.5760     99.6144  
  3176.5000    -25.4037      7.6014      6.7302      8.2186     19.9908     69.8518      0.1514      2.1544     39.6253    101.2551  
  3177.0000    -25.1821      7.6037      6.7142      8.0168     19.9892     68.5353      0.1624      2.1635     37.8348    102.8966  
  3177.5000    -25.0617      7.6160      6.6981      7.8201     19.9876     66.1038      0.1679      2.1664     36.2151    103.7216  
  3178.0000    -25.2508      7.6282      6.7483      8.0379     19.9860     64.3296      0.1476      2.1465     36.0705    102.9492  
  3178.5000    -25.4462      7.6405      6.8132      8.3025     19.9844     62.1919      0.1431      2.1417     36.0387     99.9355  
  3179.0000    -25.2619      7.6528      6.8787      8.4613     19.9828     61.1656      0.1532      2.1527     36.9089     96.9429  
  3179.5000    -24.8817      7.6651      6.9371      8.5665     19.9812     64.1113      0.1449      2.1461     37.9538     94.9559  
  3180.0000    -24.5632      7.6774      6.9527      8.6730     19.9797     66.6179      0.1441      2.1469     38.2528     92.4605  
  3180.5000    -24.3892      7.7252      6.9682      8.5562     19.9781     70.0912      0.1462      2.1373     38.5050     90.2680  
  3181.0000    -24.4828      7.8186      6.9271      8.3845     19.9765     72.8079      0.1365      2.1191     40.2055     90.2832  
  3181.5000    -24.6936      7.8996      6.7365      8.2163     19.9749     73.5345      0.1258      2.1022     39.2725     92.8913  
