~VERSION INFORMATION
 VERS.                      2.00:        CWLS LOG ASCII STANDARD - VERSION 2.00
 WRAP.                        NO:        ONE LINE PER DEPTH STEP
~WELL INFORMATION
#MNEM.UNIT               DATA            INFORMATION
#----------          ------------        ------------------------------
 STRT.F                 100.0000:        START DEPTH
 STOP.F                7938.0000:        STOP DEPTH
 STEP.F                   0.5000:        STEP VALUE
 NULL.                 -999.2500:        NULL VALUE
 COMP.                          :        COMPANY  
 WELL.             DREW POINT #1:        WELL     
 FLD .                   WILDCAT:        FIELD    
 LOC .              26  18N   8W:        LOCATION   
 CNTY.               NORTH SLOPE:        COUNTY  
 STAT.                    ALASKA:        STATE   
 CTRY.                       USA:        COUNTRY 
 DATE.                   1/17/78:        LOG DATE 
 API .              500292000200:        UNIQUE WELL IDENTIFIER 
 OPER.                          :        OPERATOR  
 SRVC.              Schlumberger:        SERVICE COMPANY 
 UWI .              500292000200:        UNIQUE WELL ID 
 LAT .                    0.0000:        LATITUDE
 LON .                    0.0000:        LONGITUDE
 DIGS.          Center Line Data:        DIGITIZING COMPANY 
~CURVE INFORMATION      
#MNEM.UNIT            API CODE           CURVE DESCRIPTION
#---------          -------------        ------------------------------
 DEPT.F                         :        1  DEPTH
 SP  .MV                        :        2
 ILD .OHMM                      :        3
 ILM .OHMM                      :        4
 LL8 .OHMM                      :        5
 GR  .GAPI                      :        6
 CALI.IN                        :        7
 DRHO.G/C3                      :        8
 RHOB.G/C3                      :        9
 NPHI.%                         :       10
 DT  .US/F                      :       11
~PARAMETER INFORMATION       
#MNEM.UNIT              VALUE            DESCRIPTION OF MNEMONIC
#---------          -------------        ------------------------------
 EKB .F                  35.0000:        KELLY BUSHING
 TD  .F                7946.0000:        TOTAL DEPTH
 BHT .F                  75.0000:        BOTTOM HOLE TEMPERATURE
 BS  .                   17.5000:        BIT SIZE
 FD  .                    9.8000:        FLUID DENSITY
 CSIZ.                   20.0000:        CASING SIZE
 CBD .F                  80.0000:        CASING DRILLER 1
 CBL .F                 106.0000:        CASING LOGGER 1
 DFT .             Miscellaneous:        TYPE FLUID IN HOLE
 DFV .                   36.0000:        VISCOSITY
 DFPH.                    7.0000:        PH
 DFL .                    0.0000:        FLUID LOSS
 RMS .                    4.5200:        RM
 MST .F                  52.0000:        RM MEAS. TEMP.
 RMF .                    2.8700:        RMF
 MFST.F                  71.0000:        RMF MEAS. TEMP.
 RMC .                    3.5000:        RMC
 MCST.F                  71.0000:        RMC MEAS. TEMP.
 UWI .              500292000200:        UNIQUE WELL ID
~OTHER INFORMATION
~A    DEPTH          SP         ILD         ILM         LL8          GR        CALI        DRHO        RHOB        NPHI          DT  
# ...
  4780.0000    -29.1267      4.6469      4.5467      4.7116    106.7462     13.0799      0.1145      2.3321     52.7219    106.3155  
  4780.5000    -29.1143      4.6207      4.5638      4.7124    105.9110     13.0703      0.1224      2.3378     49.8588    104.6637  
  4781.0000    -28.9504      4.5947      4.5810      4.7132    106.9705     13.0661      0.1070      2.3443     48.8470    103.4495  
  4781.5000    -28.7847      4.5689      4.5983      4.7140    110.3802     13.0846      0.0922      2.3448     48.6870    102.4745  
  4782.0000    -28.6069      4.5432      4.6156      4.6749    111.3897     13.1773      0.0858      2.3383     49.4514    104.7916  
  4782.5000    -28.4357      4.5176      4.6330      4.6348    109.2746     13.2487      0.0839      2.3319     49.7042    107.2030  
  4783.0000    -28.5568      4.4922      4.6027      4.5951    107.1296     13.3001      0.0940      2.3338     49.8350    105.2858  
  4783.5000    -28.8473      4.4669      4.5677      4.5946    106.1843     13.3225      0.1029      2.3423     50.0521    106.5245  
  4784.0000    -29.1232      4.4418      4.5330      4.6511    107.2310     13.3330      0.0868      2.3253     50.4041    106.0751  
  4784.5000    -29.4047      4.4582      4.4986      4.7084    108.9117     13.3375      0.0819      2.3117     51.3495    105.7110  
  4785.0000    -29.4566      4.4818      4.4644      4.7033    110.2656     13.3348      0.0795      2.2973     52.0048    106.5668  
  4785.5000    -29.4660      4.5055      4.4305      4.6420    111.6828     13.3330      0.0686      2.2843     52.2348    105.7294  
  4786.0000    -29.4754      4.5293      4.3968      4.5978    110.0905     13.3351      0.0796      2.2915     52.6466    103.5486  
  4786.5000    -29.5130      4.5533      4.3634      4.5773    108.5928     13.3426      0.0813      2.3056     52.9313    105.2650  
  4787.0000    -29.4650      4.5774      4.3577      4.5569    107.9270     13.3660      0.0846      2.3206     52.8806    103.4791  
  4787.5000    -29.4439      4.6016      4.4325      4.5761    107.6484     13.3558      0.0874      2.3216     52.5602    106.3322  
  4788.0000    -29.4076      4.6260      4.5087      4.6538    109.5043     13.3295      0.0802      2.3184     50.6163    106.8274  
  4788.5000    -29.3766      4.6504      4.5862      4.7328    112.3967     13.2196      0.0783      2.3083     48.5708    104.4851  
  4789.0000    -29.2895      4.7162      4.6650      4.8132    113.7980     13.1558      0.0848      2.3262     47.0799    106.2345  
  4789.5000    -29.2886      4.7875      4.7451      4.8949    112.2193     13.1781      0.0952      2.3409     46.5606    106.0961  
  4790.0000    -29.3051      4.8598      4.8267      4.9781    110.1597     13.2083      0.1056      2.3528     46.1631    105.2556  
  4790.5000    -29.3796      4.9332      4.9096      5.0626    109.9827     13.2429      0.1087      2.3489     46.7592    107.9974  
  4791.0000    -29.4145      5.0077      4.9940      5.0467    110.4640     13.2774      0.0901      2.3357     48.1704    108.0203  
  4791.5000    -29.5142      5.0533      5.0748      5.0047    111.3803     13.3118      0.0716      2.3215     49.5534    104.8923  
  4792.0000    -29.4714      5.0232      5.0196      4.9631    109.7221     13.3463      0.0640      2.3242     51.1440    106.0033  
  4792.5000    -29.4491      4.9933      4.9650      4.9218    108.2194     13.3788      0.1030      2.3679     51.4563    101.9676  
  4793.0000    -29.4433      4.9636      4.9110      4.8808    107.8620     13.4091      0.1163      2.3714     50.0898     99.0769  
  4793.5000    -29.4509      4.9341      4.8576      4.8300    107.7626     13.3580      0.0947      2.3453     49.0421    100.3923  
  4794.0000    -29.4891      4.9047      4.8048      4.7883    105.7702     13.2680      0.0967      2.3365     47.8949    101.7799  
  4794.5000    -29.5451      4.8755      4.7525      4.7602    104.5189     13.1436      0.1020      2.3281     48.7261    101.8595  
  4795.0000    -29.5355      4.8465      4.7008      4.7586    104.5776     13.0639      0.0999      2.3217     50.2469    104.4229  
  4795.5000    -29.4251      4.8373      4.6497      4.7569    104.6669     13.0430      0.0880      2.3108     51.7254    103.2701  
  4796.0000    -29.1012      4.8359      4.5991      4.7553    106.3905     13.0573      0.0610      2.2997     51.9070    102.0998  
  4796.5000    -28.7036      4.8346      4.6108      4.7537    107.8603     13.0733      0.0658      2.3168     50.3755     99.6532  
  4797.0000    -28.5814      4.8333      4.6227      4.7520    107.6472     13.0894      0.0737      2.3322     48.0793    101.3388  
  4797.5000    -28.6835      4.8319      4.6347      4.7504    106.4512     13.1039      0.0791      2.3358     46.9459    104.6537  
  4798.0000    -28.9073      4.8306      4.6467      4.7583    105.1265     13.1176      0.0763      2.3218     46.8006    104.1890  
  4798.5000    -28.8957      4.8293      4.6587      4.7515    102.2980     13.1247      0.0709      2.3065     46.7113    105.4255  
  4799.0000    -28.7062      4.8280      4.6707      4.7393     99.9421     13.1394      0.0738      2.3155     46.7471    101.1727  
  4799.5000    -28.5097      4.8266      4.6828      4.7585     99.4608     13.1698      0.0794      2.3245     46.7946     98.5238  
  4800.0000    -28.3992      4.8253      4.6949      4.7936     99.2349     13.2001      0.0858      2.3342     46.6672    102.2752  
  4800.5000    -28.3572      4.8411      4.7070      4.8290    100.0723     13.2298      0.0987      2.3431     46.5527    100.7150  
  4801.0000    -28.4548      4.8776      4.7192      4.8647    103.8853     13.2415      0.1029      2.3484     46.4925    104.4806  
  4801.5000    -28.6701      4.9144      4.7275      4.9007    105.6469     13.2483      0.1035      2.3512     47.1289    104.7019  
  4802.0000    -29.0341      4.9514      4.6714      4.9221    105.1947     13.2421      0.0979      2.3340     50.4688     99.9270  
  4802.5000    -29.4411      4.8755      4.6159      4.8103    104.9825     13.2360      0.0796      2.3263     50.5674    103.3585  
  4803.0000    -29.7643      4.7561      4.5611      4.7010    107.5351     13.2919      0.0790      2.3427     49.9980    103.5716  
  4803.5000    -30.0302      4.6396      4.5070      4.5942    110.0800     13.4070      0.0956      2.3593     49.4990     99.4268  
  4804.0000    -30.2598      4.5260      4.4535      4.4898    110.5484     13.5420      0.1144      2.3731     49.6613    101.6668  
  4804.5000    -30.1945      4.4151      4.4006      4.4647    110.0453     13.7354      0.1141      2.3747     50.0176    100.7999  
  4805.0000    -30.0221      4.4314      4.4097      4.5359    109.3961     13.7349      0.0857      2.3489     49.9124     99.3938  
  4805.5000    -29.8297      4.5090      4.4505      4.6093    109.0374     13.8162      0.0996      2.3315     49.2546    101.5101  
  4806.0000    -29.6373      4.5879      4.4917      4.6838    108.4355     13.5670      0.1253      2.3487     49.7107    105.3202  
  4806.5000    -29.5209      4.6682      4.5333      4.7325    106.9481     13.1503      0.1151      2.3481     50.1603    102.9162  
  4807.0000    -29.3327      4.7477      4.5753      4.7193    105.7051     13.0998      0.1042      2.3451     49.9506    101.6934  
  4807.5000    -29.1295      4.6914      4.5399      4.7062    103.9508     13.1235      0.1059      2.3460     49.8703     99.6438  
  4808.0000    -29.0875      4.6357      4.4941      4.6931    102.9755     13.0985      0.1112      2.3368     49.8041     98.4205  
  4808.5000    -29.2227      4.5807      4.4488      4.6800    104.0932     13.0730      0.1036      2.3250     49.1642    100.3177  
  4809.0000    -29.2473      4.5264      4.4039      4.6089    106.5154     13.0615      0.1002      2.3286     47.4118    102.1301  
  4809.5000    -29.2953      4.4727      4.3594      4.5314    108.2289     13.0696      0.0988      2.3322     45.8765    104.0613  
