~VERSION INFORMATION
 VERS.                           2.00:        CWLS LOG ASCII STANDARD - VERSION 2.00
 WRAP.                             NO:        ONE LINE PER DEPTH STEP
~WELL INFORMATION
#MNEM.UNIT                   DATA             INFORMATION
#----------             --------------        ------------------------------
 STRT.F                      358.0000:        START DEPTH
 STOP.F                     8806.0000:        STOP DEPTH
 STEP.F                        0.5000:        STEP VALUE
 NULL.                      -999.2500:        NULL VALUE
 COMP.                      U.S. NAVY:        COMPANY
 LOC .                     22 17N 12W:        LOCATION
 DATE.                         4/5/77:        LOG DATE
 WELL.               SOUTH SIMPSON #1:        WELL
 UWI .                   502792000100:        UNIQUE WELL ID
 API .                   502792000100:        UNIQUE WELL IDENTIFIER
 FLD .                        WILDCAT:        FIELD
 CNTY.                    NORTH SLOPE:        COUNTY
 STAT.                         ALASKA:        STATE
 CTRY.                            USA:        COUNTRY
 OPER.                      U.S. NAVY:        OPERATOR
 SRVC.                   SCHLUMBERGER:        SERVICE COMPANY
 LAT .                         0.0000:        LATITUDE
 LON .                         0.0000:        LONGITUDE
 DIGS.               CENTER LINE DATA:        DIGITIZING COMPANY
~CURVE INFORMATION      
#MNEM        .UNIT         API CODE           CURVE DESCRIPTION
#-----------------      --------------        ------------------------------
 DEPT        .F                      :        1  DEPTH
 GR          .GAPI                   :        2  
 CALI        .IN                     :        3  
 DRHO        .G/C3                   :        4  
 RHOB        .G/C3                   :        5  
 NPHI        .%                      :        6  
 DT          .US/F                   :        7  
 SP          .MV                     :        8  
 ILD         .OHMM                   :        9  
 ILM         .OHMM                   :        10 
 LL8         .OHMM                   :        11 
~PARAMETER INFORMATION
#MNEM.UNIT                  VALUE             DESCRIPTION OF MNEMONIC
#---------             ---------------        ------------------------------
 EKB .F                       25.0000:        KELLY BUSHING
 TD  .F                     8807.0000:        TOTAL DEPTH
 BHT .F                      145.0000:        BOTTOM HOLE TEMPERATURE
 BS  .                        13.5000:        BIT SIZE
 FD  .                        10.7000:        FLUID DENSITY
 CSIZ.                        16.0000:        CASING SIZE
 CBD .F                     2175.0000:        CASING DRILLER 1
 CBL .F                     2175.0000:        CASING LOGGER 1
 DFT .                  MISCELLANEOUS:        TYPE FLUID IN HOLE
 DFV .                        47.0000:        VISCOSITY
 DFPH.                        10.5000:        PH
 DFL .                         5.0000:        FLUID LOSS
 RMS .                         2.3000:        RM
 MST .F                       60.0000:        RM MEAS. TEMP.
 RMF .                         1.5400:        RMF
 MFST.F                       54.0000:        RMF MEAS. TEMP.
 RMC .                         2.7300:        RMC
 MCST.F                       54.0000:        RMC MEAS. TEMP.
~OTHER INFORMATION
~A    DEPTH          GR        CALI        DRHO        RHOB        NPHI          DT          SP         ILD         ILM         LL8 
# ...
  8776.0000     77.9342      8.6672      0.0117      2.6849     18.7060     66.1782    -44.2584     18.2499     22.3860    124.0650 
  8776.5000     77.3681      8.6783      0.0151      2.6919     18.8853     66.0429    -43.9448     19.2260     23.6459    111.3765 
  8777.0000     77.2488      8.6782      0.0050      2.6988     19.0701     65.8939    -43.6311     19.8018     23.9789     99.9858 
  8777.5000     77.7926      8.6757     -0.0051      2.6977     19.3820     66.1029    -43.3175     19.9495     23.8883     87.2472 
  8778.0000     77.4062      8.6704     -0.0151      2.6895     19.6939     67.9539    -43.0038     19.6298     22.1209     69.9767 
  8778.5000     77.0198      8.6636     -0.0071      2.6818     19.7660     70.2862    -42.6847     18.9992     20.8345     56.1249 
  8779.0000     76.6333      8.6775     -0.0006      2.6644     19.8101     72.3560    -42.3409     18.5829     19.6603     45.0150 
  8779.5000     77.7797      8.6934     -0.0033      2.6399     19.9461     72.5925    -42.2962     18.1757     19.7624     36.1044 
  8780.0000     79.1333      8.6708     -0.0130      2.6263     19.9192     70.4317    -42.4252     17.7774     20.5506     31.3551 
  8780.5000     79.8659      8.6485      0.0020      2.6488     19.6502     67.6698    -42.5541     17.3878     21.3818     43.7832 
  8781.0000     79.9940      8.6472      0.0037      2.6759     19.4159     66.7089    -42.6830     17.0068     21.0795     61.1373 
  8781.5000     79.6504      8.6325      0.0075      2.6716     19.4767     66.5579    -42.8120     16.6341     19.7329     77.7658 
  8782.0000     78.7116      8.6132     -0.0008      2.6421     20.0501     67.1290    -42.9409     16.2696     18.0843     55.9967 
  8782.5000     78.2766      8.7022     -0.0005      2.6004     20.7072     75.7048    -43.0242     16.0858     16.8177     39.7316 
  8783.0000     78.4884      8.6970      0.0113      2.5641     21.4764     74.7980    -43.0053     15.9973     16.6244     28.1909 
  8783.5000     78.6199      8.6942     -0.0025      2.5683     20.2827     70.3107    -42.9864     15.9094     16.7821     23.8296 
  8784.0000     78.2677      8.6558      0.0099      2.6062     18.0016     69.3045    -42.9675     16.4068     18.1083     39.0767 
  8784.5000     76.2539      8.6087      0.0271      2.6383     16.7519     68.2194    -42.9487     16.9834     19.5394     37.1129 
  8785.0000     73.5987      8.5695      0.0330      2.6119     16.1073     55.9894    -42.9329     18.0289     22.5610     29.4920 
  8785.5000     68.4323      8.6084      0.0262      2.6063     14.4690     58.9742    -42.9174     19.2682     27.4475     29.6058 
  8786.0000     61.6876      8.6183      0.0086      2.6100     10.6423     58.9879    -42.9019     20.5927     33.3924    111.2267 
  8786.5000     52.0125      8.6180      0.0046      2.6141      7.0990     58.7963    -42.8864     22.0083     35.0745    666.8329 
  8787.0000     45.2559      8.6221      0.0120      2.6480      7.5860     58.5167    -42.8664     23.5211     35.9193   1625.8351 
  8787.5000     46.3029      8.6327      0.0217      2.6704      9.4168     50.0685    -42.2725     25.1380     33.5241   1742.2925 
  8788.0000     76.0354      8.6390      0.0274      2.6932     12.1651     61.9010    -41.6787     25.5999     30.6774    498.1718 
  8788.5000   -999.2500      8.6237      0.0132      2.6989     15.1155     65.0164    -41.0848     24.9903     28.0724     83.9837 
  8789.0000   -999.2500      8.6084      0.0123      2.7037     17.1833     66.9820    -40.4910     23.6435     25.6887     58.0415 
  8789.5000   -999.2500      8.6026      0.0049      2.7002     17.8200     68.1130    -40.3364     22.3692     23.6232     48.3205 
  8790.0000   -999.2500      8.6203      0.0001      2.6943     17.2999     70.1239    -40.2585     21.1637     22.8333     44.4793 
  8790.5000   -999.2500      8.6351      0.0088      2.6873     16.8514     70.6364    -40.1805     20.0231     22.0698     40.9434 
  8791.0000   -999.2500      8.6461      0.0127      2.6713     16.5172     68.4345    -40.2198     19.5524     21.4835     47.2614 
  8791.5000   -999.2500      8.6571      0.0126      2.6485     16.1352     66.7544    -40.2715     19.4229     21.3525     57.3273 
  8792.0000   -999.2500      8.6680     -0.0029      2.6208     15.2186     67.7340    -40.3232     19.4579     21.2224     66.1869 
  8792.5000   -999.2500      8.6790     -0.0052      2.6187     14.0930     68.7454    -40.3749     19.7516     21.0931     53.3999 
  8793.0000   -999.2500      8.6899      0.0101      2.6264     12.2410     69.7200    -40.6152     20.0496     21.4780     43.0834 
  8793.5000   -999.2500      8.6710      0.0265      2.6279     10.4897     69.2523    -40.8593     20.4312     22.4729     37.6488 
  8794.0000   -999.2500      8.6640      0.0197      2.6048     10.0056     67.9640    -41.1033     20.9095     23.5140     46.9069 
  8794.5000   -999.2500      8.6783      0.0154      2.5848      9.7574     66.8431    -41.3473     21.3990     25.0043     60.4018 
  8795.0000   -999.2500      8.6467      0.0130      2.5490      9.6800     66.1812    -41.5914     21.9000     26.7661     77.7790 
  8795.5000   -999.2500      8.6427      0.0105      2.5418      9.6025     66.2987    -41.8354     22.4127     28.6520     91.4549 
  8796.0000   -999.2500      8.6572      0.0096      2.6196      9.5803     66.3140    -42.0795     22.9375     30.6708    101.4498 
  8796.5000   -999.2500      8.6620      0.0108      2.7103   -999.2500     66.2079    -42.3235     23.0399     31.9885    112.5372 
  8797.0000   -999.2500      8.6533      0.0120      2.6682   -999.2500     55.7153    -42.5676     23.0315     32.8108    124.8362 
  8797.5000   -999.2500      8.6261      0.0131      2.6534   -999.2500     64.2812    -42.7794     23.0232     33.4150    138.4793 
  8798.0000   -999.2500      8.6199      0.0172      2.6420   -999.2500     65.3034    -42.7844     23.0148     32.8954    129.7163 
  8798.5000   -999.2500      8.6145      0.0178      2.6485   -999.2500     65.8068    -42.7894     23.0064     32.3839    104.7889 
  8799.0000   -999.2500      8.6090      0.0169      2.6574   -999.2500     65.9098    -42.7943     22.9981     31.8804     84.6517 
  8799.5000   -999.2500      8.6163      0.0177      2.6737   -999.2500   -999.2500   -999.2500   -999.2500   -999.2500   -999.2500 
  8800.0000   -999.2500      8.6464      0.0141      2.6899   -999.2500   -999.2500   -999.2500   -999.2500   -999.2500   -999.2500 
  8800.5000   -999.2500      8.6714      0.0252      2.6918   -999.2500   -999.2500   -999.2500   -999.2500   -999.2500   -999.2500 
  8801.0000   -999.2500      8.6705      0.0290      2.6830   -999.2500   -999.2500   -999.2500   -999.2500   -999.2500   -999.2500 
  8801.5000   -999.2500      8.6512      0.0271      2.6742   -999.2500   -999.2500   -999.2500   -999.2500   -999.2500   -999.2500 
  8802.0000   -999.2500      8.6406      0.0267      2.6655   -999.2500   -999.2500   -999.2500   -999.2500   -999.2500   -999.2500 
  8802.5000   -999.2500      8.6356      0.0241      2.6567   -999.2500   -999.2500   -999.2500   -999.2500   -999.2500   -999.2500 
  8803.0000   -999.2500      8.6134      0.0253      2.6479   -999.2500   -999.2500   -999.2500   -999.2500   -999.2500   -999.2500 
  8803.5000   -999.2500      8.5880      0.0435      2.6434   -999.2500   -999.2500   -999.2500   -999.2500   -999.2500   -999.2500 
  8804.0000   -999.2500      8.5726      0.0695      2.6419   -999.2500   -999.2500   -999.2500   -999.2500   -999.2500   -999.2500 
  8804.5000   -999.2500      8.5433      0.0755      2.6404   -999.2500   -999.2500   -999.2500   -999.2500   -999.2500   -999.2500 
  8805.0000   -999.2500      8.5322      0.0674      2.6571   -999.2500   -999.2500   -999.2500   -999.2500   -999.2500   -999.2500 
  8805.5000   -999.2500      8.5211      0.0806      2.6807   -999.2500   -999.2500   -999.2500   -999.2500   -999.2500   -999.2500 
  8806.0000   -999.2500      8.5100      0.0932      2.6874   -999.2500   -999.2500   -999.2500   -999.2500   -999.2500   -999.2500 
