~VERSION INFORMATION
 VERS.                           2.00:        CWLS LOG ASCII STANDARD - VERSION 2.00
 WRAP.                             NO:        ONE LINE PER DEPTH STEP
~WELL INFORMATION
#MNEM.UNIT                   DATA             INFORMATION
#----------             --------------        ------------------------------
 STRT.F                      358.0000:        START DEPTH
 STOP.F                     8806.0000:        STOP DEPTH
 STEP.F                        0.5000:        STEP VALUE
 NULL.                      -999.2500:        NULL VALUE
 COMP.                      U.S. NAVY:        COMPANY
 LOC .                     22 17N 12W:        LOCATION
 DATE.                         4/5/77:        LOG DATE
 WELL.               SOUTH SIMPSON #1:        WELL
 UWI .                   502792000100:        UNIQUE WELL ID
 API .                   502792000100:        UNIQUE WELL IDENTIFIER
 FLD .                        WILDCAT:        FIELD
 CNTY.                    NORTH SLOPE:        COUNTY
 STAT.                         ALASKA:        STATE
 CTRY.                            USA:        COUNTRY
 OPER.                      U.S. NAVY:        OPERATOR
 SRVC.                   SCHLUMBERGER:        SERVICE COMPANY
 LAT .                         0.0000:        LATITUDE
 LON .                         0.0000:        LONGITUDE
 DIGS.               CENTER LINE DATA:        DIGITIZING COMPANY
~CURVE INFORMATION      
#MNEM        .UNIT         API CODE           CURVE DESCRIPTION
#-----------------      --------------        ------------------------------
 DEPT        .F                      :        1  DEPTH
 GR          .GAPI                   :        2  
 CALI        .IN                     :        3  
 DRHO        .G/C3                   :        4  
 RHOB        .G/C3                   :        5  
 NPHI        .%                      :        6  
 DT          .US/F                   :        7  
 SP          .MV                     :        8  
 ILD         .OHMM                   :        9  
 ILM         .OHMM                   :        10 
 LL8         .OHMM                   :        11 
~PARAMETER INFORMATION
#MNEM.UNIT                  VALUE             DESCRIPTION OF MNEMONIC
#---------             ---------------        ------------------------------
 EKB .F                       25.0000:        KELLY BUSHING
 TD  .F                     8807.0000:        TOTAL DEPTH
 BHT .F                      145.0000:        BOTTOM HOLE TEMPERATURE
 BS  .                        13.5000:        BIT SIZE
 FD  .                        10.7000:        FLUID DENSITY
 CSIZ.                        16.0000:        CASING SIZE
 CBD .F                     2175.0000:        CASING DRILLER 1
 CBL .F                     2175.0000:        CASING LOGGER 1
 DFT .                  MISCELLANEOUS:        TYPE FLUID IN HOLE
 DFV .                        47.0000:        VISCOSITY
 DFPH.                        10.5000:        PH
 DFL .                         5.0000:        FLUID LOSS
 RMS .                         2.3000:        RM
 MST .F                       60.0000:        RM MEAS. TEMP.
 RMF .                         1.5400:        RMF
 MFST.F                       54.0000:        RMF MEAS. TEMP.
 RMC .                         2.7300:        RMC
 MCST.F                       54.0000:        RMC MEAS. TEMP.
~OTHER INFORMATION
~A    DEPTH          GR        CALI        DRHO        RHOB        NPHI          DT          SP         ILD         ILM         LL8 
# ...
  1059.5000     66.9508   -999.2500   -999.2500   -999.2500   -999.2500    117.2250    -29.7923      4.9811      5.1638      5.6089 
  1060.0000     66.2575   -999.2500   -999.2500   -999.2500   -999.2500    117.0714    -31.4941      5.2051      5.3896      5.5972 
  1060.5000     65.3333   -999.2500   -999.2500   -999.2500   -999.2500    117.8308    -33.4279      5.3782      5.6252      5.5855 
  1061.0000     64.3901   -999.2500   -999.2500   -999.2500   -999.2500    118.2968    -35.3464      5.5514      5.8712      5.8309 
  1061.5000     63.5882   -999.2500   -999.2500   -999.2500   -999.2500    118.5399    -36.9252      5.7302      6.1279      6.0992 
  1062.0000     63.5382   -999.2500   -999.2500   -999.2500   -999.2500    117.3948    -37.2120      5.9148      6.3959      6.3799 
  1062.5000     63.8046   -999.2500   -999.2500   -999.2500   -999.2500    117.2936    -35.5515      6.1052      6.6630      6.6735 
  1063.0000     64.4429   -999.2500   -999.2500   -999.2500   -999.2500    119.9877    -34.3583      6.2806      6.7268      6.9805 
  1063.5000     65.3078   -999.2500   -999.2500   -999.2500   -999.2500    122.8571    -32.0186      6.4130      6.7913      7.3017 
  1064.0000     66.4461   -999.2500   -999.2500   -999.2500   -999.2500    128.2647    -30.1842      6.5482      6.8554      7.3852 
  1064.5000     67.9654   -999.2500   -999.2500   -999.2500   -999.2500    130.7140    -29.4018      6.6687      6.9094      7.4130 
  1065.0000     69.3350   -999.2500   -999.2500   -999.2500   -999.2500    131.7878    -29.6793      6.7093      6.9638      7.4410 
  1065.5000     70.5875   -999.2500   -999.2500   -999.2500   -999.2500    130.5089    -30.2363      6.7501      7.0187      7.3587 
  1066.0000     71.1297   -999.2500   -999.2500   -999.2500   -999.2500    130.1584    -31.4578      6.6731      6.9149      7.1690 
  1066.5000     70.7243   -999.2500   -999.2500   -999.2500   -999.2500    130.1382    -33.8896      6.4823      6.7328      6.9842 
  1067.0000     69.2688   -999.2500   -999.2500   -999.2500   -999.2500    130.1473    -35.9182      6.1766      6.4195      6.8501 
  1067.5000     68.2590   -999.2500   -999.2500   -999.2500   -999.2500    130.1326    -39.1729      5.8853      6.1168      6.7635 
  1068.0000     67.8737   -999.2500   -999.2500   -999.2500   -999.2500    130.2338    -42.5529      5.6078      5.8284      7.0177 
  1068.5000     67.9100   -999.2500   -999.2500   -999.2500   -999.2500    130.4318    -40.8592      5.3434      5.5535      7.5806 
  1069.0000     67.6682   -999.2500   -999.2500   -999.2500   -999.2500    129.6204    -37.4872      5.1175      5.2916      7.9216 
  1069.5000     66.9873   -999.2500   -999.2500   -999.2500   -999.2500    128.6426    -33.7994      5.0223      5.1685      7.8089 
  1070.0000     65.3829   -999.2500   -999.2500   -999.2500   -999.2500    126.8556    -31.7429      4.9288      5.0723      6.9353 
  1070.5000     64.0610   -999.2500   -999.2500   -999.2500   -999.2500    127.8656    -30.8085      4.8515      4.9848      6.1545 
  1071.0000     63.3485   -999.2500   -999.2500   -999.2500   -999.2500    130.2068    -31.2117      4.8062      4.9383      5.9031 
  1071.5000     62.3809   -999.2500   -999.2500   -999.2500   -999.2500    132.0253    -31.1221      4.7866      4.9171      6.2414 
  1072.0000     60.3728   -999.2500   -999.2500   -999.2500   -999.2500    132.7445    -30.5302      4.7762      4.9048      6.5178 
  1072.5000     58.8307   -999.2500   -999.2500   -999.2500   -999.2500    133.8902    -32.5591      4.7790      4.9076      6.4915 
  1073.0000     58.4223   -999.2500   -999.2500   -999.2500   -999.2500    133.7117    -34.4722      4.7766      4.9052      6.4710 
  1073.5000     58.2406   -999.2500   -999.2500   -999.2500   -999.2500    132.5011    -35.9246      4.7839      4.9127      6.6084 
  1074.0000     58.9101   -999.2500   -999.2500   -999.2500   -999.2500    130.2661    -36.6158      4.8364      4.9769      6.6110 
  1074.5000     60.6744   -999.2500   -999.2500   -999.2500   -999.2500    127.8582    -34.2516      4.9183      5.0562      6.4852 
  1075.0000     62.1898   -999.2500   -999.2500   -999.2500   -999.2500    127.2451    -30.5088      4.9840      5.1237      6.4190 
  1075.5000     63.0088   -999.2500   -999.2500   -999.2500   -999.2500    128.6261    -28.0167      5.0506      5.1922      6.5310 
  1076.0000     62.9602   -999.2500   -999.2500   -999.2500   -999.2500    128.6188    -25.6615      5.1197      5.2637      6.8019 
  1076.5000     62.6808   -999.2500   -999.2500   -999.2500   -999.2500    128.4880    -24.6790      5.1628      5.3017      7.1429 
  1077.0000     61.5431   -999.2500   -999.2500   -999.2500   -999.2500    126.6183    -25.6453      5.1734      5.3126      7.1492 
  1077.5000     61.2251   -999.2500   -999.2500   -999.2500   -999.2500    125.2184    -28.7978      5.1908      5.3344      6.9821 
  1078.0000     61.4067   -999.2500   -999.2500   -999.2500   -999.2500    124.2973    -32.9291      5.2261      5.3669      6.9087 
  1078.5000     62.2357   -999.2500   -999.2500   -999.2500   -999.2500    124.7367    -36.0212      5.2377      5.3787      6.8417 
  1079.0000     62.6585   -999.2500   -999.2500   -999.2500   -999.2500    126.6750    -36.5313      5.2357      5.3772      6.8020 
  1079.5000     62.6153   -999.2500   -999.2500   -999.2500   -999.2500    127.6622    -35.5254      5.2593      5.4014      6.7615 
  1080.0000     62.7719   -999.2500   -999.2500   -999.2500   -999.2500    128.1942    -31.1101      5.2295      5.3714      6.5060 
  1080.5000     61.8569   -999.2500   -999.2500   -999.2500   -999.2500    126.5799    -28.3659      5.2320      5.3784      6.6494 
  1081.0000     61.3541   -999.2500   -999.2500   -999.2500   -999.2500    124.1526    -26.4160      5.2174      5.3579      7.0802 
  1081.5000     60.9962   -999.2500   -999.2500   -999.2500   -999.2500    121.4997    -24.1817      5.2236      5.3643      7.5464 
  1082.0000     62.0734   -999.2500   -999.2500   -999.2500   -999.2500    120.6618    -22.9120      5.2293      5.3700      7.3064 
  1082.5000     63.2337   -999.2500   -999.2500   -999.2500   -999.2500    121.6305    -24.5888      5.2302      5.3709      6.8569 
  1083.0000     63.3442   -999.2500   -999.2500   -999.2500   -999.2500    123.1660    -26.0365      5.2365      5.3777      6.8764 
  1083.5000     63.0205   -999.2500   -999.2500   -999.2500   -999.2500    125.6529    -27.2067      5.2499      5.3911      7.0124 
  1084.0000     61.9535   -999.2500   -999.2500   -999.2500   -999.2500    127.3161    -28.0271      5.2734      5.4194      7.2175 
  1084.5000     60.9720   -999.2500   -999.2500   -999.2500   -999.2500    128.1236    -27.6381      5.3296      5.4772      7.4286 
  1085.0000     60.1352   -999.2500   -999.2500   -999.2500   -999.2500    129.2068    -26.8704      5.3561      5.5007      7.6037 
  1085.5000     59.9030   -999.2500   -999.2500   -999.2500   -999.2500    128.1518    -25.4708      5.3873      5.5350      7.5273 
  1086.0000     60.1840   -999.2500   -999.2500   -999.2500   -999.2500    126.1588    -23.5350      5.5124      5.7015      7.3371 
  1086.5000     60.8785   -999.2500   -999.2500   -999.2500   -999.2500    124.5435    -22.6774      5.7425      5.9320      7.1142 
  1087.0000     61.5515   -999.2500   -999.2500   -999.2500   -999.2500    124.1625    -22.6433      5.9199      6.0945      6.8980 
  1087.5000     62.6812   -999.2500   -999.2500   -999.2500   -999.2500    125.1191    -22.1209      6.0411      6.2193      6.8138 
  1088.0000     65.2638   -999.2500   -999.2500   -999.2500   -999.2500    129.6921    -20.8534      6.1649      6.3467      6.9464 
  1088.5000     66.9986   -999.2500   -999.2500   -999.2500   -999.2500    134.0375    -22.1998      6.2380      6.4090      7.2340 
  1089.0000     67.5540   -999.2500   -999.2500   -999.2500   -999.2500    135.7786    -23.4483      6.1817      6.3510      7.5336 
  1089.5000     67.9976   -999.2500   -999.2500   -999.2500   -999.2500    136.7616    -24.1799      6.0909      6.2595      7.8455 
