~VERSION INFORMATION
 VERS.                      2.00:        CWLS LOG ASCII STANDARD - VERSION 2.00
 WRAP.                        NO:        ONE LINE PER DEPTH STEP
~WELL INFORMATION
#MNEM.UNIT               DATA            INFORMATION
#----------          ------------        ------------------------------
 STRT.F                  92.0000:        START DEPTH
 STOP.F                7738.0000:        STOP DEPTH
 STEP.F                   0.5000:        STEP VALUE
 NULL.                 -999.2500:        NULL VALUE
 COMP.                      13.5:        COMPANY  
 WELL.           EAST SIMPSON #1:        WELL     
 FLD .                   WILDCAT:        FIELD    
 LOC .              18  18N  10W:        LOCATION   
 CNTY.                  N. SLPOE:        COUNTY  
 STAT.                    ALASKA:        STATE   
 CTRY.                       USA:        COUNTRY 
 DATE.                   2/22/79:        LOG DATE 
 API .              502792000500:        UNIQUE WELL IDENTIFIER 
 OPER.                      13.5:        OPERATOR  
 SRVC.              Schlumberger:        SERVICE COMPANY 
 UWI .              502792000500:        UNIQUE WELL ID 
 LAT .                    0.0000:        LATITUDE
 LON .                    0.0000:        LONGITUDE
 DIGS.          Center Line Data:        DIGITIZING COMPANY 
~CURVE INFORMATION      
#MNEM.UNIT            API CODE           CURVE DESCRIPTION
#---------          -------------        ------------------------------
 DEPT.F                         :        1  DEPTH
 SP  .MV                        :        2
 ILD .OHMM                      :        3
 ILM .OHMM                      :        4
 LL8 .OHMM                      :        5
 CALI.IN                        :        6
 GR  .GAPI                      :        7
 DRHO.G/C3                      :        8
 RHOB.G/C3                      :        9
 NPHI.%                         :       10
 DT  .US/F                      :       11
~PARAMETER INFORMATION       
#MNEM.UNIT              VALUE            DESCRIPTION OF MNEMONIC
#---------          -------------        ------------------------------
 EKB .F                  30.0000:        KELLY BUSHING
 TD  .F                   0.0000:        TOTAL DEPTH
 BHT .F                   0.0000:        BOTTOM HOLE TEMPERATURE
 BS  .                   17.5000:        BIT SIZE
 FD  .                   10.2000:        FLUID DENSITY
 CSIZ.                   20.0000:        CASING SIZE
 CBD .F                  90.0000:        CASING DRILLER 1
 CBL .F                  92.0000:        CASING LOGGER 1
 DFT .                       Gel:        TYPE FLUID IN HOLE
 DFV .                   70.0000:        VISCOSITY
 DFPH.                    8.0000:        PH
 DFL .                   12.0000:        FLUID LOSS
 RMS .                    3.6000:        RM
 MST .F                  75.0000:        RM MEAS. TEMP.
 RMF .                    2.2100:        RMF
 MFST.F                  75.0000:        RMF MEAS. TEMP.
 RMC .                    2.1600:        RMC
 MCST.F                  75.0000:        RMC MEAS. TEMP.
 UWI .              502792000500:        UNIQUE WELL ID
~OTHER INFORMATION
~A    DEPTH          SP         ILD         ILM         LL8        CALI          GR        DRHO        RHOB        NPHI          DT  
# ...
  3662.0000    -48.2445      4.9246      3.9561      5.5928     17.8595     88.5159      0.1491      2.2485     46.4208    116.2414  
  3662.5000    -48.5912      4.9377      3.9290      5.5139     17.9503     85.7537      0.1555      2.2679     48.7514    116.3098  
  3663.0000    -48.9070      4.9507      3.9280      5.4406     17.8992     86.4199      0.1573      2.2790     49.1877    115.4682  
  3663.5000    -49.3129      4.9638      3.9379      5.3683     17.8327     88.4634      0.1544      2.2797     47.7686    114.5817  
  3664.0000    -49.5649      4.9770      3.9437      5.4787     17.7876     90.5933      0.1382      2.2835     45.9031    114.2371  
  3664.5000    -49.7318      4.9921      4.0257      5.7381     17.6359     90.4741      0.1286      2.2832     44.9871    114.6001  
  3665.0000    -49.9140      5.0513      4.0616      5.9527     17.6542     88.7339      0.1181      2.2568     44.2679    114.7853  
  3665.5000    -50.0962      5.1113      4.0693      5.9711     17.7641     87.9925      0.1187      2.2742     44.2761    115.4455  
  3666.0000    -50.2784      5.1720      4.0896      5.7433     17.8771     86.6849      0.1302      2.2885     43.3147    116.1397  
  3666.5000    -50.0579      5.2295      4.1053      5.6160     17.8296     84.3064      0.1419      2.2985     42.6819    115.9738  
  3667.0000    -49.7229      5.2810      4.1262      5.6668     17.6925     82.0875      0.1490      2.3011     43.0942    115.0638  
  3667.5000    -49.5222      5.3330      4.1795      5.7311     17.7181     81.3088      0.1389      2.2992     43.0776    114.8335  
  3668.0000    -49.2510      5.3855      4.2025      5.8007     17.6333     84.6120      0.1256      2.2886     42.4742    113.7675  
  3668.5000    -49.1579      5.3816      4.1441      5.8514     17.4834     90.0378      0.1219      2.2741     43.5083    112.5857  
  3669.0000    -49.1919      5.3528      4.1239      5.8659     17.3716     92.9476      0.1209      2.2702     46.0549    113.0816  
  3669.5000    -48.9027      5.3241      4.0892      5.8805     17.6408     95.4795      0.1378      2.2939     45.5825    113.7450  
  3670.0000    -48.5530      5.2957      4.0952      5.7816     17.8628     95.5427      0.1513      2.3102     43.8252    114.7023  
  3670.5000    -48.3526      5.2675      4.0155      5.6202     17.8035     90.7840      0.1543      2.3332     44.7356    116.5967  
  3671.0000    -48.2474      5.2394      4.0113      5.4207     17.8585     83.9432      0.1564      2.3328     45.6791    118.4503  
  3671.5000    -48.4541      5.2607      4.0897      5.2948     17.8659     83.7273      0.1553      2.3451     44.3216    117.9599  
  3672.0000    -48.2323      5.2850      4.1931      5.6358     17.7219     86.4331      0.1444      2.3295     42.7404    115.5221  
  3672.5000    -48.1632      5.3094      4.2893      5.9988     17.7308     86.2374      0.1356      2.3121     41.6896    111.2874  
  3673.0000    -48.3524      5.4209      4.3534      6.1697     17.7533     86.7125      0.1364      2.3090     43.4160    107.4503  
  3673.5000    -48.5397      5.5448      4.4331      6.0048     17.7864     87.3715      0.1468      2.3197     43.7564    105.1164  
  3674.0000    -48.9532      5.6716      4.5525      5.9509     17.7022     87.3600      0.1533      2.3381     44.0325    105.6648  
  3674.5000    -48.4947      5.7498      4.6627      6.0221     17.5798     85.9125      0.1546      2.3487     43.8862    106.9710  
  3675.0000    -48.4586      5.8037      4.7514      6.0962     17.5603     80.6805      0.1514      2.3480     43.2059    107.0546  
  3675.5000    -48.5439      5.8582      4.7809      6.2395     17.5395     76.2925      0.1408      2.3454     43.1410    107.7655  
  3676.0000    -48.4550      5.9211      4.7846      6.3873     17.5151     76.2785      0.1352      2.3623     43.2459    108.5620  
  3676.5000    -48.2791      5.9904      4.8330      6.2895     17.4857     78.2955      0.1252      2.3594     42.8219    108.3955  
  3677.0000    -48.3102      6.0604      4.9077      6.2681     17.5786     84.2198      0.1146      2.3534     41.1233    107.8084  
  3677.5000    -48.0910      6.1313      4.9666      6.3987     17.5397     88.2762      0.1243      2.3653     40.3106    106.3963  
  3678.0000    -47.9610      6.1583      5.0415      6.5982     17.4678     87.3237      0.1358      2.3763     38.6751    104.1512  
  3678.5000    -47.7643      6.1785      5.0600      6.6397     17.4350     82.1290      0.1432      2.3851     38.3782    101.4860  
  3679.0000    -47.7654      6.0974      5.0311      6.6814     17.4009     78.4374      0.1431      2.3948     39.7171     99.6521  
  3679.5000    -48.0388      5.9792      4.9658      6.4833     17.4672     78.5516      0.1383      2.3838     41.0201     99.9941  
  3680.0000    -48.4068      5.8238      4.8599      6.2304     17.5077     82.6613      0.1253      2.3656     41.6379    101.8152  
  3680.5000    -48.4410      5.6724      4.7503      6.0407     17.4834     85.1705      0.1117      2.3528     42.7365    104.5128  
  3681.0000    -48.4421      5.5250      4.5875      5.8459     17.4573     85.0631      0.1081      2.3521     42.4209    107.2914  
  3681.5000    -48.4822      5.3814      4.4319      5.6531     17.4730     82.5359      0.1101      2.3503     42.2995    109.5202  
  3682.0000    -48.5889      5.2415      4.3464      5.4667     17.4482     80.6977      0.1112      2.3456     42.7125    111.2253  
  3682.5000    -48.4285      5.1301      4.3037      5.3893     17.4404     80.5603      0.1162      2.3558     42.4463    111.2179  
  3683.0000    -48.2903      5.1108      4.3269      5.3935     17.4827     80.3998      0.1183      2.3563     41.1710    108.8343  
  3683.5000    -47.9351      5.1060      4.3589      5.4922     17.5429     79.7088      0.1127      2.3539     41.4695    105.7117  
  3684.0000    -47.8870      5.1978      4.4218      5.6645     17.5236     78.9690      0.1072      2.3656     41.9041    103.7800  
  3684.5000    -47.9003      5.2912      4.5101      5.8624     17.5719     80.2502      0.1106      2.3758     42.7547    103.2826  
  3685.0000    -47.8911      5.3998      4.6170      6.1050     17.6254     81.5516      0.1177      2.3841     43.7640    103.7672  
  3685.5000    -48.1423      5.5542      4.6994      6.3450     17.6154     80.6229      0.1084      2.3900     44.4326    104.1956  
  3686.0000    -48.3251      5.6997      4.7920      6.3867     17.6825     76.0264      0.1105      2.3980     43.5541    104.0051  
  3686.5000    -48.4992      5.7728      4.8421      6.3232     17.8092     80.7308      0.1123      2.3782     42.6732    103.9603  
  3687.0000    -48.7721      5.8469      4.8500      6.2565     17.8379     84.1085      0.1088      2.3631     43.9484    104.2586  
  3687.5000    -49.2133      5.8993      4.8196      6.2276     17.6128     82.5521      0.1000      2.3375     44.0955    103.7982  
  3688.0000    -49.4355      5.8885      4.8059      6.2038     17.5926     78.4412      0.0862      2.3120     42.9704    104.0878  
  3688.5000    -49.4982      5.8777      4.7550      6.1801     17.6488     76.5240      0.0786      2.3096     41.7250    104.5361  
  3689.0000    -49.6770      5.8669      4.6753      6.1544     17.5730     75.5270      0.0835      2.3211     41.1264    104.6725  
  3689.5000    -49.5848      5.8536      4.6010      6.0738     17.4770     75.6908      0.0977      2.3320     41.6213    105.3557  
  3690.0000    -49.4451      5.8328      4.5750      5.9943     17.4042     77.3938      0.1188      2.3495     42.4789    105.8382  
  3690.5000    -49.4252      5.8121      4.5751      6.0579     17.3771     77.3419      0.1241      2.3513     43.0572    105.6999  
  3691.0000    -49.5166      5.7914      4.5786      6.1533     17.3501     76.5439      0.1198      2.3424     42.5832    105.7552  
  3691.5000    -49.5393      5.7708      4.5536      6.1281     17.3284     79.4093      0.1142      2.3284     41.3468    106.4794  
