~VERSION INFORMATION
 VERS.                      2.00:        CWLS LOG ASCII STANDARD - VERSION 2.00
 WRAP.                        NO:        ONE LINE PER DEPTH STEP
~WELL INFORMATION
#MNEM.UNIT               DATA            INFORMATION
#----------          ------------        ------------------------------
 STRT.F                  92.0000:        START DEPTH
 STOP.F                7738.0000:        STOP DEPTH
 STEP.F                   0.5000:        STEP VALUE
 NULL.                 -999.2500:        NULL VALUE
 COMP.                      13.5:        COMPANY  
 WELL.           EAST SIMPSON #1:        WELL     
 FLD .                   WILDCAT:        FIELD    
 LOC .              18  18N  10W:        LOCATION   
 CNTY.                  N. SLPOE:        COUNTY  
 STAT.                    ALASKA:        STATE   
 CTRY.                       USA:        COUNTRY 
 DATE.                   2/22/79:        LOG DATE 
 API .              502792000500:        UNIQUE WELL IDENTIFIER 
 OPER.                      13.5:        OPERATOR  
 SRVC.              Schlumberger:        SERVICE COMPANY 
 UWI .              502792000500:        UNIQUE WELL ID 
 LAT .                    0.0000:        LATITUDE
 LON .                    0.0000:        LONGITUDE
 DIGS.          Center Line Data:        DIGITIZING COMPANY 
~CURVE INFORMATION      
#MNEM.UNIT            API CODE           CURVE DESCRIPTION
#---------          -------------        ------------------------------
 DEPT.F                         :        1  DEPTH
 SP  .MV                        :        2
 ILD .OHMM                      :        3
 ILM .OHMM                      :        4
 LL8 .OHMM                      :        5
 CALI.IN                        :        6
 GR  .GAPI                      :        7
 DRHO.G/C3                      :        8
 RHOB.G/C3                      :        9
 NPHI.%                         :       10
 DT  .US/F                      :       11
~PARAMETER INFORMATION       
#MNEM.UNIT              VALUE            DESCRIPTION OF MNEMONIC
#---------          -------------        ------------------------------
 EKB .F                  30.0000:        KELLY BUSHING
 TD  .F                   0.0000:        TOTAL DEPTH
 BHT .F                   0.0000:        BOTTOM HOLE TEMPERATURE
 BS  .                   17.5000:        BIT SIZE
 FD  .                   10.2000:        FLUID DENSITY
 CSIZ.                   20.0000:        CASING SIZE
 CBD .F                  90.0000:        CASING DRILLER 1
 CBL .F                  92.0000:        CASING LOGGER 1
 DFT .                       Gel:        TYPE FLUID IN HOLE
 DFV .                   70.0000:        VISCOSITY
 DFPH.                    8.0000:        PH
 DFL .                   12.0000:        FLUID LOSS
 RMS .                    3.6000:        RM
 MST .F                  75.0000:        RM MEAS. TEMP.
 RMF .                    2.2100:        RMF
 MFST.F                  75.0000:        RMF MEAS. TEMP.
 RMC .                    2.1600:        RMC
 MCST.F                  75.0000:        RMC MEAS. TEMP.
 UWI .              502792000500:        UNIQUE WELL ID
~OTHER INFORMATION
~A    DEPTH          SP         ILD         ILM         LL8        CALI          GR        DRHO        RHOB        NPHI          DT  
# ...
  7712.0000    -32.4992     21.1762     22.5680     25.2118      9.2131     81.4331      0.0781      2.6151     26.0683     62.3989  
  7712.5000    -32.0074     21.0363     22.6606     25.4400      9.2000     81.9000      0.1464      2.6506     26.0711     62.3367  
  7713.0000    -31.6698     21.0040     22.7535     25.6702      9.1471     82.5510      0.1656      2.6333     26.4806     62.5061  
  7713.5000    -31.3332     21.1315     22.8468     25.5136      8.9647     83.8993      0.1519      2.5933     26.9281     62.4208  
  7714.0000    -31.0305     21.2597     23.1289     25.3747      8.9615     85.7394      0.1438      2.5937     27.0358     62.5361  
  7714.5000    -30.7278     21.3888     23.4300     25.3664      8.9576     87.3169      0.1559      2.6139     26.6943     62.4528  
  7715.0000    -30.4252     21.7089     23.7350     26.0415      8.8455     87.6595      0.1784      2.6526     26.3527     62.1602  
  7715.5000    -30.1225     22.0981     24.0440     27.0656      8.7466     87.5785      0.1144      2.5958     26.0594     62.1787  
  7716.0000    -29.8199     22.4944     24.3570     26.7746      8.8935     88.2439      0.0955      2.5914     25.8406     62.3139  
  7716.5000    -29.6924     22.8977     24.5493     26.1158      8.9907     89.3733      0.1174      2.6058     25.4933     62.4491  
  7717.0000    -29.3361     23.1815     24.3088     25.8162      9.0313     89.9066      0.1399      2.6228     25.1433     62.5745  
  7717.5000    -28.9109     23.3863     24.2003     25.6252      8.8831     89.8909      0.1549      2.6372     25.1479     62.4895  
  7718.0000    -28.6154     23.5929     24.0823     26.3303      8.9529     88.9740      0.1160      2.6066     25.3878     62.1583  
  7718.5000    -28.3225     23.7313     23.9650     27.0548      8.8922     87.2457      0.1134      2.6168     25.5700     61.7225  
  7719.0000    -27.9404     23.6691     23.8482     27.1315      9.1317     85.5953      0.1298      2.6595     25.4723     61.1039  
  7719.5000    -27.4111     23.6071     23.7320     26.2772      9.3754     85.4182      0.0995      2.6567     25.1476     60.5270  
  7720.0000    -26.9721     23.5453     23.9592     25.9589      9.5807     86.4368      0.0908      2.6588     24.8215     60.5770  
  7720.5000    -26.5687     23.4836     24.2538     25.6444      9.7193     86.6670      0.1293      2.6688     25.4540     61.0148  
  7721.0000    -25.9259     23.4221     24.5520     25.9949      9.6301     85.4034      0.1643      2.6573     26.1880     60.9187  
  7721.5000    -25.5661     23.3968     24.8121     26.6080      9.3307     85.5817      0.1832      2.6297     27.0829     60.8098  
  7722.0000    -25.1684     23.3787     24.8752     27.3535      8.8715     86.2955      0.1362      2.5975     27.6658     60.8563  
  7722.5000    -24.4434     23.3606     24.9385     28.1480      8.7789     86.9156      0.1212      2.6176     27.6397     60.1294  
  7723.0000    -23.9955     23.3426     25.0019     28.4916      8.9064     87.5632      0.1165      2.6646     26.6387     60.1491  
  7723.5000    -23.6773     23.3246     24.8662     28.6703      8.9209     87.4139      0.1171      2.6915     25.7437     60.1590  
  7724.0000    -23.4317     23.3065     24.7279     28.8501      9.1625     87.4061      0.1165      2.6828     25.0622     60.2496  
  7724.5000    -23.1832     23.2885     24.5905     28.9701      9.0598     88.4344      0.0950      2.6472     25.1967     60.4109  
  7725.0000    -23.1909     23.2615     24.4537     28.2691      8.9675     89.2389      0.0907      2.6703     25.4689     60.6134  
  7725.5000    -23.2875     23.2253     24.3178     27.5851      8.6912     88.5370      0.0931      2.6815     25.7194     60.7985  
  7726.0000    -23.3950     23.1891     24.1364     26.7290      8.8587     87.4299      0.0946      2.6714     25.7421     60.9083  
  7726.5000    -22.8121     23.1530     23.9504     25.8138      8.9470     87.9412      0.0998      2.6644     25.6801     60.5811  
  7727.0000    -22.1282     23.1170     23.7658     25.8085      9.0038     89.3187      0.1135      2.6466     25.6779     60.3811  
  7727.5000    -21.3021     23.0832     23.6090     26.0619      9.0345     90.2096      0.1427      2.6692     25.6627     60.3607  
  7728.0000    -20.3430     23.0497     23.7826     26.3178      8.9532     89.7910      0.1685      2.6795     25.8501     60.4970  
  7728.5000    -19.4210     23.0163     23.9575     26.4261      8.8526     88.4607      0.1523      2.6594     25.9958     60.6145  
  7729.0000    -18.4918     22.9829     24.1176     26.4875      9.0668     87.7595      0.1682      2.6790     25.9690     60.7682  
  7729.5000    -17.5625     22.9496     24.0160     26.5491      9.3203     87.8607      0.1825      2.7043     25.7965     60.7674  
  7730.0000    -16.6333     22.8794     23.9149     26.0973      9.5125     87.9618      0.1721      2.6965     25.2035     60.7657  
  7730.5000    -15.7041     22.8009     23.8141     25.3944      9.6040     87.7967      0.1542      2.6894     24.5949   -999.2500  
  7731.0000    -14.7748     22.7226     23.8959     25.1986      9.0830     87.0737      0.1341      2.6877     24.4559   -999.2500  
  7731.5000    -13.8456     22.6446     24.1188     25.2815      9.2193     86.7740      0.1133      2.6734     24.5762   -999.2500  
  7732.0000    -12.7565     22.7462     24.3817     26.1996      9.3583     86.9765      0.1231      2.6604     24.9178   -999.2500  
  7732.5000    -11.5445     23.0117     24.8166     27.0254      9.2399     87.1929      0.1456      2.6698     25.1559   -999.2500  
  7733.0000    -10.3325     23.2802     25.2592     27.3257      8.9765     87.3915      0.1699      2.6661     25.3020   -999.2500  
  7733.5000     -9.1205     23.5519     25.7098     27.6293      8.9839     87.4688      0.1694      2.6444     25.3390   -999.2500  
  7734.0000     -7.9085     23.7857     25.4094     27.9363      8.8967     87.3570      0.1575      2.6374     25.4144   -999.2500  
  7734.5000   -999.2500   -999.2500   -999.2500   -999.2500      8.9629     87.1086      0.1917      2.6456     25.5590   -999.2500  
  7735.0000   -999.2500   -999.2500   -999.2500   -999.2500      9.0373     87.1058      0.1748      2.6324     25.8291   -999.2500  
  7735.5000   -999.2500   -999.2500   -999.2500   -999.2500      9.1529     87.3542      0.1220      2.6129     26.1607   -999.2500  
  7736.0000   -999.2500   -999.2500   -999.2500   -999.2500      8.7979     88.2301      0.1055      2.6358     26.3113   -999.2500  
  7736.5000   -999.2500   -999.2500   -999.2500   -999.2500   -999.2500     88.9635      0.0790      2.6295     26.4773   -999.2500  
  7737.0000   -999.2500   -999.2500   -999.2500   -999.2500   -999.2500     89.3197      0.0414      2.5954     26.6569   -999.2500  
  7737.5000   -999.2500   -999.2500   -999.2500   -999.2500   -999.2500     89.2269      0.0212      2.5998     26.6423   -999.2500  
  7738.0000   -999.2500   -999.2500   -999.2500   -999.2500   -999.2500     88.8622      0.0109      2.6149     26.5081   -999.2500  
