~VERSION INFORMATION
 VERS.                      2.00:        CWLS LOG ASCII STANDARD - VERSION 2.00
 WRAP.                        NO:        ONE LINE PER DEPTH STEP
~WELL INFORMATION
#MNEM.UNIT               DATA            INFORMATION
#----------          ------------        ------------------------------
 STRT.F                  81.0000:        START DEPTH
 STOP.F               15400.0000:        STOP DEPTH
 STEP.F                   0.5000:        STEP VALUE
 NULL.                 -999.2500:        NULL VALUE
 COMP. USGS/NPR HUSKY OIL OPERAT:        COMPANY  
 WELL.     IKPIKPUK TEST WELL #1:        WELL     
 FLD .                   WILDCAT:        FIELD    
 LOC .              25  13N  10W:        LOCATION   
 CNTY.               NORTH SLPOE:        COUNTY  
 STAT.                    ALASKA:        STATE   
 CTRY.                       USA:        COUNTRY 
 DATE.                  11/29/78:        LOG DATE 
 API .              502792000400:        UNIQUE WELL IDENTIFIER 
 OPER. USGS/NPR HUSKY OIL OPERAT:        OPERATOR  
 SRVC.              Schlumberger:        SERVICE COMPANY 
 UWI .              502792000400:        UNIQUE WELL ID 
 LAT .                    0.0000:        LATITUDE
 LON .                    0.0000:        LONGITUDE
 DIGS.          Center Line Data:        DIGITIZING COMPANY 
~CURVE INFORMATION      
#MNEM.UNIT            API CODE           CURVE DESCRIPTION
#---------          -------------        ------------------------------
 DEPT.F                         :        1  DEPTH
 SP  .MV                        :        2
 ILD .OHMM                      :        3
 ILM .OHMM                      :        4
 LL8 .OHMM                      :        5
 GR  .GAPI                      :        6
 CALI.IN                        :        7
 RHOB.G/C3                      :        8
 DRHO.G/C3                      :        9
 NPHI.%                         :       10
 DT  .US/F                      :       11
~PARAMETER INFORMATION       
#MNEM.UNIT              VALUE            DESCRIPTION OF MNEMONIC
#---------          -------------        ------------------------------
 EKB .F                  52.0000:        KELLY BUSHING
 TD  .F               15481.0000:        TOTAL DEPTH
 BHT .F                   0.0000:        BOTTOM HOLE TEMPERATURE
 BS  .                   17.5000:        BIT SIZE
 FD  .                    9.0000:        FLUID DENSITY
 CSIZ.                   30.0000:        CASING SIZE
 CBD .F                 100.0000:        CASING DRILLER 1
 CBL .F                 101.0000:        CASING LOGGER 1
 DFT .                       Gel:        TYPE FLUID IN HOLE
 DFV .                   60.0000:        VISCOSITY
 DFPH.                    8.5000:        PH
 DFL .                   18.0000:        FLUID LOSS
 RMS .                    3.7300:        RM
 MST .F                  66.0000:        RM MEAS. TEMP.
 RMF .                    4.3900:        RMF
 MFST.F                  58.0000:        RMF MEAS. TEMP.
 RMC .                    2.5000:        RMC
 MCST.F                  57.0000:        RMC MEAS. TEMP.
 UWI .              502792000400:        UNIQUE WELL ID
~OTHER INFORMATION
~A    DEPTH          SP         ILD         ILM         LL8          GR        CALI        RHOB        DRHO        NPHI          DT  
# ...
  4191.0000    -42.3015      7.6571      6.3317      6.1816     61.2648     20.6345      1.6278     -0.0537     38.5340     90.3226  
  4191.5000    -42.3075      7.5926      6.2563      6.1276     61.2344     20.6341      1.6363     -0.0529     38.7807     90.4483  
  4192.0000    -42.3023      7.5334      6.1818      6.0908     61.3995     20.6338      1.6240     -0.0547     38.4416     91.8058  
  4192.5000    -42.2882      7.4941      6.1082      6.0870     61.4633     20.6335      1.6133     -0.0619     38.1024     93.0574  
  4193.0000    -42.0030      7.5471      6.1678      6.2257     60.0704     20.6331      1.6059     -0.0650     37.8249     93.9355  
  4193.5000    -41.7567      7.6283      6.3572      6.4609     59.5577     20.6328      1.6057     -0.0674     37.6366     94.1034  
  4194.0000    -41.7080      7.7103      6.5524      6.5532     59.4456     20.6325      1.6069     -0.0632     37.0580     92.9645  
  4194.5000    -41.6645      7.7932      6.5014      6.4422     61.0675     20.6322      1.6074     -0.0655     37.6526     93.7013  
  4195.0000    -41.6084      7.9583      6.4202      6.3331     63.7315     20.6318      1.6103     -0.0723     38.7609     92.8014  
  4195.5000    -41.6762      8.0493      6.3400      6.2768     64.9648     20.6315      1.6137     -0.0712     40.1823     91.1454  
  4196.0000    -41.7684      7.9973      6.4334      6.4246     65.2952     20.6312      1.6107     -0.0719     40.2142     91.2432  
  4196.5000    -41.8607      7.9457      6.5362      6.5759     65.7088     20.6308      1.6128     -0.0718     39.8840     91.6339  
  4197.0000    -41.9874      7.8944      6.6407      6.5898     66.3730     20.6305      1.6196     -0.0737     39.6040     92.0356  
  4197.5000    -42.2287      7.8434      6.7128      6.4371     66.4852     20.6302      1.6273     -0.0768     38.9196     91.3903  
  4198.0000    -42.4700      7.7928      6.5824      6.4133     66.5500     20.6298      1.6289     -0.0742     38.0595     90.7644  
  4198.5000    -42.6912      7.7353      6.4546      6.3894     66.3914     20.6295      1.6212     -0.0690     38.8730     90.2759  
  4199.0000    -42.7266      7.6619      6.3292      6.3656     65.4675     20.6292      1.6228     -0.0622     39.7131     89.2844  
  4199.5000    -42.7505      7.5893      6.2063      6.3418     64.7220     20.6289      1.6217     -0.0637     40.2907     90.3913  
  4200.0000    -42.6578      7.5173      6.1996      6.2095     64.0600     20.6285      1.6144     -0.0691     40.5075     92.2025  
  4200.5000    -42.4512      7.4461      6.2207      6.0500     63.5446     20.6282      1.6061     -0.0741     40.2732     92.5057  
  4201.0000    -42.1889      7.4221      6.2418      6.2063     64.0790     20.6279      1.6009     -0.0747     40.0809     93.0118  
  4201.5000    -42.0266      7.5419      6.3345      6.5032     65.1623     20.6275      1.5967     -0.0827     39.7852     93.6550  
  4202.0000    -41.8184      7.6597      6.5146      6.4506     64.5326     20.6272      1.6014     -0.0804     39.1094     93.7874  
  4202.5000    -41.6102      7.7500      6.5258      6.2582     62.6819     20.6269      1.6056     -0.0766     38.3962     93.8214  
  4203.0000    -41.4809      7.8415      6.4558      6.2915     62.0751     20.6265      1.6054     -0.0732     37.6164     93.1793  
  4203.5000    -41.4465      7.9340      6.4934      6.5285     63.1811     20.6262      1.6072     -0.0697     37.6234     90.8988  
  4204.0000    -41.5245      7.9984      6.5312      6.4357     64.9273     20.6259      1.6084     -0.0662     37.8763     91.1179  
  4204.5000    -41.6068      8.0332      6.5692      6.3917     66.6578     20.6256      1.6037     -0.0694     37.6834     91.9328  
  4205.0000    -41.6076      8.0093      6.6120      6.4486     68.9690     20.6252      1.5977     -0.0727     37.2529     92.6961  
  4205.5000    -41.6096      7.9120      6.6883      6.6280     70.7719     20.6249      1.5950     -0.0739     37.5011     92.4292  
  4206.0000    -41.6145      7.7646      6.7655      6.8307     69.8499     20.6246      1.5910     -0.0766     37.8828     92.1362  
  4206.5000    -41.6404      7.7683      6.8176      6.6364     69.0389     20.6242      1.5918     -0.0779     38.2328     91.7731  
  4207.0000    -41.7951      7.7774      6.6304      6.3718     68.5894     20.6239      1.5963     -0.0778     39.0420     91.5072  
  4207.5000    -41.9413      7.7866      6.4483      6.3003     66.1688     20.6236      1.5977     -0.0772     39.8512     90.0231  
  4208.0000    -42.1154      7.7958      6.2713      6.3806     64.5593     20.6233      1.6004     -0.0771     40.7555     90.1907  
  4208.5000    -42.2507      7.8050      6.3575      6.4797     63.9579     20.6229      1.6051     -0.0749     41.8932     91.9905  
  4209.0000    -42.1400      7.8142      6.5273      6.6025     63.9758     20.6230      1.6029     -0.0772     40.1671     95.1650  
  4209.5000    -42.0364      7.8234      6.7016      6.7276     63.0528     20.6232      1.5930     -0.0796     37.6714     97.0450  
  4210.0000    -42.0195      7.8326      6.8709      6.7202     60.4019     20.6233      1.6079     -0.0734     36.1742     95.8494  
  4210.5000    -41.9679      7.8474      6.7974      6.6020     59.1177     20.6235      1.6180     -0.0668     37.8274     94.4720  
  4211.0000    -41.8484      7.8717      6.7248      6.4689     60.3881     20.6236      1.6238     -0.0610     39.0708     91.8575  
  4211.5000    -41.7288      7.8960      6.6528      6.2718     61.4175     20.6238      1.6281     -0.0608     39.7486     90.3272  
  4212.0000    -41.7346      7.9205      6.5817      6.0827     61.6348     20.6239      1.6318     -0.0627     40.0060     89.6212  
  4212.5000    -41.7443      7.9450      6.5162      6.2460     61.4997     20.6241      1.6271     -0.0690     39.8202     89.8845  
  4213.0000    -41.8598      7.9696      6.6032      6.4999     60.4262     20.6242      1.6231     -0.0697     39.2182     90.9845  
  4213.5000    -41.9684      7.9942      6.6914      6.7642     59.1937     20.6244      1.6221     -0.0693     37.9658     92.6468  
  4214.0000    -41.9680      7.9001      6.7112      6.6309     58.2542     20.6245      1.6171     -0.0690     37.0843     93.0462  
  4214.5000    -41.9489      7.8697      6.6526      6.6283     57.5570     20.6247      1.6092     -0.0731     36.7304     92.2319  
  4215.0000    -41.9581      7.8872      6.5945      6.7187     57.5157     20.6248      1.6110     -0.0778     36.7499     91.2016  
  4215.5000    -42.0326      7.9047      6.5370      6.6074     59.1447     20.6250      1.6101     -0.0824     36.7106     90.5331  
  4216.0000    -42.1167      7.9223      6.4958      6.4978     60.9672     20.6251      1.6076     -0.0859     36.5094     90.1321  
  4216.5000    -42.2007      7.9399      6.4550      6.3901     62.4120     20.6253      1.6129     -0.0816     36.7072     90.9406  
  4217.0000    -42.1047      7.9575      6.4143      6.4773     62.1583     20.6254      1.6176     -0.0744     37.2492     91.6402  
  4217.5000    -42.0011      7.9399      6.4649      6.6226     61.0470     20.6256      1.6197     -0.0705     38.1373     90.7075  
  4218.0000    -41.9770      8.0288      6.5946      6.7038     60.1589     20.6257      1.6135     -0.0757     37.6901     90.8214  
  4218.5000    -41.9724      8.2086      6.7269      6.7409     59.2506     20.6259      1.6041     -0.0798     37.9331     91.1245  
  4219.0000    -41.8874      8.2154      6.8619      6.8252     57.3014     20.6260      1.6050     -0.0739     38.4158     91.2011  
  4219.5000    -41.7990      8.2256      6.9996      6.9230     57.7557     20.6262      1.6068     -0.0699     38.8069     91.1135  
  4220.0000    -41.6659      8.3702      7.0227      7.0218     57.7790     20.6263      1.6051     -0.0718     38.8114     90.2828  
  4220.5000    -41.5420      8.5172      7.0365      7.0351     57.5296     20.6265      1.6032     -0.0736     38.4027     89.2357  
