~VERSION INFORMATION
 VERS.                      2.00:        CWLS LOG ASCII STANDARD - VERSION 2.00
 WRAP.                        NO:        ONE LINE PER DEPTH STEP
~WELL INFORMATION
#MNEM.UNIT               DATA            INFORMATION
#----------          ------------        ------------------------------
 STRT.F                  81.0000:        START DEPTH
 STOP.F               15400.0000:        STOP DEPTH
 STEP.F                   0.5000:        STEP VALUE
 NULL.                 -999.2500:        NULL VALUE
 COMP. USGS/NPR HUSKY OIL OPERAT:        COMPANY  
 WELL.     IKPIKPUK TEST WELL #1:        WELL     
 FLD .                   WILDCAT:        FIELD    
 LOC .              25  13N  10W:        LOCATION   
 CNTY.               NORTH SLPOE:        COUNTY  
 STAT.                    ALASKA:        STATE   
 CTRY.                       USA:        COUNTRY 
 DATE.                  11/29/78:        LOG DATE 
 API .              502792000400:        UNIQUE WELL IDENTIFIER 
 OPER. USGS/NPR HUSKY OIL OPERAT:        OPERATOR  
 SRVC.              Schlumberger:        SERVICE COMPANY 
 UWI .              502792000400:        UNIQUE WELL ID 
 LAT .                    0.0000:        LATITUDE
 LON .                    0.0000:        LONGITUDE
 DIGS.          Center Line Data:        DIGITIZING COMPANY 
~CURVE INFORMATION      
#MNEM.UNIT            API CODE           CURVE DESCRIPTION
#---------          -------------        ------------------------------
 DEPT.F                         :        1  DEPTH
 SP  .MV                        :        2
 ILD .OHMM                      :        3
 ILM .OHMM                      :        4
 LL8 .OHMM                      :        5
 GR  .GAPI                      :        6
 CALI.IN                        :        7
 RHOB.G/C3                      :        8
 DRHO.G/C3                      :        9
 NPHI.%                         :       10
 DT  .US/F                      :       11
~PARAMETER INFORMATION       
#MNEM.UNIT              VALUE            DESCRIPTION OF MNEMONIC
#---------          -------------        ------------------------------
 EKB .F                  52.0000:        KELLY BUSHING
 TD  .F               15481.0000:        TOTAL DEPTH
 BHT .F                   0.0000:        BOTTOM HOLE TEMPERATURE
 BS  .                   17.5000:        BIT SIZE
 FD  .                    9.0000:        FLUID DENSITY
 CSIZ.                   30.0000:        CASING SIZE
 CBD .F                 100.0000:        CASING DRILLER 1
 CBL .F                 101.0000:        CASING LOGGER 1
 DFT .                       Gel:        TYPE FLUID IN HOLE
 DFV .                   60.0000:        VISCOSITY
 DFPH.                    8.5000:        PH
 DFL .                   18.0000:        FLUID LOSS
 RMS .                    3.7300:        RM
 MST .F                  66.0000:        RM MEAS. TEMP.
 RMF .                    4.3900:        RMF
 MFST.F                  58.0000:        RMF MEAS. TEMP.
 RMC .                    2.5000:        RMC
 MCST.F                  57.0000:        RMC MEAS. TEMP.
 UWI .              502792000400:        UNIQUE WELL ID
~OTHER INFORMATION
~A    DEPTH          SP         ILD         ILM         LL8          GR        CALI        RHOB        DRHO        NPHI          DT  
# ...
 12321.0000   -153.3994   1610.2955   2289.0002   1815.9207     18.1784      9.4622      2.6369      0.0275      0.7080     50.8649  
 12321.5000   -152.2166   1589.3152   2319.4285   1811.5813     19.2423      9.3997      2.6461      0.0328      0.6726     51.0710  
 12322.0000   -150.0962   1568.6089   2121.0222   1816.1389     20.1356      9.3372      2.6461      0.0181      0.5825     50.8423  
 12322.5000   -147.9758   1535.6261   1900.3647   1798.5989     20.9876      9.3059      2.6429      0.0079      0.4889     50.7307  
 12323.0000   -145.8554   1513.3263   1804.5171   1763.6301     21.1273      9.2833      2.6513      0.0145      0.4656     50.6742  
 12323.5000   -143.5232   1523.3521   1745.9625   1759.3772     20.9402      9.2607      2.6656      0.0232      0.4800     50.9773  
 12324.0000   -142.9357   1555.1105   1781.0609   1755.1354     20.1292      9.3308      2.6514      0.0259      0.5240     51.0190  
 12324.5000   -142.1192   1587.5310   1906.4965   1754.9292     19.2375      9.2747      2.6425      0.0347      0.5649     50.7234  
 12325.0000   -140.4597   1591.5189   2040.7661   1779.1338     19.6882      9.2187      2.6455      0.0367      0.6143     50.4155  
 12325.5000   -139.4706   1506.6334   2000.3456   1803.6713     22.4609      9.1626      2.6370      0.0267      0.5963     50.4443  
 12326.0000   -138.8843   1426.2755   1868.0747   1828.5472     25.3581      9.1253      2.6353      0.0169      0.6146     50.8364  
 12326.5000   -137.7874    964.8528   1521.0165   1853.7662     27.7450      9.1248      2.6434      0.0057      0.6344     51.3830  
 12327.0000   -136.5870    560.2515    647.5650   1817.0076     32.9201      9.1287      2.6630      0.0117      0.7229     52.2027  
 12327.5000   -135.3866    325.3159    205.3743   1701.3884     36.9534      9.1557      2.6664      0.0250      0.9146     53.2204  
 12328.0000   -134.1862    236.7036    135.4974   1569.4617     37.7815      9.1828      2.6796      0.0195      1.3633     53.7586  
 12328.5000   -132.9858    209.8359    125.0926   1470.1462     37.4204      9.2098      2.6998      0.0191      1.8166     54.1851  
 12329.0000   -131.9717    216.8536    137.9860   1484.2885     36.0618      9.2368      2.7122      0.0280      1.8168     53.6990  
 12329.5000   -131.0092    269.2874    306.2841   1498.5660     33.6253      9.2638      2.7177      0.0229      1.7636     53.2225  
 12330.0000   -129.0398    212.2835    391.2458   1512.9816     33.8015      9.2909      2.6913      0.0179      1.7360     53.1253  
 12330.5000   -128.7250    115.5201    171.0909   1527.5350     35.8036      9.3179      2.6653      0.0266      1.7182     53.2732  
 12331.0000   -128.2805     62.8636     57.8779   1512.2725     40.5534      9.3748      2.6548      0.0328      1.7761     54.7102  
 12331.5000   -126.3048     34.2090     27.4561   1423.7478     44.2645      9.4515      2.6231      0.0336      2.2682     57.4102  
 12332.0000   -124.8295     19.2333     11.9027    987.0567     48.8616      9.6292      2.5836      0.1049      2.8044     59.6885  
 12332.5000   -123.8377     12.2000      9.6170     64.2795     50.1581     10.3004      2.5693      0.1642      3.6306     61.6082  
 12333.0000   -123.0208     11.1112     11.1222     18.9627     45.8417     10.5997      2.4680      0.0952      4.9263     59.9978  
 12333.5000   -122.2039     12.7362     14.5892     17.1947     41.7238     10.4328      2.4742      0.1095      5.4600     57.1877  
 12334.0000   -121.5675     14.5989     16.4283     17.4122     39.9977     11.4687      2.4627      0.1853      4.4235     53.3494  
 12334.5000   -121.1387     16.7340     18.4993     20.6586     40.6919     12.1859      2.4126      0.1580      1.6072     50.5825  
 12335.0000   -120.7100     19.3709     24.3357   1650.2738     42.4377     12.3979      2.4187      0.1281      0.8909     50.3400  
 12335.5000   -120.2813     32.7084     44.5339   1681.8330     45.2866     12.5956      2.4374      0.1042      1.0758     50.3938  
 12336.0000   -119.8525     55.2291     49.8771   1645.0917     48.0422     12.4218      2.4623      0.1021      1.3560     51.6939  
 12336.5000   -119.4238     93.2558     50.0783   1609.1530     50.7058     12.2720      2.4718      0.0947      1.6458     53.1964  
 12337.0000   -118.9878     73.5376     56.1291   1574.0002     54.1768     12.0507      2.4759      0.1086      1.8298     53.3387  
 12337.5000   -118.5005     50.0787     48.6888   1417.5624     58.7990     11.5659      2.5068      0.1169      2.0458     55.8497  
 12338.0000   -118.0132     33.9787     37.3461    119.0758     62.1658     11.0943      2.5444      0.0995      2.5556     57.8723  
 12338.5000   -117.5259     34.8161     30.1644     38.2517     59.8164     10.5296      2.5878      0.0850      3.3258     58.8559  
 12339.0000   -117.3328     47.8691     34.3853     41.3993     48.8579      9.9826      2.5891      0.0464      3.9840     58.6488  
 12339.5000   -117.8843     63.5395     45.4431     61.0824     34.4280      9.8592      2.6108      0.0329      3.4980     55.2801  
 12340.0000   -118.4359     84.3396     47.3581    144.6056     27.1249      9.7359      2.6190      0.0279      2.0369     51.8935  
 12340.5000   -119.1062    111.9489     68.0129   1017.2109     24.7274      9.7094      2.6217      0.0256      1.0312     51.4568  
 12341.0000   -120.3302    124.7242    104.0212   1512.5182     23.8111      9.7801      2.6188      0.0258      0.3178     51.1308  
 12341.5000   -121.7696    131.5494    154.6163   1556.7650     23.7602     10.0639      2.6196      0.0376      0.2006     50.4720  
 12342.0000   -122.6392    266.4151    260.5741   1587.7384     23.8358     10.3379      2.6230      0.0478      0.0896     49.7530  
 12342.5000   -123.5116    723.8494    346.0416   1576.8794     24.4169     11.0128      2.6270      0.0610      0.1104     49.2228  
 12343.0000   -125.4020   1783.7998    354.4680   1566.0947     25.0685     11.6254      2.6475      0.1015      0.1313     49.7710  
 12343.5000   -127.0506   1783.8008    278.7896   1555.3845     25.0026     12.0000      2.6502      0.1317      0.2413     50.5918  
 12344.0000   -127.4890   1752.0365    171.4238   1544.7468     24.1215     12.1747      2.6073      0.1445      0.3031     51.5311  
 12344.5000   -128.5605   1662.3134    132.7341   1534.1827     23.4985     12.0282      2.5819      0.1288      0.4156     52.2908  
 12345.0000   -129.1785   1564.8383    130.6551   1523.6899     23.3902     12.2125      2.5773      0.1332      0.6103     52.1715  
 12345.5000   -129.6806   1315.9506    135.8271   1513.2699     23.6635     12.5137      2.5345      0.1161      0.7862     51.6700  
 12346.0000   -130.1828    845.8081    100.0433   1276.3826     24.6705     12.8043      2.4857      0.0779      0.9819     51.7708  
 12346.5000   -131.0849    498.7541     71.9655    812.6040     25.6710     12.9104      2.4826      0.0455      1.1044     51.8472  
 12347.0000   -132.2095    329.5096     57.3874    593.6855     25.4981     13.0344      2.4789      0.0633      1.0755     51.9068  
 12347.5000   -133.3340    325.8031     38.9438    635.2315     24.9150     13.0305      2.4358      0.0853      1.0418     52.6747  
 12348.0000   -134.4586    477.2946     41.4593    926.5587     23.9649     13.1032      2.3778      0.0894      1.0205     54.4635  
 12348.5000   -135.5826   1051.5187     59.3312   1339.8417     23.3518     13.4205      2.3441      0.1002      1.0226     56.0776  
 12349.0000   -136.7050   1461.7316    226.4504   1442.6583     23.2361     13.2253      2.3450      0.1048      1.1399     52.4097  
 12349.5000   -137.8274   1479.0355    884.6760   1453.5350     23.3796     12.8572      2.3497      0.0912      1.1792     50.9627  
 12350.0000   -138.9776   1496.5436   1887.9427   1464.4930     24.3907     12.4613      2.3502      0.0924      1.0453     54.2260  
 12350.5000   -140.2453   1514.2596    613.9000   1475.5337     25.8385     11.8922      2.3522      0.1213      0.8712     55.7547  
