~VERSION INFORMATION
 VERS.                      2.00:        CWLS LOG ASCII STANDARD - VERSION 2.00
 WRAP.                        NO:        ONE LINE PER DEPTH STEP
~WELL INFORMATION
#MNEM.UNIT               DATA            INFORMATION
#----------          ------------        ------------------------------
 STRT.F                 100.0000:        START DEPTH
 STOP.F                7938.0000:        STOP DEPTH
 STEP.F                   0.5000:        STEP VALUE
 NULL.                 -999.2500:        NULL VALUE
 COMP.                          :        COMPANY  
 WELL.             DREW POINT #1:        WELL     
 FLD .                   WILDCAT:        FIELD    
 LOC .              26  18N   8W:        LOCATION   
 CNTY.               NORTH SLOPE:        COUNTY  
 STAT.                    ALASKA:        STATE   
 CTRY.                       USA:        COUNTRY 
 DATE.                   1/17/78:        LOG DATE 
 API .              500292000200:        UNIQUE WELL IDENTIFIER 
 OPER.                          :        OPERATOR  
 SRVC.              Schlumberger:        SERVICE COMPANY 
 UWI .              500292000200:        UNIQUE WELL ID 
 LAT .                    0.0000:        LATITUDE
 LON .                    0.0000:        LONGITUDE
 DIGS.          Center Line Data:        DIGITIZING COMPANY 
~CURVE INFORMATION      
#MNEM.UNIT            API CODE           CURVE DESCRIPTION
#---------          -------------        ------------------------------
 DEPT.F                         :        1  DEPTH
 SP  .MV                        :        2
 ILD .OHMM                      :        3
 ILM .OHMM                      :        4
 LL8 .OHMM                      :        5
 GR  .GAPI                      :        6
 CALI.IN                        :        7
 DRHO.G/C3                      :        8
 RHOB.G/C3                      :        9
 NPHI.%                         :       10
 DT  .US/F                      :       11
~PARAMETER INFORMATION       
#MNEM.UNIT              VALUE            DESCRIPTION OF MNEMONIC
#---------          -------------        ------------------------------
 EKB .F                  35.0000:        KELLY BUSHING
 TD  .F                7946.0000:        TOTAL DEPTH
 BHT .F                  75.0000:        BOTTOM HOLE TEMPERATURE
 BS  .                   17.5000:        BIT SIZE
 FD  .                    9.8000:        FLUID DENSITY
 CSIZ.                   20.0000:        CASING SIZE
 CBD .F                  80.0000:        CASING DRILLER 1
 CBL .F                 106.0000:        CASING LOGGER 1
 DFT .             Miscellaneous:        TYPE FLUID IN HOLE
 DFV .                   36.0000:        VISCOSITY
 DFPH.                    7.0000:        PH
 DFL .                    0.0000:        FLUID LOSS
 RMS .                    4.5200:        RM
 MST .F                  52.0000:        RM MEAS. TEMP.
 RMF .                    2.8700:        RMF
 MFST.F                  71.0000:        RMF MEAS. TEMP.
 RMC .                    3.5000:        RMC
 MCST.F                  71.0000:        RMC MEAS. TEMP.
 UWI .              500292000200:        UNIQUE WELL ID
~OTHER INFORMATION
~A    DEPTH          SP         ILD         ILM         LL8          GR        CALI        DRHO        RHOB        NPHI          DT  
# ...
  7390.0000    -11.3142      4.9986      5.3132      6.1634     68.7974      9.1673      0.0707      2.5465     14.7070     76.8189  
  7390.5000    -11.4206      5.0097      5.4060      9.9439     70.6260      9.2336      0.0989      2.6197     13.5995     74.3616  
  7391.0000    -11.2640      5.0209      5.5380     11.6258     71.8659      9.3587      0.0886      2.6050     13.7191     73.2691  
  7391.5000    -11.0195      5.1196      5.6732      8.4570     72.0618      9.1633      0.0316      2.5648     14.0601     73.1924  
  7392.0000    -10.7877      5.3130      5.8117      8.2878     72.0163      9.1287      0.0186      2.5769     14.1260     73.7868  
  7392.5000    -10.3135      5.5136      5.9168      8.6501     72.4802      9.1943      0.0415      2.5991     14.0986     74.1724  
  7393.0000     -9.5714      5.7218      5.9845      8.1628     72.4365      9.1832      0.0216      2.5590     14.1248     73.5651  
  7393.5000     -9.1290      5.7981      6.0624      7.5351     72.5710      9.1548      0.0098      2.5266     14.1694     72.8663  
  7394.0000     -9.4493      5.6225      6.1466      8.1678     74.3319      9.1498      0.0491      2.4897     14.4915     72.5597  
  7394.5000    -10.0434      5.4073      6.2319      9.2203     75.6191      9.3857      0.1001      2.4789     15.4390     72.9941  
  7395.0000    -10.7071      5.2003      5.8782      9.7565     75.2300      9.6443      0.1380      2.4443     16.6384     74.4284  
  7395.5000    -10.8592      5.0013      5.4999      8.0321     74.0524      9.8710      0.1355      2.4187     17.8261     76.0753  
  7396.0000    -11.1962      4.8488      5.1888      5.9423     72.9906      9.6796      0.1161      2.4255     18.2974     77.7006  
  7396.5000    -11.1304      4.8400      5.1988      4.7646     72.5859      9.4049      0.0915      2.4625     17.4562     77.4412  
  7397.0000    -10.8373      4.6398      5.2088      5.4427     73.2449      9.1542      0.0586      2.4794     16.3176     76.4331  
  7397.5000    -10.7363      4.4479      5.1970      7.5279     73.9699      9.3118      0.0838      2.4908     15.3251     74.9785  
  7398.0000    -10.5921      4.2639      4.9725      9.5541     74.5470      9.7280      0.1364      2.4875     17.3962     76.1019  
  7398.5000    -10.4945      4.0917      4.4187      8.0106     74.8748     10.0553      0.1792      2.4480     19.5629     77.4517  
  7399.0000    -10.3855      4.0656      4.5023      5.7050     72.7774     10.1113      0.1470      2.4058     21.0455     78.9319  
  7399.5000    -10.2755      4.0396      4.6529      4.3835     70.2476      9.5565      0.1149      2.4308     21.0903     79.5910  
  7400.0000    -10.1135      4.0192      4.8085      4.8584     68.9862      9.1094      0.1264      2.5145     19.3251     78.7304  
  7400.5000    -10.2146      4.0168      4.9693      8.2093     68.2584      9.5219      0.1496      2.5652     15.8875     77.6178  
  7401.0000    -10.3251      4.0167      5.0223     10.6132     69.0773      9.9668      0.1515      2.5000     16.7228     77.8582  
  7401.5000    -10.4459      4.0251      4.7322      6.8796     69.4505     10.0385      0.0978      2.4417     17.8232     78.1998  
  7402.0000    -10.5382      4.0775      4.9716      4.1347     67.0462      9.2568      0.0455      2.4478     18.9236     79.2340  
  7402.5000    -10.5745      4.4551      5.2892      5.1018     64.7587      9.1890      0.0260      2.5362     17.2802     78.5201  
  7403.0000    -10.6791      4.6923      5.6271      6.8937     63.7695      9.0695     -0.0289      2.5823     13.3149     76.2706  
  7403.5000    -10.8993      4.9420      5.9866      9.1702     64.7807      8.9584     -0.0140      2.5918     12.0567     73.9632  
  7404.0000    -11.4761      5.2051      6.1892     11.2955     65.7509      8.9514      0.0050      2.5876     11.5615     71.9946  
  7404.5000    -12.0132      5.4818      6.3721     10.1623     65.1534      8.9437      0.0099      2.5842     11.3190     70.9192  
  7405.0000    -12.2270      5.7709      6.5604     10.3600     63.7107      8.9332      0.0148      2.5830     11.3025     71.0867  
  7405.5000    -12.1992      6.0753      6.7543     10.4219     62.2347      8.9197      0.0157      2.5820     11.3649     71.7213  
  7406.0000    -12.1931      6.3958      6.9376      8.3264     60.8051      8.9204      0.0125      2.5669     11.6578     71.6588  
  7406.5000    -12.1211      6.6999      7.0381      8.7597     60.0716      8.9255      0.0373      2.5414     11.9230     71.4629  
  7407.0000    -11.9543      6.5601      7.1400     11.6230     60.1669      8.9306      0.0640      2.5194     11.9626     71.8386  
  7407.5000    -11.7372      6.4232      7.2314     11.0888     61.1210      8.9356      0.0377      2.4824     12.0552     71.9601  
  7408.0000    -11.6025      6.2892      7.1485      7.3950     62.8897      8.9407     -0.0020      2.4471     12.8042     71.8994  
  7408.5000    -11.7568      6.1580      7.0664      9.7767     65.4718      8.9579      0.0227      2.4814     13.5280     72.4620  
  7409.0000    -11.8057      6.0295      6.9817     11.8780     68.3498      8.9827      0.0550      2.5005     13.7394     72.8807  
  7409.5000    -11.5770      5.9037      6.6511      8.9195     70.2806      9.0192      0.0739      2.5008     14.4782     73.2300  
  7410.0000    -11.1293      5.7805      6.4336      8.0928     72.0552      9.1601      0.0812      2.5212     15.2311     74.7815  
  7410.5000    -10.6356      5.6599      6.2231      7.8070     70.6431      9.4448      0.0424      2.5236     15.6665     76.3228  
  7411.0000    -10.3707      5.6299      6.1356      6.2890     67.1047      9.0614      0.0083      2.5324     15.9782     76.4615  
  7411.5000    -10.8390      5.6427      6.2507      6.0890     66.1836      8.8517      0.0094      2.5631     15.4032     76.0539  
  7412.0000    -11.6042      5.6554      6.3679      8.1420     66.3142      8.8476      0.0116      2.6021     14.6481     74.6400  
  7412.5000    -12.0367      5.6683      6.5756     10.8971     66.4716      8.8464      0.0203      2.6149     14.2309     72.9032  
  7413.0000    -11.8587      5.6811      6.8078     12.0715     66.3440      8.8548      0.0201      2.6127     14.5056     72.4434  
  7413.5000    -11.6487      5.9113      6.8768     10.0866     66.8110      8.8606      0.0105      2.6009     14.8579     73.2471  
  7414.0000    -11.7291      6.1554      6.8760      8.8593     67.4648      8.8592      0.0054      2.6008     15.3171     74.0781  
  7414.5000    -11.8712      6.4096      6.9146      8.4378     67.0644      8.8577      0.0063      2.6019     15.2084     74.2842  
  7415.0000    -11.9686      6.6742      7.0515      9.2857     65.1262      8.8531      0.0143      2.6030     14.8506     74.1330  
  7415.5000    -11.7098      6.6867      7.1912     10.6592     63.3552      8.8439      0.0196      2.5992     14.5085     73.8891  
  7416.0000    -11.6387      6.6614      7.3335     10.5166     62.2160      8.8394      0.0204      2.6036     14.1199     73.6110  
  7416.5000    -11.6438      6.6362      7.2926      9.8078     62.1700      8.8350      0.0139      2.6114     13.8186     73.5669  
  7417.0000    -10.7855      6.6115      7.1121      9.6734     63.3774      8.8418      0.0072      2.6062     13.6746     73.7645  
  7417.5000     -7.6627      6.6019      6.9362      9.6365     63.5131      8.8395      0.0046      2.6089     13.6360     73.8906  
  7418.0000     -2.7612      6.5923      6.8245      9.2439     62.7111      8.8373      0.0018      2.6031     13.6654     73.5220  
  7418.5000      0.4082      6.5827      7.0210      9.5878     62.1057      8.8351     -0.0029      2.5888     13.6382     72.9904  
  7419.0000      0.7813      6.5731      7.2232     10.8166     62.2454      8.8343      0.0016      2.5844     13.3246     72.3513  
  7419.5000      0.9530      6.5321      7.4312     12.4576     63.0945      8.8343      0.0090      2.5832     12.8601     71.5809  
