~VERSION INFORMATION
 VERS.                      2.00:        CWLS LOG ASCII STANDARD - VERSION 2.00
 WRAP.                        NO:        ONE LINE PER DEPTH STEP
~WELL INFORMATION
#MNEM.UNIT               DATA            INFORMATION
#----------          ------------        ------------------------------
 STRT.F                  92.0000:        START DEPTH
 STOP.F                7738.0000:        STOP DEPTH
 STEP.F                   0.5000:        STEP VALUE
 NULL.                 -999.2500:        NULL VALUE
 COMP.                      13.5:        COMPANY  
 WELL.           EAST SIMPSON #1:        WELL     
 FLD .                   WILDCAT:        FIELD    
 LOC .              18  18N  10W:        LOCATION   
 CNTY.                  N. SLPOE:        COUNTY  
 STAT.                    ALASKA:        STATE   
 CTRY.                       USA:        COUNTRY 
 DATE.                   2/22/79:        LOG DATE 
 API .              502792000500:        UNIQUE WELL IDENTIFIER 
 OPER.                      13.5:        OPERATOR  
 SRVC.              Schlumberger:        SERVICE COMPANY 
 UWI .              502792000500:        UNIQUE WELL ID 
 LAT .                    0.0000:        LATITUDE
 LON .                    0.0000:        LONGITUDE
 DIGS.          Center Line Data:        DIGITIZING COMPANY 
~CURVE INFORMATION      
#MNEM.UNIT            API CODE           CURVE DESCRIPTION
#---------          -------------        ------------------------------
 DEPT.F                         :        1  DEPTH
 SP  .MV                        :        2
 ILD .OHMM                      :        3
 ILM .OHMM                      :        4
 LL8 .OHMM                      :        5
 CALI.IN                        :        6
 GR  .GAPI                      :        7
 DRHO.G/C3                      :        8
 RHOB.G/C3                      :        9
 NPHI.%                         :       10
 DT  .US/F                      :       11
~PARAMETER INFORMATION       
#MNEM.UNIT              VALUE            DESCRIPTION OF MNEMONIC
#---------          -------------        ------------------------------
 EKB .F                  30.0000:        KELLY BUSHING
 TD  .F                   0.0000:        TOTAL DEPTH
 BHT .F                   0.0000:        BOTTOM HOLE TEMPERATURE
 BS  .                   17.5000:        BIT SIZE
 FD  .                   10.2000:        FLUID DENSITY
 CSIZ.                   20.0000:        CASING SIZE
 CBD .F                  90.0000:        CASING DRILLER 1
 CBL .F                  92.0000:        CASING LOGGER 1
 DFT .                       Gel:        TYPE FLUID IN HOLE
 DFV .                   70.0000:        VISCOSITY
 DFPH.                    8.0000:        PH
 DFL .                   12.0000:        FLUID LOSS
 RMS .                    3.6000:        RM
 MST .F                  75.0000:        RM MEAS. TEMP.
 RMF .                    2.2100:        RMF
 MFST.F                  75.0000:        RMF MEAS. TEMP.
 RMC .                    2.1600:        RMC
 MCST.F                  75.0000:        RMC MEAS. TEMP.
 UWI .              502792000500:        UNIQUE WELL ID
~OTHER INFORMATION
~A    DEPTH          SP         ILD         ILM         LL8        CALI          GR        DRHO        RHOB        NPHI          DT  
# ...
  4652.0000    -33.8610      8.1610      7.1513      8.9428     13.3969     65.6237      0.0902      2.4027     34.5323     87.9292  
  4652.5000    -34.4760      8.1610      7.3747      8.7800     13.3035     63.2995      0.1080      2.3713     37.2170     88.1620  
  4653.0000    -34.8853      8.1372      7.6208      8.4591     12.8019     63.2808      0.0394      2.3708     38.8527     87.4668  
  4653.5000    -35.6388      8.0958      7.7937      8.5836     12.8136     65.6896      0.0536      2.4656     38.4073     86.8397  
  4654.0000    -37.0869      8.0546      7.9251     10.6473     12.9873     68.3888      0.0596      2.4869     36.1964     85.9823  
  4654.5000    -38.2757      8.1343      7.7620     11.9351     13.2290     70.6407      0.0743      2.4804     36.7032     84.4730  
  4655.0000    -38.4433      8.2714      7.5641     11.0939     13.4662     71.4509      0.0918      2.4709     36.3847     84.3227  
  4655.5000    -38.3673      8.4108      7.5805      9.6389     13.7586     68.2643      0.0640      2.4531     37.3577     86.1881  
  4656.0000    -37.8625      8.5812      8.0730      9.6878     13.2982     62.3490      0.0370      2.4704     36.6151     87.5867  
  4656.5000    -37.2172      8.9102      8.5975     10.2841     13.0654     61.9453      0.0404      2.5252     33.8740     84.5200  
  4657.0000    -36.4267      9.1142      8.9485     14.2513     13.1219     68.9525      0.0716      2.5340     29.7513     80.5725  
  4657.5000    -35.3712      9.1142      8.7636     17.6164     13.2122     75.0274      0.0976      2.4989     28.1483     77.8717  
  4658.0000    -34.0106      9.0783      8.5413     12.5048     13.2626     73.6191      0.0667      2.4478     30.6166     79.2110  
  4658.5000    -33.1350      8.9654      8.2862      9.8210     13.1062     71.5814      0.0505      2.4312     33.8289     83.2706  
  4659.0000    -33.0853      8.8538      8.0386      8.9139     13.2684     70.9143      0.0598      2.4467     35.0650     87.2749  
  4659.5000    -33.5901      8.7436      7.7985      9.0172     13.5102     70.0313      0.0607      2.4382     35.9894     89.5826  
  4660.0000    -34.1592      8.5710      7.5655      9.1217     13.3762     67.9565      0.0597      2.4272     37.8853     89.3177  
  4660.5000    -34.6045      8.3849      7.3395      8.9292     13.4198     67.5928      0.0967      2.4425     38.7721     88.0247  
  4661.0000    -34.5936      8.2028      7.1203      8.6491     13.4944     68.9072      0.0952      2.4213     39.5047     89.4799  
  4661.5000    -34.5566      8.0277      6.9076      8.1900     13.5154     71.2684      0.0601      2.3620     37.8987     89.8569  
  4662.0000    -34.3861      7.8768      6.7217      8.3378     13.5754     70.6713      0.1044      2.3698     36.8501     89.5916  
  4662.5000    -34.3414      7.7288      6.5590      8.5687     13.8079     71.3239      0.1420      2.3650     37.3342     90.4854  
  4663.0000    -34.3036      7.5836      6.4146      8.1360     13.9887     72.7619      0.1338      2.3294     39.4846     91.5957  
  4663.5000    -33.6138      7.4411      6.3590      7.7215     13.9236     74.1282      0.0997      2.3215     39.7247     92.3178  
  4664.0000    -33.1793      7.3012      6.3039      7.5333     14.0304     76.4879      0.1302      2.3683     39.7029     93.2305  
  4664.5000    -32.7784      7.1640      6.2493      7.4803     13.7875     78.2731      0.0891      2.3384     38.2330     93.6777  
  4665.0000    -32.7622      7.0294      6.2384      7.4427     13.6850     78.5349      0.0652      2.3621     36.0449     92.3579  
  4665.5000    -32.7771      7.0257      6.2384      7.4182     13.3701     79.0541      0.0653      2.3725     34.8369     92.6711  
  4666.0000    -32.7405      7.0340      6.2384      7.4537     13.2660     76.2558      0.0515      2.3611     36.1311     92.3191  
  4666.5000    -32.8200      7.0423      6.2015      7.6566     13.3845     70.8774      0.1041      2.3848     36.7246     91.0900  
  4667.0000    -33.0629      7.0507      6.1415      8.3938     13.5349     70.9443      0.1457      2.3600     36.9223     90.1664  
  4667.5000    -32.9965      7.0590      6.0821      8.6751     13.9629     73.2796      0.1434      2.2802     39.2047     89.7808  
  4668.0000    -33.0794      7.0674      6.0499      8.0225     14.0532     76.0264      0.1122      2.2408     42.5893     90.7764  
  4668.5000    -33.0842      7.0654      6.0372      7.4170     14.3927     78.1429      0.1220      2.3003     43.7503     93.3499  
  4669.0000    -32.8401      7.0589      6.0245      6.9578     14.3533     75.7266      0.1528      2.3036     44.0563     95.0193  
  4669.5000    -32.4888      7.0524      6.0095      7.2199     14.0631     75.1439      0.1419      2.3160     43.7527     94.6956  
  4670.0000    -32.2316      7.0459      5.9623      7.2860     14.1327     76.1302      0.1330      2.3352     43.6988     94.0830  
  4670.5000    -31.9473      7.0394      5.9557      7.1747     13.9099     77.6217      0.1168      2.3252     43.2426     93.9563  
  4671.0000    -31.8074      7.0329      5.9969      7.0984     13.7047     77.6221      0.1388      2.3466     42.5581     93.4967  
  4671.5000    -31.7971      7.0264      6.0130      7.2998     13.6791     77.3676      0.1729      2.3213     41.7255     93.2351  
  4672.0000    -31.7292      7.0199      6.0292      7.5480     14.1082     77.9092      0.1659      2.2589     40.4423     93.3822  
  4672.5000    -31.7456      7.0559      6.0454      7.4709     13.8773     76.5949      0.1312      2.2313     38.4855     93.3325  
  4673.0000    -31.9137      7.1088      6.0616      7.5157     13.8774     74.1531      0.1143      2.2481     37.2317     92.8465  
  4673.5000    -31.5661      7.1621      6.0854      7.6283     13.3642     76.4030      0.1110      2.2872     36.4157     92.5428  
  4674.0000    -31.5868      7.2158      6.1101      7.8075     13.8157     77.9883      0.1305      2.3269     36.3344     92.4694  
  4674.5000    -31.6845      7.2700      6.1348      7.9910     14.3821     78.5276      0.1462      2.3168     38.1655     92.1343  
  4675.0000    -31.8424      7.1962      6.1322      7.9813     13.9951     76.3684      0.1691      2.3135     38.5499     91.8193  
  4675.5000    -32.0674      7.0896      6.0547      7.9283     14.3765     77.7067      0.1893      2.3051     37.7118     91.1461  
  4676.0000    -32.3267      6.9845      5.9781      7.7416     14.2705     79.8740      0.1589      2.2891     40.6891     90.6219  
  4676.5000    -32.5702      6.8811      5.9026      7.4755     14.8162     80.4825      0.1220      2.2979     41.9247     92.9564  
  4677.0000    -32.3155      6.7676      5.8204      7.2186     15.2846     78.1671      0.1253      2.2944     45.1298     95.4892  
  4677.5000    -32.0554      6.6537      5.7375      7.0268     14.5415     76.8745      0.1366      2.2905     45.8565     96.3011  
  4678.0000    -31.7952      6.5418      5.6558      6.9086     14.9744     81.5039      0.1050      2.2541     43.4169     97.1149  
  4678.5000    -31.5351      6.4318      5.5752      6.7925     14.6508     81.9678      0.0877      2.2508     42.8964     98.4889  
  4679.0000    -31.2690      6.3237      5.5500      6.6783     15.0686     77.4657      0.0984      2.2456     40.8843     99.4857  
  4679.5000    -30.9973      6.3454      5.6146      6.7839     15.1523     76.4097      0.1115      2.2239     39.3221    100.2666  
  4680.0000    -31.0246      6.4449      5.7713      6.8979     14.7578     72.8765      0.1288      2.2295     40.3025     98.7561  
  4680.5000    -30.8636      6.5492      5.9323      7.1956     14.2052     68.8526      0.1196      2.2196     40.4740     96.0151  
  4681.0000    -30.6768      6.6564      6.0325      7.5665     14.0889     68.4979      0.1326      2.2374     39.3658     93.2438  
  4681.5000    -30.6843      6.7653      6.1115      7.9714     14.2209     71.0461      0.1744      2.2619     37.4803     91.5759  
