~VERSION INFORMATION
 VERS.                      2.00:        CWLS LOG ASCII STANDARD - VERSION 2.00
 WRAP.                        NO:        ONE LINE PER DEPTH STEP
~WELL INFORMATION
#MNEM.UNIT               DATA            INFORMATION
#----------          ------------        ------------------------------
 STRT.F                 100.0000:        START DEPTH
 STOP.F                7938.0000:        STOP DEPTH
 STEP.F                   0.5000:        STEP VALUE
 NULL.                 -999.2500:        NULL VALUE
 COMP.                          :        COMPANY  
 WELL.             DREW POINT #1:        WELL     
 FLD .                   WILDCAT:        FIELD    
 LOC .              26  18N   8W:        LOCATION   
 CNTY.               NORTH SLOPE:        COUNTY  
 STAT.                    ALASKA:        STATE   
 CTRY.                       USA:        COUNTRY 
 DATE.                   1/17/78:        LOG DATE 
 API .              500292000200:        UNIQUE WELL IDENTIFIER 
 OPER.                          :        OPERATOR  
 SRVC.              Schlumberger:        SERVICE COMPANY 
 UWI .              500292000200:        UNIQUE WELL ID 
 LAT .                    0.0000:        LATITUDE
 LON .                    0.0000:        LONGITUDE
 DIGS.          Center Line Data:        DIGITIZING COMPANY 
~CURVE INFORMATION      
#MNEM.UNIT            API CODE           CURVE DESCRIPTION
#---------          -------------        ------------------------------
 DEPT.F                         :        1  DEPTH
 SP  .MV                        :        2
 ILD .OHMM                      :        3
 ILM .OHMM                      :        4
 LL8 .OHMM                      :        5
 GR  .GAPI                      :        6
 CALI.IN                        :        7
 DRHO.G/C3                      :        8
 RHOB.G/C3                      :        9
 NPHI.%                         :       10
 DT  .US/F                      :       11
~PARAMETER INFORMATION       
#MNEM.UNIT              VALUE            DESCRIPTION OF MNEMONIC
#---------          -------------        ------------------------------
 EKB .F                  35.0000:        KELLY BUSHING
 TD  .F                7946.0000:        TOTAL DEPTH
 BHT .F                  75.0000:        BOTTOM HOLE TEMPERATURE
 BS  .                   17.5000:        BIT SIZE
 FD  .                    9.8000:        FLUID DENSITY
 CSIZ.                   20.0000:        CASING SIZE
 CBD .F                  80.0000:        CASING DRILLER 1
 CBL .F                 106.0000:        CASING LOGGER 1
 DFT .             Miscellaneous:        TYPE FLUID IN HOLE
 DFV .                   36.0000:        VISCOSITY
 DFPH.                    7.0000:        PH
 DFL .                    0.0000:        FLUID LOSS
 RMS .                    4.5200:        RM
 MST .F                  52.0000:        RM MEAS. TEMP.
 RMF .                    2.8700:        RMF
 MFST.F                  71.0000:        RMF MEAS. TEMP.
 RMC .                    3.5000:        RMC
 MCST.F                  71.0000:        RMC MEAS. TEMP.
 UWI .              500292000200:        UNIQUE WELL ID
~OTHER INFORMATION
~A    DEPTH          SP         ILD         ILM         LL8          GR        CALI        DRHO        RHOB        NPHI          DT  
# ...
  3220.0000    -39.2850      4.5841      4.7744      4.6237     88.9660     13.9293      0.0683      2.3124     45.5037    110.5481  
  3220.5000    -39.6185      4.6050      4.8059      4.6690     89.9964     13.9823      0.0743      2.3043     46.3026    114.5400  
  3221.0000    -40.1126      4.6944      4.9198      4.9281     92.1258     13.9742      0.0934      2.3083     47.8144    115.7020  
  3221.5000    -40.4953      4.7856      5.0106      5.1537     94.9629     13.7512      0.1142      2.3171     49.4014    116.3120  
  3222.0000    -40.5461      4.8786      4.9373      4.9550     96.9443     13.3391      0.1296      2.3203     49.9542    116.9409  
  3222.5000    -40.2682      4.9734      4.8652      4.7890     98.4401     13.2124      0.1173      2.3277     49.1446    118.1691  
  3223.0000    -39.6324      5.0354      4.9124      4.9033     98.7250     13.2122      0.1226      2.3433     48.8155    118.0263  
  3223.5000    -39.0902      5.0609      5.0340      5.0204     98.3468     13.2110      0.1287      2.3378     48.6275    123.9943  
  3224.0000    -38.8882      5.0866      5.1142      5.0864     98.8900     13.2101      0.1099      2.3096     48.1766    122.4263  
  3224.5000    -39.1348      5.1124      5.0873      5.1562     98.9449     13.2096      0.0935      2.3080     48.3332    116.5130  
  3225.0000    -39.3769      5.1383      5.0606      5.2405     97.5133     13.2365      0.1072      2.3312     48.4695    115.3146  
  3225.5000    -39.1231      5.1644      5.0340      5.3262     96.7910     13.2893      0.1140      2.3308     48.4724    114.5619  
  3226.0000    -38.5293      5.1906      5.0074      5.3358     97.1183     13.2449      0.1158      2.3043     48.9799    111.3195  
  3226.5000    -37.6439      5.1367      4.9369      5.1674     97.1313     13.1208      0.1013      2.2864     49.7887    118.3960  
  3227.0000    -37.1903      5.0666      4.8674      5.0044     96.5153     12.9760      0.0904      2.3015     50.7789    116.1903  
  3227.5000    -37.1451      4.9975      4.7989      4.9118     96.2234     13.0783      0.1027      2.3481     51.3393    110.2424  
  3228.0000    -37.3343      4.9294      4.7313      4.8651     95.9879     13.3355      0.1060      2.3758     51.8132    112.2341  
  3228.5000    -37.5469      4.8621      4.6647      4.7866     95.3935     13.5062      0.0970      2.3568     51.8396    107.9497  
  3229.0000    -37.8045      4.7958      4.5990      4.6407     93.7578     13.6117      0.0878      2.3581     50.7268    106.4635  
  3229.5000    -38.0516      4.7375      4.5342      4.5798     92.4059     13.6748      0.0783      2.3606     47.8888    109.2643  
  3230.0000    -38.2524      4.6937      4.4704      4.5776     91.0174     13.8687      0.0742      2.3410     46.7497    111.2681  
  3230.5000    -38.3038      4.6503      4.4074      4.5529     92.0607     13.9237      0.0786      2.3284     46.7022    113.9116  
  3231.0000    -38.2087      4.6072      4.3454      4.5283     92.8378     13.9787      0.0894      2.3258     47.1338    116.5995  
  3231.5000    -38.0950      4.5646      4.2968      4.5039     94.4642     14.0399      0.1002      2.3274     47.7621    117.8135  
  3232.0000    -37.9855      4.5223      4.3286      4.4758     96.0290     13.8718      0.0943      2.3102     48.8453    116.4958  
  3232.5000    -37.9691      4.5610      4.3606      4.5236     97.8381     13.5246      0.0990      2.3085     49.8833    117.7289  
  3233.0000    -37.9637      4.6353      4.3929      4.6840     99.6264     13.5063      0.0956      2.3180     50.0732    117.8635  
  3233.5000    -38.0994      4.7109      4.5275      4.8915    101.0258     13.5102      0.0935      2.3207     49.1155    115.0608  
  3234.0000    -38.4244      4.6778      4.6707      5.1082    102.1542     13.5210      0.0869      2.3073     48.3215    117.1445  
  3234.5000    -38.7890      4.5708      4.5363      4.9202    102.8171     13.5349      0.0929      2.3010     48.5530    120.6280  
  3235.0000    -39.0693      4.4664      4.4058      4.6026    102.9022     13.5098      0.0971      2.3043     49.1065    120.8473  
  3235.5000    -39.0818      4.3643      4.2791      4.3946    102.5606     13.5060      0.1007      2.3140     49.6408    121.2812  
  3236.0000    -38.9238      4.2645      4.1758      4.3554    100.9502     13.4904      0.1012      2.3111     49.4840    119.6710  
  3236.5000    -38.6918      4.2614      4.2360      4.3797     98.8199     13.4285      0.0934      2.3011     49.1524    113.9146  
  3237.0000    -38.4633      4.3707      4.2971      4.5089     98.1863     13.4306      0.0938      2.3062     49.2392    110.6411  
  3237.5000    -38.2255      4.4829      4.3590      4.7287     97.5149     13.4343      0.0991      2.3162     49.2469    110.6141  
  3238.0000    -38.2659      4.5979      4.4218      4.9310     96.3659     13.4384      0.1025      2.3245     48.4000    113.7065  
  3238.5000    -38.7339      4.6088      4.4279      4.8373     95.2895     13.4433      0.1169      2.3421     47.5971    118.8238  
  3239.0000    -39.2752      4.5675      4.3910      4.7454     94.7654     13.4306      0.1074      2.3438     47.7030    126.0663  
  3239.5000    -39.5868      4.5266      4.3545      4.6553     97.7507     13.4028      0.1040      2.3351     47.9114    127.7845  
  3240.0000    -39.8004      4.4860      4.3182      4.5668    101.6092     13.4274      0.0790      2.3102     47.7776    123.9023  
  3240.5000    -39.9937      4.4458      4.2823      4.4801    104.1471     13.4595      0.0768      2.2932     47.7485    120.3445  
  3241.0000    -40.1944      4.4060      4.2466      4.4550    104.5285     13.4734      0.0887      2.2801     48.1632    115.1379  
  3241.5000    -40.0629      4.3665      4.2113      4.4606    103.6476     13.4739      0.0868      2.2775     48.7134    114.1217  
  3242.0000    -39.8650      4.3459      4.1992      4.4263    103.7287     13.4593      0.0910      2.2797     49.9498    117.8003  
  3242.5000    -39.6847      4.3522      4.2172      4.4725    104.3753     13.4551      0.0951      2.2848     51.1100    117.1339  
  3243.0000    -39.5386      4.3586      4.2353      4.5662    104.3445     13.4526      0.0961      2.2891     50.9501    120.4296  
  3243.5000    -39.3538      4.3650      4.2534      4.6619    103.4993     13.3902      0.0947      2.3008     50.8512    122.7983  
  3244.0000    -39.2786      4.3715      4.2333      4.7423    101.8690     13.4214      0.0836      2.2966     50.6203    121.3432  
  3244.5000    -39.4446      4.3637      4.1874      4.6002    101.6855     13.5812      0.0809      2.3022     50.1748    121.9692  
  3245.0000    -39.5149      4.3031      4.1420      4.4624    103.1156     13.6420      0.0952      2.2989     49.8680    123.8028  
  3245.5000    -39.5393      4.2433      4.0970      4.3287    103.8295     13.6529      0.1003      2.2913     49.8380    123.8711  
  3246.0000    -39.6091      4.1843      4.0526      4.1990    103.9521     13.6538      0.1121      2.2926     49.8357    120.5298  
  3246.5000    -39.9342      4.1261      4.0086      4.0871    102.3463     13.6583      0.1126      2.3029     49.8766    119.8448  
  3247.0000    -40.1004      4.0687      3.9666      4.1149    100.2007     13.6680      0.1134      2.3088     50.0675    119.7298  
  3247.5000    -40.1388      4.1231      3.9918      4.2331    100.3790     13.6630      0.1243      2.3268     49.9567    119.4002  
  3248.0000    -39.9891      4.2063      4.0171      4.3546    101.2874     13.6517      0.1200      2.3161     49.7373    122.2754  
  3248.5000    -39.7970      4.2280      4.0426      4.4281     99.8255     13.6404      0.1067      2.3074     49.8038    124.4281  
  3249.0000    -39.7033      4.2338      4.0682      4.3997     97.6107     13.6365      0.1105      2.3033     49.8457    125.1981  
  3249.5000    -39.6377      4.3799      4.1248      4.3714     96.8089     13.6461      0.1012      2.3106     49.8159    126.6174  
