~VERSION INFORMATION
 VERS.                      2.00:        CWLS LOG ASCII STANDARD - VERSION 2.00
 WRAP.                        NO:        ONE LINE PER DEPTH STEP
~WELL INFORMATION
#MNEM.UNIT               DATA            INFORMATION
#----------          ------------        ------------------------------
 STRT.F                 100.0000:        START DEPTH
 STOP.F                7938.0000:        STOP DEPTH
 STEP.F                   0.5000:        STEP VALUE
 NULL.                 -999.2500:        NULL VALUE
 COMP.                          :        COMPANY  
 WELL.             DREW POINT #1:        WELL     
 FLD .                   WILDCAT:        FIELD    
 LOC .              26  18N   8W:        LOCATION   
 CNTY.               NORTH SLOPE:        COUNTY  
 STAT.                    ALASKA:        STATE   
 CTRY.                       USA:        COUNTRY 
 DATE.                   1/17/78:        LOG DATE 
 API .              500292000200:        UNIQUE WELL IDENTIFIER 
 OPER.                          :        OPERATOR  
 SRVC.              Schlumberger:        SERVICE COMPANY 
 UWI .              500292000200:        UNIQUE WELL ID 
 LAT .                    0.0000:        LATITUDE
 LON .                    0.0000:        LONGITUDE
 DIGS.          Center Line Data:        DIGITIZING COMPANY 
~CURVE INFORMATION      
#MNEM.UNIT            API CODE           CURVE DESCRIPTION
#---------          -------------        ------------------------------
 DEPT.F                         :        1  DEPTH
 SP  .MV                        :        2
 ILD .OHMM                      :        3
 ILM .OHMM                      :        4
 LL8 .OHMM                      :        5
 GR  .GAPI                      :        6
 CALI.IN                        :        7
 DRHO.G/C3                      :        8
 RHOB.G/C3                      :        9
 NPHI.%                         :       10
 DT  .US/F                      :       11
~PARAMETER INFORMATION       
#MNEM.UNIT              VALUE            DESCRIPTION OF MNEMONIC
#---------          -------------        ------------------------------
 EKB .F                  35.0000:        KELLY BUSHING
 TD  .F                7946.0000:        TOTAL DEPTH
 BHT .F                  75.0000:        BOTTOM HOLE TEMPERATURE
 BS  .                   17.5000:        BIT SIZE
 FD  .                    9.8000:        FLUID DENSITY
 CSIZ.                   20.0000:        CASING SIZE
 CBD .F                  80.0000:        CASING DRILLER 1
 CBL .F                 106.0000:        CASING LOGGER 1
 DFT .             Miscellaneous:        TYPE FLUID IN HOLE
 DFV .                   36.0000:        VISCOSITY
 DFPH.                    7.0000:        PH
 DFL .                    0.0000:        FLUID LOSS
 RMS .                    4.5200:        RM
 MST .F                  52.0000:        RM MEAS. TEMP.
 RMF .                    2.8700:        RMF
 MFST.F                  71.0000:        RMF MEAS. TEMP.
 RMC .                    3.5000:        RMC
 MCST.F                  71.0000:        RMC MEAS. TEMP.
 UWI .              500292000200:        UNIQUE WELL ID
~OTHER INFORMATION
~A    DEPTH          SP         ILD         ILM         LL8          GR        CALI        DRHO        RHOB        NPHI          DT  
# ...
  2170.0000    -13.4169      5.0281      4.5336      6.0347     51.7105   -999.2500   -999.2500   -999.2500   -999.2500    122.3277  
  2170.5000    -13.4905      4.9967      4.5417      6.0156     51.7674   -999.2500   -999.2500   -999.2500   -999.2500    121.3102  
  2171.0000    -13.9674      4.9655      4.5499      5.9997     52.1539   -999.2500   -999.2500   -999.2500   -999.2500    122.2252  
  2171.5000    -14.5458      4.9345      4.5580      5.9941     53.0682   -999.2500   -999.2500   -999.2500   -999.2500    121.1025  
  2172.0000    -14.9315      4.9038      4.5662      5.9747     54.9315   -999.2500   -999.2500   -999.2500   -999.2500    121.6654  
  2172.5000    -15.0761      4.8732      4.5744      5.9833     57.7471   -999.2500   -999.2500   -999.2500   -999.2500    121.8042  
  2173.0000    -14.9389      4.8428      4.5802      5.9818     59.9597   -999.2500   -999.2500   -999.2500   -999.2500    117.9271  
  2173.5000    -14.8511      4.8126      4.5589      5.9469     60.5315   -999.2500   -999.2500   -999.2500   -999.2500    113.4358  
  2174.0000    -14.9642      4.8212      4.5377      5.8961     58.8143   -999.2500   -999.2500   -999.2500   -999.2500    111.6667  
  2174.5000    -15.0560      4.7982      4.5166      5.8880     56.5295   -999.2500   -999.2500   -999.2500   -999.2500    112.9613  
  2175.0000    -15.0561      4.7716      4.4956      5.9367     55.5716   -999.2500   -999.2500   -999.2500   -999.2500    117.5641  
  2175.5000    -15.0496      4.7693      4.4747      5.9636     55.5651   -999.2500   -999.2500   -999.2500   -999.2500    122.6460  
  2176.0000    -15.0260      4.7162      4.4539      5.9796     56.1292   -999.2500   -999.2500   -999.2500   -999.2500    123.6112  
  2176.5000    -14.9492      4.6576      4.4332      5.9950     57.5115   -999.2500   -999.2500   -999.2500   -999.2500    123.9869  
  2177.0000    -14.7201      4.6172      4.3993      5.9619     58.1969   -999.2500   -999.2500   -999.2500   -999.2500    123.9765  
  2177.5000    -14.4538      4.5039      4.2686      5.8726     57.4596   -999.2500   -999.2500   -999.2500   -999.2500    122.3840  
  2178.0000    -14.1762      4.4631      4.1717      5.7536     56.2898   -999.2500   -999.2500   -999.2500   -999.2500    121.1337  
  2178.5000    -13.9676      4.4731      4.1979      5.6540     56.7497   -999.2500   -999.2500   -999.2500   -999.2500    120.9641  
  2179.0000    -13.6584      4.4751      4.2243      5.6284     58.0130   -999.2500   -999.2500   -999.2500   -999.2500    123.0022  
  2179.5000    -13.3396      4.4903      4.2508      5.8375     59.4179   -999.2500   -999.2500   -999.2500   -999.2500    126.7442  
  2180.0000    -13.0999      4.4932      4.2776      5.9249     60.6958   -999.2500   -999.2500   -999.2500   -999.2500    129.8921  
  2180.5000    -12.9312      4.4961      4.3044      5.9762     61.4730   -999.2500   -999.2500   -999.2500   -999.2500    128.8438  
  2181.0000    -12.6896      4.5031      4.3315      5.9478     61.6389   -999.2500   -999.2500   -999.2500   -999.2500    127.8308  
  2181.5000    -12.3099      4.5201      4.3587      5.9090     61.5218   -999.2500   -999.2500   -999.2500   -999.2500    126.8401  
  2182.0000    -11.8563      4.5161      4.3861      5.8690     60.2576   -999.2500   -999.2500   -999.2500   -999.2500    126.2039  
  2182.5000    -11.5099      4.5046      4.3995      5.8467     58.7602   -999.2500   -999.2500   -999.2500   -999.2500    126.5896  
  2183.0000    -11.2941      4.4591      4.3527      5.9029     57.3604   -999.2500   -999.2500   -999.2500   -999.2500    126.4593  
  2183.5000    -11.0649      4.4320      4.3063      5.9530     56.7560   -999.2500   -999.2500   -999.2500   -999.2500    125.8307  
  2184.0000    -10.8358      4.4029      4.2604      5.9258     57.4268   -999.2500   -999.2500   -999.2500   -999.2500    125.3435  
  2184.5000    -11.4945      4.3479      4.2150      5.8767     58.6892   -999.2500   -999.2500   -999.2500   -999.2500    124.8040  
  2185.0000    -12.1784      4.3115      4.1701      5.8472     60.0314   -999.2500   -999.2500   -999.2500   -999.2500    123.5405  
  2185.5000    -12.9368      4.2589      4.1257      5.8259     61.3275   -999.2500   -999.2500   -999.2500   -999.2500    125.8810  
  2186.0000    -13.6333      4.1939      4.0818      5.7311     62.5756   -999.2500   -999.2500   -999.2500   -999.2500    125.9929  
  2186.5000    -14.2782      4.1325      4.0383      5.6230     62.2246   -999.2500   -999.2500   -999.2500   -999.2500    125.1037  
  2187.0000    -14.5624      4.1204      3.9953      5.5128     61.8578   -999.2500   -999.2500   -999.2500   -999.2500    125.2535  
  2187.5000    -14.4431      4.0986      3.9965      5.4253     62.6164   -999.2500   -999.2500   -999.2500   -999.2500    124.2941  
  2188.0000    -13.7372      4.0916      4.0018      5.4331     64.4482   -999.2500   -999.2500   -999.2500   -999.2500    126.0652  
  2188.5000    -12.9064      4.1044      4.0071      5.4614     65.4083   -999.2500   -999.2500   -999.2500   -999.2500    129.3860  
  2189.0000    -12.5154      4.1043      4.0124      5.4728     65.0195   -999.2500   -999.2500   -999.2500   -999.2500    133.1134  
  2189.5000    -12.4343      4.1325      4.0177      5.5466     64.7985   -999.2500   -999.2500   -999.2500   -999.2500    135.2472  
  2190.0000    -12.4436      4.1845      4.0231      5.6463     64.4041   -999.2500   -999.2500   -999.2500   -999.2500    136.5071  
  2190.5000    -12.4117      4.2218      4.0284      5.7383     63.4217   -999.2500   -999.2500   -999.2500   -999.2500    135.7670  
  2191.0000    -12.3508      4.1980      4.0337      5.7503     61.4286   -999.2500   -999.2500   -999.2500   -999.2500    133.1716  
  2191.5000    -12.3902      4.1691      4.0391      5.7071     58.9875   -999.2500   -999.2500   -999.2500   -999.2500    129.4538  
  2192.0000    -12.3351      4.2621      4.0444      5.6588     57.5954   -999.2500   -999.2500   -999.2500   -999.2500    127.3985  
  2192.5000    -12.1836      4.2720      4.0498      5.6110     56.7874   -999.2500   -999.2500   -999.2500   -999.2500    127.4808  
  2193.0000    -12.2408      4.2276      4.0551      5.5636     56.6283   -999.2500   -999.2500   -999.2500   -999.2500    128.6851  
  2193.5000    -12.5503      4.2210      4.0605      5.5344     56.5078   -999.2500   -999.2500   -999.2500   -999.2500    130.6181  
  2194.0000    -12.9406      4.2395      4.0518      5.5186     57.1271   -999.2500   -999.2500   -999.2500   -999.2500    131.5410  
  2194.5000    -13.2120      4.1506      4.0420      5.5233     58.1939   -999.2500   -999.2500   -999.2500   -999.2500    131.1470  
  2195.0000    -13.3803      4.1445      4.0322      5.5475     59.5235   -999.2500   -999.2500   -999.2500   -999.2500    130.5418  
  2195.5000    -13.5202      4.1458      4.0225      5.5452     61.4984   -999.2500   -999.2500   -999.2500   -999.2500    129.9519  
  2196.0000    -13.6380      4.1230      4.0128      5.4485     63.5081   -999.2500   -999.2500   -999.2500   -999.2500    129.5434  
  2196.5000    -13.6917      4.0971      4.0031      5.3892     62.6285   -999.2500   -999.2500   -999.2500   -999.2500    130.1519  
  2197.0000    -13.5688      4.1130      3.9934      5.3305     61.4748   -999.2500   -999.2500   -999.2500   -999.2500    130.7758  
  2197.5000    -13.5107      4.1182      3.9838      5.2724     60.0464   -999.2500   -999.2500   -999.2500   -999.2500    132.1286  
  2198.0000    -13.8567      4.1181      3.9742      5.4182     58.9613   -999.2500   -999.2500   -999.2500   -999.2500    133.8175  
  2198.5000    -14.2948      4.1179      3.9646      5.6961     58.8283   -999.2500   -999.2500   -999.2500   -999.2500    134.5398  
  2199.0000    -14.7502      4.1177      3.9550      6.0526     58.6931   -999.2500   -999.2500   -999.2500   -999.2500    135.1034  
  2199.5000    -15.3745      4.1176      3.9455      6.4302     57.7507   -999.2500   -999.2500   -999.2500   -999.2500    135.1716  
