~VERSION INFORMATION
 VERS.                      2.00:        CWLS LOG ASCII STANDARD - VERSION 2.00
 WRAP.                        NO:        ONE LINE PER DEPTH STEP
~WELL INFORMATION
#MNEM.UNIT               DATA            INFORMATION
#----------          ------------        ------------------------------
 STRT.F                 100.0000:        START DEPTH
 STOP.F                7938.0000:        STOP DEPTH
 STEP.F                   0.5000:        STEP VALUE
 NULL.                 -999.2500:        NULL VALUE
 COMP.                          :        COMPANY  
 WELL.             DREW POINT #1:        WELL     
 FLD .                   WILDCAT:        FIELD    
 LOC .              26  18N   8W:        LOCATION   
 CNTY.               NORTH SLOPE:        COUNTY  
 STAT.                    ALASKA:        STATE   
 CTRY.                       USA:        COUNTRY 
 DATE.                   1/17/78:        LOG DATE 
 API .              500292000200:        UNIQUE WELL IDENTIFIER 
 OPER.                          :        OPERATOR  
 SRVC.              Schlumberger:        SERVICE COMPANY 
 UWI .              500292000200:        UNIQUE WELL ID 
 LAT .                    0.0000:        LATITUDE
 LON .                    0.0000:        LONGITUDE
 DIGS.          Center Line Data:        DIGITIZING COMPANY 
~CURVE INFORMATION      
#MNEM.UNIT            API CODE           CURVE DESCRIPTION
#---------          -------------        ------------------------------
 DEPT.F                         :        1  DEPTH
 SP  .MV                        :        2
 ILD .OHMM                      :        3
 ILM .OHMM                      :        4
 LL8 .OHMM                      :        5
 GR  .GAPI                      :        6
 CALI.IN                        :        7
 DRHO.G/C3                      :        8
 RHOB.G/C3                      :        9
 NPHI.%                         :       10
 DT  .US/F                      :       11
~PARAMETER INFORMATION       
#MNEM.UNIT              VALUE            DESCRIPTION OF MNEMONIC
#---------          -------------        ------------------------------
 EKB .F                  35.0000:        KELLY BUSHING
 TD  .F                7946.0000:        TOTAL DEPTH
 BHT .F                  75.0000:        BOTTOM HOLE TEMPERATURE
 BS  .                   17.5000:        BIT SIZE
 FD  .                    9.8000:        FLUID DENSITY
 CSIZ.                   20.0000:        CASING SIZE
 CBD .F                  80.0000:        CASING DRILLER 1
 CBL .F                 106.0000:        CASING LOGGER 1
 DFT .             Miscellaneous:        TYPE FLUID IN HOLE
 DFV .                   36.0000:        VISCOSITY
 DFPH.                    7.0000:        PH
 DFL .                    0.0000:        FLUID LOSS
 RMS .                    4.5200:        RM
 MST .F                  52.0000:        RM MEAS. TEMP.
 RMF .                    2.8700:        RMF
 MFST.F                  71.0000:        RMF MEAS. TEMP.
 RMC .                    3.5000:        RMC
 MCST.F                  71.0000:        RMC MEAS. TEMP.
 UWI .              500292000200:        UNIQUE WELL ID
~OTHER INFORMATION
~A    DEPTH          SP         ILD         ILM         LL8          GR        CALI        DRHO        RHOB        NPHI          DT  
# ...
  3730.0000    -37.7429      4.7534      5.1030      4.8609    115.8047   -999.2500      0.0764      2.3897     40.5503    111.8391  
  3730.5000    -37.8992      4.7565      5.0996      4.8632    116.8683   -999.2500      0.0898      2.4177     40.1669    112.2888  
  3731.0000    -38.1762      4.7596      5.0962      4.8656    116.0428   -999.2500      0.0932      2.4320     39.3486    112.4530  
  3731.5000    -38.4767      4.7627      5.0928      4.8679    113.6725   -999.2500      0.0817      2.4307     38.3450    110.9802  
  3732.0000    -38.7149      4.7657      5.0893      4.8702    112.6990   -999.2500      0.0897      2.4251     37.9950    110.8940  
  3732.5000    -38.8567      4.7688      5.0859      4.8726    113.2224   -999.2500      0.0828      2.4130     37.9290    111.3335  
  3733.0000    -38.8709      4.7719      5.0825      4.8749    113.6116   -999.2500      0.0750      2.3998     37.2673    111.0255  
  3733.5000    -38.9282      4.7751      5.0791      4.8773    113.3308   -999.2500      0.0775      2.3955     37.1223    111.3326  
  3734.0000    -38.8418      4.7782      5.0757      4.8804    112.5156   -999.2500      0.0561      2.3800     37.8999    111.5264  
  3734.5000    -38.6945      4.7813      5.0723      4.8992    112.0088   -999.2500      0.0488      2.3884     38.3816    111.6086  
  3735.0000    -38.5805      4.7788      5.0689      4.9025    112.5970   -999.2500      0.0782      2.3965     38.4625    111.4964  
  3735.5000    -38.4952      4.7704      5.0655      4.9059    113.5881   -999.2500      0.0840      2.3863     38.6241    111.5388  
  3736.0000    -38.2927      4.7619      5.0621      4.9093    116.1833   -999.2500      0.0717      2.3473     39.3884    111.4762  
  3736.5000    -38.0401      4.7535      5.0587      4.9126    118.0584   -999.2500      0.0828      2.3234     40.4359    110.5487  
  3737.0000    -37.6279      4.7451      5.0553      4.9160    119.1023   -999.2500      0.0864      2.3317     39.7605    110.1730  
  3737.5000    -37.2906      4.7366      5.0519      4.9194    119.2396   -999.2500      0.0633      2.3433     38.7787    110.4586  
  3738.0000    -37.0991      4.7283      5.0486      4.9227    119.2064   -999.2500      0.0755      2.3607     37.5028    110.3744  
  3738.5000    -37.0296      4.7199      5.0475      4.9233    115.8625   -999.2500      0.0770      2.3776     37.1230    111.3548  
  3739.0000    -36.9551      4.7115      5.0516      4.9129    112.8983   -999.2500      0.0790      2.3836     37.7334    112.2663  
  3739.5000    -36.8608      4.7032      5.0556      4.9114    112.1782   -999.2500      0.0858      2.3872     37.4646    112.0937  
  3740.0000    -36.8613      4.6948      5.0597      4.8333    111.3499   -999.2500      0.0950      2.4050     36.7449    111.6964  
  3740.5000    -36.8941      4.6865      5.0638      4.8089    112.5408   -999.2500      0.1016      2.4255     36.3290    111.0066  
  3741.0000    -37.3242      4.6782      5.0679      4.8124    114.4354   -999.2500      0.1031      2.4322     36.7437    109.7657  
  3741.5000    -38.0487      4.6699      5.0719      4.8157    115.6829   -999.2500      0.1063      2.4443     37.2744    110.3062  
  3742.0000    -38.7250      4.6616      5.0760      4.8190    114.9775   -999.2500      0.1081      2.4308     37.5252    112.0801  
  3742.5000    -39.0995      4.6690      5.0801      4.8223    114.1460   -999.2500      0.0892      2.3977     37.6540    112.0510  
  3743.0000    -39.0122      4.6816      5.0842      4.8256    114.2579   -999.2500      0.0771      2.3911     38.0198    112.3120  
  3743.5000    -38.4643      4.6942      5.0883      4.8289    114.6374   -999.2500      0.0674      2.3800     38.4307    113.1140  
  3744.0000    -38.2485      4.7068      5.0924      4.8322    115.1920   -999.2500      0.0547      2.3655     38.9161    112.7804  
  3744.5000    -38.2165      4.7184      5.0965      4.8355    115.3167   -999.2500      0.0599      2.3710     38.9918    112.5752  
  3745.0000    -38.3206      4.7117      5.1006      4.8388    115.7605   -999.2500      0.0493      2.3715     38.6363    112.1703  
  3745.5000    -38.4011      4.7050      5.1047      4.8268    116.6259   -999.2500      0.0508      2.3714     38.2807    111.9361  
  3746.0000    -38.1987      4.6983      5.1088      4.7733    116.2914   -999.2500      0.0653      2.3930     38.9818    111.5289  
  3746.5000    -38.0457      4.6916      5.1068      4.8614    115.8979   -999.2500      0.0815      2.4068     39.6971    111.5076  
  3747.0000    -37.9073      4.6850      5.0994      4.8301    116.0612   -999.2500      0.0802      2.3981     40.1085    111.7347  
  3747.5000    -37.5643      4.6783      5.0920      4.8004    116.2632   -999.2500      0.0806      2.3965     40.1669    111.7495  
  3748.0000    -37.1943      4.6717      5.0846      4.8045    116.1459   -999.2500      0.0904      2.4106     39.4090    111.8637  
  3748.5000    -37.0585      4.6650      5.0772      4.8142    116.2435   -999.2500      0.0887      2.3985     38.5196    111.9751  
  3749.0000    -37.0358      4.6584      5.0698      4.7889    115.8403   -999.2500      0.0806      2.3884     37.9691    111.5172  
  3749.5000    -37.0132      4.6518      5.0624      4.7887    114.8281   -999.2500      0.0747      2.3892     37.6673    111.0374  
  3750.0000    -36.9672      4.6452      5.0551      4.7553    114.8191   -999.2500      0.0425      2.3527     37.6737    110.8509  
  3750.5000    -37.0362      4.6386      5.0477      4.7341    114.7578   -999.2500      0.0320      2.3369     37.6822    112.0363  
  3751.0000    -37.4366      4.6320      5.0404      4.7621    114.5044   -999.2500      0.0313      2.3491     37.7227    112.6781  
  3751.5000    -37.7866      4.6254      5.0331      4.7864    114.3041   -999.2500      0.0483      2.3731     38.5750    112.8125  
  3752.0000    -38.0005      4.6221      5.0342      4.7446    113.7086   -999.2500      0.0621      2.3811     39.4272    112.4113  
  3752.5000    -38.0839      4.6502      5.0499      4.7609    112.9347   -999.2500      0.0629      2.3826     39.9934    112.1764  
  3753.0000    -38.0540      4.6784      5.0656      4.8219    113.0448   -999.2500      0.0632      2.3865     40.0365    112.0102  
  3753.5000    -38.0301      4.7067      5.0813      4.8208    114.2366   -999.2500      0.0732      2.3940     39.8656    111.6016  
  3754.0000    -38.1222      4.7353      5.0971      4.7739    115.4166   -999.2500      0.0695      2.3853     39.6390    111.7584  
  3754.5000    -38.2346      4.7640      5.1130      4.8666    115.9691   -999.2500      0.0650      2.3900     39.4124    112.0679  
  3755.0000    -38.4194      4.7551      5.0950      4.8925    115.3461   -999.2500      0.0656      2.3908     39.2313    112.3288  
  3755.5000    -38.5677      4.7421      5.0712      4.8277    114.9306   -999.2500      0.0601      2.3855     38.8355    112.4026  
  3756.0000    -38.5285      4.7291      5.0475      4.7972    115.8607   -999.2500      0.0538      2.3813     38.4193    112.8514  
  3756.5000    -38.4213      4.7161      5.0240      4.8434    117.0153   -999.2500      0.0481      2.3745     38.5071    112.0097  
  3757.0000    -38.1984      4.7031      5.0005      4.8015    115.2340   -999.2500      0.0474      2.3810     39.1533    111.9137  
  3757.5000    -37.8921      4.6902      4.9771      4.7665    114.2809   -999.2500      0.0581      2.3931     39.5671    112.3205  
  3758.0000    -37.6490      4.6773      4.9539      4.7733    115.7530   -999.2500      0.0766      2.4101     39.9243    112.2487  
  3758.5000    -37.4930      4.6645      4.9543      4.7903    116.2469   -999.2500      0.0891      2.4219     40.2105    112.9348  
  3759.0000    -37.2730      4.6517      4.9700      4.7717    115.3968   -999.2500      0.0823      2.4211     39.8820    112.6652  
  3759.5000    -37.1220      4.6389      4.9858      4.8146    114.6455   -999.2500      0.0954      2.4294     38.8482    113.2598  
