~VERSION INFORMATION
 VERS.                      2.00:        CWLS LOG ASCII STANDARD - VERSION 2.00
 WRAP.                        NO:        ONE LINE PER DEPTH STEP
~WELL INFORMATION
#MNEM.UNIT               DATA            INFORMATION
#----------          ------------        ------------------------------
 STRT.F                  81.0000:        START DEPTH
 STOP.F               15400.0000:        STOP DEPTH
 STEP.F                   0.5000:        STEP VALUE
 NULL.                 -999.2500:        NULL VALUE
 COMP. USGS/NPR HUSKY OIL OPERAT:        COMPANY  
 WELL.     IKPIKPUK TEST WELL #1:        WELL     
 FLD .                   WILDCAT:        FIELD    
 LOC .              25  13N  10W:        LOCATION   
 CNTY.               NORTH SLPOE:        COUNTY  
 STAT.                    ALASKA:        STATE   
 CTRY.                       USA:        COUNTRY 
 DATE.                  11/29/78:        LOG DATE 
 API .              502792000400:        UNIQUE WELL IDENTIFIER 
 OPER. USGS/NPR HUSKY OIL OPERAT:        OPERATOR  
 SRVC.              Schlumberger:        SERVICE COMPANY 
 UWI .              502792000400:        UNIQUE WELL ID 
 LAT .                    0.0000:        LATITUDE
 LON .                    0.0000:        LONGITUDE
 DIGS.          Center Line Data:        DIGITIZING COMPANY 
~CURVE INFORMATION      
#MNEM.UNIT            API CODE           CURVE DESCRIPTION
#---------          -------------        ------------------------------
 DEPT.F                         :        1  DEPTH
 SP  .MV                        :        2
 ILD .OHMM                      :        3
 ILM .OHMM                      :        4
 LL8 .OHMM                      :        5
 GR  .GAPI                      :        6
 CALI.IN                        :        7
 RHOB.G/C3                      :        8
 DRHO.G/C3                      :        9
 NPHI.%                         :       10
 DT  .US/F                      :       11
~PARAMETER INFORMATION       
#MNEM.UNIT              VALUE            DESCRIPTION OF MNEMONIC
#---------          -------------        ------------------------------
 EKB .F                  52.0000:        KELLY BUSHING
 TD  .F               15481.0000:        TOTAL DEPTH
 BHT .F                   0.0000:        BOTTOM HOLE TEMPERATURE
 BS  .                   17.5000:        BIT SIZE
 FD  .                    9.0000:        FLUID DENSITY
 CSIZ.                   30.0000:        CASING SIZE
 CBD .F                 100.0000:        CASING DRILLER 1
 CBL .F                 101.0000:        CASING LOGGER 1
 DFT .                       Gel:        TYPE FLUID IN HOLE
 DFV .                   60.0000:        VISCOSITY
 DFPH.                    8.5000:        PH
 DFL .                   18.0000:        FLUID LOSS
 RMS .                    3.7300:        RM
 MST .F                  66.0000:        RM MEAS. TEMP.
 RMF .                    4.3900:        RMF
 MFST.F                  58.0000:        RMF MEAS. TEMP.
 RMC .                    2.5000:        RMC
 MCST.F                  57.0000:        RMC MEAS. TEMP.
 UWI .              502792000400:        UNIQUE WELL ID
~OTHER INFORMATION
~A    DEPTH          SP         ILD         ILM         LL8          GR        CALI        RHOB        DRHO        NPHI          DT  
# ...
  6231.0000    -52.6078     10.9119     10.1973     10.5708     35.7951     19.4156      2.4945      0.0253     20.0650     75.7840  
  6231.5000    -52.2264     10.6237     10.0906     10.2661     34.6354     19.1262      2.4868      0.0173     20.0438     75.6343  
  6232.0000    -52.2993     10.5425      9.9850     10.2161     34.4209     19.4418      2.4949      0.0263     19.3144     75.4998  
  6232.5000    -52.5032     10.8034     10.0035     10.4132     34.9582     19.6002      2.4998      0.0346     18.8599     75.8240  
  6233.0000    -52.8373     11.2295     10.3009     10.8049     35.7236     19.3031      2.4759      0.0204     19.3308     76.9387  
  6233.5000    -53.3258     11.5159     10.6072     11.1523     36.6316     19.3947      2.4625      0.0070     19.5374     76.9610  
  6234.0000    -53.4325     11.8638     10.9225     11.4464     37.6720     19.3377      2.4649      0.0006     19.2384     75.7055  
  6234.5000    -53.3323     12.1039     11.2473     11.7185     38.0700     19.1290      2.4821      0.0225     18.9881     73.6451  
  6235.0000    -52.7195     12.4582     11.5817     12.0314     36.3309     18.8865      2.4980      0.0333     18.5893     72.9897  
  6235.5000    -51.9139     12.7370     11.9260     12.2979     35.7461     18.6665      2.5027      0.0330     18.1976     73.1955  
  6236.0000    -51.0261     12.9717     12.2806     12.5747     36.9139     18.6039      2.5042      0.0305     17.8413     72.8717  
  6236.5000    -50.1158     13.0599     12.5192     12.6783     38.1942     18.7551      2.5058      0.0286     17.5785     72.3532  
  6237.0000    -49.4141     12.8505     12.0527     12.4333     38.5403     19.0671      2.5126      0.0226     17.1102     71.4704  
  6237.5000    -47.8132     12.4712     11.4555     11.9942     39.1952     19.3317      2.5253      0.0131     16.5549     70.1609  
  6238.0000    -46.3439     11.9699     10.3299     10.9332     41.8509     19.5963      2.5274      0.0128     15.9081     68.7914  
  6238.5000    -45.0557     11.8530      9.2744      9.5823     45.9714     19.4220      2.5164      0.0161     16.1403     68.1429  
  6239.0000    -44.1997     10.7293      8.2969      8.3982     48.9028     19.5042      2.5102      0.0199     17.3636     70.1002  
  6239.5000    -43.9838     10.4650      8.7140      8.7570     49.3348     19.7395      2.5112      0.0456     20.7423     72.8310  
  6240.0000    -43.8803     10.8571      9.4386      9.5164     48.1816     19.7177      2.4938      0.0527     22.7119     76.8310  
  6240.5000    -43.6304     10.9588     10.1636     10.3416     45.9975     19.5516      2.4807      0.0310     24.0970     79.6796  
  6241.0000    -43.1359     10.7809      9.5082      9.9402     45.9286     19.4434      2.4939      0.0402     23.0451     78.6784  
  6241.5000    -42.9347     10.6059      8.8951      9.3333     45.8920     19.4330      2.5071      0.0471     21.7005     77.3066  
  6242.0000    -43.0798     10.6427      9.3042      9.6734     43.2870     19.7064      2.5165      0.0538     21.1000     77.4538  
  6242.5000    -43.2249     10.6986     10.1148     10.3759     40.5729     19.6110      2.5005      0.0448     21.2558     77.8933  
  6243.0000    -43.2728     10.7471     10.2846     10.4138     39.0615     19.4232      2.4976      0.0305     21.3096     77.5342  
  6243.5000    -42.8549     10.5941     10.0667     10.2875     39.4836     19.2667      2.4922      0.0203     20.6385     76.3705  
  6244.0000    -41.7237     10.4559      9.1604      9.7345     42.3129     19.3131      2.4990      0.0161     19.0216     74.1801  
  6244.5000    -41.0156     10.3195      8.3357      8.7111     45.4999     19.5161      2.5163      0.0297     18.4078     72.7179  
  6245.0000    -40.3244     10.1850      7.6920      7.7953     46.5302     19.7462      2.5119      0.0394     18.4624     74.5672  
  6245.5000    -39.9084     10.0521      7.4582      7.8122     45.9546     19.9737      2.4920      0.0297     19.5616     77.0266  
  6246.0000    -39.5794      9.9343      8.3558      8.8113     42.6475     19.9137      2.4828      0.0255     20.8710     80.3469  
  6246.5000    -39.4160      9.9779      9.3613      9.5397     39.0616     19.6054      2.4947      0.0303     21.9426     79.4731  
  6247.0000    -39.3526     10.0216      9.4286      9.6217     36.5357     19.4781      2.5124      0.0402     21.8365     77.7936  
  6247.5000    -38.6583     10.0854      9.3039      9.2942     36.7399     19.7656      2.5115      0.0466     20.9118     74.2468  
  6248.0000    -37.9297     10.1878      8.9094      8.7848     39.9242     19.8400      2.5001      0.0302     19.5903     72.3894  
  6248.5000    -37.2075     10.2912      8.9768      8.3001     43.0409     20.0546      2.4817      0.0205     18.5657     72.4928  
  6249.0000    -36.9791     10.3865      9.4342      8.0741     45.7024     20.3063      2.4881      0.0331     18.2488     73.5308  
  6249.5000    -36.9673     10.4419      9.7463      8.3510     47.0522     20.5581      2.4916      0.0564     19.5051     74.0900  
  6250.0000    -36.6317     10.8086     10.0184      9.0965     45.5796     20.7574      2.4838      0.0705     20.9596     75.2766  
  6250.5000    -36.5914     10.8573      9.9196      9.4407     44.2448     20.6218      2.4831      0.0553     22.4658     76.1667  
  6251.0000    -36.5535     10.9062      9.8528      9.4751     44.7077     20.4861      2.5049      0.0507     22.7804     76.8778  
  6251.5000    -36.6058     10.9889      9.9431      9.4250     47.0766     20.3505      2.5055      0.0668     21.7711     76.2518  
  6252.0000    -36.7791     11.1011     10.0343      9.4051     49.2177     20.3324      2.4803      0.0606     20.7090     76.7433  
  6252.5000    -36.9558     11.2145     10.1657      9.6062     48.7291     20.3324      2.4750      0.0430     19.1837     75.6880  
  6253.0000    -37.0958     11.3468     10.3175      9.8116     47.1459     20.3324      2.4679      0.0247     19.4324     73.7323  
  6253.5000    -37.1339     11.4866     10.5054      9.6696     46.2436     20.3127      2.4924      0.0353     19.2090     72.8543  
  6254.0000    -37.1721     11.6128     10.8388      9.2825     45.6568     20.2628      2.5146      0.0500     18.7486     71.6676  
  6254.5000    -37.2489     11.6809     11.1827      9.0138     45.3391     20.2129      2.4893      0.0493     18.3389     72.7150  
  6255.0000    -37.4018     11.7158     11.2632      9.3311     43.6144     20.1630      2.4856      0.0250     18.3563     73.4216  
  6255.5000    -37.5624     11.5713     11.2904      9.7005     41.6012     20.1132      2.4966      0.0320     18.4191     75.3350  
  6256.0000    -37.6312     11.3107     11.2012     10.1683     40.5290     20.0633      2.5020      0.0250     18.3445     75.3757  
  6256.5000    -37.4231     11.0897     10.7456     10.5371     39.7749     20.0134      2.5113      0.0178     18.2016     73.9669  
  6257.0000    -36.9643     10.8732     10.3086     10.2953     39.8232     20.0448      2.5391      0.0312     18.0305     72.7651  
  6257.5000    -36.1760     10.6610      9.5231      9.2490     41.9489     20.0865      2.5274      0.0374     17.6817     71.1104  
  6258.0000    -35.1971     10.4528      8.5706      8.1714     45.1980     20.2209      2.5144      0.0391     17.5042     71.6870  
  6258.5000    -34.4237     10.2966      8.4020      7.4338     48.2899     20.5261      2.5185      0.0348     18.4679     73.5949  
  6259.0000    -34.2920     10.1717      9.0304      7.1907     50.3001     20.6683      2.5121      0.0546     20.6826     75.5836  
  6259.5000    -34.5987     10.0484      9.4503      7.8251     50.5933     20.8104      2.4853      0.0698     23.8060     77.1800  
  6260.0000    -34.9207      9.9785      9.1922      8.5155     49.6279     20.8209      2.4598      0.0638     26.0289     78.7691  
  6260.5000    -35.1163     10.0207      8.9412      8.5671     49.3630     20.8200      2.4602      0.0541     25.8323     78.8101  
