~VERSION INFORMATION
 VERS.                      2.00:        CWLS LOG ASCII STANDARD - VERSION 2.00
 WRAP.                        NO:        ONE LINE PER DEPTH STEP
~WELL INFORMATION
#MNEM.UNIT               DATA            INFORMATION
#----------          ------------        ------------------------------
 STRT.F                  92.0000:        START DEPTH
 STOP.F                7738.0000:        STOP DEPTH
 STEP.F                   0.5000:        STEP VALUE
 NULL.                 -999.2500:        NULL VALUE
 COMP.                      13.5:        COMPANY  
 WELL.           EAST SIMPSON #1:        WELL     
 FLD .                   WILDCAT:        FIELD    
 LOC .              18  18N  10W:        LOCATION   
 CNTY.                  N. SLPOE:        COUNTY  
 STAT.                    ALASKA:        STATE   
 CTRY.                       USA:        COUNTRY 
 DATE.                   2/22/79:        LOG DATE 
 API .              502792000500:        UNIQUE WELL IDENTIFIER 
 OPER.                      13.5:        OPERATOR  
 SRVC.              Schlumberger:        SERVICE COMPANY 
 UWI .              502792000500:        UNIQUE WELL ID 
 LAT .                    0.0000:        LATITUDE
 LON .                    0.0000:        LONGITUDE
 DIGS.          Center Line Data:        DIGITIZING COMPANY 
~CURVE INFORMATION      
#MNEM.UNIT            API CODE           CURVE DESCRIPTION
#---------          -------------        ------------------------------
 DEPT.F                         :        1  DEPTH
 SP  .MV                        :        2
 ILD .OHMM                      :        3
 ILM .OHMM                      :        4
 LL8 .OHMM                      :        5
 CALI.IN                        :        6
 GR  .GAPI                      :        7
 DRHO.G/C3                      :        8
 RHOB.G/C3                      :        9
 NPHI.%                         :       10
 DT  .US/F                      :       11
~PARAMETER INFORMATION       
#MNEM.UNIT              VALUE            DESCRIPTION OF MNEMONIC
#---------          -------------        ------------------------------
 EKB .F                  30.0000:        KELLY BUSHING
 TD  .F                   0.0000:        TOTAL DEPTH
 BHT .F                   0.0000:        BOTTOM HOLE TEMPERATURE
 BS  .                   17.5000:        BIT SIZE
 FD  .                   10.2000:        FLUID DENSITY
 CSIZ.                   20.0000:        CASING SIZE
 CBD .F                  90.0000:        CASING DRILLER 1
 CBL .F                  92.0000:        CASING LOGGER 1
 DFT .                       Gel:        TYPE FLUID IN HOLE
 DFV .                   70.0000:        VISCOSITY
 DFPH.                    8.0000:        PH
 DFL .                   12.0000:        FLUID LOSS
 RMS .                    3.6000:        RM
 MST .F                  75.0000:        RM MEAS. TEMP.
 RMF .                    2.2100:        RMF
 MFST.F                  75.0000:        RMF MEAS. TEMP.
 RMC .                    2.1600:        RMC
 MCST.F                  75.0000:        RMC MEAS. TEMP.
 UWI .              502792000500:        UNIQUE WELL ID
~OTHER INFORMATION
~A    DEPTH          SP         ILD         ILM         LL8        CALI          GR        DRHO        RHOB        NPHI          DT  
# ...
   602.0000    -51.0720    768.3546     35.8119     26.9099   -999.2500     52.9927   -999.2500   -999.2500   -999.2500    153.5867  
   602.5000    -49.8712    124.4232     35.8392     25.3286   -999.2500     57.5030   -999.2500   -999.2500   -999.2500    154.1458  
   603.0000    -48.6162     20.3660     24.8954     24.0108   -999.2500     61.8143   -999.2500   -999.2500   -999.2500    152.3488  
   603.5000    -47.0852     13.6312     14.8394     22.7615   -999.2500     69.2234   -999.2500   -999.2500   -999.2500    147.7240  
   604.0000    -45.0064      9.1236      8.8454     20.2905   -999.2500     74.4671   -999.2500   -999.2500   -999.2500    146.5443  
   604.5000    -42.1884      6.8002      5.6891     14.2410   -999.2500     79.8252   -999.2500   -999.2500   -999.2500    150.0475  
   605.0000    -39.3690      5.9412      4.0132     10.4703   -999.2500     83.7700   -999.2500   -999.2500   -999.2500    152.1425  
   605.5000    -36.3136      5.0399      3.3280      8.5530   -999.2500     85.5366   -999.2500   -999.2500   -999.2500    154.3578  
   606.0000    -34.2478      4.5204      3.2236      7.8847   -999.2500     85.0467   -999.2500   -999.2500   -999.2500    159.7004  
   606.5000    -32.7299      4.1514      3.1312      9.2471   -999.2500     82.2912   -999.2500   -999.2500   -999.2500    161.7391  
   607.0000    -31.6018      4.0195      3.0805     10.3809   -999.2500     79.8683   -999.2500   -999.2500   -999.2500    163.3213  
   607.5000    -31.4446      4.2103      3.1576      9.3850   -999.2500     77.9398   -999.2500   -999.2500   -999.2500    164.1594  
   608.0000    -32.3307      4.5322      3.4047      8.5223   -999.2500     76.5689   -999.2500   -999.2500   -999.2500    163.4524  
   608.5000    -33.0999      4.8699      3.7405      9.2586   -999.2500     75.4058   -999.2500   -999.2500   -999.2500    162.1903  
   609.0000    -33.2865      5.3364      4.0795     11.6178   -999.2500     75.3994   -999.2500   -999.2500   -999.2500    161.0294  
   609.5000    -33.8026      5.8400      4.2582     10.4864   -999.2500     76.2257   -999.2500   -999.2500   -999.2500    160.4601  
   610.0000    -34.4264      6.3955      4.5624      9.0815   -999.2500     76.8201   -999.2500   -999.2500   -999.2500    160.5866  
   610.5000    -34.6580      6.7398      4.8963      9.2772   -999.2500     77.2403   -999.2500   -999.2500   -999.2500    161.2033  
   611.0000    -34.1656      6.8160      4.9039     10.5614   -999.2500     78.3596   -999.2500   -999.2500   -999.2500    161.2204  
   611.5000    -33.8552      6.7877      4.7388     10.4858   -999.2500     79.9739   -999.2500   -999.2500   -999.2500    160.6427  
   612.0000    -33.1524      6.7549      4.7165      9.3181   -999.2500     81.3610   -999.2500   -999.2500   -999.2500    159.1974  
   612.5000    -31.6779      6.9658      4.8301      9.1141   -999.2500     81.6062   -999.2500   -999.2500   -999.2500    157.5321  
   613.0000    -32.2328      7.5005      5.0270     10.1328   -999.2500     80.2214   -999.2500   -999.2500   -999.2500    156.6064  
   613.5000    -34.7861      8.1550      5.2699     10.7516   -999.2500     77.2558   -999.2500   -999.2500   -999.2500    156.1313  
   614.0000    -37.7821      9.1837      5.9390     10.9715   -999.2500     73.5442   -999.2500   -999.2500   -999.2500    155.9057  
   614.5000    -39.5046     10.7372      6.7201     11.2867   -999.2500     69.9442   -999.2500   -999.2500   -999.2500    155.5215  
   615.0000    -40.1227     12.4081      7.7962     12.5370   -999.2500     67.3143   -999.2500   -999.2500   -999.2500    155.5973  
   615.5000    -41.1990     14.3389      8.8702     14.0480   -999.2500     66.2390   -999.2500   -999.2500   -999.2500    158.1178  
   616.0000    -42.3793     15.5727      9.8686     15.7411   -999.2500     66.8441   -999.2500   -999.2500   -999.2500    164.0469  
   616.5000    -43.0669     15.4175     10.4117     16.3898   -999.2500     68.7155   -999.2500   -999.2500   -999.2500    167.1398  
   617.0000    -42.5789     13.9023      9.4338     15.9792   -999.2500     70.7897   -999.2500   -999.2500   -999.2500    168.2470  
   617.5000    -41.4037     12.6929      8.2212     15.0787   -999.2500     72.7695   -999.2500   -999.2500   -999.2500    169.6605  
   618.0000    -40.5789     11.6920      7.1015     13.6334   -999.2500     74.5357   -999.2500   -999.2500   -999.2500    170.6659  
   618.5000    -39.7542     10.4946      6.4208     12.2235   -999.2500     76.2996   -999.2500   -999.2500   -999.2500    171.3220  
   619.0000    -38.9294      9.4198      6.1958     11.3044   -999.2500     77.8677   -999.2500   -999.2500   -999.2500    170.6858  
   619.5000    -37.9447      8.9525      6.1249     11.3216   -999.2500     79.9520   -999.2500   -999.2500   -999.2500    168.8885  
   620.0000    -36.6368      8.4007      6.0648     12.1146   -999.2500     83.6552   -999.2500   -999.2500   -999.2500    166.4684  
   620.5000    -35.2915      8.0675      5.9906     12.9306   -999.2500     85.5337   -999.2500   -999.2500   -999.2500    164.7424  
   621.0000    -33.7862      8.0251      5.8992     12.9442   -999.2500     86.1916   -999.2500   -999.2500   -999.2500    163.1184  
   621.5000    -32.9673      8.0457      5.8235     12.7338   -999.2500     86.6605   -999.2500   -999.2500   -999.2500    161.7764  
   622.0000    -32.0562      7.9277      5.7693     12.6106   -999.2500     87.1323   -999.2500   -999.2500   -999.2500    160.3025  
   622.5000    -31.4192      7.7066      5.6584     12.4341   -999.2500     87.3712   -999.2500   -999.2500   -999.2500    159.2218  
   623.0000    -30.9807      7.2337      5.5096     11.9989   -999.2500     87.4449   -999.2500   -999.2500   -999.2500    159.6985  
   623.5000    -30.2597      6.7881      5.3638     11.6657   -999.2500     88.0354   -999.2500   -999.2500   -999.2500    161.4040  
   624.0000    -30.1000      6.3969      5.0705     11.5890   -999.2500     88.6524   -999.2500   -999.2500   -999.2500    163.3664  
   624.5000    -29.8811      6.0335      4.6721     11.4502   -999.2500     89.0045   -999.2500   -999.2500   -999.2500    164.7150  
   625.0000    -29.5735      5.9159      4.4606     10.6175   -999.2500     88.9286   -999.2500   -999.2500   -999.2500    164.5471  
   625.5000    -29.1527      5.8503      4.3762      9.5412   -999.2500     88.5236   -999.2500   -999.2500   -999.2500    163.5616  
   626.0000    -28.7269      5.6708      4.3835      8.8799   -999.2500     86.9242   -999.2500   -999.2500   -999.2500    161.6152  
   626.5000    -28.6458      5.5391      4.3835     10.1772   -999.2500     85.4379   -999.2500   -999.2500   -999.2500    160.8764  
   627.0000    -29.0380      5.5246      4.3494     10.5070   -999.2500     84.4377   -999.2500   -999.2500   -999.2500    160.3486  
   627.5000    -29.9856      5.8728      4.3707     10.2873   -999.2500     82.4703   -999.2500   -999.2500   -999.2500    159.8535  
   628.0000    -30.8588      6.3036      4.5356     10.2070   -999.2500     79.0153   -999.2500   -999.2500   -999.2500    158.3961  
   628.5000    -31.3890      6.8513      4.8407     10.5866   -999.2500     74.3185   -999.2500   -999.2500   -999.2500    156.2812  
   629.0000    -32.5070      7.8018      5.3310     11.3851   -999.2500     70.8206   -999.2500   -999.2500   -999.2500    155.2312  
   629.5000    -34.1885      8.8842      6.0423     12.5562   -999.2500     68.4633   -999.2500   -999.2500   -999.2500    154.6746  
   630.0000    -36.2152     10.1053      7.0520     14.1359   -999.2500     66.9964   -999.2500   -999.2500   -999.2500    154.4901  
   630.5000    -38.2762     11.7913      8.0770     15.8353   -999.2500     65.9667   -999.2500   -999.2500   -999.2500    154.5650  
   631.0000    -39.9026     13.7407      9.0565     16.9564   -999.2500     66.4026   -999.2500   -999.2500   -999.2500    154.7747  
   631.5000    -40.5656     15.9961     10.4599     17.8946   -999.2500     67.3905   -999.2500   -999.2500   -999.2500    155.4068  
