~VERSION INFORMATION
 VERS.                           2.00:        CWLS LOG ASCII STANDARD - VERSION 2.00
 WRAP.                             NO:        ONE LINE PER DEPTH STEP
~WELL INFORMATION
#MNEM.UNIT                   DATA             INFORMATION
#----------             --------------        ------------------------------
 STRT.F                      358.0000:        START DEPTH
 STOP.F                     8806.0000:        STOP DEPTH
 STEP.F                        0.5000:        STEP VALUE
 NULL.                      -999.2500:        NULL VALUE
 COMP.                      U.S. NAVY:        COMPANY
 LOC .                     22 17N 12W:        LOCATION
 DATE.                         4/5/77:        LOG DATE
 WELL.               SOUTH SIMPSON #1:        WELL
 UWI .                   502792000100:        UNIQUE WELL ID
 API .                   502792000100:        UNIQUE WELL IDENTIFIER
 FLD .                        WILDCAT:        FIELD
 CNTY.                    NORTH SLOPE:        COUNTY
 STAT.                         ALASKA:        STATE
 CTRY.                            USA:        COUNTRY
 OPER.                      U.S. NAVY:        OPERATOR
 SRVC.                   SCHLUMBERGER:        SERVICE COMPANY
 LAT .                         0.0000:        LATITUDE
 LON .                         0.0000:        LONGITUDE
 DIGS.               CENTER LINE DATA:        DIGITIZING COMPANY
~CURVE INFORMATION      
#MNEM        .UNIT         API CODE           CURVE DESCRIPTION
#-----------------      --------------        ------------------------------
 DEPT        .F                      :        1  DEPTH
 GR          .GAPI                   :        2  
 CALI        .IN                     :        3  
 DRHO        .G/C3                   :        4  
 RHOB        .G/C3                   :        5  
 NPHI        .%                      :        6  
 DT          .US/F                   :        7  
 SP          .MV                     :        8  
 ILD         .OHMM                   :        9  
 ILM         .OHMM                   :        10 
 LL8         .OHMM                   :        11 
~PARAMETER INFORMATION
#MNEM.UNIT                  VALUE             DESCRIPTION OF MNEMONIC
#---------             ---------------        ------------------------------
 EKB .F                       25.0000:        KELLY BUSHING
 TD  .F                     8807.0000:        TOTAL DEPTH
 BHT .F                      145.0000:        BOTTOM HOLE TEMPERATURE
 BS  .                        13.5000:        BIT SIZE
 FD  .                        10.7000:        FLUID DENSITY
 CSIZ.                        16.0000:        CASING SIZE
 CBD .F                     2175.0000:        CASING DRILLER 1
 CBL .F                     2175.0000:        CASING LOGGER 1
 DFT .                  MISCELLANEOUS:        TYPE FLUID IN HOLE
 DFV .                        47.0000:        VISCOSITY
 DFPH.                        10.5000:        PH
 DFL .                         5.0000:        FLUID LOSS
 RMS .                         2.3000:        RM
 MST .F                       60.0000:        RM MEAS. TEMP.
 RMF .                         1.5400:        RMF
 MFST.F                       54.0000:        RMF MEAS. TEMP.
 RMC .                         2.7300:        RMC
 MCST.F                       54.0000:        RMC MEAS. TEMP.
~OTHER INFORMATION
~A    DEPTH          GR        CALI        DRHO        RHOB        NPHI          DT          SP         ILD         ILM         LL8 
# ...
  3804.5000     71.1098     17.0874      0.1260      1.8825     46.3234    104.5143    -33.2254      6.0329      4.9437      5.6955 
  3805.0000     72.3548     17.0872      0.1138      1.8639     48.2392    105.2585    -33.3088      6.0263      4.9524      5.7285 
  3805.5000     73.8576     17.1183      0.1254      1.9224     49.2202    104.5499    -33.5118      6.0197      4.9610      5.7617 
  3806.0000     75.3604     17.1666      0.1063      2.0087     49.7651    106.0226    -33.6575      6.0131      4.9697      5.7775 
  3806.5000     76.8632     16.4037      0.0496      2.0521     49.9348    107.5162    -33.6627      6.0065      4.9784      5.7872 
  3807.0000     78.3660     16.6425      0.0402      2.1170     48.2965    110.7397    -33.7012      6.0000      4.9871      5.7970 
  3807.5000     80.0107     17.0461      0.0390      2.1627     46.3714    103.8457    -33.6451      5.9934      4.9958      5.8067 
  3808.0000     80.5868     16.1514      0.0494      2.1627     44.5303    103.6044    -33.5657      5.9868      5.0045      5.8165 
  3808.5000     79.4126     16.4673      0.1530      2.1211     44.6647    106.3175    -33.4661      5.9803      5.0132      5.8262 
  3809.0000     78.3620     16.8721      0.1621      2.0523     46.2479    108.6646    -33.2776      5.9834      5.0220      5.8360 
  3809.5000     77.8578     17.0780      0.1515      2.0602     48.6441    107.7498    -33.1916      5.9954      5.0308      5.8458 
  3810.0000     77.3536     17.0842      0.1417      2.1515     48.6657    105.8443    -33.2396      6.0075      5.0396      5.8557 
  3810.5000     77.7929     17.0719      0.1743      2.2259     48.1840    103.8376    -33.3439      6.0196      5.0484      5.8655 
  3811.0000     78.6555     17.0595      0.1698      2.2049     48.0131    105.5355    -33.4573      6.0317      5.0572      5.8754 
  3811.5000     79.5182     17.0472      0.1573      2.1809     48.1825    106.0977    -33.5727      6.0439      5.0660      5.8852 
  3812.0000     79.9846     17.0349      0.1432      2.1554     47.5400    103.9205    -33.5967      6.0561      5.0749      5.8951 
  3812.5000     80.1997     17.0129      0.1613      2.1250     46.7003    104.9233    -33.5660      6.0683      5.0848      5.9070 
  3813.0000     80.4397     17.0619      0.1639      2.0942     45.6228    109.0136    -33.5505      6.0805      5.0975      5.9218 
  3813.5000     80.5604     17.0633      0.1685      2.0473     44.9357    111.5948    -33.4113      6.0927      5.1103      5.9367 
  3814.0000     80.3621     17.0772      0.1703      2.0528     44.4074    110.1843    -33.2616      6.1011      5.1231      5.9516 
  3814.5000     80.0151     17.0875      0.1759      2.1044     43.8680    105.2660    -33.2674      6.1062      5.1360      5.9666 
  3815.0000     80.0410     17.0783      0.1902      2.1358     43.0295    106.6195    -33.5221      6.1114      5.1488      5.9815 
  3815.5000     80.6626     17.0733      0.1779      2.1323     42.3276    123.8664    -33.7993      6.1165      5.1407      5.9965 
  3816.0000     81.3761     17.0869      0.1636      2.1355     43.4889    131.8101    -33.9244      6.1216      5.1279      6.0116 
  3816.5000     80.8254     17.0731      0.1521      2.1513     45.0797    129.5870    -33.9270      6.1267      5.1152      6.0267 
  3817.0000     80.0490     17.0777      0.1669      2.1282     46.9615    134.2092    -33.8414      6.1318      5.1025      6.0418 
  3817.5000     79.8624     17.0955      0.1663      2.0676     48.9265    120.5106    -33.8205      6.1370      5.0898      6.0833 
  3818.0000     79.9251     17.1378      0.1566      1.9705     50.2233    137.9668    -33.8446      6.1255      5.0771      6.1106 
  3818.5000     80.0241     17.1063      0.1350      1.8926     51.6834    136.3833    -33.8658      6.1140      5.0645      6.0928 
  3819.0000     79.8654     17.0925      0.1500      1.9169     51.2115    109.0183    -33.8559      6.1024      5.0519      6.0673 
  3819.5000     79.4567     17.0953      0.1500      1.9702     49.0301    107.5149    -33.8544      6.0909      5.0469      6.0419 
  3820.0000     78.8502     17.0922      0.1430      2.0107     47.2477    106.6497    -33.6816      6.0795      5.0489      6.0166 
  3820.5000     78.4848     17.0964      0.1258      2.0317     46.8686    106.1866    -33.4666      6.0680      5.0509      5.9914 
  3821.0000     78.4068     17.0824      0.1237      2.0534     47.7940    105.7882    -33.4234      6.0718      5.0530      5.9663 
  3821.5000     78.4089     17.0717      0.1507      2.0750     48.5285    106.0485    -33.2950      6.0845      5.0550      5.9413 
  3822.0000     78.8142     17.0743      0.1754      2.0917     47.9405    107.3741    -33.3559      6.0971      5.0570      5.9164 
  3822.5000     78.5474     17.0551      0.1790      2.1189     47.8242    108.7712    -33.1994      6.1098      5.0590      5.8917 
  3823.0000     78.3160     17.0515      0.1741      2.1462     48.5007    107.7861    -33.3186      6.1225      5.0611      5.8826 
  3823.5000     78.2746     17.0562      0.1570      2.1510     48.0623    107.0575    -33.4378      6.1353      5.0598      5.8736 
  3824.0000     78.6335     17.0806      0.1449      2.1267     47.0985    105.8600    -33.4753      6.1480      5.0521      5.8646 
  3824.5000     79.6250     17.0675      0.1465      2.0779     46.0984    105.5817    -33.5211      6.1608      5.0509      5.8556 
  3825.0000     79.6699     17.0619      0.1412      1.9803     45.4038    104.8347    -33.6321      6.1737      5.0727      5.8466 
  3825.5000     79.6838     17.0625      0.1387      1.9584     45.4624    103.1355    -33.7431      6.1645      5.0946      5.8376 
  3826.0000     80.5272     17.0630      0.1450      2.0190     45.8431    104.7069    -33.9643      6.1546      5.1166      5.8287 
  3826.5000     81.5002     17.0636      0.1715      2.0796     45.5768    106.5805    -33.7991      6.1268      5.1387      5.8197 
  3827.0000     82.4733     17.0641      0.1838      2.1545     44.5666    108.2959    -33.5350      6.0792      5.1609      5.8108 
  3827.5000     83.1901     17.0646      0.1898      2.2070     43.6650    105.4069    -33.3283      6.0320      5.1447      5.8019 
  3828.0000     81.4070     17.0652      0.1507      2.1423     44.2104    103.8131    -33.1342      5.9852      5.0990      5.7930 
  3828.5000     78.7837     17.0657      0.1188      2.0439     45.0561     99.4061    -32.9601      5.9387      5.0538      5.7841 
  3829.0000     76.2133     17.0766      0.0906      2.0078     46.3268    103.7359    -32.9897      5.8926      5.0089      5.7752 
  3829.5000     75.9949     17.0651      0.0632      2.0257     45.5815    106.2563    -32.9459      5.8469      4.9645      5.7666 
  3830.0000     75.7764     17.0782      0.0453      2.1031     44.5903    109.1677    -32.9802      5.8339      4.9768      5.7828 
  3830.5000     75.5580     17.0608      0.0435      2.2180     44.3185    113.5883    -32.9899      5.8791      4.9675      5.7991 
  3831.0000     75.2626     17.0541      0.0501      2.2759     44.3509    110.7795    -32.9104      5.9247      4.9287      5.8154 
  3831.5000     74.8156     17.0364      0.0738      2.2571     44.1889    110.1570    -33.0298      5.9893      4.8903      5.8318 
  3832.0000     73.9249     16.8973      0.1445      2.2384     44.0362    111.3214    -33.2231      6.0566      4.8521      5.8482 
  3832.5000     73.3524     16.7690      0.1988      2.2051     45.1959    109.4237    -33.3468      6.1246      4.8142      5.8646 
  3833.0000     73.3949     16.8003      0.1803      2.1329     46.4906    101.4456    -33.3513      6.1548      4.8051      5.8296 
  3833.5000     73.4952     16.8692      0.1618      2.1019     46.8942    102.3007    -33.5061      6.1173      4.8051      5.7941 
  3834.0000     73.6661     16.9382      0.1511      2.1649     46.3808    116.2988    -33.6162      6.0801      4.8057      5.7588 
  3834.5000     73.8448     17.0072      0.1797      2.1884     45.4995    114.1778    -33.5892      6.0431      4.8170      5.7238 
