~VERSION INFORMATION
 VERS.                      2.00:        CWLS LOG ASCII STANDARD - VERSION 2.00
 WRAP.                        NO:        ONE LINE PER DEPTH STEP
~WELL INFORMATION
#MNEM.UNIT               DATA            INFORMATION
#----------          ------------        ------------------------------
 STRT.F                  92.0000:        START DEPTH
 STOP.F                7738.0000:        STOP DEPTH
 STEP.F                   0.5000:        STEP VALUE
 NULL.                 -999.2500:        NULL VALUE
 COMP.                      13.5:        COMPANY  
 WELL.           EAST SIMPSON #1:        WELL     
 FLD .                   WILDCAT:        FIELD    
 LOC .              18  18N  10W:        LOCATION   
 CNTY.                  N. SLPOE:        COUNTY  
 STAT.                    ALASKA:        STATE   
 CTRY.                       USA:        COUNTRY 
 DATE.                   2/22/79:        LOG DATE 
 API .              502792000500:        UNIQUE WELL IDENTIFIER 
 OPER.                      13.5:        OPERATOR  
 SRVC.              Schlumberger:        SERVICE COMPANY 
 UWI .              502792000500:        UNIQUE WELL ID 
 LAT .                    0.0000:        LATITUDE
 LON .                    0.0000:        LONGITUDE
 DIGS.          Center Line Data:        DIGITIZING COMPANY 
~CURVE INFORMATION      
#MNEM.UNIT            API CODE           CURVE DESCRIPTION
#---------          -------------        ------------------------------
 DEPT.F                         :        1  DEPTH
 SP  .MV                        :        2
 ILD .OHMM                      :        3
 ILM .OHMM                      :        4
 LL8 .OHMM                      :        5
 CALI.IN                        :        6
 GR  .GAPI                      :        7
 DRHO.G/C3                      :        8
 RHOB.G/C3                      :        9
 NPHI.%                         :       10
 DT  .US/F                      :       11
~PARAMETER INFORMATION       
#MNEM.UNIT              VALUE            DESCRIPTION OF MNEMONIC
#---------          -------------        ------------------------------
 EKB .F                  30.0000:        KELLY BUSHING
 TD  .F                   0.0000:        TOTAL DEPTH
 BHT .F                   0.0000:        BOTTOM HOLE TEMPERATURE
 BS  .                   17.5000:        BIT SIZE
 FD  .                   10.2000:        FLUID DENSITY
 CSIZ.                   20.0000:        CASING SIZE
 CBD .F                  90.0000:        CASING DRILLER 1
 CBL .F                  92.0000:        CASING LOGGER 1
 DFT .                       Gel:        TYPE FLUID IN HOLE
 DFV .                   70.0000:        VISCOSITY
 DFPH.                    8.0000:        PH
 DFL .                   12.0000:        FLUID LOSS
 RMS .                    3.6000:        RM
 MST .F                  75.0000:        RM MEAS. TEMP.
 RMF .                    2.2100:        RMF
 MFST.F                  75.0000:        RMF MEAS. TEMP.
 RMC .                    2.1600:        RMC
 MCST.F                  75.0000:        RMC MEAS. TEMP.
 UWI .              502792000500:        UNIQUE WELL ID
~OTHER INFORMATION
~A    DEPTH          SP         ILD         ILM         LL8        CALI          GR        DRHO        RHOB        NPHI          DT  
# ...
  7202.0000    -41.5318      4.7249      4.5117      5.4065     11.6853     70.4951      0.1650      2.4690     28.8140     84.0340  
  7202.5000    -41.7703      4.5466      4.2656      5.3395     11.5296     71.3499      0.1495      2.4191     29.1720     84.0126  
  7203.0000    -42.4246      4.3750      4.0956      5.3945     11.7794     72.4271      0.1699      2.3808     29.3265     83.6523  
  7203.5000    -42.8715      4.2964      4.0799      5.3322     11.9810     73.5165      0.1383      2.2954     29.7067     83.0826  
  7204.0000    -43.0342      4.2964      4.0917      5.2519     11.7278     74.4196      0.1040      2.2921     30.2132     82.6535  
  7204.5000    -43.0986      4.3283      4.1488      5.2285     11.7075     74.9466      0.1020      2.3372     29.6703     82.4794  
  7205.0000    -43.1864      4.4376      4.2066      5.4802     11.9192     74.6413      0.1392      2.3997     29.0598     82.6286  
  7205.5000    -43.2307      4.5497      4.2503      6.0022     11.4759     72.8726      0.1896      2.4036     28.6780     82.6915  
  7206.0000    -43.2164      4.5372      4.2308      6.8850     11.9586     71.8230      0.1816      2.3670     28.7209     82.5844  
  7206.5000    -43.3462      4.4508      4.2871      6.9071     12.4889     71.9834      0.1425      2.3661     29.4448     82.3058  
  7207.0000    -43.3808      4.4672      4.3223      6.2214     12.6575     72.4010      0.1106      2.4077     28.8503     81.7611  
  7207.5000    -43.3122      4.5254      4.3579      5.5979     13.1167     72.6875      0.1008      2.4644     27.4000     81.0566  
  7208.0000    -43.3807      4.5843      4.3937      5.2396     12.6125     72.9656      0.1154      2.5282     25.8199     80.1321  
  7208.5000    -43.4293      4.6439      4.4463      5.5195     11.7361     73.3762      0.1450      2.5430     24.7642     79.2707  
  7209.0000    -43.3435      4.7363      4.5203      5.8221     11.7774     73.7680      0.1820      2.5680     25.2628     78.6645  
  7209.5000    -43.2902      4.8430      4.5959      6.0832     12.0666     74.0767      0.1912      2.5660     25.9078     78.2751  
  7210.0000    -43.3404      4.9520      4.6747      6.3906     12.2244     75.1251      0.1552      2.5228     26.7905     78.4167  
  7210.5000    -43.3190      5.0635      4.7548      6.7754     12.1661     76.8535      0.0938      2.4852     26.7899     78.8837  
  7211.0000    -43.1095      5.1101      4.8363      7.1315     11.5613     77.9652      0.0442      2.4779     26.1960     79.5548  
  7211.5000    -43.1702      5.1339      4.8795      7.1745     11.3984     76.8710      0.0271      2.5291     25.6554     79.8279  
  7212.0000    -43.1631      5.1579      4.9073      6.8624     11.2323     75.0953      0.0480      2.6045     25.5238     79.4719  
  7212.5000    -43.1181      5.1395      4.9341      6.4923     10.6528     73.8687      0.0617      2.6249     25.3990     78.8723  
  7213.0000    -43.1410      5.0614      4.9018      6.2122     10.5795     73.8081      0.0589      2.6149     25.2962     78.3285  
  7213.5000    -43.2057      4.9845      4.8697      6.1220     10.5799     74.5019      0.0814      2.6284     25.3593     78.1233  
  7214.0000    -43.1908      4.9040      4.7477      6.3288     10.5828     75.8667      0.1231      2.6499     25.4672     78.6163  
  7214.5000    -43.2496      4.7706      4.6151      6.4358     10.5838     75.9605      0.1692      2.6799     25.5452     79.1736  
  7215.0000    -43.3973      4.6409      4.4863      6.1399     10.5692     74.9401      0.1914      2.6669     25.8466     79.5930  
  7215.5000    -43.4030      4.5147      4.3610      5.7055     10.5825     73.5062      0.1488      2.6398     26.2261     79.6732  
  7216.0000    -43.3071      4.3919      4.2392      5.6514     10.5571     73.1912      0.0991      2.6073     26.0413     79.5598  
  7216.5000    -43.3663      4.2725      4.1208      5.4740     10.5280     74.3883      0.0510      2.5739     25.8080     79.4883  
  7217.0000    -43.4190      4.1886      4.0058      5.3870     10.5109     75.3529      0.0907      2.5602     25.7658     79.5533  
  7217.5000    -43.2429      4.1063      3.8939      5.3819     10.5693     76.2006      0.1425      2.5472     25.8971     79.6686  
  7218.0000    -43.3375      4.0256      3.7852      5.3619     10.6944     76.8966      0.1967      2.5121     26.3216     79.6735  
  7218.5000    -43.3623      3.9465      3.7779      5.1967     10.7625     76.4288      0.1990      2.4535     27.1909     79.6926  
  7219.0000    -43.2762      3.9537      3.8030      4.8540     10.7441     75.6306      0.2066      2.4924     27.9753     79.9082  
  7219.5000    -43.2932      4.0141      3.8283      4.4667     10.9407     75.7749      0.1916      2.5442     27.8496     79.9276  
  7220.0000    -43.3745      4.0753      3.8720      4.9007     10.7968     75.9035      0.1699      2.5824     27.0360     79.6066  
  7220.5000    -43.3923      4.1375      3.9414      5.4341     10.7036     76.3548      0.1496      2.5882     25.7243     79.4833  
  7221.0000    -43.2264      4.2007      4.0120      5.9205     10.7558     77.3628      0.1616      2.5901     25.3971     79.4099  
  7221.5000    -43.1528      4.2648      4.0839      5.9655     10.9839     77.9471      0.1463      2.5766     25.5984     79.3351  
  7222.0000    -43.1704      4.3299      4.1571      5.9148     11.2083     78.3596      0.1176      2.5840     26.5931     79.2483  
  7222.5000    -43.1776      4.3960      4.2317      5.8745     11.2648     78.7506      0.1107      2.6146     27.2773     79.2580  
  7223.0000    -43.2349      4.4631      4.3075      5.8253     11.0147     77.8088      0.1184      2.6332     27.1895     78.8716  
  7223.5000    -43.1318      4.5317      4.3847      5.8371     10.9147     76.9521      0.1172      2.6342     27.1458     78.5392  
  7224.0000    -42.9334      4.6020      4.4593      5.8831     10.6659     76.0087      0.1200      2.6417     27.8319     78.1732  
  7224.5000    -42.8175      4.6734      4.5076      5.9595     10.7023     76.3670      0.1057      2.6421     28.1102     77.8457  
  7225.0000    -42.8632      4.7459      4.5564      6.1348     10.7386     76.7525      0.0810      2.6263     28.1793     77.8616  
  7225.5000    -42.8845      4.8195      4.6058      6.3577     10.4455     77.2746      0.0551      2.6025     27.9936     78.5566  
  7226.0000    -42.8945      4.8943      4.6557      6.7904     10.3991     77.2341      0.0354      2.6240     27.8786     80.6179  
  7226.5000    -42.9505      4.9553      4.7080      7.1398     10.4521     76.1377      0.0212      2.6122     27.8270     83.4346  
  7227.0000    -42.8787      5.0083      4.7646      7.2208     10.4894     75.5154      0.0082      2.6088     27.2508     86.5964  
  7227.5000    -42.6595      5.0620      4.8218      6.9270     10.4334     75.7150      0.0041      2.6056     27.0506     88.7096  
  7228.0000    -42.6526      5.1162      4.8797      6.7092     10.4093     76.0666      0.0119      2.5984     26.8788     89.5933  
  7228.5000    -42.5241      5.1932      4.9383      6.5475     10.4349     76.6364      0.0229      2.5842     27.0201     89.9133  
  7229.0000    -42.4356      5.2952      4.9976      6.4287     10.4757     78.6010      0.0430      2.5628     27.8900     89.7831  
  7229.5000    -42.4823      5.3991      5.0669      6.4017     10.4792     81.0564      0.0789      2.5028     29.2729     89.5473  
  7230.0000    -42.5937      5.5986      5.3736      6.5710     10.6457     83.6573      0.1197      2.4412     31.0588     89.3128  
  7230.5000    -42.5716      5.9238      5.6807      6.9762     11.0933     85.5837      0.1114      2.3007     32.7097     89.0914  
  7231.0000    -42.4634      6.2678      5.9571      7.9942     11.2319     87.5454      0.0911      2.1843     35.4100     88.9579  
  7231.5000    -42.4636      6.5185      6.2470      9.2986     11.3878     90.3136      0.1053      2.0799     37.5916     88.4992  
