~VERSION INFORMATION
 VERS.                      2.00:        CWLS LOG ASCII STANDARD - VERSION 2.00
 WRAP.                        NO:        ONE LINE PER DEPTH STEP
~WELL INFORMATION
#MNEM.UNIT               DATA            INFORMATION
#----------          ------------        ------------------------------
 STRT.F                  81.0000:        START DEPTH
 STOP.F               15400.0000:        STOP DEPTH
 STEP.F                   0.5000:        STEP VALUE
 NULL.                 -999.2500:        NULL VALUE
 COMP. USGS/NPR HUSKY OIL OPERAT:        COMPANY  
 WELL.     IKPIKPUK TEST WELL #1:        WELL     
 FLD .                   WILDCAT:        FIELD    
 LOC .              25  13N  10W:        LOCATION   
 CNTY.               NORTH SLPOE:        COUNTY  
 STAT.                    ALASKA:        STATE   
 CTRY.                       USA:        COUNTRY 
 DATE.                  11/29/78:        LOG DATE 
 API .              502792000400:        UNIQUE WELL IDENTIFIER 
 OPER. USGS/NPR HUSKY OIL OPERAT:        OPERATOR  
 SRVC.              Schlumberger:        SERVICE COMPANY 
 UWI .              502792000400:        UNIQUE WELL ID 
 LAT .                    0.0000:        LATITUDE
 LON .                    0.0000:        LONGITUDE
 DIGS.          Center Line Data:        DIGITIZING COMPANY 
~CURVE INFORMATION      
#MNEM.UNIT            API CODE           CURVE DESCRIPTION
#---------          -------------        ------------------------------
 DEPT.F                         :        1  DEPTH
 SP  .MV                        :        2
 ILD .OHMM                      :        3
 ILM .OHMM                      :        4
 LL8 .OHMM                      :        5
 GR  .GAPI                      :        6
 CALI.IN                        :        7
 RHOB.G/C3                      :        8
 DRHO.G/C3                      :        9
 NPHI.%                         :       10
 DT  .US/F                      :       11
~PARAMETER INFORMATION       
#MNEM.UNIT              VALUE            DESCRIPTION OF MNEMONIC
#---------          -------------        ------------------------------
 EKB .F                  52.0000:        KELLY BUSHING
 TD  .F               15481.0000:        TOTAL DEPTH
 BHT .F                   0.0000:        BOTTOM HOLE TEMPERATURE
 BS  .                   17.5000:        BIT SIZE
 FD  .                    9.0000:        FLUID DENSITY
 CSIZ.                   30.0000:        CASING SIZE
 CBD .F                 100.0000:        CASING DRILLER 1
 CBL .F                 101.0000:        CASING LOGGER 1
 DFT .                       Gel:        TYPE FLUID IN HOLE
 DFV .                   60.0000:        VISCOSITY
 DFPH.                    8.5000:        PH
 DFL .                   18.0000:        FLUID LOSS
 RMS .                    3.7300:        RM
 MST .F                  66.0000:        RM MEAS. TEMP.
 RMF .                    4.3900:        RMF
 MFST.F                  58.0000:        RMF MEAS. TEMP.
 RMC .                    2.5000:        RMC
 MCST.F                  57.0000:        RMC MEAS. TEMP.
 UWI .              502792000400:        UNIQUE WELL ID
~OTHER INFORMATION
~A    DEPTH          SP         ILD         ILM         LL8          GR        CALI        RHOB        DRHO        NPHI          DT  
# ...
  9261.0000    -18.0841      2.8762      2.8327      3.5947     49.7065     14.8854      2.2814      0.0401     33.5149     86.4314  
  9261.5000    -18.2505      2.7868      2.7545      3.6110     48.4591     14.9852      2.2966      0.0225     34.0640     86.3401  
  9262.0000    -18.3339      2.7976      2.7660      3.5389     47.3476     14.9237      2.2812      0.0154     35.0661     85.6051  
  9262.5000    -18.1721      2.8246      2.7930      3.4872     46.0754     14.6821      2.2603      0.0092     36.0465     83.3816  
  9263.0000    -18.2138      2.8206      2.7890      3.4905     44.1686     14.3536      2.2118      0.0031     36.4472     81.1721  
  9263.5000    -17.7901      2.8841      2.8465      3.4991     43.5850     14.4820      2.1699     -0.0000     36.2437     80.1546  
  9264.0000    -17.1341      2.8646      2.8316      3.5999     45.2202     14.9883      2.1004      0.0111     39.3844     79.2419  
  9264.5000    -17.8869      2.8313      2.7987      3.8335     47.0910     15.5287      2.0743      0.0237     42.5252     80.3785  
  9265.0000    -18.8392      2.7907      2.7569      3.9912     47.2441     15.7861      2.0816      0.0247     44.4685     86.8392  
  9265.5000    -18.7761      2.7036      2.6657      3.8059     46.8863     15.8955      2.0792      0.0160     45.6685     89.4852  
  9266.0000    -18.6742      2.6716      2.6418      3.4432     47.1014     15.8665      2.0676      0.0108     45.7979     91.7590  
  9266.5000    -18.5156      2.6466      2.6145      3.2653     48.0093     16.2254      2.0326      0.0077     45.6612     97.0424  
  9267.0000    -18.4561      2.6053      2.5661      3.2766     49.7389     16.0174      2.0220     -0.0005     45.7441     92.8186  
  9267.5000    -18.5666      2.5095      2.4763      3.3204     51.6937     15.7662      2.0953      0.0079     44.7013     93.0526  
  9268.0000    -18.6325      2.4350      2.4005      3.1930     52.4942     14.9318      2.2067      0.0475     41.9341     90.5550  
  9268.5000    -18.6059      2.4648      2.4285      3.0639     53.3951     14.3494      2.2822      0.0538     39.9688     82.1111  
  9269.0000    -18.7006      2.4940      2.4641      3.1197     54.6498     14.5389      2.3383      0.0564     39.0884     79.1972  
  9269.5000    -18.6231      2.5213      2.4928      3.2663     54.5843     14.5286      2.3630      0.0500     38.3842     84.5578  
  9270.0000    -18.4176      2.5536      2.5241      3.4160     54.5863     14.5577      2.3458      0.0456     38.6849     84.5830  
  9270.5000    -18.5770      2.6029      2.5718      3.5194     55.0286     14.9447      2.3137      0.0622     40.4941     87.0793  
  9271.0000    -18.7145      2.5754      2.5428      3.5441     55.6954     14.8559      2.2545      0.0410     41.7134     89.9092  
  9271.5000    -18.1172      2.5586      2.5300      3.5062     55.2445     14.7333      2.2530      0.0221     42.5920     91.1723  
  9272.0000    -17.2477      2.5444      2.5142      3.3453     52.9038     14.8710      2.2754      0.0219     42.8556     91.7502  
  9272.5000    -17.0272      2.5406      2.5075      3.1914     51.6007     14.9393      2.2807      0.0210     42.4549     89.6009  
  9273.0000    -16.7722      2.5832      2.5541      3.2085     52.8073     15.1818      2.2700      0.0204     42.3672     86.0844  
  9273.5000    -16.8761      2.5947      2.5657      3.2792     53.2612     15.3154      2.2578      0.0190     42.7372     84.5643  
  9274.0000    -17.0814      2.5970      2.5674      3.3930     53.7926     15.0179      2.2530      0.0289     42.8865     84.2196  
  9274.5000    -16.9213      2.5760      2.5466      3.4651     54.7103     14.9264      2.2604      0.0355     42.6633     84.5455  
  9275.0000    -17.3165      2.6028      2.5737      3.5376     55.1517     14.9694      2.2672      0.0346     43.0086     85.4114  
  9275.5000    -18.1706      2.6258      2.5942      3.6444     54.4477     15.0334      2.2545      0.0330     43.1636     87.9604  
  9276.0000    -18.2823      2.5929      2.5536      3.6018     52.6083     15.0925      2.2663      0.0229     42.3114     91.4216  
  9276.5000    -18.2053      2.5432      2.5144      3.4619     50.2187     14.7768      2.3376      0.0149     40.9567     93.7234  
  9277.0000    -18.0578      2.5441      2.5126      3.2007     48.5085     14.3864      2.4694      0.0011     39.1238     92.6002  
  9277.5000    -17.9305      2.5392      2.5082      3.0669     47.9542     13.9560      2.5214     -0.0032     38.1638     86.2130  
  9278.0000    -17.9589      2.5634      2.5348      3.1433     49.7177     14.9291      2.4214      0.0510     36.6377     83.6034  
  9278.5000    -18.0231      2.5594      2.5292      3.3565     52.3111     15.4000      2.3198      0.0596     35.9501     82.4920  
  9279.0000    -18.0347      2.6174      2.5873      3.7556     55.2320     15.3581      2.2979      0.0544     36.0685     83.2085  
  9279.5000    -18.0987      2.5402      2.5117      3.8986     57.4139     15.4579      2.2630      0.0451     36.5055     89.4369  
  9280.0000    -17.9981      2.5479      2.5190      3.6561     58.8669     15.6940      2.2497      0.0325     37.1359     88.2818  
  9280.5000    -17.6527      2.5800      2.5479      3.3800     59.3643     15.2356      2.2653      0.0139     37.1545     87.0646  
  9281.0000    -17.3790      2.6140      2.5846      3.3610     59.1198     15.7425      2.2714      0.0302     36.9474     86.8907  
  9281.5000    -17.3330      2.6276      2.5982      3.4300     57.8782     15.3798      2.2484      0.0582     36.7378     87.4164  
  9282.0000    -17.1894      2.6392      2.6083      3.4708     57.1195     15.1293      2.2751      0.0634     36.4200     87.9413  
  9282.5000    -16.8818      2.6202      2.5810      3.4714     56.6954     15.4700      2.2985      0.0778     36.8706     87.7138  
  9283.0000    -17.0893      2.5748      2.5461      3.4385     54.5965     15.2244      2.2878      0.0785     37.5205     87.0574  
  9283.5000    -17.6594      2.5563      2.5271      3.4146     52.3777     14.9242      2.2812      0.0693     37.9984     87.0796  
  9284.0000    -17.7021      2.5603      2.5316      3.4183     50.2407     15.2874      2.2771      0.0732     37.4906     87.4760  
  9284.5000    -17.7493      2.5510      2.5240      3.3968     49.9047     14.8076      2.2732      0.0695     38.3880     87.7614  
  9285.0000    -17.8811      2.5989      2.5663      3.2872     50.9779     13.7602      2.2736      0.0563     39.9637     87.6748  
  9285.5000    -17.9052      2.6642      2.6303      3.2618     50.4522     14.4430      2.2581      0.0497     40.9409     87.6582  
  9286.0000    -18.0685      2.6848      2.6546      3.4711     50.6951     15.2218      2.2534      0.0342     41.7233     88.1028  
  9286.5000    -18.3939      2.6620      2.6285      4.1837     50.9601     15.5370      2.2419      0.0365     42.3364     87.9987  
  9287.0000    -18.4569      2.5947      2.5657      4.2498     51.0052     15.9196      2.1834      0.0248     42.0320     87.9394  
  9287.5000    -18.2723      2.5688      2.5377      3.7492     51.2221     15.9671      2.1039      0.0161     41.1408     87.4138  
  9288.0000    -18.1672      2.5531      2.5245      3.3793     52.5987     15.8309      2.0449      0.0100     41.3645     88.5756  
  9288.5000    -18.1036      2.5460      2.5168      3.2782     55.1743     15.2795      2.1019      0.0108     41.9158     90.0225  
  9289.0000    -17.8973      2.4968      2.4649      3.2884     55.8192     14.8756      2.2086      0.0252     42.0740     92.5001  
  9289.5000    -17.7732      2.4483      2.4197      3.2170     55.2237     14.4646      2.2657      0.0481     40.8296     93.6367  
  9290.0000    -17.5830      2.4398      2.4125      3.1474     52.9723     15.3025      2.2849      0.0550     39.0722     91.3005  
  9290.5000    -17.3955      2.4569      2.4280      3.0956     50.7669     15.5296      2.2698      0.0643     37.0925     88.3498  
