~VERSION INFORMATION
 VERS.                      2.00:        CWLS LOG ASCII STANDARD - VERSION 2.00
 WRAP.                        NO:        ONE LINE PER DEPTH STEP
~WELL INFORMATION
#MNEM.UNIT               DATA            INFORMATION
#----------          ------------        ------------------------------
 STRT.F                  92.0000:        START DEPTH
 STOP.F                7738.0000:        STOP DEPTH
 STEP.F                   0.5000:        STEP VALUE
 NULL.                 -999.2500:        NULL VALUE
 COMP.                      13.5:        COMPANY  
 WELL.           EAST SIMPSON #1:        WELL     
 FLD .                   WILDCAT:        FIELD    
 LOC .              18  18N  10W:        LOCATION   
 CNTY.                  N. SLPOE:        COUNTY  
 STAT.                    ALASKA:        STATE   
 CTRY.                       USA:        COUNTRY 
 DATE.                   2/22/79:        LOG DATE 
 API .              502792000500:        UNIQUE WELL IDENTIFIER 
 OPER.                      13.5:        OPERATOR  
 SRVC.              Schlumberger:        SERVICE COMPANY 
 UWI .              502792000500:        UNIQUE WELL ID 
 LAT .                    0.0000:        LATITUDE
 LON .                    0.0000:        LONGITUDE
 DIGS.          Center Line Data:        DIGITIZING COMPANY 
~CURVE INFORMATION      
#MNEM.UNIT            API CODE           CURVE DESCRIPTION
#---------          -------------        ------------------------------
 DEPT.F                         :        1  DEPTH
 SP  .MV                        :        2
 ILD .OHMM                      :        3
 ILM .OHMM                      :        4
 LL8 .OHMM                      :        5
 CALI.IN                        :        6
 GR  .GAPI                      :        7
 DRHO.G/C3                      :        8
 RHOB.G/C3                      :        9
 NPHI.%                         :       10
 DT  .US/F                      :       11
~PARAMETER INFORMATION       
#MNEM.UNIT              VALUE            DESCRIPTION OF MNEMONIC
#---------          -------------        ------------------------------
 EKB .F                  30.0000:        KELLY BUSHING
 TD  .F                   0.0000:        TOTAL DEPTH
 BHT .F                   0.0000:        BOTTOM HOLE TEMPERATURE
 BS  .                   17.5000:        BIT SIZE
 FD  .                   10.2000:        FLUID DENSITY
 CSIZ.                   20.0000:        CASING SIZE
 CBD .F                  90.0000:        CASING DRILLER 1
 CBL .F                  92.0000:        CASING LOGGER 1
 DFT .                       Gel:        TYPE FLUID IN HOLE
 DFV .                   70.0000:        VISCOSITY
 DFPH.                    8.0000:        PH
 DFL .                   12.0000:        FLUID LOSS
 RMS .                    3.6000:        RM
 MST .F                  75.0000:        RM MEAS. TEMP.
 RMF .                    2.2100:        RMF
 MFST.F                  75.0000:        RMF MEAS. TEMP.
 RMC .                    2.1600:        RMC
 MCST.F                  75.0000:        RMC MEAS. TEMP.
 UWI .              502792000500:        UNIQUE WELL ID
~OTHER INFORMATION
~A    DEPTH          SP         ILD         ILM         LL8        CALI          GR        DRHO        RHOB        NPHI          DT  
# ...
  2132.0000    -22.3522      6.4381      5.9823      8.2773   -999.2500     86.0398   -999.2500   -999.2500   -999.2500    115.9250  
  2132.5000    -22.8756      6.4351      5.9261      8.6883   -999.2500     83.7420   -999.2500   -999.2500   -999.2500    116.5977  
  2133.0000    -23.4860      6.4320      5.9201      8.8756   -999.2500     81.0335   -999.2500   -999.2500   -999.2500    117.2085  
  2133.5000    -23.6975      6.4290      5.9141      8.7388   -999.2500     80.3299   -999.2500   -999.2500   -999.2500    117.7665  
  2134.0000    -23.4071      6.4259      5.9081      8.4134   -999.2500     81.0941   -999.2500   -999.2500   -999.2500    118.6112  
  2134.5000    -23.2147      6.4228      5.9111      8.1591   -999.2500     82.5191   -999.2500   -999.2500   -999.2500    119.1701  
  2135.0000    -23.4060      6.4198      5.9407      8.2239   -999.2500     84.1426   -999.2500   -999.2500   -999.2500    118.6592  
  2135.5000    -23.9969      6.4167      5.9704      8.8702   -999.2500     85.4325   -999.2500   -999.2500   -999.2500    117.0705  
  2136.0000    -25.7195      6.4137      6.0003      9.5709   -999.2500     85.1807   -999.2500   -999.2500   -999.2500    115.3311  
  2136.5000    -25.7271      6.4106      5.9946      8.9673   -999.2500     84.5670   -999.2500   -999.2500   -999.2500    115.8275  
  2137.0000    -23.6513      6.4076      6.0032      8.4906   -999.2500     84.5860   -999.2500   -999.2500   -999.2500    116.4851  
  2137.5000    -23.4262      6.4045      6.0374      8.7412   -999.2500     85.1275   -999.2500   -999.2500   -999.2500    116.6427  
  2138.0000    -24.3469      6.4737      5.9236      9.6658   -999.2500     85.3045   -999.2500   -999.2500   -999.2500    116.8682  
  2138.5000    -24.3100      6.5661      5.8537      8.9438   -999.2500     85.0218   -999.2500   -999.2500   -999.2500    117.3000  
  2139.0000    -22.9925      6.6598      5.9703      8.0728   -999.2500     84.3449   -999.2500   -999.2500   -999.2500    117.5308  
  2139.5000    -21.9876      6.7456      6.1021      8.0185   -999.2500     83.5173   -999.2500   -999.2500   -999.2500    117.5968  
  2140.0000    -22.6090      6.7692      6.1539      8.5046   -999.2500     83.3974   -999.2500   -999.2500   -999.2500    116.9798  
  2140.5000    -23.3268      6.7929      6.1096      8.9305   -999.2500     83.7007   -999.2500   -999.2500   -999.2500    115.9577  
  2141.0000    -23.3635      6.8167      6.0798      8.6879   -999.2500     84.6340   -999.2500   -999.2500   -999.2500    115.5839  
  2141.5000    -23.1858      6.8406      6.1143      8.5618   -999.2500     85.8063   -999.2500   -999.2500   -999.2500    116.0463  
  2142.0000    -22.5786      6.8645      6.1490      8.5557   -999.2500     88.0963   -999.2500   -999.2500   -999.2500    117.1280  
  2142.5000    -22.0420      6.8886      6.1366      8.6142   -999.2500     90.5610   -999.2500   -999.2500   -999.2500    118.0055  
  2143.0000    -22.4463      6.8880      6.1359      8.6628   -999.2500     92.6455   -999.2500   -999.2500   -999.2500    118.3847  
  2143.5000    -22.6989      6.8816      6.1370      8.4722   -999.2500     93.3463   -999.2500   -999.2500   -999.2500    118.6815  
  2144.0000    -22.6359      6.8751      6.1248      8.5652   -999.2500     92.7641   -999.2500   -999.2500   -999.2500    119.0444  
  2144.5000    -22.4067      6.8687      6.0403      8.5184   -999.2500     91.9187   -999.2500   -999.2500   -999.2500    119.4429  
  2145.0000    -22.1303      6.8623      6.0977      8.2448   -999.2500     91.0907   -999.2500   -999.2500   -999.2500    119.7782  
  2145.5000    -21.7687      6.8559      6.1889      8.3104   -999.2500     89.7269   -999.2500   -999.2500   -999.2500    119.6350  
  2146.0000    -21.2920      6.8495      6.2550      8.4232   -999.2500     87.1779   -999.2500   -999.2500   -999.2500    118.5868  
  2146.5000    -21.3029      6.8432      6.2662      8.5377   -999.2500     84.7799   -999.2500   -999.2500   -999.2500    117.3606  
  2147.0000    -21.0872      6.8332      6.2690      8.6536   -999.2500     83.5409   -999.2500   -999.2500   -999.2500    116.7438  
  2147.5000    -20.9770      6.8230      6.2690      8.7814   -999.2500     83.1423   -999.2500   -999.2500   -999.2500    116.4095  
  2148.0000    -21.4495      6.8128      6.2393      8.9759   -999.2500     82.9367   -999.2500   -999.2500   -999.2500    115.9870  
  2148.5000    -22.1472      6.8025      6.1801      9.0434   -999.2500     82.4261   -999.2500   -999.2500   -999.2500    115.6451  
  2149.0000    -22.4688      6.7923      6.1158      8.9698   -999.2500     82.3837   -999.2500   -999.2500   -999.2500    115.6016  
  2149.5000    -22.2988      6.7822      6.0369      8.7495   -999.2500     83.8602   -999.2500   -999.2500   -999.2500    116.1550  
  2150.0000    -21.8189      6.7720      5.9450      8.4138   -999.2500     87.2811   -999.2500   -999.2500   -999.2500    118.1551  
  2150.5000    -21.3814      6.7618      5.8951      8.0966   -999.2500     90.4777   -999.2500   -999.2500   -999.2500    120.1472  
  2151.0000    -21.0764      6.7517      5.9966      7.9059   -999.2500     91.1648   -999.2500   -999.2500   -999.2500    120.3586  
  2151.5000    -21.1962      6.7097      6.0553      7.9667   -999.2500     90.1191   -999.2500   -999.2500   -999.2500    119.6534  
  2152.0000    -20.7364      6.6548      6.0718      8.4500   -999.2500     87.1864   -999.2500   -999.2500   -999.2500    117.3698  
  2152.5000    -20.1904      6.6004      6.0111      8.8742   -999.2500     86.3489   -999.2500   -999.2500   -999.2500    116.3263  
  2153.0000    -20.1057      6.5465      5.9450      8.8691   -999.2500     86.8889   -999.2500   -999.2500   -999.2500    115.7527  
  2153.5000    -20.3032      6.5040      5.8980      8.6633   -999.2500     87.4052   -999.2500   -999.2500   -999.2500    116.9038  
  2154.0000    -20.6070      6.5510      5.9362      8.2853   -999.2500     87.3883   -999.2500   -999.2500   -999.2500    119.1196  
  2154.5000    -20.9426      6.5984      5.9672      8.0590   -999.2500     87.2278   -999.2500   -999.2500   -999.2500    120.3541  
  2155.0000    -21.3108      6.6461      6.0078      8.2554   -999.2500     87.0021   -999.2500   -999.2500   -999.2500    120.4916  
  2155.5000    -21.4387      6.6941      6.0706      8.3215   -999.2500     86.8744   -999.2500   -999.2500   -999.2500    119.8693  
  2156.0000    -21.2984      6.7425      6.1578      8.3882   -999.2500     87.5669   -999.2500   -999.2500   -999.2500    118.7969  
  2156.5000    -21.4087      6.7913      6.2114      8.4553   -999.2500     88.9579   -999.2500   -999.2500   -999.2500    117.8095  
  2157.0000    -21.2682      6.8404      6.2512      8.8256   -999.2500     89.4367   -999.2500   -999.2500   -999.2500    117.0173  
  2157.5000    -21.0390      6.8899      6.2520      9.2210   -999.2500     89.0241   -999.2500   -999.2500   -999.2500    116.4879  
  2158.0000    -21.0845      6.9293      6.2125      9.0587   -999.2500     87.7271   -999.2500   -999.2500   -999.2500    116.6895  
  2158.5000    -21.1539      6.9190      6.1497      8.7283   -999.2500     86.8607   -999.2500   -999.2500   -999.2500    117.5020  
  2159.0000    -21.1864      6.9087      6.0845      8.4045   -999.2500     86.6005   -999.2500   -999.2500   -999.2500    118.7699  
  2159.5000    -20.9622      6.8983      6.0199      8.3339   -999.2500     86.5759   -999.2500   -999.2500   -999.2500    119.5147  
  2160.0000    -20.4878      6.8880      5.9625      8.2740   -999.2500     87.4400   -999.2500   -999.2500   -999.2500    120.1071  
  2160.5000    -20.1533      6.8777      5.9756      8.2225   -999.2500     89.6932   -999.2500   -999.2500   -999.2500    120.7422  
  2161.0000    -20.4347      6.8356      5.9379      8.2184   -999.2500     91.2633   -999.2500   -999.2500   -999.2500    121.1988  
  2161.5000    -21.0275      6.7724      5.9462      8.2172   -999.2500     92.6432   -999.2500   -999.2500   -999.2500    121.4071  
