~VERSION INFORMATION
 VERS.                           2.00:        CWLS LOG ASCII STANDARD - VERSION 2.00
 WRAP.                             NO:        ONE LINE PER DEPTH STEP
~WELL INFORMATION
#MNEM.UNIT                   DATA             INFORMATION
#----------             --------------        ------------------------------
 STRT.F                      358.0000:        START DEPTH
 STOP.F                     8806.0000:        STOP DEPTH
 STEP.F                        0.5000:        STEP VALUE
 NULL.                      -999.2500:        NULL VALUE
 COMP.                      U.S. NAVY:        COMPANY
 LOC .                     22 17N 12W:        LOCATION
 DATE.                         4/5/77:        LOG DATE
 WELL.               SOUTH SIMPSON #1:        WELL
 UWI .                   502792000100:        UNIQUE WELL ID
 API .                   502792000100:        UNIQUE WELL IDENTIFIER
 FLD .                        WILDCAT:        FIELD
 CNTY.                    NORTH SLOPE:        COUNTY
 STAT.                         ALASKA:        STATE
 CTRY.                            USA:        COUNTRY
 OPER.                      U.S. NAVY:        OPERATOR
 SRVC.                   SCHLUMBERGER:        SERVICE COMPANY
 LAT .                         0.0000:        LATITUDE
 LON .                         0.0000:        LONGITUDE
 DIGS.               CENTER LINE DATA:        DIGITIZING COMPANY
~CURVE INFORMATION      
#MNEM        .UNIT         API CODE           CURVE DESCRIPTION
#-----------------      --------------        ------------------------------
 DEPT        .F                      :        1  DEPTH
 GR          .GAPI                   :        2  
 CALI        .IN                     :        3  
 DRHO        .G/C3                   :        4  
 RHOB        .G/C3                   :        5  
 NPHI        .%                      :        6  
 DT          .US/F                   :        7  
 SP          .MV                     :        8  
 ILD         .OHMM                   :        9  
 ILM         .OHMM                   :        10 
 LL8         .OHMM                   :        11 
~PARAMETER INFORMATION
#MNEM.UNIT                  VALUE             DESCRIPTION OF MNEMONIC
#---------             ---------------        ------------------------------
 EKB .F                       25.0000:        KELLY BUSHING
 TD  .F                     8807.0000:        TOTAL DEPTH
 BHT .F                      145.0000:        BOTTOM HOLE TEMPERATURE
 BS  .                        13.5000:        BIT SIZE
 FD  .                        10.7000:        FLUID DENSITY
 CSIZ.                        16.0000:        CASING SIZE
 CBD .F                     2175.0000:        CASING DRILLER 1
 CBL .F                     2175.0000:        CASING LOGGER 1
 DFT .                  MISCELLANEOUS:        TYPE FLUID IN HOLE
 DFV .                        47.0000:        VISCOSITY
 DFPH.                        10.5000:        PH
 DFL .                         5.0000:        FLUID LOSS
 RMS .                         2.3000:        RM
 MST .F                       60.0000:        RM MEAS. TEMP.
 RMF .                         1.5400:        RMF
 MFST.F                       54.0000:        RMF MEAS. TEMP.
 RMC .                         2.7300:        RMC
 MCST.F                       54.0000:        RMC MEAS. TEMP.
~OTHER INFORMATION
~A    DEPTH          GR        CALI        DRHO        RHOB        NPHI          DT          SP         ILD         ILM         LL8 
# ...
  7129.0000     75.5274     13.5438      0.0471      2.6124     23.7015     75.4763    -33.3526      5.0138      5.1787      6.5104 
  7129.5000     75.2313     13.5472      0.0593      2.6069     24.7917     75.5783    -33.4480      4.9910      5.1545      6.6084 
  7130.0000     74.9353     13.5506      0.0827      2.5829     25.8655     75.4665    -33.5249      4.9679      5.1305      6.7079 
  7130.5000     74.6392     13.5540      0.1109      2.5960     26.9583     75.2208    -33.5886      4.9147      5.1066      6.6135 
  7131.0000     74.3432     13.5530      0.1242      2.6026     27.0149     75.0366    -33.4253      4.8622      5.0838      6.4740 
  7131.5000     74.2060     13.5520      0.1177      2.6157     26.7434     75.1892    -33.2194      4.8101      5.0749      6.2845 
  7132.0000     74.0859     13.5510      0.0959      2.6431     25.8873     76.8220    -32.9540      4.7587      5.0661      6.1005 
  7132.5000     73.9659     13.5500      0.0611      2.6293     24.8772     78.6342    -32.6663      4.7176      5.0572      5.9220 
  7133.0000     73.8459     13.5490      0.0361      2.6116     24.0538     79.9900    -32.5694      4.7176      5.0825      5.8245 
  7133.5000     74.0992     13.5480      0.0244      2.6170     23.7600     80.9638    -32.5213      4.7268      5.1141      5.7862 
  7134.0000     75.1274     13.5469      0.0251      2.6183     23.2114     80.8294    -32.5968      4.7895      5.1459      5.8405 
  7134.5000     76.1555     13.5459      0.0113      2.6025     23.4199     79.5260    -32.7341      4.8612      5.1778      6.1017 
  7135.0000     77.1837     13.5449      0.0076      2.5891     24.0060     78.8003    -32.9629      4.9425      5.2303      6.3746 
  7135.5000     78.2118     13.5439      0.0150      2.6012     24.5100     77.4022    -33.0189      5.0253      5.2856      6.7754 
  7136.0000     78.4394     13.5429      0.0079      2.6011     25.2207     76.2127    -33.1103      5.1094      5.3414      7.0116 
  7136.5000     78.3551     13.5419      0.0067      2.5934     25.6391     75.3534    -33.1478      5.1949      5.3979      7.2542 
  7137.0000     78.2709     13.5409      0.0078      2.5884     25.4257     75.0977    -33.1966      5.2758      5.4549      7.3268 
  7137.5000     78.0340     13.5399      0.0117      2.5894     24.8807     75.2469    -33.2220      5.3316      5.5125      7.2371 
  7138.0000     77.3321     13.5389      0.0280      2.6028     23.4144     75.9484    -33.3175      5.3879      5.5708      7.1289 
  7138.5000     76.6301     13.5379      0.0365      2.6230     22.3817     77.3641    -33.4974      5.4448      5.6297      7.0157 
  7139.0000     75.9940     13.5369      0.0391      2.6396     21.6534     78.3844    -33.5808      5.5024      5.6891      6.9042 
  7139.5000     75.9527     13.5359      0.0481      2.6426     20.7523     79.1240    -33.6764      5.5605      5.7492      6.8595 
  7140.0000     75.9114     13.5349      0.0697      2.6527     20.5638     79.7566    -33.7807      5.6193      5.8060      6.9808 
  7140.5000     75.8701     13.5339      0.0818      2.6630     20.8703     77.1615    -33.8317      5.6390      5.8259      7.1042 
  7141.0000     75.8288     13.5329      0.0793      2.6801     21.4542     76.3061    -33.7478      5.6585      5.8460      7.2298 
  7141.5000     75.7875     13.5319      0.0636      2.6584     21.8405     75.8408    -33.7087      5.6780      5.8660      7.3031 
  7142.0000     75.7462     13.5305      0.0360      2.6154     22.2916     75.4748    -33.6285      5.7235      5.9162      7.2442 
  7142.5000     75.7049     13.5279      0.0256      2.6373     22.2725     75.2335    -33.4271      5.7763      5.9707      7.1589 
  7143.0000     75.6636     13.5254      0.0374      2.6430     22.2261     75.3710    -33.3707      5.8295      6.0257      6.9990 
  7143.5000     75.6223     13.5229      0.0408      2.6263     22.3831     75.6002    -33.4159      5.8832      6.0813      7.0545 
  7144.0000     75.6194     13.5204      0.0255      2.6076     22.5542     75.8306    -33.4611      5.9374      6.1373      7.3223 
  7144.5000     75.6188     13.5178      0.0102      2.5962     21.9496     75.6449    -33.5171      5.9921      6.1938      7.5333 
  7145.0000     75.6182     13.5153      0.0035      2.5979     21.5900     75.5352    -33.5614      6.0473      6.2509      7.5695 
  7145.5000     75.6176     13.5128      0.0160      2.5984     21.8468     75.5038    -33.5606      6.0013      6.2041      7.5238 
  7146.0000     75.6171     13.5103      0.0173      2.5975     22.2780     75.5773    -33.6653      5.9430      6.1438      7.4273 
  7146.5000     75.6165     13.5077      0.0197      2.5949     22.5719     75.3415    -33.6999      5.8852      6.0841      7.3264 
  7147.0000     75.6159     13.5052      0.0289      2.6081     22.7022     74.9666    -33.8095      5.8280      6.0250      7.2269 
  7147.5000     75.6153     13.5027      0.0380      2.6159     22.5999     74.5917    -33.8783      5.7736      5.9684      7.1288 
  7148.0000     75.6147     13.5001      0.0471      2.6302     22.2000     74.5677    -33.8765      5.7197      5.9127      6.9716 
  7148.5000     75.6141     13.4976      0.0415      2.6486     21.7053     75.1965    -33.9200      5.6663      5.8575      6.8354 
  7149.0000     75.6135     13.4951      0.0319      2.6243     21.2571     75.8253    -33.7862      5.6735      5.8666      6.7019 
  7149.5000     75.4448     13.4926      0.0279      2.6509     20.8389     76.4842    -33.8586      5.7477      5.9486      6.5710 
  7150.0000     75.0050     13.4900      0.0360      2.6333     20.8029     76.9665    -33.8800      5.8397      6.1147      6.5731 
  7150.5000     74.5651     13.4875      0.0441      2.6204     21.2858     76.9630    -33.8647      5.9032      6.4417      6.7821 
  7151.0000     74.1253     13.4850      0.0417      2.6260     21.7901     76.3774    -33.7953      5.9647      6.7863      7.0741 
  7151.5000     73.6854     13.4825      0.0308      2.6198     22.2295     75.5177    -33.8280      6.0268      7.1492      7.3788 
  7152.0000     73.4102     13.4799      0.0261      2.6082     21.6670     75.2016    -33.7781      6.0896      7.5316      7.6965 
  7152.5000     73.3451     13.4774      0.0244      2.6034     21.0059     75.2256    -33.7636      6.1530      7.9345      7.8764 
  7153.0000     73.8183     13.4749      0.0195      2.5988     20.4138     75.3213    -33.9612      6.2171      8.0755      7.9553 
  7153.5000     74.6511     13.4724      0.0134      2.5832     20.2138     75.5123    -33.9247      6.2818      8.2176      8.0350 
  7154.0000     75.4839     13.4698      0.0074      2.5949     20.0856     75.5513    -33.8137      6.3473      8.3622      8.1154 
  7154.5000     76.3167     13.4673      0.0213      2.6368     19.7198     75.3003    -33.8627      6.2970      8.4643      8.1967 
  7155.0000     77.1494     13.4648      0.0316      2.6258     19.4767     74.9645    -33.9866      6.2469      8.4860      8.1707 
  7155.5000     77.9310     13.4623      0.0246      2.6226     19.5982     74.7594    -34.0680      6.1973      8.2806      8.1033 
  7156.0000     77.7932     13.4597      0.0158      2.6086     19.9377     74.7070    -34.1685      6.1480      8.0817      8.0365 
  7156.5000     77.6554     13.4646      0.0130      2.6158     20.3184     74.7887    -34.3396      6.0991      7.9347      7.9703 
  7157.0000     77.5308     13.4756      0.0191      2.6168     20.2946     74.8365    -34.2955      6.0506      7.7903      7.9046 
  7157.5000     77.6641     13.4866      0.0198      2.6227     20.2305     74.8402    -34.3207      6.0025      7.6486      7.8395 
  7158.0000     78.5344     13.4976      0.0292      2.6171     20.0685     74.8671    -34.2578      5.9530      7.5095      7.7152 
  7158.5000     79.4170     13.5086      0.0202      2.6055     19.8614     74.9818    -34.1792      5.8966      7.3728      7.5520 
  7159.0000     80.2997     13.5196      0.0080      2.6027     19.9891     75.1376    -34.0913      5.8408      7.2387      7.3923 
