~VERSION INFORMATION
 VERS.                      2.00:        CWLS LOG ASCII STANDARD - VERSION 2.00
 WRAP.                        NO:        ONE LINE PER DEPTH STEP
~WELL INFORMATION
#MNEM.UNIT               DATA            INFORMATION
#----------          ------------        ------------------------------
 STRT.F                  81.0000:        START DEPTH
 STOP.F               15400.0000:        STOP DEPTH
 STEP.F                   0.5000:        STEP VALUE
 NULL.                 -999.2500:        NULL VALUE
 COMP. USGS/NPR HUSKY OIL OPERAT:        COMPANY  
 WELL.     IKPIKPUK TEST WELL #1:        WELL     
 FLD .                   WILDCAT:        FIELD    
 LOC .              25  13N  10W:        LOCATION   
 CNTY.               NORTH SLPOE:        COUNTY  
 STAT.                    ALASKA:        STATE   
 CTRY.                       USA:        COUNTRY 
 DATE.                  11/29/78:        LOG DATE 
 API .              502792000400:        UNIQUE WELL IDENTIFIER 
 OPER. USGS/NPR HUSKY OIL OPERAT:        OPERATOR  
 SRVC.              Schlumberger:        SERVICE COMPANY 
 UWI .              502792000400:        UNIQUE WELL ID 
 LAT .                    0.0000:        LATITUDE
 LON .                    0.0000:        LONGITUDE
 DIGS.          Center Line Data:        DIGITIZING COMPANY 
~CURVE INFORMATION      
#MNEM.UNIT            API CODE           CURVE DESCRIPTION
#---------          -------------        ------------------------------
 DEPT.F                         :        1  DEPTH
 SP  .MV                        :        2
 ILD .OHMM                      :        3
 ILM .OHMM                      :        4
 LL8 .OHMM                      :        5
 GR  .GAPI                      :        6
 CALI.IN                        :        7
 RHOB.G/C3                      :        8
 DRHO.G/C3                      :        9
 NPHI.%                         :       10
 DT  .US/F                      :       11
~PARAMETER INFORMATION       
#MNEM.UNIT              VALUE            DESCRIPTION OF MNEMONIC
#---------          -------------        ------------------------------
 EKB .F                  52.0000:        KELLY BUSHING
 TD  .F               15481.0000:        TOTAL DEPTH
 BHT .F                   0.0000:        BOTTOM HOLE TEMPERATURE
 BS  .                   17.5000:        BIT SIZE
 FD  .                    9.0000:        FLUID DENSITY
 CSIZ.                   30.0000:        CASING SIZE
 CBD .F                 100.0000:        CASING DRILLER 1
 CBL .F                 101.0000:        CASING LOGGER 1
 DFT .                       Gel:        TYPE FLUID IN HOLE
 DFV .                   60.0000:        VISCOSITY
 DFPH.                    8.5000:        PH
 DFL .                   18.0000:        FLUID LOSS
 RMS .                    3.7300:        RM
 MST .F                  66.0000:        RM MEAS. TEMP.
 RMF .                    4.3900:        RMF
 MFST.F                  58.0000:        RMF MEAS. TEMP.
 RMC .                    2.5000:        RMC
 MCST.F                  57.0000:        RMC MEAS. TEMP.
 UWI .              502792000400:        UNIQUE WELL ID
~OTHER INFORMATION
~A    DEPTH          SP         ILD         ILM         LL8          GR        CALI        RHOB        DRHO        NPHI          DT  
# ...
  5211.0000    -34.7992      4.5657      4.3684      6.4272     60.5207     15.2380      2.3057      0.0570     37.5302     94.9109  
  5211.5000    -34.9355      4.4849      4.1466      5.7224     61.3933     14.7193      2.2964      0.0459     37.4284     90.4743  
  5212.0000    -35.0007      4.5254      3.9361      5.2121     61.0615     15.4705      2.2896      0.0391     38.2507     88.8085  
  5212.5000    -35.0270      4.5663      3.8299      4.8052     60.5262     15.8855      2.2852      0.0299     39.0897     89.3416  
  5213.0000    -35.1000      4.6076      4.1320      5.0933     60.4105     15.9471      2.2864      0.0391     40.3620     90.7061  
  5213.5000    -35.1043      4.9159      4.4578      5.7094     59.9539     16.1325      2.2843      0.0453     40.3360     90.9922  
  5214.0000    -35.0571      5.2571      4.7824      6.3641     58.9899     16.3431      2.2811      0.0408     39.6788     90.5479  
  5214.5000    -35.0100      5.6219      5.1070      6.5300     59.0119     16.3874      2.2789      0.0503     37.9289     89.9832  
  5215.0000    -34.9958      6.0121      5.4537      6.7002     59.5224     16.0991      2.2868      0.0650     37.4137     89.9494  
  5215.5000    -34.9531      6.2616      5.8240      6.8748     60.1112     16.0203      2.3029      0.1000     38.0094     89.6682  
  5216.0000    -34.7746      6.4604      6.0659      6.9245     60.4860     16.0473      2.3157      0.1156     38.2199     89.0442  
  5216.5000    -34.5961      6.6807      6.1142      6.9599     59.9529     15.9756      2.3032      0.1151     38.0656     88.5351  
  5217.0000    -34.5846      6.9164      6.1628      6.9955     59.2221     16.3853      2.2925      0.1078     37.8173     88.4630  
  5217.5000    -34.4681      7.0106      6.1749      7.0385     60.2090     16.4459      2.2937      0.0969     37.0511     88.5842  
  5218.0000    -34.5617      6.9419      6.1870      7.0417     62.1613     15.7347      2.2810      0.0820     36.2848     88.6708  
  5218.5000    -34.6650      6.8739      6.1991      7.0075     63.4046     15.7167      2.2699      0.0715     35.6227     88.7019  
  5219.0000    -34.7779      6.8065      6.1940      7.0203     63.8889     16.0020      2.2738      0.0715     36.0576     89.1211  
  5219.5000    -34.8861      6.7398      6.0633      6.9960     64.0789     15.5556      2.2756      0.0790     37.4176     88.8915  
  5220.0000    -34.9714      6.6737      6.0073      6.9582     64.6513     15.7063      2.2729      0.0703     39.1923     88.6245  
  5220.5000    -35.0216      6.6083      5.9446      6.9206     65.1828     16.5361      2.2679      0.0749     38.6927     89.4288  
  5221.0000    -35.0352      6.5435      5.9323      6.8832     65.1373     16.9442      2.2536      0.0608     38.1250     89.7728  
  5221.5000    -35.1069      6.5466      5.9208      6.8460     65.3737     16.2572      2.2567      0.0449     37.4354     90.1191  
  5222.0000    -35.1799      6.5649      5.9546      6.8090     66.2120     15.7201      2.2624      0.0321     37.0020     90.9172  
  5222.5000    -35.2466      6.5834      5.9613      6.8192     65.9403     15.8453      2.2658      0.0217     36.7718     91.2463  
  5223.0000    -35.3313      6.6200      5.9533      6.8605     64.7486     16.0450      2.2765      0.0236     37.0823     90.5023  
  5223.5000    -35.1019      6.6568      5.9453      6.9021     63.8250     16.3108      2.2988      0.0469     38.0310     90.1558  
  5224.0000    -34.8590      6.6937      5.9373      6.7929     62.9663     16.0947      2.2972      0.0657     37.5862     89.5312  
  5224.5000    -34.8748      6.7309      5.9294      6.6957     61.9863     15.8323      2.2866      0.0815     37.2542     88.5737  
  5225.0000    -34.8918      6.7683      5.9249      6.7614     60.4427     15.5418      2.2541      0.0847     36.6347     89.3136  
  5225.5000    -34.8702      6.7637      5.9382      6.8277     59.2202     16.0799      2.2240      0.0781     36.4912     89.8943  
  5226.0000    -34.7501      6.7426      5.9481      6.8947     60.4345     16.6180      2.2104      0.0658     37.1469     91.2117  
  5226.5000    -34.6642      6.7216      6.0404      6.9623     61.9785     16.4900      2.2112      0.0510     37.9684     90.5215  
  5227.0000    -34.6027      6.7613      6.0762      7.0305     62.1051     15.9044      2.2352      0.0509     37.3003     90.0873  
  5227.5000    -34.5731      6.8191      6.1121      7.0995     61.5198     15.8182      2.2477      0.0667     36.3547     89.4976  
  5228.0000    -34.6237      6.8445      6.0817      7.0698     59.7126     15.6205      2.2432      0.0704     36.1271     89.0780  
  5228.5000    -34.7375      6.8377      6.0515      7.0186     57.8369     16.0410      2.2309      0.0730     36.0658     88.5621  
  5229.0000    -34.8027      6.8310      6.0214      6.9678     58.2817     16.0022      2.2282      0.0805     36.0809     88.6015  
  5229.5000    -34.8775      6.8242      5.9915      6.9028     60.4297     16.1427      2.2243      0.0807     36.5514     88.8425  
  5230.0000    -34.9991      6.8425      6.0672      6.9146     62.5126     16.5355      2.2346      0.0692     37.4865     89.4301  
  5230.5000    -35.0750      6.8686      6.1499      6.9285     63.3363     16.9434      2.2521      0.0625     38.5774     89.8187  
  5231.0000    -35.1028      6.8949      6.2338      6.9256     63.6035     16.7800      2.2929      0.0590     38.8339     90.0311  
  5231.5000    -35.1787      6.8824      6.2499      6.9797     62.4066     16.3943      2.3034      0.0883     39.1833     89.8357  
  5232.0000    -35.2110      6.8683      6.2300      7.0389     59.9020     16.3155      2.2636      0.0993     39.5477     89.4277  
  5232.5000    -35.1970      6.8542      6.2102      7.0231     57.9399     16.6747      2.2383      0.0924     39.8262     89.5118  
  5233.0000    -35.1955      6.8402      6.1905      7.0019     57.3893     16.2340      2.2280      0.0898     39.9137     89.4146  
  5233.5000    -35.2034      6.8188      6.1708      6.9701     58.4473     16.2004      2.2312      0.0930     39.0024     89.0040  
  5234.0000    -34.9436      6.7790      6.1512      6.8204     61.2672     15.7421      2.2265      0.0962     37.7859     88.8048  
  5234.5000    -34.7217      6.7393      6.1316      6.7552     63.4989     15.3541      2.2309      0.0872     37.4456     88.7140  
  5235.0000    -34.5783      6.6999      6.1121      6.8362     63.1883     15.6260      2.2850      0.0971     37.0265     89.4308  
  5235.5000    -34.5799      6.7290      6.1150      6.9182     61.7854     15.6506      2.2951      0.0906     37.1593     90.1571  
  5236.0000    -34.5658      6.7798      6.1439      7.0011     59.8109     15.2016      2.2936      0.0824     37.2439     90.8883  
  5236.5000    -34.5779      6.8310      6.1730      7.0109     58.3593     15.7161      2.2783      0.0723     37.0299     90.7539  
  5237.0000    -34.6249      6.8825      6.2022      7.0143     58.1856     15.9947      2.2731      0.0788     37.4945     90.1069  
  5237.5000    -34.5930      6.9345      6.1942      6.9859     58.5382     15.8651      2.2462      0.0795     38.0004     89.4390  
  5238.0000    -34.6704      6.9868      6.1416      6.9636     57.0609     15.5774      2.2421      0.0649     38.4394     88.9000  
  5238.5000    -34.8165      7.0148      6.0896      6.9535     54.2757     16.1951      2.2791      0.0811     38.9484     89.2916  
  5239.0000    -34.7762      6.9984      6.0380      6.9206     52.9549     16.1500      2.3035      0.1024     39.4574     89.2818  
  5239.5000    -34.7451      6.9820      5.9958      6.9636     52.9885     15.6040      2.3175      0.1066     38.3441     88.4618  
  5240.0000    -34.8587      6.9656      5.9579      7.0068     53.2415     15.8898      2.3074      0.1015     36.9862     88.7095  
  5240.5000    -34.9076      6.9169      5.9202      7.0348     53.7552     16.3263      2.2898      0.0964     35.8102     88.7492  
