~VERSION INFORMATION
 VERS.                           2.00:        CWLS LOG ASCII STANDARD - VERSION 2.00
 WRAP.                             NO:        ONE LINE PER DEPTH STEP
~WELL INFORMATION
#MNEM.UNIT                   DATA             INFORMATION
#----------             --------------        ------------------------------
 STRT.F                      358.0000:        START DEPTH
 STOP.F                     8806.0000:        STOP DEPTH
 STEP.F                        0.5000:        STEP VALUE
 NULL.                      -999.2500:        NULL VALUE
 COMP.                      U.S. NAVY:        COMPANY
 LOC .                     22 17N 12W:        LOCATION
 DATE.                         4/5/77:        LOG DATE
 WELL.               SOUTH SIMPSON #1:        WELL
 UWI .                   502792000100:        UNIQUE WELL ID
 API .                   502792000100:        UNIQUE WELL IDENTIFIER
 FLD .                        WILDCAT:        FIELD
 CNTY.                    NORTH SLOPE:        COUNTY
 STAT.                         ALASKA:        STATE
 CTRY.                            USA:        COUNTRY
 OPER.                      U.S. NAVY:        OPERATOR
 SRVC.                   SCHLUMBERGER:        SERVICE COMPANY
 LAT .                         0.0000:        LATITUDE
 LON .                         0.0000:        LONGITUDE
 DIGS.               CENTER LINE DATA:        DIGITIZING COMPANY
~CURVE INFORMATION      
#MNEM        .UNIT         API CODE           CURVE DESCRIPTION
#-----------------      --------------        ------------------------------
 DEPT        .F                      :        1  DEPTH
 GR          .GAPI                   :        2  
 CALI        .IN                     :        3  
 DRHO        .G/C3                   :        4  
 RHOB        .G/C3                   :        5  
 NPHI        .%                      :        6  
 DT          .US/F                   :        7  
 SP          .MV                     :        8  
 ILD         .OHMM                   :        9  
 ILM         .OHMM                   :        10 
 LL8         .OHMM                   :        11 
~PARAMETER INFORMATION
#MNEM.UNIT                  VALUE             DESCRIPTION OF MNEMONIC
#---------             ---------------        ------------------------------
 EKB .F                       25.0000:        KELLY BUSHING
 TD  .F                     8807.0000:        TOTAL DEPTH
 BHT .F                      145.0000:        BOTTOM HOLE TEMPERATURE
 BS  .                        13.5000:        BIT SIZE
 FD  .                        10.7000:        FLUID DENSITY
 CSIZ.                        16.0000:        CASING SIZE
 CBD .F                     2175.0000:        CASING DRILLER 1
 CBL .F                     2175.0000:        CASING LOGGER 1
 DFT .                  MISCELLANEOUS:        TYPE FLUID IN HOLE
 DFV .                        47.0000:        VISCOSITY
 DFPH.                        10.5000:        PH
 DFL .                         5.0000:        FLUID LOSS
 RMS .                         2.3000:        RM
 MST .F                       60.0000:        RM MEAS. TEMP.
 RMF .                         1.5400:        RMF
 MFST.F                       54.0000:        RMF MEAS. TEMP.
 RMC .                         2.7300:        RMC
 MCST.F                       54.0000:        RMC MEAS. TEMP.
~OTHER INFORMATION
~A    DEPTH          GR        CALI        DRHO        RHOB        NPHI          DT          SP         ILD         ILM         LL8 
# ...
  6031.0000     83.9878     16.6498      0.1666      2.3836     35.7689     80.4738    -31.2405      6.9859      7.5193      8.2390 
  6031.5000     83.7255     16.9638      0.1692      2.4179     35.2623     81.3971    -31.4324      6.9728      7.5089      8.1566 
  6032.0000     82.7814     17.2588      0.1884      2.4095     34.5406     81.7952    -31.9029      6.9597      7.5057      8.1116 
  6032.5000     81.8373     17.1190      0.2060      2.4151     34.3980     82.1116    -31.6386      6.9467      7.5025      8.0668 
  6033.0000     80.8933     17.0525      0.1899      2.4563     34.2494     82.2272    -31.4836      6.9337      7.4994      8.0922 
  6033.5000     80.3145     16.3668      0.2051      2.4700     34.2227     82.2170    -31.4039      6.9207      7.4962      8.1213 
  6034.0000     79.7499     16.7617      0.1942      2.4273     34.1297     81.4605    -31.4596      6.9077      7.4930      8.1505 
  6034.5000     79.1852     16.9971      0.2008      2.3843     33.8721     81.4334    -31.3987      6.9382      7.5001      8.1799 
  6035.0000     78.6206     16.9983      0.1963      2.3181     34.0879     81.5167    -31.5620      6.9699      7.5671      8.2093 
  6035.5000     78.0559     17.0263      0.1574      2.2232     34.6913     81.4723    -31.6675      7.0018      7.6346      8.2388 
  6036.0000     77.8044     17.0623      0.0926      2.1768     35.0716     81.9198    -31.7492      7.0339      7.7028      8.2685 
  6036.5000     78.0126     17.0725      0.0751      2.2282     35.2257     82.6129    -31.2472      7.0661      7.7715      8.2982 
  6037.0000     78.2207     17.0912      0.1396      2.2796     34.6858     82.4447    -30.8612      7.0984      7.8409      8.3281 
  6037.5000     78.4288     17.0899      0.1607      2.2817     34.1710     82.2831    -30.8523      7.1309      7.9108      8.3581 
  6038.0000     78.6369     17.0864      0.0852      2.1976     33.6066     81.5724    -30.9804      7.1636      7.9814      8.3881 
  6038.5000     78.8450     17.0903      0.0906      2.1474     33.8358     80.9344    -31.1694      7.2038      8.0527      8.4183 
  6039.0000     78.6697     17.1054      0.1373      2.1394     34.5726     80.7695    -31.2722      7.2469      8.1246      8.4486 
  6039.5000     78.2728     17.1023      0.1719      2.1645     34.5902     80.8434    -31.3345      7.2903      8.1765      8.4790 
  6040.0000     77.8759     17.1061      0.1850      2.2475     33.4398     80.9642    -31.1980      7.3340      8.2059      8.5095 
  6040.5000     77.2869     17.0979      0.1877      2.3305     32.2080     80.3173    -30.9795      7.3779      8.2353      8.5401 
  6041.0000     76.4606     17.0780      0.1951      2.3942     31.4243     80.3088    -30.9041      7.4221      8.2649      8.5709 
  6041.5000     75.6422     17.0260      0.1847      2.3835     30.8801     80.9399    -30.7825      7.4665      8.2999      8.6127 
  6042.0000     75.6272     16.9745      0.1861      2.3926     30.5522     80.2651    -30.9250      7.5112      8.3791      8.6950 
  6042.5000     75.8559     16.5189      0.1968      2.4201     30.3112     79.6948    -30.9149      7.5562      8.4590      8.7780 
  6043.0000     76.3192     16.4162      0.2150      2.4419     30.3044     79.5555    -30.8069      7.6014      8.5397      8.8618 
  6043.5000     76.2679     16.5173      0.2104      2.4223     30.9245     78.3527    -30.8789      7.6469      8.6212      8.9464 
  6044.0000     75.8410     16.3306      0.1719      2.4027     31.9500     77.8753    -31.1445      7.6927      8.7035      9.0318 
  6044.5000     75.4141     16.0714      0.1817      2.4095     31.9700     78.0793    -30.6627      7.7388      8.7865      9.1181 
  6045.0000     74.4089     16.2919      0.1941      2.4371     31.1890     78.2067    -30.5342      7.8275      8.8703      9.2048 
  6045.5000     73.7155     16.1138      0.1591      2.4646     29.4176     78.1428    -30.4970      7.9227      8.9035      9.2333 
  6046.0000     73.6777     16.4108      0.1728      2.4703     28.9910     78.7565    -30.6603      8.0191      8.9311      9.2620 
  6046.5000     74.2667     16.7018      0.1385      2.4398     29.0110     78.9696    -30.7749      8.1166      8.9588      9.2907 
  6047.0000     74.5423     15.8365      0.1363      2.4628     29.0023     79.0450    -30.9381      8.2153      8.9866      9.3196 
  6047.5000     76.2779     15.3792      0.1052      2.5082     28.3560     79.0611    -31.0044      8.3152      9.0232      9.3628 
  6048.0000     77.4711     15.3965      0.0983      2.5536     28.0094     78.8739    -31.1501      8.4193      9.0931      9.4457 
  6048.5000     78.6147     15.5194      0.1334      2.5557     27.8729     79.2745    -31.0367      8.5253      9.1259      9.7376 
  6049.0000     79.5892     15.7231      0.1563      2.5328     29.2288     79.3964    -31.0989      8.6327      9.1588     10.2487 
  6049.5000     79.6200     15.7622      0.1383      2.5099     30.5562     79.1312    -31.2072      8.6534      9.1919     10.7879 
  6050.0000     78.9668     15.5255      0.1191      2.4871     30.8323     78.2281    -31.6822      8.6292      9.2250     11.2419 
  6050.5000     78.0600     15.3760      0.0998      2.4958     30.4587     77.6017    -31.4616      8.5870      9.2583     10.9497 
  6051.0000     77.1532     15.4822      0.1294      2.5123     30.0823     77.0029    -31.1731      8.5356      9.2912     10.4692 
  6051.5000     76.2465     15.7059      0.1704      2.5289     29.5408     77.0257    -30.9608      8.4845      9.3064     10.0099 
  6052.0000     75.3397     15.9880      0.2097      2.5454     28.9563     77.4126    -31.1896      8.4337      9.3216      9.6762 
  6052.5000     74.4329     16.3321      0.2149      2.5350     28.2778     78.1662    -31.1191      8.3832      9.3070      9.5647 
  6053.0000     74.0465     16.0728      0.2113      2.5179     28.2023     79.2115    -31.1761      8.3330      9.2766      9.6781 
  6053.5000     74.7024     15.9674      0.2158      2.5008     28.4617     79.4008    -31.3578      8.2831      9.2463      9.7928 
  6054.0000     75.3584     16.0818      0.2056      2.4837     29.3745     78.9700    -31.7276      8.2335      9.2161      9.9089 
  6054.5000     76.5579     16.3830      0.1712      2.4717     30.1177     78.5119    -31.9255      8.1842      9.1861      9.8158 
  6055.0000     77.8910     16.3390      0.1336      2.4667     30.3568     78.1577    -31.8185      8.1352      9.1561      9.6865 
  6055.5000     79.2241     16.0109      0.0879      2.4617     30.4840     78.1218    -31.7458      8.0992      9.1262      9.5835 
  6056.0000     79.9439     15.4964      0.1151      2.4460     30.5358     78.2655    -31.8963      8.0759      9.0964      9.5231 
  6056.5000     78.6450     15.7336      0.1726      2.4114     30.3162     78.5765    -31.9380      8.0527      9.0668      9.4630 
  6057.0000     77.1512     15.9796      0.1813      2.3890     30.0374     78.9282    -31.9215      8.0295      9.0372      9.4034 
  6057.5000     75.6574     16.8829      0.1929      2.4173     29.8889     78.9161    -32.1865      8.0065      9.0077      9.3441 
  6058.0000     74.1636     16.6678      0.2107      2.4457     29.7456     78.5398    -32.3308      7.9835      8.9511      9.2852 
  6058.5000     73.6977     16.3113      0.2193      2.4617     29.9775     78.3222    -32.3046      7.9605      8.8947      9.2266 
  6059.0000     73.5295     16.5889      0.2028      2.4251     30.7452     78.5150    -32.0110      7.9377      8.8386      9.1684 
  6059.5000     73.3614     16.5455      0.1649      2.3885     31.4533     78.7707    -32.1084      7.9148      8.7829      9.1106 
  6060.0000     73.1932     16.2375      0.1685      2.3520     31.9487     78.7081    -32.2454      7.8921      8.7275      9.0532 
  6060.5000     73.7522     16.2744      0.1651      2.2963     32.4440     78.4372    -32.1357      7.8694      8.6725      8.9961 
  6061.0000     74.3605     16.5316      0.1728      2.2747     33.0045     78.5322    -32.1170      7.8456      8.6289      8.9476 
