~VERSION INFORMATION
 VERS.                      2.00:        CWLS LOG ASCII STANDARD - VERSION 2.00
 WRAP.                        NO:        ONE LINE PER DEPTH STEP
~WELL INFORMATION
#MNEM.UNIT               DATA            INFORMATION
#----------          ------------        ------------------------------
 STRT.F                  92.0000:        START DEPTH
 STOP.F                7738.0000:        STOP DEPTH
 STEP.F                   0.5000:        STEP VALUE
 NULL.                 -999.2500:        NULL VALUE
 COMP.                      13.5:        COMPANY  
 WELL.           EAST SIMPSON #1:        WELL     
 FLD .                   WILDCAT:        FIELD    
 LOC .              18  18N  10W:        LOCATION   
 CNTY.                  N. SLPOE:        COUNTY  
 STAT.                    ALASKA:        STATE   
 CTRY.                       USA:        COUNTRY 
 DATE.                   2/22/79:        LOG DATE 
 API .              502792000500:        UNIQUE WELL IDENTIFIER 
 OPER.                      13.5:        OPERATOR  
 SRVC.              Schlumberger:        SERVICE COMPANY 
 UWI .              502792000500:        UNIQUE WELL ID 
 LAT .                    0.0000:        LATITUDE
 LON .                    0.0000:        LONGITUDE
 DIGS.          Center Line Data:        DIGITIZING COMPANY 
~CURVE INFORMATION      
#MNEM.UNIT            API CODE           CURVE DESCRIPTION
#---------          -------------        ------------------------------
 DEPT.F                         :        1  DEPTH
 SP  .MV                        :        2
 ILD .OHMM                      :        3
 ILM .OHMM                      :        4
 LL8 .OHMM                      :        5
 CALI.IN                        :        6
 GR  .GAPI                      :        7
 DRHO.G/C3                      :        8
 RHOB.G/C3                      :        9
 NPHI.%                         :       10
 DT  .US/F                      :       11
~PARAMETER INFORMATION       
#MNEM.UNIT              VALUE            DESCRIPTION OF MNEMONIC
#---------          -------------        ------------------------------
 EKB .F                  30.0000:        KELLY BUSHING
 TD  .F                   0.0000:        TOTAL DEPTH
 BHT .F                   0.0000:        BOTTOM HOLE TEMPERATURE
 BS  .                   17.5000:        BIT SIZE
 FD  .                   10.2000:        FLUID DENSITY
 CSIZ.                   20.0000:        CASING SIZE
 CBD .F                  90.0000:        CASING DRILLER 1
 CBL .F                  92.0000:        CASING LOGGER 1
 DFT .                       Gel:        TYPE FLUID IN HOLE
 DFV .                   70.0000:        VISCOSITY
 DFPH.                    8.0000:        PH
 DFL .                   12.0000:        FLUID LOSS
 RMS .                    3.6000:        RM
 MST .F                  75.0000:        RM MEAS. TEMP.
 RMF .                    2.2100:        RMF
 MFST.F                  75.0000:        RMF MEAS. TEMP.
 RMC .                    2.1600:        RMC
 MCST.F                  75.0000:        RMC MEAS. TEMP.
 UWI .              502792000500:        UNIQUE WELL ID
~OTHER INFORMATION
~A    DEPTH          SP         ILD         ILM         LL8        CALI          GR        DRHO        RHOB        NPHI          DT  
# ...
  4142.0000    -42.4491      6.7131      5.7736      7.4389     19.9773     79.7809      0.1177      2.4421     34.7776     97.2847  
  4142.5000    -42.3103      6.7131      5.8324      7.3297     19.9775     77.9764      0.0990      2.4256     34.9159     97.6490  
  4143.0000    -42.2040      6.7131      5.8136      7.2221     19.9778     77.2860      0.0804      2.4116     33.5072     97.2943  
  4143.5000    -41.9708      6.7131      5.7666      7.1161     19.9780     77.5108      0.0705      2.4122     31.8735     97.4596  
  4144.0000    -41.9925      6.7131      5.7709      7.0782     19.9783     78.0767      0.0814      2.4194     31.2452     97.6031  
  4144.5000    -41.9820      6.7131      5.8285      7.0508     19.9785     81.1705      0.0910      2.4290     30.3603     97.9865  
  4145.0000    -41.7099      6.7311      5.8681      7.2557     19.9788     84.2933      0.1007      2.4299     28.8729     99.3296  
  4145.5000    -41.6947      6.7834      5.9176      7.4763     19.9791     86.2130      0.0899      2.4248     29.8333     99.4952  
  4146.0000    -41.5531      6.8360      5.9589      7.6240     19.9793     90.8916      0.0751      2.4168     30.6601     98.5778  
  4146.5000    -41.5023      6.8891      6.0470      7.5427     19.9796     89.4699      0.0559      2.3964     31.0846     97.7739  
  4147.0000    -41.6859      6.9320      6.0734      7.4778     19.9798     88.1806      0.0713      2.3951     31.1645     96.8349  
  4147.5000    -41.5804      6.9659      6.1062      7.4778     19.9801     87.2743      0.0829      2.4015     30.9192     94.9884  
  4148.0000    -41.6394      7.0000      6.0797      7.5990     19.9803     85.9813      0.0642      2.4050     31.0694     93.7637  
  4148.5000    -41.6537      7.0051      5.9950      7.5499     19.9806     84.2426      0.0664      2.4118     31.6331     94.1389  
  4149.0000    -41.7524      6.9833      5.8883      7.4068     19.8850     84.5071      0.0793      2.4223     33.0628     96.8216  
  4149.5000    -41.9572      6.9615      5.8887      7.2663     19.9521     82.9019      0.0673      2.4185     33.5809     99.4222  
  4150.0000    -41.8937      6.9398      5.9008      7.3243     19.9927     81.1350      0.0564      2.4204     36.7806     99.5449  
  4150.5000    -41.7456      6.9181      5.9130      7.3913     19.9924     81.3803      0.0661      2.4169     37.3479     97.4662  
  4151.0000    -41.9001      6.9232      5.9252      7.4589     19.9921     80.1199      0.0844      2.4267     34.2650     96.5953  
  4151.5000    -42.0857      6.9467      5.9375      7.4123     19.9918     80.0226      0.1062      2.4458     31.4388     97.4739  
  4152.0000    -42.0264      6.9703      5.9430      7.3468     19.9914     83.5177      0.1031      2.4372     30.1587     97.9389  
  4152.5000    -41.8567      6.9939      5.9461      7.2820     19.9911     87.3123      0.0989      2.4459     30.4738     98.4070  
  4153.0000    -41.7604      7.0055      5.9491      7.2393     19.9908     84.5991      0.1023      2.4448     30.8785     98.7595  
  4153.5000    -41.4661      7.0132      5.9684      7.2370     19.9904     82.7345      0.1083      2.4337     31.0885     97.8293  
  4154.0000    -41.3506      7.0210      6.0032      7.2348     19.9901     84.7622      0.1044      2.4400     32.1617     95.7681  
  4154.5000    -41.1215      7.0288      5.9778      7.2463     19.9898     86.0129      0.0887      2.4198     30.8522     94.4273  
  4155.0000    -41.3434      7.0366      5.9578      7.3343     19.9894     86.5023      0.0756      2.4044     29.7035     94.9687  
  4155.5000    -41.8307      7.0480      5.9862      7.4234     19.9891     86.7077      0.0764      2.3848     29.3409     96.4758  
  4156.0000    -42.1741      7.0775      6.0210      7.5179     19.9888     87.6963      0.0795      2.3813     29.4733     97.9490  
  4156.5000    -42.0889      7.1071      6.0560      7.6516     19.9884     87.4626      0.0761      2.4015     30.0781     98.0127  
  4157.0000    -41.4273      7.1368      6.0912      7.7838     19.9881     86.4740      0.0835      2.4245     30.4306     97.2114  
  4157.5000    -41.0625      7.1666      6.1266      7.6949     19.9878     84.7523      0.0907      2.4249     30.4983     96.3293  
  4158.0000    -41.2519      7.1966      6.1621      7.6237     19.9875     83.8539      0.0791      2.4112     30.5828     95.5185  
  4158.5000    -41.5179      7.2267      6.2028      7.7116     19.9871     81.5584      0.0732      2.4193     30.1517     95.1922  
  4159.0000    -41.6011      7.2459      6.3104      7.8006     19.9868     79.4354      0.0761      2.4230     27.8723     94.8490  
  4159.5000    -41.5563      7.1748      6.2192      7.7293     19.9865     78.9720      0.0612      2.4095     27.1854     93.4412  
  4160.0000    -41.5156      7.1090      6.0541      7.5188     19.9861     82.0558      0.0661      2.4192     28.4730     91.4954  
  4160.5000    -41.4270      7.0591      5.9050      7.3281     19.9858     83.8919      0.0785      2.4261     30.2718     94.9464  
  4161.0000    -41.6069      7.0094      5.8527      7.2351     19.9855     84.8344      0.0639      2.4070     31.8587     97.4768  
  4161.5000    -41.6950      6.9602      5.7833      7.1434     19.9851     85.7977      0.0567      2.4025     32.2670     98.8876  
  4162.0000    -41.5803      6.9112      5.7241      7.0916     19.9848     85.7906      0.0684      2.4043     33.1541     99.2905  
  4162.5000    -41.6724      6.8626      5.7512      7.1597     19.9845     86.6692      0.0781      2.4136     33.4495     98.4500  
  4163.0000    -41.9199      6.8144      5.7995      7.2285     19.9842     88.5837      0.0809      2.4262     32.1359     96.8126  
  4163.5000    -41.8350      6.7665      5.8008      7.2979     19.9838     89.2131      0.0813      2.4319     30.6317     96.1308  
  4164.0000    -41.6342      6.7189      5.7593      7.3253     19.9835     88.1615      0.0999      2.4462     29.7028     96.3896  
  4164.5000    -41.4795      6.6717      5.7314      7.2880     19.9832     86.9945      0.0921      2.4534     30.7140     96.0529  
  4165.0000    -41.2047      6.6248      5.6948      7.2509     19.9828     85.6548      0.0730      2.4369     31.7844     95.0294  
  4165.5000    -40.9508      6.5917      5.6241      7.1813     19.9825     85.3437      0.0517      2.4182     32.7027     95.6657  
  4166.0000    -41.0688      6.5917      5.5671      7.0816     19.9822     87.6640      0.0612      2.4209     32.9819     96.5409  
  4166.5000    -41.4204      6.5917      5.5429      6.9832     19.9818     88.1409      0.0957      2.4467     33.4490     96.6540  
  4167.0000    -42.0824      6.5917      5.5494      6.8862     19.9815     88.1958      0.1098      2.4524     34.0988     97.9320  
  4167.5000    -42.2154      6.6331      5.6262      6.9133     19.9812     87.9293      0.1019      2.4425     34.6688     99.2931  
  4168.0000    -42.1120      6.7274      5.7041      6.9664     19.9809     87.5021      0.0927      2.4364     33.9799     99.0031  
  4168.5000    -41.7920      6.8230      5.7667      7.1595     19.9805     86.4629      0.0863      2.4288     33.2909     97.3821  
  4169.0000    -41.5767      6.8953      5.8261      7.3735     19.9802     82.1684      0.0826      2.4272     32.6360     95.7540  
  4169.5000    -41.3002      6.8951      5.8139      7.5574     19.9799     78.0959      0.0736      2.4224     32.5394     94.6332  
  4170.0000    -41.3036      6.8949      5.7788      7.3816     19.9795     82.3881      0.0704      2.4288     31.9856     94.6515  
  4170.5000    -41.0703      6.8947      5.7599      7.2099     19.9792     83.9929      0.0853      2.4361     31.7247     95.5294  
  4171.0000    -41.0852      6.8944      5.7703      7.1770     19.9789     82.1032      0.0981      2.4492     31.7985     97.0237  
  4171.5000    -41.3980      6.8942      5.7808      7.2658     19.9785     77.8869      0.1044      2.4496     33.7622     98.2496  
