~VERSION INFORMATION
 VERS.                      2.00:        CWLS LOG ASCII STANDARD - VERSION 2.00
 WRAP.                        NO:        ONE LINE PER DEPTH STEP
~WELL INFORMATION
#MNEM.UNIT               DATA            INFORMATION
#----------          ------------        ------------------------------
 STRT.F                 100.0000:        START DEPTH
 STOP.F                7938.0000:        STOP DEPTH
 STEP.F                   0.5000:        STEP VALUE
 NULL.                 -999.2500:        NULL VALUE
 COMP.                          :        COMPANY  
 WELL.             DREW POINT #1:        WELL     
 FLD .                   WILDCAT:        FIELD    
 LOC .              26  18N   8W:        LOCATION   
 CNTY.               NORTH SLOPE:        COUNTY  
 STAT.                    ALASKA:        STATE   
 CTRY.                       USA:        COUNTRY 
 DATE.                   1/17/78:        LOG DATE 
 API .              500292000200:        UNIQUE WELL IDENTIFIER 
 OPER.                          :        OPERATOR  
 SRVC.              Schlumberger:        SERVICE COMPANY 
 UWI .              500292000200:        UNIQUE WELL ID 
 LAT .                    0.0000:        LATITUDE
 LON .                    0.0000:        LONGITUDE
 DIGS.          Center Line Data:        DIGITIZING COMPANY 
~CURVE INFORMATION      
#MNEM.UNIT            API CODE           CURVE DESCRIPTION
#---------          -------------        ------------------------------
 DEPT.F                         :        1  DEPTH
 SP  .MV                        :        2
 ILD .OHMM                      :        3
 ILM .OHMM                      :        4
 LL8 .OHMM                      :        5
 GR  .GAPI                      :        6
 CALI.IN                        :        7
 DRHO.G/C3                      :        8
 RHOB.G/C3                      :        9
 NPHI.%                         :       10
 DT  .US/F                      :       11
~PARAMETER INFORMATION       
#MNEM.UNIT              VALUE            DESCRIPTION OF MNEMONIC
#---------          -------------        ------------------------------
 EKB .F                  35.0000:        KELLY BUSHING
 TD  .F                7946.0000:        TOTAL DEPTH
 BHT .F                  75.0000:        BOTTOM HOLE TEMPERATURE
 BS  .                   17.5000:        BIT SIZE
 FD  .                    9.8000:        FLUID DENSITY
 CSIZ.                   20.0000:        CASING SIZE
 CBD .F                  80.0000:        CASING DRILLER 1
 CBL .F                 106.0000:        CASING LOGGER 1
 DFT .             Miscellaneous:        TYPE FLUID IN HOLE
 DFV .                   36.0000:        VISCOSITY
 DFPH.                    7.0000:        PH
 DFL .                    0.0000:        FLUID LOSS
 RMS .                    4.5200:        RM
 MST .F                  52.0000:        RM MEAS. TEMP.
 RMF .                    2.8700:        RMF
 MFST.F                  71.0000:        RMF MEAS. TEMP.
 RMC .                    3.5000:        RMC
 MCST.F                  71.0000:        RMC MEAS. TEMP.
 UWI .              500292000200:        UNIQUE WELL ID
~OTHER INFORMATION
~A    DEPTH          SP         ILD         ILM         LL8          GR        CALI        DRHO        RHOB        NPHI          DT  
# ...
  5290.0000    -24.3032      5.4821      5.3678      5.7103    106.7362     15.5294      0.0485      2.5415     35.2484     92.6316  
  5290.5000    -24.3796      5.4517      5.3466      5.6691    106.1954     15.6433      0.0452      2.5289     36.3482     92.3527  
  5291.0000    -24.3814      5.4852      5.3469      5.6743    105.6965     15.4849      0.0466      2.5355     37.8368     91.7215  
  5291.5000    -24.3273      5.5229      5.3597      5.7145    103.6360     15.3072      0.0556      2.5262     39.3992     91.1249  
  5292.0000    -24.0294      5.5602      5.3725      5.7551    103.8079     15.3848      0.0726      2.5217     39.3097     90.5225  
  5292.5000    -23.5867      5.5730      5.3853      5.7959    106.7908     15.6030      0.0693      2.5156     38.6441     91.7002  
  5293.0000    -23.1236      5.5859      5.3981      5.8370    108.6519     15.8211      0.0659      2.5148     38.3436     91.5571  
  5293.5000    -22.9081      5.5988      5.4110      5.8784    109.8929     15.9387      0.0679      2.5222     38.6026     91.1825  
  5294.0000    -22.8359      5.6117      5.4239      5.9141    109.8008     15.8049      0.0688      2.5176     39.0773     92.4547  
  5294.5000    -22.9502      5.6247      5.4369      5.8723    108.9199     16.1639      0.0643      2.4996     38.9344     93.6352  
  5295.0000    -23.2804      5.6377      5.4498      5.8307    107.6240     16.0289      0.0585      2.4962     37.7508     93.1598  
  5295.5000    -23.4960      5.6507      5.4628      5.7895    106.3281     15.6155      0.0486      2.4845     35.7240     92.0599  
  5296.0000    -23.5135      5.6648      5.4758      5.7485    106.7704     15.2770      0.0405      2.4887     35.1071     92.2052  
  5296.5000    -23.4645      5.6821      5.4889      5.7448    108.1809     15.2589      0.0469      2.4830     35.4840     90.0365  
  5297.0000    -23.5468      5.6995      5.5020      5.8034    108.0068     15.2029      0.0446      2.4850     35.5159     89.7265  
  5297.5000    -23.7693      5.7169      5.5151      5.8626    106.6384     15.3039      0.0703      2.5096     36.1612     92.7084  
  5298.0000    -23.9061      5.7343      5.5283      5.9225    105.4973     15.3235      0.0767      2.5154     37.1928     95.5921  
  5298.5000    -24.0247      5.7518      5.5415      5.8866    104.5109     15.3431      0.0736      2.5024     38.1451     94.1989  
  5299.0000    -24.0903      5.7694      5.5468      5.8135    103.5482     15.0606      0.0606      2.4910     38.2781     94.0418  
  5299.5000    -24.1914      5.7870      5.5419      5.7465    102.8352     15.0349      0.0535      2.4904     38.2849     91.1709  
  5300.0000    -24.1634      5.7998      5.5371      5.8497    103.4442     14.9989      0.0679      2.5085     38.1631     89.0389  
  5300.5000    -24.0869      5.7746      5.5322      5.9548    106.7177     14.9196      0.0682      2.4907     38.0604     90.7495  
  5301.0000    -23.9106      5.7494      5.5274      6.0332    109.1652     15.0092      0.0284      2.4757     38.1794     92.7808  
  5301.5000    -23.6228      5.7243      5.5225      5.9586    108.7852     14.8874      0.0363      2.4747     37.6458     92.9016  
  5302.0000    -23.2176      5.6994      5.5177      5.8849    105.6835     14.8722      0.0907      2.5034     37.0834     91.9542  
  5302.5000    -22.9627      5.6746      5.5129      5.8121    103.6846     15.0056      0.0955      2.5214     36.7473     93.7865  
  5303.0000    -22.8877      5.6498      5.5080      5.7403    104.0822     14.8667      0.0723      2.4933     36.1119     92.3162  
  5303.5000    -22.7875      5.6385      5.5040      5.8542    104.8906     14.8171      0.0491      2.4793     35.3155     90.6789  
  5304.0000    -22.7203      5.6867      5.5001      5.9735    105.2716     15.1050      0.0582      2.4808     34.7944     93.0124  
  5304.5000    -22.7079      5.7353      5.4962      6.0357    105.7162     15.6292      0.0546      2.4919     35.2506     91.2202  
  5305.0000    -22.6274      5.7843      5.4923      5.9686    108.9225     15.2467      0.0464      2.4780     35.6440     92.4452  
  5305.5000    -22.3931      5.7936      5.4884      5.9022    110.2457     14.8156      0.0599      2.4912     35.5686     92.2880  
  5306.0000    -22.2681      5.7601      5.4845      5.8366    106.8979     15.1693      0.0653      2.5002     36.1031     94.7192  
  5306.5000    -22.3490      5.7268      5.4804      5.7717    101.0143     15.0903      0.0522      2.4901     36.6471     93.4069  
  5307.0000    -22.6099      5.6937      5.4721      5.7097    102.4236     14.6384      0.0363      2.4701     36.2165     92.7560  
  5307.5000    -22.8694      5.6608      5.4638      5.6803    104.5479     14.6110      0.0216      2.4613     35.7416     93.1026  
  5308.0000    -23.1430      5.6281      5.4555      5.6510    106.3000     14.7070      0.0205      2.4564     35.5728     91.7967  
  5308.5000    -23.2660      5.5955      5.4472      5.6219    108.1404     15.0273      0.0316      2.4893     35.2326     93.7479  
  5309.0000    -23.3315      5.5632      5.4389      5.6558    108.6471     14.7597      0.0484      2.5036     35.4412     93.4235  
  5309.5000    -23.3925      5.5310      5.4307      5.7009    108.5896     14.7843      0.0646      2.5169     36.9248     93.3536  
  5310.0000    -23.5425      5.5462      5.4268      5.7464    108.8490     14.9925      0.0818      2.5251     37.9722     91.2121  
  5310.5000    -23.7630      5.6317      5.4519      5.8048    107.2806     15.2803      0.0816      2.5202     37.7726     90.3555  
  5311.0000    -23.9166      5.7184      5.4771      5.8646    105.5827     15.0070      0.0730      2.5143     37.5394     90.8568  
  5311.5000    -23.9925      5.8065      5.5024      5.9250    104.4196     14.4979      0.0688      2.5123     37.5392     90.4353  
  5312.0000    -23.7759      5.8959      5.5278      5.9861    103.2340     14.5287      0.0669      2.5027     37.7495     90.4620  
  5312.5000    -23.4360      5.9494      5.5533      6.0478    103.6583     14.6775      0.0662      2.4982     38.1023     91.4348  
  5313.0000    -23.1803      5.9416      5.5773      6.1101    103.9393     14.8401      0.0732      2.5133     38.2554     92.4982  
  5313.5000    -22.9117      5.9265      5.5963      6.0874    103.2715     14.4990      0.0813      2.5204     37.8280     93.0299  
  5314.0000    -22.4377      5.9113      5.6153      6.0380    103.5144     14.4650      0.0742      2.5249     36.7625     93.3472  
  5314.5000    -22.1415      5.8961      5.6345      5.9890    105.3329     14.4619      0.0606      2.5168     35.7413     90.6706  
  5315.0000    -22.0789      5.9637      5.6537      5.9404    106.4513     14.4759      0.0325      2.4930     35.1200     89.6911  
  5315.5000    -22.1003      6.0816      5.6729      5.9527    105.6776     14.4923      0.0211      2.5011     34.9919     90.0010  
  5316.0000    -22.1719      6.2018      5.6922      6.1602    104.9907     14.5070      0.0333      2.5052     35.5325     89.4334  
  5316.5000    -22.4585      6.3244      5.7116      6.4005    104.1412     14.4746      0.0277      2.4978     36.1585     90.1461  
  5317.0000    -22.8829      6.2670      5.7311      6.5276    102.6994     14.3998      0.0364      2.4958     36.8862     92.6248  
  5317.5000    -23.3846      6.1800      5.7258      6.3497    102.7667     14.4044      0.0724      2.5319     37.1681     91.4543  
  5318.0000    -23.9226      6.0943      5.7041      6.1767    103.4099     14.6941      0.0835      2.5478     36.7501     91.5134  
  5318.5000    -24.2611      6.0097      5.6824      6.0084    103.7748     14.5087      0.0797      2.5323     36.2346     92.7824  
  5319.0000    -24.4143      5.9263      5.6609      5.9264    103.7893     14.4187      0.0759      2.5175     35.5297     89.6302  
  5319.5000    -24.4818      5.8713      5.6394      5.9440    103.5838     14.3994      0.0722      2.5038     34.3738     89.2190  
