~VERSION INFORMATION
 VERS.                           2.00:        CWLS LOG ASCII STANDARD - VERSION 2.00
 WRAP.                             NO:        ONE LINE PER DEPTH STEP
~WELL INFORMATION
#MNEM.UNIT                   DATA             INFORMATION
#----------             --------------        ------------------------------
 STRT.F                      358.0000:        START DEPTH
 STOP.F                     8806.0000:        STOP DEPTH
 STEP.F                        0.5000:        STEP VALUE
 NULL.                      -999.2500:        NULL VALUE
 COMP.                      U.S. NAVY:        COMPANY
 LOC .                     22 17N 12W:        LOCATION
 DATE.                         4/5/77:        LOG DATE
 WELL.               SOUTH SIMPSON #1:        WELL
 UWI .                   502792000100:        UNIQUE WELL ID
 API .                   502792000100:        UNIQUE WELL IDENTIFIER
 FLD .                        WILDCAT:        FIELD
 CNTY.                    NORTH SLOPE:        COUNTY
 STAT.                         ALASKA:        STATE
 CTRY.                            USA:        COUNTRY
 OPER.                      U.S. NAVY:        OPERATOR
 SRVC.                   SCHLUMBERGER:        SERVICE COMPANY
 LAT .                         0.0000:        LATITUDE
 LON .                         0.0000:        LONGITUDE
 DIGS.               CENTER LINE DATA:        DIGITIZING COMPANY
~CURVE INFORMATION      
#MNEM        .UNIT         API CODE           CURVE DESCRIPTION
#-----------------      --------------        ------------------------------
 DEPT        .F                      :        1  DEPTH
 GR          .GAPI                   :        2  
 CALI        .IN                     :        3  
 DRHO        .G/C3                   :        4  
 RHOB        .G/C3                   :        5  
 NPHI        .%                      :        6  
 DT          .US/F                   :        7  
 SP          .MV                     :        8  
 ILD         .OHMM                   :        9  
 ILM         .OHMM                   :        10 
 LL8         .OHMM                   :        11 
~PARAMETER INFORMATION
#MNEM.UNIT                  VALUE             DESCRIPTION OF MNEMONIC
#---------             ---------------        ------------------------------
 EKB .F                       25.0000:        KELLY BUSHING
 TD  .F                     8807.0000:        TOTAL DEPTH
 BHT .F                      145.0000:        BOTTOM HOLE TEMPERATURE
 BS  .                        13.5000:        BIT SIZE
 FD  .                        10.7000:        FLUID DENSITY
 CSIZ.                        16.0000:        CASING SIZE
 CBD .F                     2175.0000:        CASING DRILLER 1
 CBL .F                     2175.0000:        CASING LOGGER 1
 DFT .                  MISCELLANEOUS:        TYPE FLUID IN HOLE
 DFV .                        47.0000:        VISCOSITY
 DFPH.                        10.5000:        PH
 DFL .                         5.0000:        FLUID LOSS
 RMS .                         2.3000:        RM
 MST .F                       60.0000:        RM MEAS. TEMP.
 RMF .                         1.5400:        RMF
 MFST.F                       54.0000:        RMF MEAS. TEMP.
 RMC .                         2.7300:        RMC
 MCST.F                       54.0000:        RMC MEAS. TEMP.
~OTHER INFORMATION
~A    DEPTH          GR        CALI        DRHO        RHOB        NPHI          DT          SP         ILD         ILM         LL8 
# ...
  4933.0000     75.4261     15.9862      0.2186      2.3276     40.2493     86.4862    -32.6419      6.1431      7.2781      7.4456 
  4933.5000     75.4214     15.9410      0.1889      2.3418     41.2255     87.0181    -32.6381      6.1077      7.2978      7.4658 
  4934.0000     75.4319     16.1305      0.1400      2.4458     41.4561     87.6303    -32.6720      6.0725      7.3176      7.4861 
  4934.5000     75.5216     15.8660      0.0973      2.4961     41.1142     88.0673    -32.6771      6.0375      7.3375      7.5064 
  4935.0000     75.6113     15.6619      0.0982      2.5095     40.6530     88.1273    -32.6822      6.0019      7.2870      7.4570 
  4935.5000     75.2701     15.5950      0.0934      2.4964     40.3874     85.3333    -32.7066      5.9449      7.2297      7.3983 
  4936.0000     74.7683     15.5775      0.0478      2.4403     40.0249     87.7871    -32.6763      5.8884      7.1728      7.3401 
  4936.5000     73.9341     15.5910      0.0654      2.4817     39.4087     88.6358    -32.6995      5.8325      7.0606      7.2334 
  4937.0000     73.6043     15.4618      0.1058      2.5066     39.1390     88.6438    -32.7442      5.7771      6.9444      7.1143 
  4937.5000     74.4110     15.9429      0.1707      2.5277     39.5030     88.5824    -32.6372      5.7649      6.8301      6.9972 
  4938.0000     75.5959     16.4657      0.1576      2.4829     40.8228     89.1672    -32.3996      5.8100      6.7177      6.8820 
  4938.5000     76.7941     17.0164      0.1263      2.4793     41.8418     86.4242    -32.1604      5.8972      6.6072      6.7687 
  4939.0000     77.9923     17.0666      0.1195      2.5248     40.0043     87.8001    -31.9847      6.0207      6.4985      6.6573 
  4939.5000     79.1906     17.0199      0.0858      2.5416     37.3361     92.0025    -31.9097      6.1468      6.5755      6.7377 
  4940.0000     80.1192     15.5169      0.0280      2.5547     34.8235     93.5984    -31.8751      6.2755      6.6926      6.8576 
  4940.5000     80.4991     14.6199      0.0050      2.5373     34.1471     91.6056    -31.5621      6.4069      6.8197      6.9906 
  4941.0000     80.2773     15.0262      0.0147      2.5388     33.6617     88.3037    -31.2148      6.5410      6.9554      7.1298 
  4941.5000     80.6013     15.2299      0.0244      2.5524     32.8419     90.6538    -31.1447      6.6308      7.0938      7.2717 
  4942.0000     82.1946     15.4507      0.0154      2.5664     31.6499     88.8043    -31.3847      6.7159      7.2350      7.4164 
  4942.5000     83.7879     15.7294      0.0113      2.5491     31.1029     88.2545    -31.5866      6.8020      7.3789      7.5640 
  4943.0000     84.3711     15.5946      0.0184      2.5365     32.1747     88.6263    -31.7885      6.8175      7.4463      7.6191 
  4943.5000     84.0665     15.5627      0.0599      2.5663     32.5034     91.0976    -32.0303      6.7417      7.4927      7.6665 
  4944.0000     83.7619     15.4683      0.0998      2.5879     32.4706     88.2872    -32.3895      6.6667      7.5393      7.7142 
  4944.5000     83.1348     15.3948      0.1413      2.5900     32.5895     86.4269    -31.9038      6.6076      7.5701      7.7441 
  4945.0000     82.1839     15.4117      0.1544      2.5804     34.1591     87.2759    -31.5873      6.6277      7.5701      7.7441 
  4945.5000     81.6666     15.7254      0.1144      2.5471     35.6960     89.7756    -31.3686      6.6478      7.5701      7.7441 
  4946.0000     81.4958     15.4817      0.0689      2.5232     34.6182     90.9662    -31.4694      6.6752      7.5316      7.8186 
  4946.5000     81.3251     15.6995      0.0258      2.5272     32.6903     89.8225    -31.5491      6.7051      7.4925      7.9369 
  4947.0000     81.1544     15.8958      0.0165      2.5313     32.0660     90.5054    -31.5648      6.7352      7.4536      8.0570 
  4947.5000     81.0299     15.2801      0.0220      2.5374     32.0650     87.0936    -31.6659      6.7130      7.4149      8.1789 
  4948.0000     80.9437     15.3216      0.0130      2.5437     32.4951     83.8159    -31.9924      6.6316      7.3764      8.2289 
  4948.5000     80.8575     15.3814      0.0294      2.5511     32.8482     87.9290    -32.5070      6.5513      7.3381      8.0582 
  4949.0000     80.7712     15.3770      0.0473      2.5696     32.5954     89.1424    -32.6390      6.4720      7.2864      7.8150 
  4949.5000     80.6850     15.3428      0.0496      2.5851     32.5095     89.7439    -32.7342      6.3936      7.2325      7.5791 
  4950.0000     80.5987     15.3085      0.1243      2.5973     32.7341     88.3998    -32.6315      6.3161      7.1791      7.3504 
  4950.5000     80.5125     15.4854      0.1412      2.6081     33.6540     86.5214    -32.4326      6.2396      7.1261      7.2746 
  4951.0000     80.4262     16.0022      0.1216      2.6018     33.9345     86.1395    -32.4225      6.1640      7.0734      7.2191 
  4951.5000     79.8586     15.4983      0.1020      2.5863     33.4535     87.6363    -32.2574      6.0969      7.0211      7.1640 
  4952.0000     79.0692     15.3755      0.0685      2.5565     33.2931     88.5082    -32.3366      6.1899      6.9828      7.1435 
  4952.5000     78.2798     15.5568      0.0518      2.5388     33.3806     89.7791    -32.4077      6.2844      7.0195      7.1827 
  4953.0000     77.4904     15.5210      0.0646      2.5329     33.7289     88.5774    -32.5749      6.3723      7.0692      7.2336 
  4953.5000     76.7010     15.3789      0.0498      2.5128     34.0987     87.2704    -32.6121      6.4121      7.1193      7.2849 
  4954.0000     75.9854     15.2271      0.0456      2.5485     34.8007     92.1301    -32.5200      6.4522      7.1697      7.3365 
  4954.5000     76.1056     15.3298      0.0563      2.5621     34.3953     87.9069    -32.4023      6.4926      7.2727      7.4514 
  4955.0000     76.2259     15.5726      0.0758      2.5547     33.8600     89.1866    -32.5247      6.5332      7.3983      7.5801 
  4955.5000     76.3462     15.7870      0.1154      2.5692     34.6083     88.4787    -32.7598      6.5740      7.5262      7.7111 
  4956.0000     76.4664     15.6409      0.1279      2.5619     35.3893     84.4866    -33.1006      6.6151      7.6562      7.8444 
  4956.5000     76.5867     15.4690      0.0838      2.5056     36.5314     90.9172    -33.2947      6.6513      7.7885      7.9799 
  4957.0000     76.7070     15.2971      0.1059      2.4826     36.6978     87.4025    -33.2058      6.6311      7.7789      7.9627 
  4957.5000     76.8272     15.6973      0.1399      2.4986     36.4155     84.9025    -32.9848      6.6110      7.6953      7.8772 
  4958.0000     76.7410     16.9429      0.1155      2.5325     36.1133     87.3453    -32.7929      6.5910      7.6126      7.7925 
  4958.5000     76.6292     17.0843      0.0773      2.5314     35.8111     87.2871    -32.7556      6.5710      7.5308      7.7087 
  4959.0000     76.5173     17.1387      0.0410      2.5334     35.2772     87.5868    -32.8748      6.5509      7.4498      7.6259 
  4959.5000     76.4055     17.1127      0.0330      2.5256     34.1209     88.6164    -32.9512      6.5303      7.3859      7.5584 
  4960.0000     76.2937     16.2815      0.0441      2.5329     34.1440     86.3030    -33.0056      6.5098      7.3256      7.4967 
  4960.5000     75.7675     16.2888      0.0566      2.5665     34.8579     86.8268    -33.0641      6.4894      7.2659      7.4356 
  4961.0000     75.2113     16.8175      0.0491      2.5587     34.8378     86.1783    -33.1008      6.4690      7.2311      7.3977 
  4961.5000     74.3781     16.3504      0.0399      2.5377     34.7491     85.6114    -33.0589      6.4734      7.2070      7.3731 
  4962.0000     71.2665     15.6234      0.0671      2.5251     34.7356     86.6405    -33.0434      6.4947      7.1831      7.3486 
  4962.5000     68.7706     15.5230      0.1249      2.5221     34.2518     87.9267    -32.9684      6.5161      7.1592      7.3242 
  4963.0000     68.1592     15.4666      0.1783      2.5093     32.9807     92.0792    -32.8008      6.5376      7.1354      7.2999 
