~VERSION INFORMATION
 VERS.                      2.00:        CWLS LOG ASCII STANDARD - VERSION 2.00
 WRAP.                        NO:        ONE LINE PER DEPTH STEP
~WELL INFORMATION
#MNEM.UNIT               DATA            INFORMATION
#----------          ------------        ------------------------------
 STRT.F                  81.0000:        START DEPTH
 STOP.F               15400.0000:        STOP DEPTH
 STEP.F                   0.5000:        STEP VALUE
 NULL.                 -999.2500:        NULL VALUE
 COMP. USGS/NPR HUSKY OIL OPERAT:        COMPANY  
 WELL.     IKPIKPUK TEST WELL #1:        WELL     
 FLD .                   WILDCAT:        FIELD    
 LOC .              25  13N  10W:        LOCATION   
 CNTY.               NORTH SLPOE:        COUNTY  
 STAT.                    ALASKA:        STATE   
 CTRY.                       USA:        COUNTRY 
 DATE.                  11/29/78:        LOG DATE 
 API .              502792000400:        UNIQUE WELL IDENTIFIER 
 OPER. USGS/NPR HUSKY OIL OPERAT:        OPERATOR  
 SRVC.              Schlumberger:        SERVICE COMPANY 
 UWI .              502792000400:        UNIQUE WELL ID 
 LAT .                    0.0000:        LATITUDE
 LON .                    0.0000:        LONGITUDE
 DIGS.          Center Line Data:        DIGITIZING COMPANY 
~CURVE INFORMATION      
#MNEM.UNIT            API CODE           CURVE DESCRIPTION
#---------          -------------        ------------------------------
 DEPT.F                         :        1  DEPTH
 SP  .MV                        :        2
 ILD .OHMM                      :        3
 ILM .OHMM                      :        4
 LL8 .OHMM                      :        5
 GR  .GAPI                      :        6
 CALI.IN                        :        7
 RHOB.G/C3                      :        8
 DRHO.G/C3                      :        9
 NPHI.%                         :       10
 DT  .US/F                      :       11
~PARAMETER INFORMATION       
#MNEM.UNIT              VALUE            DESCRIPTION OF MNEMONIC
#---------          -------------        ------------------------------
 EKB .F                  52.0000:        KELLY BUSHING
 TD  .F               15481.0000:        TOTAL DEPTH
 BHT .F                   0.0000:        BOTTOM HOLE TEMPERATURE
 BS  .                   17.5000:        BIT SIZE
 FD  .                    9.0000:        FLUID DENSITY
 CSIZ.                   30.0000:        CASING SIZE
 CBD .F                 100.0000:        CASING DRILLER 1
 CBL .F                 101.0000:        CASING LOGGER 1
 DFT .                       Gel:        TYPE FLUID IN HOLE
 DFV .                   60.0000:        VISCOSITY
 DFPH.                    8.5000:        PH
 DFL .                   18.0000:        FLUID LOSS
 RMS .                    3.7300:        RM
 MST .F                  66.0000:        RM MEAS. TEMP.
 RMF .                    4.3900:        RMF
 MFST.F                  58.0000:        RMF MEAS. TEMP.
 RMC .                    2.5000:        RMC
 MCST.F                  57.0000:        RMC MEAS. TEMP.
 UWI .              502792000400:        UNIQUE WELL ID
~OTHER INFORMATION
~A    DEPTH          SP         ILD         ILM         LL8          GR        CALI        RHOB        DRHO        NPHI          DT  
# ...
 11301.0000   -130.3162     16.7741     16.1899     31.9300     95.2303     10.5297      2.6314      0.0104     15.0652     66.3006  
 11301.5000   -130.8861     17.4435     17.2704     36.5870     96.1732     10.4704      2.6935      0.0065     14.7578     66.0506  
 11302.0000   -131.4561     18.9043     18.9470     45.7105     97.2196     10.4110      2.7186      0.0116     14.6758     66.9461  
 11302.5000   -132.0260     19.8491     19.6906     63.6591     96.0380     10.3544      2.7147      0.0151     15.6507     68.4053  
 11303.0000   -132.5960     19.7069     18.9305     54.8335     93.9843     10.2979      2.7153      0.0170     16.7852     68.9760  
 11303.5000   -133.1659     19.5657     18.1999     39.4993     90.8174     10.2413      2.7111      0.0189     17.9197     68.7344  
 11304.0000   -133.7359     19.7536     17.8800     27.1461     87.4103     10.2371      2.7041      0.0226     18.1253     67.4186  
 11304.5000   -134.3058     20.0090     18.0851     22.3553     84.5171     10.2644      2.7071      0.0178     16.9692     66.3212  
 11305.0000   -134.8757     18.8119     19.1139     25.6435     82.9601     10.2916      2.7074      0.0059     16.1781     65.8416  
 11305.5000   -135.4457     18.5335     18.9654     36.3427     81.6869     10.2511      2.7024      0.0085     15.9996     66.1329  
 11306.0000   -136.0156     19.2664     18.3334     35.1185     79.0405     10.1867      2.7078      0.0189     16.1764     66.5654  
 11306.5000   -136.5856     21.0612     18.3956     27.4068     77.1343     10.0471      2.7055      0.0191     16.4423     66.7818  
 11307.0000   -137.1555     24.5504     19.9253     25.3727     77.1169      9.9689      2.7069      0.0206     16.3332     66.1049  
 11307.5000   -137.7861     30.7291     21.2643     30.5080     79.4320      9.9660      2.7111      0.0184     15.7918     64.5224  
 11308.0000   -138.5388     33.2412     22.1841     43.6500     81.7155      9.9630      2.7071      0.0156     15.2504     63.4806  
 11308.5000   -139.2914     33.1438     22.9834     56.7277     86.1974      9.9762      2.7019      0.0110     14.7756     63.0253  
 11309.0000   -140.0440     29.5783     22.3765     62.1648     90.9359     10.0041      2.7014      0.0059     14.6777     64.1335  
 11309.5000   -140.7967     24.0149     20.9683     71.9546     94.9278     10.0240      2.7062      0.0050     15.4429     65.8640  
 11310.0000   -141.5493     20.0801     18.9882     49.6569     96.5406     10.0237      2.7153      0.0049     16.8261     67.4575  
 11310.5000   -141.9359     19.9438     17.1022     26.9033     95.0864      9.9881      2.7131      0.0042     18.0681     68.0452  
 11311.0000   -142.1222     19.9448     16.7829     19.0900     92.5474      9.9211      2.6981      0.0032     18.1130     66.9944  
 11311.5000   -142.3085     20.1831     17.3099     18.1483     89.7122      9.8541      2.6821      0.0039     17.5666     65.0249  
 11312.0000   -142.6259     23.3075     19.4972     23.5821     84.4448      9.8073      2.6610      0.0132     16.3149     62.7056  
 11312.5000   -143.0292     27.5972     20.7102     42.0134     76.3391      9.8389      2.6583      0.0268     14.8519     61.3667  
 11313.0000   -144.3978     30.8445     21.4834     74.8505     68.4606      9.8705      2.6604      0.0350     13.1109     61.0223  
 11313.5000   -145.8139     35.3370     23.3589    133.3527     63.9209      9.8921      2.6566      0.0317     12.2895     60.9140  
 11314.0000   -146.1245     40.3609     27.6492    210.1254     62.9812      9.8693      2.6513      0.0323     12.5345     60.9847  
 11314.5000   -146.4039     46.6810     32.8964    142.3016     63.8896      9.8466      2.6451      0.0219     12.5510     61.0541  
 11315.0000   -146.7896     55.2649     37.7660    102.5596     66.5267      9.8239      2.6579      0.0179     12.4937     61.3272  
 11315.5000   -147.1753     59.5709     39.9437     95.7085     69.7973      9.8127      2.6747      0.0268     12.1853     61.4251  
 11316.0000   -147.5610     55.9280     39.5318     89.9629     72.8087      9.8069      2.6832      0.0214     12.5084     61.3190  
 11316.5000   -147.9467     52.5454     37.6002     80.4113     74.5124      9.8010      2.6917      0.0205     12.9291     61.4435  
 11317.0000   -148.3324     48.7025     34.6735     69.2083     75.3720      9.7943      2.6898      0.0214     13.1355     61.8930  
 11317.5000   -148.2121     44.5533     33.0053     62.0131     76.9227      9.7877      2.6728      0.0276     13.2511     62.4645  
 11318.0000   -147.6523     42.0387     31.6936     53.9509     78.1923      9.7397      2.6694      0.0467     13.0475     62.1962  
 11318.5000   -147.0925     40.0984     32.2887     44.8927     77.5123      9.6632      2.6667      0.0341     12.6573     61.6399  
 11319.0000   -146.6434     41.4834     32.8594     39.5489     74.5408      9.5650      2.6660      0.0205     11.3442     60.6504  
 11319.5000   -146.3310     48.1474     33.4291     48.3086     68.8348      9.4618      2.6586      0.0231      9.7827     59.5180  
 11320.0000   -146.1454     50.7678     33.8891     64.9069     64.7230      9.3587      2.6534      0.0205      8.9977     58.8659  
 11320.5000   -146.2902     53.4662     34.2854     73.3680     65.1792      9.2556      2.6343      0.0185      7.1053     58.4779  
 11321.0000   -146.4350     54.3526     34.6662     71.9088     65.3700      9.1866      2.6222      0.0189      6.3349     58.5971  
 11321.5000   -146.5798     52.1899     35.7826     85.5077     62.8373      9.1662      2.6314      0.0203      6.2387     59.4017  
 11322.0000   -146.7246     49.4649     37.5933     78.5593     56.9617      9.1458      2.6433      0.0232      6.5607     59.9781  
 11322.5000   -146.8627     49.6608     39.7611     66.8368     48.8999      9.1254      2.6335      0.0314      7.4357     60.2321  
 11323.0000   -146.9935     50.5248     42.5450     55.1156     43.0635      9.1014      2.6294      0.0595      6.9062     59.9517  
 11323.5000   -147.1243     56.9498     43.9635     58.9347     41.6913      9.0692      2.6248      0.0734      6.0084     59.3671  
 11324.0000   -147.2551     64.0621     44.8808     77.8168     43.0691      9.0369      2.6014      0.0607      5.6910     59.2233  
 11324.5000   -147.3859     62.1679     42.2662     84.4585     43.0821      9.0047      2.5993      0.0509      5.7492     59.9242  
 11325.0000   -147.7477     57.9581     40.4383     82.0171     41.5310      8.9724      2.5929      0.0417      6.1575     60.5995  
 11325.5000   -147.7750     51.2913     38.8658     82.0716     39.3937      8.9546      2.5901      0.0315      6.5658     61.2506  
 11326.0000   -147.4860     43.6786     37.2551     65.3369     36.0164      8.9421      2.5915      0.0276      6.9095     61.5186  
 11326.5000   -147.3019     39.5950     34.6893     48.2323     33.4643      8.9257      2.5944      0.0280      7.0296     61.5930  
 11327.0000   -148.2951     36.1446     32.3002     43.1757     32.7437      8.9094      2.6049      0.0314      6.8087     61.4077  
 11327.5000   -149.3515     33.4656     29.3814     41.5825     32.1151      8.8930      2.6036      0.0403      6.5878     61.0350  
 11328.0000   -150.2635     30.0887     26.3390     39.0663     30.9381      8.8767      2.5892      0.0337      6.3669     60.6676  
 11328.5000   -151.1739     26.6742     23.7208     35.8577     30.7690      8.8603      2.5801      0.0285      6.1845     60.2988  
 11329.0000   -152.0843     24.5748     21.7022     33.2403     30.6418      8.8478      2.5749      0.0229      6.0109     59.8423  
 11329.5000   -152.9947     21.7920     19.8555     31.9564     30.5145      8.8689      2.5694      0.0237      6.0847     59.5499  
 11330.0000   -153.2810     19.3168     18.1658     29.7668     30.5149      8.8900      2.5586      0.0220      6.3292     59.8149  
 11330.5000   -153.2964     17.1227     16.6931     27.4912     31.2709      8.9111      2.5476      0.0260      6.4743     60.2108  
