~VERSION INFORMATION
 VERS.                           2.00:        CWLS LOG ASCII STANDARD - VERSION 2.00
 WRAP.                             NO:        ONE LINE PER DEPTH STEP
~WELL INFORMATION
#MNEM.UNIT                   DATA             INFORMATION
#----------             --------------        ------------------------------
 STRT.F                      358.0000:        START DEPTH
 STOP.F                     8806.0000:        STOP DEPTH
 STEP.F                        0.5000:        STEP VALUE
 NULL.                      -999.2500:        NULL VALUE
 COMP.                      U.S. NAVY:        COMPANY
 LOC .                     22 17N 12W:        LOCATION
 DATE.                         4/5/77:        LOG DATE
 WELL.               SOUTH SIMPSON #1:        WELL
 UWI .                   502792000100:        UNIQUE WELL ID
 API .                   502792000100:        UNIQUE WELL IDENTIFIER
 FLD .                        WILDCAT:        FIELD
 CNTY.                    NORTH SLOPE:        COUNTY
 STAT.                         ALASKA:        STATE
 CTRY.                            USA:        COUNTRY
 OPER.                      U.S. NAVY:        OPERATOR
 SRVC.                   SCHLUMBERGER:        SERVICE COMPANY
 LAT .                         0.0000:        LATITUDE
 LON .                         0.0000:        LONGITUDE
 DIGS.               CENTER LINE DATA:        DIGITIZING COMPANY
~CURVE INFORMATION      
#MNEM        .UNIT         API CODE           CURVE DESCRIPTION
#-----------------      --------------        ------------------------------
 DEPT        .F                      :        1  DEPTH
 GR          .GAPI                   :        2  
 CALI        .IN                     :        3  
 DRHO        .G/C3                   :        4  
 RHOB        .G/C3                   :        5  
 NPHI        .%                      :        6  
 DT          .US/F                   :        7  
 SP          .MV                     :        8  
 ILD         .OHMM                   :        9  
 ILM         .OHMM                   :        10 
 LL8         .OHMM                   :        11 
~PARAMETER INFORMATION
#MNEM.UNIT                  VALUE             DESCRIPTION OF MNEMONIC
#---------             ---------------        ------------------------------
 EKB .F                       25.0000:        KELLY BUSHING
 TD  .F                     8807.0000:        TOTAL DEPTH
 BHT .F                      145.0000:        BOTTOM HOLE TEMPERATURE
 BS  .                        13.5000:        BIT SIZE
 FD  .                        10.7000:        FLUID DENSITY
 CSIZ.                        16.0000:        CASING SIZE
 CBD .F                     2175.0000:        CASING DRILLER 1
 CBL .F                     2175.0000:        CASING LOGGER 1
 DFT .                  MISCELLANEOUS:        TYPE FLUID IN HOLE
 DFV .                        47.0000:        VISCOSITY
 DFPH.                        10.5000:        PH
 DFL .                         5.0000:        FLUID LOSS
 RMS .                         2.3000:        RM
 MST .F                       60.0000:        RM MEAS. TEMP.
 RMF .                         1.5400:        RMF
 MFST.F                       54.0000:        RMF MEAS. TEMP.
 RMC .                         2.7300:        RMC
 MCST.F                       54.0000:        RMC MEAS. TEMP.
~OTHER INFORMATION
~A    DEPTH          GR        CALI        DRHO        RHOB        NPHI          DT          SP         ILD         ILM         LL8 
# ...
  2157.5000     37.7657   -999.2500   -999.2500   -999.2500     57.4117    110.3196    -18.6913      8.7571      8.9726     10.0136 
  2158.0000     37.9340   -999.2500   -999.2500   -999.2500     58.2907    108.2335    -18.7860      8.8013      9.0179      9.9502 
  2158.5000     37.9532   -999.2500   -999.2500   -999.2500     59.2661    108.7176    -19.1715      8.8458      9.0635      9.9999 
  2159.0000     38.4773   -999.2500   -999.2500   -999.2500     60.0841    109.3368    -19.2819      8.8905      9.1093     11.0406 
  2159.5000     39.4517   -999.2500   -999.2500   -999.2500     60.3930    109.8988    -18.5027      8.9354      9.1554     11.6421 
  2160.0000     39.1918   -999.2500   -999.2500   -999.2500     59.9236    110.3649    -17.1652      8.9806      9.2017     11.2155 
  2160.5000     38.3322   -999.2500   -999.2500   -999.2500     57.3603    110.8960    -15.7899      8.9816      9.2014     10.8418 
  2161.0000     38.1454   -999.2500   -999.2500   -999.2500     57.2032    111.8343    -15.2770      8.9739      9.1935     10.4805 
  2161.5000     39.3591   -999.2500   -999.2500   -999.2500     57.7998    111.9758    -15.1807      8.9661      9.1856     10.1313 
  2162.0000     40.8253   -999.2500   -999.2500   -999.2500     58.7055    112.9404    -15.1034      8.9584      9.1777      9.7937 
  2162.5000     41.6848   -999.2500   -999.2500   -999.2500     58.1979    114.6130    -14.9408      8.9507      9.1697      9.7403 
  2163.0000     42.0286   -999.2500   -999.2500   -999.2500     57.0700    115.2156    -14.8451      8.9429      9.1618      9.7079 
  2163.5000     42.1835   -999.2500   -999.2500   -999.2500     57.0955    114.9593    -15.0747      8.9352      9.1539      9.6755 
  2164.0000     41.7526   -999.2500   -999.2500   -999.2500     58.1804    121.2379    -15.3102      9.0026      9.2273      9.7775 
  2164.5000     41.3217   -999.2500   -999.2500   -999.2500     57.7994    137.5250    -15.7668      9.0847      9.3115      9.8824 
  2165.0000     40.8199   -999.2500   -999.2500   -999.2500     56.6268     96.3042    -16.5506      9.1675      9.3964     10.4769 
  2165.5000     41.0781   -999.2500   -999.2500   -999.2500     55.2783    108.5073    -18.0107      9.2511      9.4821     11.1295 
  2166.0000     41.1441   -999.2500   -999.2500   -999.2500     53.9297    107.0565    -19.4578      9.3181      9.5492     11.8229 
  2166.5000     40.4863   -999.2500   -999.2500   -999.2500     52.5811    111.2558    -20.5344      9.2482      9.4774     12.5374 
  2167.0000     40.5514   -999.2500   -999.2500   -999.2500     51.7780    125.4251    -20.4727      9.1787      9.4063     13.0848 
  2167.5000     40.3070   -999.2500   -999.2500   -999.2500     51.2835    114.7588    -19.8499      9.1098      9.3356     12.8082 
  2168.0000     39.9928   -999.2500   -999.2500   -999.2500     51.8849     88.8690    -19.1646      9.0764      9.2990     11.4932 
  2168.5000     39.7029   -999.2500   -999.2500   -999.2500     52.6212    115.8443    -18.6088      9.0459      9.2678     10.5358 
  2169.0000     39.7998   -999.2500   -999.2500   -999.2500     53.5580    112.7518    -18.0957      9.0155      9.2368     10.1125 
  2169.5000     40.1231   -999.2500   -999.2500   -999.2500     54.6618    104.7984    -18.2685      8.9852      9.2058     10.5364 
  2170.0000     40.4144   -999.2500   -999.2500   -999.2500     56.0518     82.4521    -19.3986      8.9551      9.1749     10.9633 
  2170.5000     40.7358   -999.2500   -999.2500   -999.2500     57.3952    130.5489    -20.7290      8.9272      9.1460     10.7436 
  2171.0000     41.1047   -999.2500   -999.2500   -999.2500     58.7902    104.3245    -21.9892      8.9073      9.1256     10.5283 
  2171.5000     41.2547   -999.2500   -999.2500   -999.2500     59.5967     90.3614    -23.2949      8.8874      9.1052     10.4757 
  2172.0000     41.4274   -999.2500   -999.2500   -999.2500     58.3725    144.9547    -25.9197      8.8676      9.0849     11.0090 
  2172.5000     41.9769   -999.2500   -999.2500   -999.2500     57.5799     83.8425    -27.3715      8.8477      9.0646     12.4541 
  2173.0000     42.1425   -999.2500   -999.2500   -999.2500     56.9290    106.8048    -25.9862      8.8053      9.0353     13.0647 
  2173.5000     42.0564   -999.2500   -999.2500   -999.2500     55.3273     85.8378    -25.5977      8.6593      8.8855     12.5505 
  2174.0000     42.3881   -999.2500   -999.2500   -999.2500     52.8218    113.1109    -25.2547      8.5158      8.7382     10.6692 
  2174.5000     44.3484   -999.2500   -999.2500   -999.2500     50.9597    137.7399    -26.0229      8.3746      8.5933     10.3062 
  2175.0000     49.3263     14.0980     -0.2911      2.6571     47.9545    102.1665    -27.5933      8.2357      8.4509     10.2804 
  2175.5000     56.1519     13.8044     -0.2716      2.6856     47.4734    102.3809    -29.9508      8.0992      8.3108     10.2547 
  2176.0000     63.8320     13.8617     -0.0359      2.6790     48.4622    102.8164    -31.5693      7.9649      8.1730     10.2684 
  2176.5000     67.0816     13.9190      0.1908      2.5698     50.2656    102.8817    -29.8677      7.8696      8.0622     10.4245 
  2177.0000     66.9352     13.9764      0.1256      2.3796     49.2782    112.3886    -26.6729      7.8782      8.0710     10.5075 
  2177.5000     66.6788     14.1315      0.0915      2.3954     48.5578    110.2164    -24.3263      7.8868      8.0799     10.3218 
  2178.0000     66.1597     14.4437      0.1141      2.4132     49.3703    106.8810    -25.0544      7.8955      8.0887      9.6593 
  2178.5000     64.8649     14.6205      0.1452      2.3938     50.3778    103.2990    -26.4094      7.9041      8.0976      9.0140 
  2179.0000     62.5777     14.8902      0.1621      2.3678     51.1212    105.5642    -26.6763      7.9128      8.1064      8.5394 
  2179.5000     61.4231     15.0519      0.1149      2.3163     51.5165    108.2160    -25.6237      7.9214      8.1153      9.4938 
  2180.0000     60.7801     15.0271      0.0942      2.2904     51.0047    105.0928    -56.1220     13.2381      4.3489      6.4750 
  2180.5000     60.1511     15.0023      0.1097      2.3358     50.4928    103.0628    -56.1574     14.0980      4.3553      6.3156 
  2181.0000     58.7572     14.9791      0.0828      2.3527     49.5913    100.4524    -56.1794     11.2318      4.3868      6.1602 
  2181.5000     56.3651     15.0251      0.0604      2.3694     48.0102     99.9222    -56.2989      8.9483      4.8179      6.0086 
  2182.0000     54.0156     15.0711      0.0890      2.3759     47.0275    101.3764    -56.4740      7.2344      5.5600      6.0951 
  2182.5000     55.7503     15.1171      0.0945      2.3554     48.4562    109.1931    -56.8805      7.1631      6.4162      6.4887 
  2183.0000     56.2170     15.1344      0.0845      2.3398     48.9731    107.4348    -57.3981      7.6664      7.4044      6.9078 
  2183.5000     55.0982     15.0816      0.0784      2.3672     48.2917    111.2377    -58.0175      8.4329      7.7782      7.3538 
  2184.0000     54.1934     14.9168      0.0799      2.4015     46.3210    109.1250    -58.1841      9.2761      7.9434      7.6459 
  2184.5000     53.6681     14.7113      0.0727      2.4204     44.3371    103.2836    -58.6806      9.1759      7.9684      7.6612 
  2185.0000     53.4205     14.5057      0.0685      2.4277     42.2244     96.0529    -59.1190      9.0439      7.7637      7.4422 
  2185.5000     53.2180     14.3328      0.0669      2.4194     41.7351     96.0054    -59.5288      8.8158      7.5643      7.2294 
  2186.0000     53.4954     14.2535      0.0581      2.3995     42.4761     96.2446    -59.6583      8.5935      7.3699      7.0227 
  2186.5000     53.6174     14.2153      0.0353      2.3785     42.8294     96.0399    -59.7792      8.3767      7.1806      6.8220 
  2187.0000     52.6534     14.1771      0.0268      2.3802     42.4136     94.0449    -59.6361      8.1682      6.9961      6.6269 
  2187.5000     50.9331     14.1390      0.0367      2.4003     41.6158     91.5208    -59.5807      7.9712      6.8164      6.4812 
