~VERSION INFORMATION
 VERS.                      2.00:        CWLS LOG ASCII STANDARD - VERSION 2.00
 WRAP.                        NO:        ONE LINE PER DEPTH STEP
~WELL INFORMATION
#MNEM.UNIT               DATA            INFORMATION
#----------          ------------        ------------------------------
 STRT.F                  92.0000:        START DEPTH
 STOP.F                7738.0000:        STOP DEPTH
 STEP.F                   0.5000:        STEP VALUE
 NULL.                 -999.2500:        NULL VALUE
 COMP.                      13.5:        COMPANY  
 WELL.           EAST SIMPSON #1:        WELL     
 FLD .                   WILDCAT:        FIELD    
 LOC .              18  18N  10W:        LOCATION   
 CNTY.                  N. SLPOE:        COUNTY  
 STAT.                    ALASKA:        STATE   
 CTRY.                       USA:        COUNTRY 
 DATE.                   2/22/79:        LOG DATE 
 API .              502792000500:        UNIQUE WELL IDENTIFIER 
 OPER.                      13.5:        OPERATOR  
 SRVC.              Schlumberger:        SERVICE COMPANY 
 UWI .              502792000500:        UNIQUE WELL ID 
 LAT .                    0.0000:        LATITUDE
 LON .                    0.0000:        LONGITUDE
 DIGS.          Center Line Data:        DIGITIZING COMPANY 
~CURVE INFORMATION      
#MNEM.UNIT            API CODE           CURVE DESCRIPTION
#---------          -------------        ------------------------------
 DEPT.F                         :        1  DEPTH
 SP  .MV                        :        2
 ILD .OHMM                      :        3
 ILM .OHMM                      :        4
 LL8 .OHMM                      :        5
 CALI.IN                        :        6
 GR  .GAPI                      :        7
 DRHO.G/C3                      :        8
 RHOB.G/C3                      :        9
 NPHI.%                         :       10
 DT  .US/F                      :       11
~PARAMETER INFORMATION       
#MNEM.UNIT              VALUE            DESCRIPTION OF MNEMONIC
#---------          -------------        ------------------------------
 EKB .F                  30.0000:        KELLY BUSHING
 TD  .F                   0.0000:        TOTAL DEPTH
 BHT .F                   0.0000:        BOTTOM HOLE TEMPERATURE
 BS  .                   17.5000:        BIT SIZE
 FD  .                   10.2000:        FLUID DENSITY
 CSIZ.                   20.0000:        CASING SIZE
 CBD .F                  90.0000:        CASING DRILLER 1
 CBL .F                  92.0000:        CASING LOGGER 1
 DFT .                       Gel:        TYPE FLUID IN HOLE
 DFV .                   70.0000:        VISCOSITY
 DFPH.                    8.0000:        PH
 DFL .                   12.0000:        FLUID LOSS
 RMS .                    3.6000:        RM
 MST .F                  75.0000:        RM MEAS. TEMP.
 RMF .                    2.2100:        RMF
 MFST.F                  75.0000:        RMF MEAS. TEMP.
 RMC .                    2.1600:        RMC
 MCST.F                  75.0000:        RMC MEAS. TEMP.
 UWI .              502792000500:        UNIQUE WELL ID
~OTHER INFORMATION
~A    DEPTH          SP         ILD         ILM         LL8        CALI          GR        DRHO        RHOB        NPHI          DT  
# ...
  1112.0000    -38.3599      2.8261      2.8770      5.6107   -999.2500     45.9723   -999.2500   -999.2500   -999.2500    127.0443  
  1112.5000    -38.2178      2.7604      2.8133      5.6159   -999.2500     46.2235   -999.2500   -999.2500   -999.2500    126.5860  
  1113.0000    -38.4043      2.7692      2.8220      5.3300   -999.2500     46.6824   -999.2500   -999.2500   -999.2500    126.8684  
  1113.5000    -38.5584      2.7898      2.8329      5.1854   -999.2500     46.4968   -999.2500   -999.2500   -999.2500    127.2985  
  1114.0000    -38.0278      2.7983      2.8327      5.1114   -999.2500     45.3463   -999.2500   -999.2500   -999.2500    127.9429  
  1114.5000    -37.2092      2.8079      2.8265      5.0778   -999.2500     44.0257   -999.2500   -999.2500   -999.2500    128.6909  
  1115.0000    -36.3276      2.8015      2.8114      5.0913   -999.2500     43.0967   -999.2500   -999.2500   -999.2500    129.4268  
  1115.5000    -35.7686      2.7612      2.7758      5.1263   -999.2500     43.0444   -999.2500   -999.2500   -999.2500    130.6788  
  1116.0000    -35.3280      2.7271      2.7407      5.0875   -999.2500     43.7326   -999.2500   -999.2500   -999.2500    132.5830  
  1116.5000    -37.1303      2.8086      2.7004      5.0858   -999.2500     44.6304   -999.2500   -999.2500   -999.2500    134.2504  
  1117.0000    -38.9923      3.3918      2.6545      5.1778   -999.2500     45.4764   -999.2500   -999.2500   -999.2500    135.7859  
  1117.5000    -40.2433      3.5433      2.6106      5.2483   -999.2500     46.1698   -999.2500   -999.2500   -999.2500    136.9864  
  1118.0000    -41.2763      2.9549      2.5667      5.2810   -999.2500     46.4435   -999.2500   -999.2500   -999.2500    135.6110  
  1118.5000    -41.6120      2.6015      2.5459      5.2157   -999.2500     46.3653   -999.2500   -999.2500   -999.2500    133.9981  
  1119.0000    -41.5536      2.5626      2.5465      5.0690   -999.2500     45.6058   -999.2500   -999.2500   -999.2500    131.6711  
  1119.5000    -41.2115      2.5933      2.5804      4.9558   -999.2500     44.0102   -999.2500   -999.2500   -999.2500    127.7112  
  1120.0000    -40.9042      2.6292      2.6221      5.1414   -999.2500     43.1219   -999.2500   -999.2500   -999.2500    125.3503  
  1120.5000    -40.5287      2.6604      2.6586      5.5902   -999.2500     42.9220   -999.2500   -999.2500   -999.2500    125.1677  
  1121.0000    -40.7213      2.6744      2.6955      5.6707   -999.2500     43.2350   -999.2500   -999.2500   -999.2500    124.7274  
  1121.5000    -41.7894      2.6638      2.6816      5.6230   -999.2500     43.9013   -999.2500   -999.2500   -999.2500    123.9993  
  1122.0000    -43.1210      2.6219      2.6472      5.5354   -999.2500     44.9789   -999.2500   -999.2500   -999.2500    122.8133  
  1122.5000    -44.2968      2.5652      2.5881      5.3829   -999.2500     46.0397   -999.2500   -999.2500   -999.2500    121.9542  
  1123.0000    -45.0414      2.5191      2.5229      5.2645   -999.2500     46.5897   -999.2500   -999.2500   -999.2500    122.1302  
  1123.5000    -45.5122      2.4631      2.4587      5.2163   -999.2500     47.4974   -999.2500   -999.2500   -999.2500    122.9938  
  1124.0000    -46.3903      2.3821      2.3987      5.2045   -999.2500     49.0378   -999.2500   -999.2500   -999.2500    124.2590  
  1124.5000    -47.2053      2.3293      2.3451      5.0160   -999.2500     50.2290   -999.2500   -999.2500   -999.2500    125.6857  
  1125.0000    -47.8316      2.3021      2.3230      4.8967   -999.2500     50.4712   -999.2500   -999.2500   -999.2500    129.5781  
  1125.5000    -48.2333      2.2891      2.3010      4.7984   -999.2500     49.2659   -999.2500   -999.2500   -999.2500    140.9294  
  1126.0000    -48.3313      2.3045      2.3274      4.7079   -999.2500     47.3602   -999.2500   -999.2500   -999.2500    154.8555  
  1126.5000    -48.3122      2.3295      2.3567      4.6634   -999.2500     45.8901   -999.2500   -999.2500   -999.2500    157.4161  
  1127.0000    -48.0610      2.3561      2.3863      4.7001   -999.2500     45.3457   -999.2500   -999.2500   -999.2500    152.3120  
  1127.5000    -47.3526      2.3892      2.4164      4.8366   -999.2500     45.0262   -999.2500   -999.2500   -999.2500    141.4887  
  1128.0000    -46.8735      2.3991      2.4406      5.0911   -999.2500     44.9567   -999.2500   -999.2500   -999.2500    133.7846  
  1128.5000    -46.9798      2.3943      2.4380      5.3018   -999.2500     45.1242   -999.2500   -999.2500   -999.2500    142.7643  
  1129.0000    -47.8086      2.3770      2.4355      5.3684   -999.2500     45.2696   -999.2500   -999.2500   -999.2500    150.6678  
  1129.5000    -49.1230      2.3338      2.4069      5.3171   -999.2500     44.9562   -999.2500   -999.2500   -999.2500    154.4075  
  1130.0000    -49.8480      2.2880      2.3520      5.2862   -999.2500     43.7388   -999.2500   -999.2500   -999.2500    142.7809  
  1130.5000    -50.5523      2.2536      2.3061      5.1493   -999.2500     42.1977   -999.2500   -999.2500   -999.2500    130.8012  
  1131.0000    -51.2566      2.2301      2.2680      5.1113   -999.2500     41.1431   -999.2500   -999.2500   -999.2500    128.8661  
  1131.5000    -51.4403      2.2180      2.2439      5.0239   -999.2500     40.7811   -999.2500   -999.2500   -999.2500    129.9333  
  1132.0000    -51.4030      2.2308      2.2495      4.9167   -999.2500     40.6820   -999.2500   -999.2500   -999.2500    131.2650  
  1132.5000    -51.2459      2.2630      2.2564      4.9724   -999.2500     40.8142   -999.2500   -999.2500   -999.2500    130.8974  
  1133.0000    -51.0589      2.3003      2.2931      5.2722   -999.2500     41.8139   -999.2500   -999.2500   -999.2500    130.4848  
  1133.5000    -50.8544      2.3853      2.3588      5.4163   -999.2500     43.5006   -999.2500   -999.2500   -999.2500    130.4083  
  1134.0000    -50.4988      2.5353      2.4988      5.3625   -999.2500     44.9288   -999.2500   -999.2500   -999.2500    131.2350  
  1134.5000    -45.3458      2.8222      2.7394      5.3303   -999.2500     46.3569   -999.2500   -999.2500   -999.2500    131.9093  
  1135.0000    -39.5320      3.1184      3.0745      5.5689   -999.2500     48.4620   -999.2500   -999.2500   -999.2500    131.5799  
  1135.5000    -32.5380      3.3980      3.4505      6.0518   -999.2500     51.0821   -999.2500   -999.2500   -999.2500    131.7241  
  1136.0000    -23.3344      3.7775      3.8999      6.4334   -999.2500     55.0561   -999.2500   -999.2500   -999.2500    136.5432  
  1136.5000    -17.9823      4.1515      4.4198      6.7950   -999.2500     59.9769   -999.2500   -999.2500   -999.2500    145.5830  
  1137.0000    -16.2881      4.5626      4.6502      7.2881   -999.2500     65.1669   -999.2500   -999.2500   -999.2500    167.2259  
  1137.5000    -14.4597      5.0143      4.7556      7.7484   -999.2500     70.5882   -999.2500   -999.2500   -999.2500    157.5911  
  1138.0000    -12.7040      5.3156      4.7635      7.5057   -999.2500     73.7484   -999.2500   -999.2500   -999.2500    142.6507  
  1138.5000    -11.2316      5.1222      4.6905      6.9316   -999.2500     74.5113   -999.2500   -999.2500   -999.2500    132.1159  
  1139.0000    -11.3523      4.7518      4.4495      6.1929   -999.2500     74.1130   -999.2500   -999.2500   -999.2500    136.0496  
  1139.5000    -12.9289      4.4082      4.1171      5.6669   -999.2500     74.1631   -999.2500   -999.2500   -999.2500    142.2994  
  1140.0000    -16.1648      4.1543      3.8247      5.6295   -999.2500     74.4747   -999.2500   -999.2500   -999.2500    138.5272  
  1140.5000    -22.4350      3.9554      3.5570      5.8920   -999.2500     74.4800   -999.2500   -999.2500   -999.2500    136.8759  
  1141.0000    -27.9918      3.9459      3.9378      6.5123   -999.2500     73.4735   -999.2500   -999.2500   -999.2500    141.4237  
  1141.5000    -33.5485      3.9364      5.3063      6.8285   -999.2500     71.4159   -999.2500   -999.2500   -999.2500    143.7068  
