~VERSION INFORMATION
 VERS.                      2.00:        CWLS LOG ASCII STANDARD - VERSION 2.00
 WRAP.                        NO:        ONE LINE PER DEPTH STEP
~WELL INFORMATION
#MNEM.UNIT               DATA            INFORMATION
#----------          ------------        ------------------------------
 STRT.F                 100.0000:        START DEPTH
 STOP.F                7938.0000:        STOP DEPTH
 STEP.F                   0.5000:        STEP VALUE
 NULL.                 -999.2500:        NULL VALUE
 COMP.                          :        COMPANY  
 WELL.             DREW POINT #1:        WELL     
 FLD .                   WILDCAT:        FIELD    
 LOC .              26  18N   8W:        LOCATION   
 CNTY.               NORTH SLOPE:        COUNTY  
 STAT.                    ALASKA:        STATE   
 CTRY.                       USA:        COUNTRY 
 DATE.                   1/17/78:        LOG DATE 
 API .              500292000200:        UNIQUE WELL IDENTIFIER 
 OPER.                          :        OPERATOR  
 SRVC.              Schlumberger:        SERVICE COMPANY 
 UWI .              500292000200:        UNIQUE WELL ID 
 LAT .                    0.0000:        LATITUDE
 LON .                    0.0000:        LONGITUDE
 DIGS.          Center Line Data:        DIGITIZING COMPANY 
~CURVE INFORMATION      
#MNEM.UNIT            API CODE           CURVE DESCRIPTION
#---------          -------------        ------------------------------
 DEPT.F                         :        1  DEPTH
 SP  .MV                        :        2
 ILD .OHMM                      :        3
 ILM .OHMM                      :        4
 LL8 .OHMM                      :        5
 GR  .GAPI                      :        6
 CALI.IN                        :        7
 DRHO.G/C3                      :        8
 RHOB.G/C3                      :        9
 NPHI.%                         :       10
 DT  .US/F                      :       11
~PARAMETER INFORMATION       
#MNEM.UNIT              VALUE            DESCRIPTION OF MNEMONIC
#---------          -------------        ------------------------------
 EKB .F                  35.0000:        KELLY BUSHING
 TD  .F                7946.0000:        TOTAL DEPTH
 BHT .F                  75.0000:        BOTTOM HOLE TEMPERATURE
 BS  .                   17.5000:        BIT SIZE
 FD  .                    9.8000:        FLUID DENSITY
 CSIZ.                   20.0000:        CASING SIZE
 CBD .F                  80.0000:        CASING DRILLER 1
 CBL .F                 106.0000:        CASING LOGGER 1
 DFT .             Miscellaneous:        TYPE FLUID IN HOLE
 DFV .                   36.0000:        VISCOSITY
 DFPH.                    7.0000:        PH
 DFL .                    0.0000:        FLUID LOSS
 RMS .                    4.5200:        RM
 MST .F                  52.0000:        RM MEAS. TEMP.
 RMF .                    2.8700:        RMF
 MFST.F                  71.0000:        RMF MEAS. TEMP.
 RMC .                    3.5000:        RMC
 MCST.F                  71.0000:        RMC MEAS. TEMP.
 UWI .              500292000200:        UNIQUE WELL ID
~OTHER INFORMATION
~A    DEPTH          SP         ILD         ILM         LL8          GR        CALI        DRHO        RHOB        NPHI          DT  
# ...
  6340.0000    -25.4644      8.2934      7.6346      8.6162     79.9358     12.6050      0.0102      2.4818     26.8514     78.9310  
  6340.5000    -25.5392      8.2572      7.6430      8.5687     79.1236     12.6030      0.0111      2.4954     26.8276     80.9049  
  6341.0000    -25.6787      8.2212      7.6461      8.5215     78.8143     12.5956      0.0310      2.5161     27.1447     80.2059  
  6341.5000    -25.9296      8.1853      7.6438      8.4746     79.8934     12.5883      0.0233      2.5114     27.6300     78.9687  
  6342.0000    -26.1617      8.2557      7.6415      8.5148     81.1460     12.5810      0.0049      2.4854     28.1154     77.5072  
  6342.5000    -26.3625      8.4184      7.6392      8.6985     82.2099     12.5802      0.0022      2.4757     27.8464     76.2111  
  6343.0000    -26.2422      8.1218      7.6369      8.8862     84.4848     12.5860      0.0074      2.4809     27.1129     75.3071  
  6343.5000    -25.7841      7.8356      7.5998      8.7041     88.8703     12.5918      0.0065      2.4834     26.3172     77.9415  
  6344.0000    -25.2517      7.5595      7.3911      8.0806     93.9286     12.5935      0.0136      2.4898     25.9448     79.9778  
  6344.5000    -24.5830      7.3113      7.1882      7.5415     97.9258     12.5893      0.0098      2.4924     26.5220     81.6210  
  6345.0000    -24.4109      7.4727      7.0566      7.4496     99.2005     12.5883      0.0033      2.4856     27.6854     81.6345  
  6345.5000    -24.6676      7.6377      7.0491      7.5163     96.6773     12.5887      0.0042      2.4985     29.0097     79.5047  
  6346.0000    -24.9718      7.8322      7.0417      7.9002     92.9663     12.5888      0.0139      2.5016     29.8401     77.7889  
  6346.5000    -24.9768      8.0943      7.0343      8.3038     89.8738     12.5886      0.0214      2.4986     28.7178     76.1223  
  6347.0000    -24.5809      8.1849      7.0269      8.2560     89.5283     12.5884      0.0197      2.4949     27.4328     76.8204  
  6347.5000    -24.0201      7.6801      6.8484      7.7971     90.7986     12.5890      0.0109      2.4882     27.1979     80.2328  
  6348.0000    -23.2473      7.2064      6.6665      7.2169     93.3938     12.5896      0.0219      2.5010     28.0552     82.8941  
  6348.5000    -22.5753      6.7619      6.4895      6.6722     96.0881     12.5984      0.0285      2.5134     28.8734     83.5019  
  6349.0000    -22.4485      6.5946      6.3413      6.6599     97.1711     12.5986      0.0333      2.5314     29.5409     82.1053  
  6349.5000    -22.6948      7.2302      6.4003      7.0924     95.7845     12.5775      0.0310      2.5220     30.5469     78.1726  
  6350.0000    -23.0920      7.9270      6.4599      7.6246     93.9164     12.5664      0.0269      2.5165     29.8819     75.7811  
  6350.5000    -23.5304      8.4747      6.4576      8.3784     92.5082     12.5605      0.0189      2.4929     29.0500     76.9831  
  6351.0000    -23.7383      7.7667      6.3075      7.9285     92.7300     12.5632      0.0064      2.4823     27.9443     78.7845  
  6351.5000    -23.5987      7.1178      6.1610      7.2641     93.6111     12.5660      0.0043      2.4874     27.2896     80.4403  
  6352.0000    -23.2620      6.5232      6.0178      6.6554     97.1110     12.5687      0.0158      2.5086     27.8789     81.0775  
  6352.5000    -22.9810      6.1533      6.0598      6.3638     99.4920     12.5669      0.0442      2.5347     29.4409     81.6902  
  6353.0000    -23.2651      6.5048      6.3297      6.8509     96.7498     12.5608      0.0401      2.5291     31.6328     81.2573  
  6353.5000    -24.0688      6.8765      6.6115      7.5918     93.4354     12.5569      0.0276      2.5056     32.6382     80.3387  
  6354.0000    -24.8720      7.2693      6.9059      8.4601     90.1021     12.5461      0.0204      2.4921     31.4044     78.9350  
  6354.5000    -25.3384      7.3669      7.1335      9.2391     87.9070     12.5358      0.0115      2.4753     28.7649     77.9270  
  6355.0000    -25.1318      7.3953      7.1692      8.7689     88.2538     12.5323      0.0051      2.4600     26.9284     77.0943  
  6355.5000    -24.8356      7.4868      7.2051      8.3226     90.8660     12.5315      0.0174      2.4654     26.3306     76.6399  
  6356.0000    -24.5115      7.6233      7.2412      7.8991     93.8086     12.5306      0.0215      2.4792     26.7969     76.7447  
  6356.5000    -24.2777      7.9310      7.2775      7.5616     94.1303     12.5362      0.0107      2.4727     27.7152     77.8132  
  6357.0000    -24.3783      7.9214      7.3474      7.7113     90.4030     12.5508      0.0033      2.4804     28.6948     79.7401  
  6357.5000    -24.6896      7.7937      7.5535      8.1169     86.1496     12.5452      0.0258      2.4854     29.0428     79.4603  
  6358.0000    -25.4172      8.0404      7.7654      8.6244     81.5056     12.5350      0.0251      2.4772     29.1275     79.7101  
  6358.5000    -26.2437      8.5146      7.9832      9.1635     79.7526     12.5443      0.0243      2.4705     28.5541     78.1936  
  6359.0000    -26.8060      9.0167      8.2072      9.7364     80.4630     12.5505      0.0159      2.4602     27.7070     76.4178  
  6359.5000    -27.1512      9.4956      8.4374      9.8031     80.5814     12.5436      0.0074      2.4541     27.3318     74.9628  
  6360.0000    -27.3324      9.4827      8.3932      9.6286     81.4443     12.5436      0.0136      2.4480     27.0350     74.9461  
  6360.5000    -27.4035      9.4676      8.3473      9.4572     83.5153     12.5513      0.0186      2.4502     26.8910     75.8052  
  6361.0000    -27.4993      9.2002      8.3017      9.2888     85.4652     12.5478      0.0199      2.4593     26.9930     78.6358  
  6361.5000    -27.6344      8.9402      8.2563      9.0100     86.9136     12.5460      0.0212      2.4634     27.2864     79.7988  
  6362.0000    -27.7776      8.6877      8.2111      9.1060     87.7505     12.5531      0.0224      2.4661     27.4868     80.9066  
  6362.5000    -27.9341      8.5809      8.1663      9.2345     87.3049     12.5847      0.0268      2.4682     27.6061     80.9997  
  6363.0000    -28.0937      8.8719      8.1216      9.3647     85.6936     12.5415      0.0294      2.4682     27.7255     78.5283  
  6363.5000    -28.1519      9.1728      8.0206      9.4968     85.8294     12.5399      0.0359      2.4978     26.6229     77.5896  
  6364.0000    -27.9768      9.1117      7.7661      9.2575     88.4780     12.5390      0.0219      2.4939     24.6714     76.4899  
  6364.5000    -27.4989      8.4853      7.5197      8.5236     91.4450     12.5393      0.0038      2.4697     24.2862     75.4561  
  6365.0000    -26.5954      7.9020      7.2811      8.0188     94.7279     12.5395     -0.0006      2.4654     24.6489     74.9273  
  6365.5000    -25.4464      7.3587      7.0501      7.6124     97.7212     12.5388      0.0088      2.4737     25.2581     74.4853  
  6366.0000    -24.9468      7.0902      6.9924      7.4070     98.0890     12.5294      0.0186      2.4870     26.6778     74.1176  
  6366.5000    -24.9586      7.1854      6.9752      7.7078     95.5909     12.5112      0.0228      2.4957     28.5778     73.8987  
  6367.0000    -25.5241      7.5422      7.1135      8.0207     90.5346     12.4803      0.0225      2.4982     30.1081     73.8182  
  6367.5000    -26.4083      7.9168      7.3207      8.3464     84.6042     12.4586      0.0196      2.4876     31.2732     73.8646  
  6368.0000    -27.6267      8.3100      7.5339      8.6853     81.2135     12.4425      0.0252      2.4953     29.8450     74.5206  
  6368.5000    -28.6484      8.7227      7.7533      9.0379     81.1377     12.4537      0.0302      2.5000     27.8039     75.8484  
  6369.0000    -29.2108      9.1559      7.9792      9.4049     81.4880     12.4639      0.0246      2.4969     26.3351     77.1477  
  6369.5000    -29.5791      9.3438      8.2116      9.7867     81.9420     12.4543      0.0162      2.4944     25.6941     77.8871  
