~VERSION INFORMATION
 VERS.                      2.00:        CWLS LOG ASCII STANDARD - VERSION 2.00
 WRAP.                        NO:        ONE LINE PER DEPTH STEP
~WELL INFORMATION
#MNEM.UNIT               DATA            INFORMATION
#----------          ------------        ------------------------------
 STRT.F                 100.0000:        START DEPTH
 STOP.F                7938.0000:        STOP DEPTH
 STEP.F                   0.5000:        STEP VALUE
 NULL.                 -999.2500:        NULL VALUE
 COMP.                          :        COMPANY  
 WELL.             DREW POINT #1:        WELL     
 FLD .                   WILDCAT:        FIELD    
 LOC .              26  18N   8W:        LOCATION   
 CNTY.               NORTH SLOPE:        COUNTY  
 STAT.                    ALASKA:        STATE   
 CTRY.                       USA:        COUNTRY 
 DATE.                   1/17/78:        LOG DATE 
 API .              500292000200:        UNIQUE WELL IDENTIFIER 
 OPER.                          :        OPERATOR  
 SRVC.              Schlumberger:        SERVICE COMPANY 
 UWI .              500292000200:        UNIQUE WELL ID 
 LAT .                    0.0000:        LATITUDE
 LON .                    0.0000:        LONGITUDE
 DIGS.          Center Line Data:        DIGITIZING COMPANY 
~CURVE INFORMATION      
#MNEM.UNIT            API CODE           CURVE DESCRIPTION
#---------          -------------        ------------------------------
 DEPT.F                         :        1  DEPTH
 SP  .MV                        :        2
 ILD .OHMM                      :        3
 ILM .OHMM                      :        4
 LL8 .OHMM                      :        5
 GR  .GAPI                      :        6
 CALI.IN                        :        7
 DRHO.G/C3                      :        8
 RHOB.G/C3                      :        9
 NPHI.%                         :       10
 DT  .US/F                      :       11
~PARAMETER INFORMATION       
#MNEM.UNIT              VALUE            DESCRIPTION OF MNEMONIC
#---------          -------------        ------------------------------
 EKB .F                  35.0000:        KELLY BUSHING
 TD  .F                7946.0000:        TOTAL DEPTH
 BHT .F                  75.0000:        BOTTOM HOLE TEMPERATURE
 BS  .                   17.5000:        BIT SIZE
 FD  .                    9.8000:        FLUID DENSITY
 CSIZ.                   20.0000:        CASING SIZE
 CBD .F                  80.0000:        CASING DRILLER 1
 CBL .F                 106.0000:        CASING LOGGER 1
 DFT .             Miscellaneous:        TYPE FLUID IN HOLE
 DFV .                   36.0000:        VISCOSITY
 DFPH.                    7.0000:        PH
 DFL .                    0.0000:        FLUID LOSS
 RMS .                    4.5200:        RM
 MST .F                  52.0000:        RM MEAS. TEMP.
 RMF .                    2.8700:        RMF
 MFST.F                  71.0000:        RMF MEAS. TEMP.
 RMC .                    3.5000:        RMC
 MCST.F                  71.0000:        RMC MEAS. TEMP.
 UWI .              500292000200:        UNIQUE WELL ID
~OTHER INFORMATION
~A    DEPTH          SP         ILD         ILM         LL8          GR        CALI        DRHO        RHOB        NPHI          DT  
# ...
  5830.0000    -16.1126      4.1460      3.9260      4.4415    103.0192     18.0011      0.1186      2.3218     43.0664     95.6138  
  5830.5000    -16.1090      4.1420      3.9206      4.4922    102.8259     18.0164      0.0999      2.3280     45.1683     92.4069  
  5831.0000    -16.2150      4.1380      3.9151      4.5436    103.0344     17.5278      0.0863      2.3360     46.2874     91.9268  
  5831.5000    -16.3837      4.1340      3.9337      4.5941    103.6452     17.8718      0.0841      2.3373     46.4697     96.7109  
  5832.0000    -16.3282      4.1300      3.9781      4.6358    104.6053     18.0160      0.0991      2.3275     45.6360     97.5158  
  5832.5000    -16.1170      4.1260      4.0230      4.6779    105.8343     18.0204      0.1069      2.3229     44.1276     97.5526  
  5833.0000    -15.8387      4.2735      4.0684      4.7407    106.3589     18.0248      0.1027      2.3235     43.5144     95.9804  
  5833.5000    -15.6631      4.4430      4.1143      4.8750    103.7831     17.8503      0.0927      2.3263     43.3438     96.9989  
  5834.0000    -15.7841      4.5390      4.1607      5.0131    101.8225     16.9766      0.0950      2.3480     43.9362     99.2218  
  5834.5000    -16.0173      4.4248      4.1689      5.1234    101.4043     16.4547      0.0865      2.3538     44.4780    100.4536  
  5835.0000    -16.1851      4.3136      4.1572      5.0981    102.3986     15.6067      0.0982      2.3480     45.0152    102.6281  
  5835.5000    -16.1828      4.2051      4.1456      5.0657    103.4419     15.1575      0.1030      2.3141     45.8789     96.7720  
  5836.0000    -15.9096      4.1758      4.1340      5.0335    100.4010     14.9199      0.0963      2.2987     47.0303     92.9350  
  5836.5000    -15.5509      4.1948      4.1225      5.0014     96.3572     14.6254      0.0972      2.2948     48.0840     89.6346  
  5837.0000    -15.1285      4.2140      4.1110      4.9827     93.4379     14.8715      0.1029      2.2917     47.1131     82.9786  
  5837.5000    -14.6709      4.2332      4.0995      4.9693     89.8206     15.1028      0.0996      2.2791     46.1858     80.0948  
  5838.0000    -14.4402      4.3466      4.2241      4.9561     84.8981     16.2519      0.1059      2.2636     45.6308     76.4119  
  5838.5000    -14.4125      4.7250      4.4499      4.9592     81.0241     15.6445      0.1164      2.2945     42.6856     74.0804  
  5839.0000    -14.5939      5.1363      4.7583      4.9759     77.6160     14.4898      0.1076      2.3085     41.0191     77.6768  
  5839.5000    -15.0188      5.5833      5.1902      5.2228     72.8474     14.0119      0.1049      2.3231     36.1825     77.6065  
  5840.0000    -15.7143      6.0693      5.6614      6.0987     70.3101     13.5761      0.0397      2.3421     31.0843     79.4957  
  5840.5000    -16.4422      6.5976      6.1754      7.6992     71.9215     13.1933      0.0367      2.3795     28.1587     89.8945  
  5841.0000    -16.9601      7.1762      6.7870      9.7196     74.3687     13.1997      0.0461      2.4208     26.0720     90.3506  
  5841.5000    -17.3242      7.6964      7.5682     11.1813     77.0834     13.2688      0.0589      2.4242     25.8162     96.3977  
  5842.0000    -17.5190      8.1150      8.4394     11.0485     80.0589     13.3683      0.0465      2.3927     27.0563     98.7666  
  5842.5000    -17.6198      8.4004      8.7447     10.4342     83.8667     13.3888      0.0535      2.3726     28.6858     86.4646  
  5843.0000    -17.8447      8.4012      8.5993     10.1193     87.1599     13.3283      0.1061      2.3505     31.2469     86.7645  
  5843.5000    -17.9855      7.8913      7.9940      9.5569     91.4821     13.9349      0.1544      2.3026     34.1245     82.3832  
  5844.0000    -17.9756      7.4289      7.1798      8.3433     93.8937     15.0602      0.1408      2.2554     37.5446     80.5786  
  5844.5000    -17.8586      6.8031      6.4486      7.2837     94.3709     14.7658      0.0981      2.2755     39.8471     81.4624  
  5845.0000    -17.5895      6.2300      6.0877      6.3588     90.5760     13.9758      0.1107      2.3095     39.7724     80.6076  
  5845.5000    -17.2127      6.1685      6.0431      6.1124     85.6939     14.3763      0.1017      2.3292     37.9476     81.8929  
  5846.0000    -16.8339      6.3406      5.9988      6.2061     80.6944     13.4205      0.0762      2.3507     34.8223     87.9681  
  5846.5000    -16.7036      6.5176      6.0659      6.5947     76.7691     13.1868      0.1028      2.3702     33.0365     94.8168  
  5847.0000    -16.9538      6.6996      6.1603      6.8094     76.6121     13.3384      0.1124      2.3462     32.9240     96.5214  
  5847.5000    -17.6053      6.8866      6.3825      7.0344     77.9744     13.2731      0.0680      2.2960     33.2983     90.6479  
  5848.0000    -18.3458      7.0788      6.6963      7.4456     80.4375     13.5559      0.0514      2.2915     34.6912     82.9379  
  5848.5000    -19.0508      7.2764      7.0256      7.9866     83.0423     13.7593      0.0805      2.2505     36.7880     82.6209  
  5849.0000    -19.1848      7.1354      7.0922      8.5670     83.7621     14.4870      0.1483      2.2149     39.2764     83.1248  
  5849.5000    -19.0480      6.7761      6.5921      7.8905     83.5993     15.1780      0.1686      2.1478     41.6387     83.4194  
  5850.0000    -19.0867      6.4349      6.1272      7.0241     82.1384     15.0356      0.1246      2.1361     41.3806     80.2391  
  5850.5000    -19.3640      6.1109      5.6951      6.2528     81.8933     14.7362      0.0783      2.2245     39.9191     81.4138  
  5851.0000    -19.6470      6.1299      5.7508      6.3776     83.1764     13.7741      0.0321      2.3098     36.6186     83.4204  
  5851.5000    -19.7321      6.6164      6.0822      6.8020     83.7930     13.6827      0.0804      2.3868     34.3359     90.7258  
  5852.0000    -19.8755      7.1415      6.4326      7.2545     82.0223     14.6035      0.1110      2.3627     34.7122     88.1793  
  5852.5000    -19.9676      6.8889      6.5974      7.2478     79.2604     14.4634      0.0806      2.3355     35.1344     84.8217  
  5853.0000    -19.9070      6.6150      6.5013      6.9040     79.9699     13.5352      0.0755      2.3380     34.1454     80.5189  
  5853.5000    -19.6957      6.5574      6.4066      6.5765     80.8328     13.9539      0.0825      2.3395     34.0148     81.0372  
  5854.0000    -19.2397      6.7783      6.4424      6.9965     81.9515     14.8926      0.1046      2.3473     36.1018     84.2768  
  5854.5000    -19.0479      7.0067      6.5988      7.2255     82.9213     14.3846      0.1312      2.3604     38.2799     84.0678  
  5855.0000    -18.9560      6.7758      6.3657      6.6536     83.7276     15.4787      0.1664      2.3682     39.7190     90.6244  
  5855.5000    -18.7466      6.5397      6.1407      6.4486     84.4560     15.6726      0.1757      2.3342     40.0761     90.1400  
  5856.0000    -18.4050      6.3120      5.9238      6.2627     86.1790     14.2467      0.0698      2.3612     38.0393     85.3535  
  5856.5000    -18.2104      6.0921      5.8628      6.3255     88.7352     13.7759      0.0751      2.4149     35.5247     86.8241  
  5857.0000    -18.0401      6.3800      5.9729      6.8299     88.7912     14.5922      0.0694      2.4013     35.7721     83.3039  
  5857.5000    -17.7016      6.7199      6.0850      7.4798     88.0197     13.8244      0.0573      2.3696     37.2660     83.7405  
  5858.0000    -17.3607      6.7716      6.0897      7.2096     87.3017     13.9556      0.0691      2.3374     38.4741     78.0062  
  5858.5000    -17.1080      6.5724      6.0180      6.6549     87.1432     14.5702      0.0937      2.3530     38.9863     79.4599  
  5859.0000    -16.9699      6.3790      5.9471      6.1868     86.3036     15.2448      0.0780      2.3378     38.8996     82.4379  
  5859.5000    -16.9468      6.1913      5.8770      5.9878     83.4646     14.2140      0.0659      2.3520     38.2043     86.9332  
