~VERSION INFORMATION
 VERS.                           2.00:        CWLS LOG ASCII STANDARD - VERSION 2.00
 WRAP.                             NO:        ONE LINE PER DEPTH STEP
~WELL INFORMATION
#MNEM.UNIT                   DATA             INFORMATION
#----------             --------------        ------------------------------
 STRT.F                      358.0000:        START DEPTH
 STOP.F                     8806.0000:        STOP DEPTH
 STEP.F                        0.5000:        STEP VALUE
 NULL.                      -999.2500:        NULL VALUE
 COMP.                      U.S. NAVY:        COMPANY
 LOC .                     22 17N 12W:        LOCATION
 DATE.                         4/5/77:        LOG DATE
 WELL.               SOUTH SIMPSON #1:        WELL
 UWI .                   502792000100:        UNIQUE WELL ID
 API .                   502792000100:        UNIQUE WELL IDENTIFIER
 FLD .                        WILDCAT:        FIELD
 CNTY.                    NORTH SLOPE:        COUNTY
 STAT.                         ALASKA:        STATE
 CTRY.                            USA:        COUNTRY
 OPER.                      U.S. NAVY:        OPERATOR
 SRVC.                   SCHLUMBERGER:        SERVICE COMPANY
 LAT .                         0.0000:        LATITUDE
 LON .                         0.0000:        LONGITUDE
 DIGS.               CENTER LINE DATA:        DIGITIZING COMPANY
~CURVE INFORMATION      
#MNEM        .UNIT         API CODE           CURVE DESCRIPTION
#-----------------      --------------        ------------------------------
 DEPT        .F                      :        1  DEPTH
 GR          .GAPI                   :        2  
 CALI        .IN                     :        3  
 DRHO        .G/C3                   :        4  
 RHOB        .G/C3                   :        5  
 NPHI        .%                      :        6  
 DT          .US/F                   :        7  
 SP          .MV                     :        8  
 ILD         .OHMM                   :        9  
 ILM         .OHMM                   :        10 
 LL8         .OHMM                   :        11 
~PARAMETER INFORMATION
#MNEM.UNIT                  VALUE             DESCRIPTION OF MNEMONIC
#---------             ---------------        ------------------------------
 EKB .F                       25.0000:        KELLY BUSHING
 TD  .F                     8807.0000:        TOTAL DEPTH
 BHT .F                      145.0000:        BOTTOM HOLE TEMPERATURE
 BS  .                        13.5000:        BIT SIZE
 FD  .                        10.7000:        FLUID DENSITY
 CSIZ.                        16.0000:        CASING SIZE
 CBD .F                     2175.0000:        CASING DRILLER 1
 CBL .F                     2175.0000:        CASING LOGGER 1
 DFT .                  MISCELLANEOUS:        TYPE FLUID IN HOLE
 DFV .                        47.0000:        VISCOSITY
 DFPH.                        10.5000:        PH
 DFL .                         5.0000:        FLUID LOSS
 RMS .                         2.3000:        RM
 MST .F                       60.0000:        RM MEAS. TEMP.
 RMF .                         1.5400:        RMF
 MFST.F                       54.0000:        RMF MEAS. TEMP.
 RMC .                         2.7300:        RMC
 MCST.F                       54.0000:        RMC MEAS. TEMP.
~OTHER INFORMATION
~A    DEPTH          GR        CALI        DRHO        RHOB        NPHI          DT          SP         ILD         ILM         LL8 
# ...
  7678.0000     71.4975      9.3891      0.0026      2.4858     12.4729     73.5163    -36.3276      8.1288      9.5583     12.7933 
  7678.5000     72.2151      9.3607      0.0020      2.5181     11.8671     72.7006    -35.8697      8.7073      9.9695     16.2877 
  7679.0000     69.0242      9.3411      0.0085      2.5293     10.9998     71.8771    -35.4117      9.1711     10.0494     17.0916 
  7679.5000     64.2049      9.3242      0.0456      2.5432     10.1325     70.7618    -34.8034      9.2445     10.1300     16.1281 
  7680.0000     60.6237      9.3211      0.0379      2.5276      9.8157     70.1964    -33.6289      9.3186     10.2112     15.0242 
  7680.5000     63.7106      9.3301      0.0145      2.5121      9.9138     69.4750    -32.4545      9.3933     10.2931     13.9481 
  7681.0000     66.5666      9.4133      0.0141      2.5236     10.2865     69.2812    -31.2800      9.3127     10.2333     12.9491 
  7681.5000     70.9852      9.4512      0.0099      2.5188     10.8588     70.2483    -30.4368      9.0601     10.0655     12.5257 
  7682.0000     76.3025      9.4600      0.0065      2.5134     11.4311     71.0197    -30.3529      8.8145      9.7927     13.6449 
  7682.5000     81.3590      9.5066      0.0058      2.5418     11.9175     70.9037    -30.5511      8.5755      9.5272     14.0771 
  7683.0000     83.0259      9.5390      0.0116      2.5694     13.0446     71.2571    -30.9015      8.3429      9.2689     13.1753 
  7683.5000     84.0130      9.5380      0.0161      2.5814     14.0182     71.4591    -31.2518      8.1342      9.0177     12.3313 
  7684.0000     83.7830      9.4982      0.0231      2.5682     14.6621     72.0089    -31.6294      8.0933      8.8615     11.5413 
  7684.5000     85.0136      9.4590      0.0328      2.5543     15.3061     72.7031    -32.0852      8.0526      8.8170     10.8019 
  7685.0000     87.8682      9.4459      0.0283      2.5403     16.3972     73.3945    -32.5411      8.0164      8.9656     10.4866 
  7685.5000     95.9612      9.4553      0.0206      2.5315     17.5423     73.8667    -32.9459      8.2933      9.3469     10.6200 
  7686.0000    103.7063      9.5133      0.0350      2.5405     18.6359     73.7980    -32.8246      8.5797      9.8758     10.8642 
  7686.5000    106.8256      9.6506      0.0741      2.5898     20.5258     73.6979    -32.3709      9.3200     10.4347     12.2658 
  7687.0000    102.9482      9.9956      0.1168      2.6627     22.1215     73.2421    -31.9172     10.2331     11.3636     16.6316 
  7687.5000     99.2803     10.0592      0.1195      2.6865     23.9643     72.8243    -31.4635     11.2356     12.7912     19.9459 
  7688.0000     96.9661     10.0562      0.0795      2.7067     25.5491     72.3057    -31.0098     12.5153     14.3981     22.6350 
  7688.5000     91.7131      9.8064      0.0298      2.7728     25.8135     71.5615    -31.3167     14.1359     16.2070     24.3197 
  7689.0000     81.3841      9.6823     -0.0076      2.8440     25.0066     71.0717    -31.7293     15.9664     18.5192     25.5547 
  7689.5000     71.7595      9.6391     -0.0107      2.8621     24.2184     70.5651    -32.1392     18.0340     21.9815     30.6877 
  7690.0000     67.4733      9.6167     -0.0151      2.8352     24.4152     70.0586    -32.5473     20.3692     26.0910     55.2879 
  7690.5000     70.9280      9.5337     -0.0197      2.8613     24.9271     69.5520    -32.9554     22.7858     30.9688    151.5813 
  7691.0000     74.9437      9.4507     -0.0203      2.9187     24.8350     67.5210    -33.3635     25.1187     34.1510    230.4210 
  7691.5000     79.7723      9.3835     -0.0159      2.9809     23.5614     66.8402    -33.5099     27.6903     34.0482    179.7996 
  7692.0000     78.7823      9.3646     -0.0155      2.9971     21.0338     65.4540    -33.6664     28.3983     33.7704    108.4588 
  7692.5000     72.9673      9.3640     -0.0142      3.0097     19.0918     63.9236    -33.7775     28.4136     33.4596     74.1417 
  7693.0000     68.1014      9.4079     -0.0086      2.9494     17.5681     63.8513    -33.8275     26.6688     30.7891     81.4271 
  7693.5000     66.0733      9.5348     -0.0069      2.9000     15.9213     64.0283    -33.9207     24.7235     27.8433     96.0516 
  7694.0000     63.4123      9.7633     -0.0051      2.8771     14.8150     64.2358    -33.9334     22.9202     25.1793     75.0205 
  7694.5000     61.5786      9.8980     -0.0032      2.8382     15.4898     64.4952    -33.9238     21.2483     22.7702     64.1899 
  7695.0000     60.8604      9.4660     -0.0037      2.8060     16.4982     64.3630    -34.0131     19.6985     20.5916     55.6805 
  7695.5000     61.7464      9.5829     -0.0214      2.7879     17.2779     63.9804    -34.2455     18.2616     19.2881     43.0923 
  7696.0000     65.0308      9.7629     -0.0015      2.8133     17.3893     64.0181    -34.4779     17.8612     18.8862     34.5309 
  7696.5000     67.0452      9.7932      0.0173      2.8230     17.2987     64.5949    -34.7103     17.7793     18.8408     33.4209 
  7697.0000     66.2020      9.7075      0.0263      2.7914     16.5759     66.1510    -34.9427     18.1527     18.9352     34.4053 
  7697.5000     64.3806      9.6720      0.0386      2.7759     15.9509     67.6454    -35.1751     18.5340     19.3994     34.8355 
  7698.0000     61.1397      9.6492      0.0503      2.7562     15.5533     68.8528    -35.0615     19.5896     22.1441     35.9664 
  7698.5000     57.6129      9.6264      0.0262      2.7266     14.6097     69.4652    -34.8013     21.8065     27.1863     67.2017 
  7699.0000     54.0861      9.6037      0.0056      2.7158     12.7764     69.5194    -34.2154     25.0521     34.8557    927.8593 
  7699.5000     50.9566      9.5709      0.0249      2.7185     10.4192     69.0899    -33.3827     29.2061     49.1832   1728.4757 
  7700.0000     48.4635      9.5244      0.0556      2.7407      8.0809     66.1636    -32.5501     34.0488     69.4002   1760.0360 
  7700.5000     51.5424      9.4780      0.0736      2.7602      4.9635     62.6602    -31.7175     39.6945     84.7475   1771.7371 
  7701.0000     55.6726      9.4296      0.0560      2.7493      4.4529     60.1884    -30.8864     46.2764     96.8206   1779.3058 
  7701.5000     61.9704      9.3713      0.0195      2.7307      4.3701     58.2679    -29.5077     44.3657     94.4540   1775.2401 
  7702.0000     70.1888      9.2836      0.0022      2.7122      4.6665     57.8752    -28.0786     29.5511     64.7546   1756.4357 
  7702.5000     74.1211      9.2557     -0.0081      2.6940      5.2796     58.0825    -26.1332     22.2567     38.1625   1452.0078 
  7703.0000     77.7455      9.2595     -0.0064      2.6807      6.2411     57.0845    -24.7484     16.7628     20.8377    796.2643 
  7703.5000     81.9771      9.2554     -0.0033      2.6628      8.7342     56.9866    -23.2791     13.0666     13.5739    119.3639 
  7704.0000     85.9331      9.2340      0.0019      2.6406     11.7337     58.2410    -22.2254     12.5453     13.2166     31.3949 
  7704.5000     91.2533      9.2217      0.0132      2.6202     14.7332     59.4544    -21.1883     12.2150     14.4798     12.0414 
  7705.0000     96.5915      9.2380      0.0375      2.5999     17.4741     62.6718    -20.1512     12.0504     15.8638     15.8096 
  7705.5000    101.4833      9.2795      0.1129      2.5796     15.1154     70.6902    -19.7239     11.9819     17.3800     30.5301 
  7706.0000     94.3727      9.7069      0.2331      2.5592     11.0835     74.3071    -19.4693     12.0363     18.1873     98.4900 
  7706.5000     84.0539     10.0774      0.1715      2.5170      7.0516     74.7661    -19.2147     13.4558     19.1561     69.2055 
  7707.0000     71.5637      9.9268      0.0229      2.5173      4.0291     71.9352    -18.9934     16.5873     21.4393     78.5859 
  7707.5000     61.3679      9.1375      0.0122      2.6197      4.4916     65.0694    -19.0524     20.4475     25.3095    150.0256 
  7708.0000     60.1077      9.0564      0.0121      2.6251      4.1134     63.4642    -19.1114     25.2062     31.7717   1005.5745 
