~VERSION INFORMATION
 VERS.                      2.00:        CWLS LOG ASCII STANDARD - VERSION 2.00
 WRAP.                        NO:        ONE LINE PER DEPTH STEP
~WELL INFORMATION
#MNEM.UNIT               DATA            INFORMATION
#----------          ------------        ------------------------------
 STRT.F                  81.0000:        START DEPTH
 STOP.F               15400.0000:        STOP DEPTH
 STEP.F                   0.5000:        STEP VALUE
 NULL.                 -999.2500:        NULL VALUE
 COMP. USGS/NPR HUSKY OIL OPERAT:        COMPANY  
 WELL.     IKPIKPUK TEST WELL #1:        WELL     
 FLD .                   WILDCAT:        FIELD    
 LOC .              25  13N  10W:        LOCATION   
 CNTY.               NORTH SLPOE:        COUNTY  
 STAT.                    ALASKA:        STATE   
 CTRY.                       USA:        COUNTRY 
 DATE.                  11/29/78:        LOG DATE 
 API .              502792000400:        UNIQUE WELL IDENTIFIER 
 OPER. USGS/NPR HUSKY OIL OPERAT:        OPERATOR  
 SRVC.              Schlumberger:        SERVICE COMPANY 
 UWI .              502792000400:        UNIQUE WELL ID 
 LAT .                    0.0000:        LATITUDE
 LON .                    0.0000:        LONGITUDE
 DIGS.          Center Line Data:        DIGITIZING COMPANY 
~CURVE INFORMATION      
#MNEM.UNIT            API CODE           CURVE DESCRIPTION
#---------          -------------        ------------------------------
 DEPT.F                         :        1  DEPTH
 SP  .MV                        :        2
 ILD .OHMM                      :        3
 ILM .OHMM                      :        4
 LL8 .OHMM                      :        5
 GR  .GAPI                      :        6
 CALI.IN                        :        7
 RHOB.G/C3                      :        8
 DRHO.G/C3                      :        9
 NPHI.%                         :       10
 DT  .US/F                      :       11
~PARAMETER INFORMATION       
#MNEM.UNIT              VALUE            DESCRIPTION OF MNEMONIC
#---------          -------------        ------------------------------
 EKB .F                  52.0000:        KELLY BUSHING
 TD  .F               15481.0000:        TOTAL DEPTH
 BHT .F                   0.0000:        BOTTOM HOLE TEMPERATURE
 BS  .                   17.5000:        BIT SIZE
 FD  .                    9.0000:        FLUID DENSITY
 CSIZ.                   30.0000:        CASING SIZE
 CBD .F                 100.0000:        CASING DRILLER 1
 CBL .F                 101.0000:        CASING LOGGER 1
 DFT .                       Gel:        TYPE FLUID IN HOLE
 DFV .                   60.0000:        VISCOSITY
 DFPH.                    8.5000:        PH
 DFL .                   18.0000:        FLUID LOSS
 RMS .                    3.7300:        RM
 MST .F                  66.0000:        RM MEAS. TEMP.
 RMF .                    4.3900:        RMF
 MFST.F                  58.0000:        RMF MEAS. TEMP.
 RMC .                    2.5000:        RMC
 MCST.F                  57.0000:        RMC MEAS. TEMP.
 UWI .              502792000400:        UNIQUE WELL ID
~OTHER INFORMATION
~A    DEPTH          SP         ILD         ILM         LL8          GR        CALI        RHOB        DRHO        NPHI          DT  
# ...
 14361.0000    -48.3815   1356.7653   1641.4922   1405.7682     35.5621      6.4207      2.7426      0.0792     -0.6259     49.2798  
 14361.5000    -47.0179   1250.4365   1674.0906   1407.3402     34.1132      6.4219      2.7414      0.0788     -0.6252     49.3158  
 14362.0000    -45.4888   1151.5969   1702.1471   1408.9142     29.5925      6.4231      2.7394      0.0789     -0.6192     49.2207  
 14362.5000    -43.9597   1060.5707   1724.2894   1410.4899     25.7027      6.4243      2.7362      0.0792     -0.6060     49.0421  
 14363.0000    -42.3679    976.7390   1715.0537   1412.0673     25.4333      6.4254      2.7493      0.0789     -0.5945     48.9459  
 14363.5000    -40.3463   1009.1409   1703.5634   1415.9780     26.3050      6.4266      2.7597      0.0780     -0.5271     48.9431  
 14364.0000    -39.7227   1120.3503   1677.4779   1425.5052     26.8132      6.4278      2.7682      0.0775     -0.5066     49.0444  
 14364.5000    -40.3367   1243.8153   1672.6152   1435.0957     26.4787      6.4273      2.7768      0.0759     -0.4862     49.1348  
 14365.0000    -38.5271   1348.9521   1704.1910   1444.7515     25.5537      6.4259      2.7652      0.0744     -0.4695     49.1536  
 14365.5000    -36.4940   1282.4159   1731.5757   1451.2013     24.4825      6.4245      2.7535      0.0733     -0.4830     49.2759  
 14366.0000    -34.4610    945.2679   1728.2034   1451.5376     24.0675      6.4230      2.7467      0.0737     -0.4965     49.4671  
 14366.5000    -32.0262    652.9743   1691.9493   1451.8730     24.0461      6.4216      2.7422      0.0740     -0.5100     49.5776  
 14367.0000    -29.1809    447.7010   1666.8203   1454.2773     24.0869      6.4202      2.7418      0.0742     -0.4776     49.6527  
 14367.5000    -26.5103    374.4011   1557.4755   1457.3551     23.6007      6.4188      2.7362      0.0731     -0.4455     49.7454  
 14368.0000    -24.4799    313.1023   1321.3408   1227.7283     22.4772      6.4173      2.7451      0.0720     -0.4214     49.7576  
 14368.5000    -22.7026    261.8396    820.1683    452.2120     21.4285      6.4159      2.7527      0.0709     -0.3988     49.7482  
 14369.0000    -20.9252    243.2569    976.5294    291.4985     20.6702      6.4145      2.7425      0.0700     -0.3905     49.7456  
 14369.5000    -19.1479    265.2339   1559.5485    500.6813     19.2611      6.4131      2.7328      0.0691     -0.3821     49.7316  
 14370.0000    -18.3675    289.1965   1593.8656   1409.2645     16.7704      6.4116      2.7266      0.0681     -0.3738     49.5586  
 14370.5000    -18.8096    315.7169   1605.8252   1415.3501     14.1603      6.4102      2.7233      0.0675     -0.3655     49.4619  
 14371.0000    -19.2516    349.8853   1604.2506   1421.4619     13.5619      6.4088      2.7273      0.0679     -0.3571     49.3641  
 14371.5000    -19.6937    433.4929   1624.9178   1426.9631     13.9867      6.4073      2.7300      0.0679     -0.3488     49.2771  
 14372.0000    -19.8725    494.2021   1635.4180   1427.2937     14.3610      6.4059      2.7324      0.0681     -0.3405     49.2926  
 14372.5000    -19.8961    434.7830   1624.1473   1427.6237     14.5695      6.4045      2.7288      0.0682     -0.3321     49.3346  
 14373.0000    -20.6355    382.5079   1566.2091   1427.9536     14.8518      6.4031      2.7250      0.0668     -0.2353     49.3273  
 14373.5000    -21.1220    353.6906   1285.7834   1326.8324     15.4762      6.4016      2.7355      0.0647     -0.1608     49.0561  
 14374.0000    -21.0479    399.9248   1055.5667    889.9232     15.8698      6.4002      2.7468      0.0625     -0.1906     48.8178  
 14374.5000    -22.0306    459.6805   1283.9452    422.8609     15.6234      6.3988      2.7552      0.0603     -0.2204     48.6394  
 14375.0000    -23.3848    514.2322   1652.0087    722.2029     14.7958      6.3974      2.7723      0.0597     -0.2514     48.5181  
 14375.5000    -24.0240    401.9561   1676.5702   1400.2495     13.6326      6.3959      2.7827      0.0608     -0.3336     48.5956  
 14376.0000    -24.8129    314.1943   1674.5337   1434.7207     13.0680      6.3945      2.7859      0.0623     -0.3798     48.6187  
 14376.5000    -25.5981    245.5940   1655.4059   1447.6064     13.4899      6.3931      2.7878      0.0656     -0.4049     48.5459  
 14377.0000    -26.1313    206.3731   1500.2163   1428.8876     15.0909      6.3916      2.7617      0.0690     -0.4326     48.6032  
 14377.5000    -25.2755    176.4490    971.0546   1325.8939     17.4302      6.3902      2.7676      0.0712     -0.4512     48.7370  
 14378.0000    -25.6805    156.7063    215.1444    305.6128     20.7024      6.3888      2.7712      0.0717     -0.4368     48.9628  
 14378.5000    -26.7394    148.8403    151.0010    108.0902     23.5914      6.3874      2.7883      0.0706     -0.4097     49.2611  
 14379.0000    -28.0873    141.3692    188.7056    217.7302     23.5220      6.3859      2.8044      0.0690     -0.3467     49.4165  
 14379.5000    -29.7436    134.2731    226.0900   1231.0049     21.2349      6.3845      2.8232      0.0655     -0.3157     49.4353  
 14380.0000    -31.8202    127.5332    258.0712    819.7025     18.4069      6.3831      2.8163      0.0620     -0.2757     49.3770  
 14380.5000    -33.5610    153.3875    338.6742    425.2702     16.9122      6.3817      2.7821      0.0595     -0.1970     49.5102  
 14381.0000    -35.0853    186.3555    854.8474    755.9608     16.9649      6.3802      2.7479      0.0582     -0.1775     49.6356  
 14381.5000    -37.1929    226.4092   1496.1797   1412.0687     16.2550      6.3788      2.7437      0.0569     -0.1630     49.7402  
 14382.0000    -38.6602    285.9824   1523.9561   1406.3146     14.4894      6.3774      2.7419      0.0555     -0.1080     49.9451  
 14382.5000    -40.1275    377.5715   1552.2480   1400.5840     13.5087      6.3759      2.7647      0.0542     -0.0531     50.1477  
 14383.0000    -42.6228    498.4930   1581.0662   1394.8766     14.0774      6.3745      2.7652      0.0531     -0.0372     50.1841  
 14383.5000    -45.8701    494.6897   1610.4185   1393.9281     14.6759      6.3731      2.7522      0.0520     -0.0313     50.1658  
 14384.0000    -47.3007    455.1479   1572.5466   1397.5117     14.7767      6.3717      2.7339      0.0509     -0.0876     50.0437  
 14384.5000    -49.5780    409.1326   1518.3418   1401.1046     15.0514      6.3702      2.7359      0.0513     -0.1230     49.8660  
 14385.0000    -52.4441    372.5282   1526.2107   1404.7067     16.0897      6.3688      2.7481      0.0534     -0.1132     49.7155  
 14385.5000    -54.7221    319.3727   1579.2411   1408.3180     17.3976      6.3674      2.7604      0.0563     -0.1415     49.5673  
 14386.0000    -56.7234    282.6279   1550.6230   1409.7885     18.8762      6.3660      2.7726      0.0591     -0.1944     49.5923  
 14386.5000    -58.8041    225.5390   1334.0779   1386.8151     20.2215      6.3645      2.7771      0.0609     -0.2325     49.8461  
 14387.0000    -61.1114    207.2013    900.4447   1034.6208     21.3918      6.3631      2.7732      0.0627     -0.2200     50.1261  
 14387.5000    -62.7228    208.5914    399.3620    489.7407     22.2663      6.3617      2.7647      0.0634     -0.1861     50.2667  
 14388.0000    -65.5133    209.2519    230.8228    385.3332     22.4405      6.3602      2.7568      0.0590     -0.1252     50.1293  
 14388.5000    -68.8788    208.2169    463.9630    686.0732     21.3420      6.3588      2.7488      0.0549     -0.0642     49.9369  
 14389.0000    -70.7960    207.1871   1204.1738   1184.0660     18.7816      6.3585      2.7408      0.0514     -0.0032     49.8692  
 14389.5000    -72.9181    206.1623   1576.1810   1434.1553     14.9243      6.3593      2.7332      0.0478      0.0578     49.9025  
 14390.0000    -74.9879    207.0073   1592.8518   1437.4706     12.6065      6.3600      2.7359      0.0449      0.0943     50.1972  
 14390.5000    -76.4837    222.1245   1601.6080   1440.7936     11.5224      6.3608      2.7426      0.0434      0.1212     50.5495  
