~VERSION INFORMATION
 VERS.                      2.00:        CWLS LOG ASCII STANDARD - VERSION 2.00
 WRAP.                        NO:        ONE LINE PER DEPTH STEP
~WELL INFORMATION
#MNEM.UNIT               DATA            INFORMATION
#----------          ------------        ------------------------------
 STRT.F                  92.0000:        START DEPTH
 STOP.F                7738.0000:        STOP DEPTH
 STEP.F                   0.5000:        STEP VALUE
 NULL.                 -999.2500:        NULL VALUE
 COMP.                      13.5:        COMPANY  
 WELL.           EAST SIMPSON #1:        WELL     
 FLD .                   WILDCAT:        FIELD    
 LOC .              18  18N  10W:        LOCATION   
 CNTY.                  N. SLPOE:        COUNTY  
 STAT.                    ALASKA:        STATE   
 CTRY.                       USA:        COUNTRY 
 DATE.                   2/22/79:        LOG DATE 
 API .              502792000500:        UNIQUE WELL IDENTIFIER 
 OPER.                      13.5:        OPERATOR  
 SRVC.              Schlumberger:        SERVICE COMPANY 
 UWI .              502792000500:        UNIQUE WELL ID 
 LAT .                    0.0000:        LATITUDE
 LON .                    0.0000:        LONGITUDE
 DIGS.          Center Line Data:        DIGITIZING COMPANY 
~CURVE INFORMATION      
#MNEM.UNIT            API CODE           CURVE DESCRIPTION
#---------          -------------        ------------------------------
 DEPT.F                         :        1  DEPTH
 SP  .MV                        :        2
 ILD .OHMM                      :        3
 ILM .OHMM                      :        4
 LL8 .OHMM                      :        5
 CALI.IN                        :        6
 GR  .GAPI                      :        7
 DRHO.G/C3                      :        8
 RHOB.G/C3                      :        9
 NPHI.%                         :       10
 DT  .US/F                      :       11
~PARAMETER INFORMATION       
#MNEM.UNIT              VALUE            DESCRIPTION OF MNEMONIC
#---------          -------------        ------------------------------
 EKB .F                  30.0000:        KELLY BUSHING
 TD  .F                   0.0000:        TOTAL DEPTH
 BHT .F                   0.0000:        BOTTOM HOLE TEMPERATURE
 BS  .                   17.5000:        BIT SIZE
 FD  .                   10.2000:        FLUID DENSITY
 CSIZ.                   20.0000:        CASING SIZE
 CBD .F                  90.0000:        CASING DRILLER 1
 CBL .F                  92.0000:        CASING LOGGER 1
 DFT .                       Gel:        TYPE FLUID IN HOLE
 DFV .                   70.0000:        VISCOSITY
 DFPH.                    8.0000:        PH
 DFL .                   12.0000:        FLUID LOSS
 RMS .                    3.6000:        RM
 MST .F                  75.0000:        RM MEAS. TEMP.
 RMF .                    2.2100:        RMF
 MFST.F                  75.0000:        RMF MEAS. TEMP.
 RMC .                    2.1600:        RMC
 MCST.F                  75.0000:        RMC MEAS. TEMP.
 UWI .              502792000500:        UNIQUE WELL ID
~OTHER INFORMATION
~A    DEPTH          SP         ILD         ILM         LL8        CALI          GR        DRHO        RHOB        NPHI          DT  
# ...
  6692.0000    -20.3802      3.3416      3.3145      4.6411     14.9496     80.4135      0.1815      2.2740     32.2438     85.6735  
  6692.5000    -20.4298      3.3489      3.3154      4.5044     14.5573     80.0946      0.1770      2.3259     31.2946     85.9433  
  6693.0000    -20.3989      3.3646      3.3164      4.3248     14.7606     77.8660      0.1683      2.3292     29.3601     86.7909  
  6693.5000    -20.3377      3.3803      3.3174      4.0920     15.1283     75.2677      0.1458      2.2885     28.1698     87.8184  
  6694.0000    -20.2765      3.3960      3.3184      4.3225     14.5802     77.8467      0.1375      2.3200     29.3020     87.7463  
  6694.5000    -20.2153      3.4119      3.3346      4.5651     15.1289     80.6225      0.1822      2.3621     31.6504     86.9214  
  6695.0000    -20.1559      3.4509      3.3862      4.6846     15.3880     82.3500      0.1784      2.3432     31.6750     86.4308  
  6695.5000    -20.0945      3.4909      3.4386      4.7001     15.5986     82.8548      0.1995      2.3572     29.4874     85.8239  
  6696.0000    -20.0929      3.5314      3.4918      4.6443     15.3596     83.5488      0.1957      2.3499     28.2608     85.5413  
  6696.5000    -20.1161      3.5723      3.5458      4.7457     15.3769     84.6032      0.1821      2.3282     28.4468     85.8905  
  6697.0000    -20.1393      3.6137      3.5812      4.8395     15.4318     83.6793      0.1730      2.3325     28.5824     85.7685  
  6697.5000    -20.1625      3.6556      3.6168      4.9679     14.9851     81.3301      0.1685      2.3534     29.2809     85.7751  
  6698.0000    -20.1858      3.6862      3.6527      4.9845     14.1022     78.4455      0.1670      2.3745     30.7254     85.6489  
  6698.5000    -20.2090      3.7090      3.6889      4.9738     14.4658     76.7009      0.1672      2.3927     30.9963     85.1960  
  6699.0000    -20.2322      3.7319      3.7144      5.0168     14.3181     75.1951      0.1698      2.3683     29.8588     85.0490  
  6699.5000    -20.2521      3.7550      3.7295      5.0466     14.5511     74.2694      0.1721      2.3614     29.1409     85.2214  
  6700.0000    -20.2557      3.7782      3.7448      5.0485     14.4217     75.5714      0.1570      2.3559     30.1967     85.3937  
  6700.5000    -20.2592      3.8015      3.7601      5.0460     14.1172     78.2273      0.1238      2.3505     30.4661     85.5661  
  6701.0000    -20.2628      3.8250      3.7755      5.0249     14.2695     79.7603      0.1210      2.3710     29.5887     85.7256  
  6701.5000    -20.2619      3.8330      3.7873      5.0040     14.8618     80.6065      0.1412      2.4161     28.5841     86.0240  
  6702.0000    -20.2323      3.8193      3.7696      4.9338     14.9974     80.8530      0.1542      2.4127     28.2870     86.0876  
  6702.5000    -20.2027      3.8057      3.7519      4.8523     14.4261     78.3140      0.1593      2.3818     28.4042     85.7219  
  6703.0000    -20.1731      3.7921      3.7343      4.8724     14.6214     76.2420      0.1381      2.3044     28.9457     85.3903  
  6703.5000    -20.1176      3.7786      3.7168      5.0618     14.9876     76.0811      0.1253      2.2936     29.0241     84.9515  
  6704.0000    -20.0443      3.7651      3.6823      5.1568     15.2554     78.2209      0.1654      2.3008     28.9196     84.5880  
  6704.5000    -19.9709      3.7483      3.6168      5.1503     15.4997     79.0637      0.1496      2.2440     29.3919     84.8272  
  6705.0000    -19.8975      3.6898      3.5525      5.0708     15.3558     76.9911      0.1262      2.2495     30.2471     85.2120  
  6705.5000    -19.8728      3.6323      3.4888      4.8754     15.3823     77.4997      0.1084      2.2835     29.5193     85.8921  
  6706.0000    -19.8706      3.5756      3.4032      4.5475     15.0182     77.6098      0.1082      2.3319     29.7170     86.6812  
  6706.5000    -19.8683      3.5198      3.3196      4.3921     15.5104     74.8549      0.1223      2.3869     30.1820     87.0860  
  6707.0000    -19.8660      3.4621      3.2529      4.3527     15.5346     73.2826      0.1377      2.3896     31.6768     86.9862  
  6707.5000    -19.8638      3.3992      3.2171      4.3724     15.3545     75.3933      0.1471      2.3692     33.0349     87.3733  
  6708.0000    -19.8615      3.3376      3.1817      4.3160     15.1213     78.8619      0.1588      2.3579     32.8159     88.2669  
  6708.5000    -19.8592      3.2770      3.1466      4.1883     15.3731     77.6392      0.1740      2.3180     32.9366     88.6691  
  6709.0000    -19.8569      3.2175      3.1120      4.1725     15.4122     74.9161      0.1843      2.2703     34.1060     88.9698  
  6709.5000    -19.8547      3.1592      3.0752      4.1428     14.8970     72.8064      0.1347      2.2576     34.7976     89.6143  
  6710.0000    -19.8443      3.1319      3.0615      4.0717     14.5925     71.5413      0.1110      2.3215     34.5970     89.7448  
  6710.5000    -19.8163      3.1233      3.0635      4.0229     14.9047     71.8148      0.1117      2.3698     32.0693     89.4014  
  6711.0000    -19.7883      3.1148      3.0770      4.0919     15.6121     72.8719      0.1318      2.3474     30.2019     88.5773  
  6711.5000    -19.7603      3.1063      3.1061      4.2114     15.1743     76.8850      0.1235      2.2662     29.7288     88.2605  
  6712.0000    -19.7322      3.0979      3.1330      4.5579     15.9579     80.7079      0.1144      2.2180     31.5954     87.8385  
  6712.5000    -19.7042      3.0894      3.1132      4.4632     15.1428     79.7686      0.1283      2.2173     34.3069     87.0487  
  6713.0000    -19.6791      3.0724      3.1031      4.2794     15.2167     79.3671      0.1277      2.2442     34.7683     87.2444  
  6713.5000    -19.6547      3.0522      3.0853      4.1880     15.5354     79.1370      0.1328      2.2687     34.4915     87.7335  
  6714.0000    -19.6303      3.0321      3.0596      4.1293     15.5415     75.8184      0.1305      2.3081     35.5745     87.8600  
  6714.5000    -19.6059      3.0121      3.0138      4.1091     15.5138     72.8871      0.1754      2.3549     35.8665     87.9061  
  6715.0000    -19.5584      2.9858      2.9537      4.0918     15.7081     71.4352      0.2138      2.3270     36.9678     88.3678  
  6715.5000    -19.4968      2.9012      2.9142      4.0510     15.4749     73.9528      0.2022      2.2599     37.1451     89.5477  
  6716.0000    -19.4352      2.8204      2.8273      3.9244     15.9138     77.9321      0.1964      2.2724     35.7280     91.3724  
  6716.5000    -19.3737      2.7825      2.7313      3.7830     16.2211     81.5236      0.2051      2.2987     34.4358     92.3428  
  6717.0000    -19.3121      2.7450      2.6785      3.7253     16.2424     81.9922      0.1967      2.2767     35.5522     93.1158  
  6717.5000    -19.2538      2.7081      2.6324      3.8632     16.2058     79.8987      0.1833      2.2746     37.8011     94.2012  
  6718.0000    -19.2265      2.6717      2.5872      3.6285     16.0010     77.4677      0.1774      2.2509     38.2043     94.9738  
  6718.5000    -19.1991      2.6357      2.5427      3.4536     16.3584     79.7014      0.1536      2.1971     36.2191     95.1544  
  6719.0000    -19.1717      2.6003      2.4990      3.4222     16.6611     80.4339      0.1612      2.1755     37.4521     94.9350  
  6719.5000    -19.1444      2.5653      2.4560      3.5412     16.8986     77.4992      0.1536      2.1875     40.1044     94.2154  
  6720.0000    -19.1170      2.5523      2.4591      3.6641     16.2683     74.2923      0.1448      2.2342     39.2958     93.5788  
  6720.5000    -19.0897      2.5961      2.4912      3.7404     16.1899     72.9898      0.1323      2.2711     36.7645     92.9585  
  6721.0000    -19.0623      2.6406      2.5238      3.8246     16.2100     74.5738      0.1263      2.2815     34.0913     92.1473  
  6721.5000    -18.9660      2.6858      2.5608      4.0290     15.8976     76.0739      0.1609      2.3097     33.3159     90.3980  
