~VERSION INFORMATION
 VERS.                      2.00:        CWLS LOG ASCII STANDARD - VERSION 2.00
 WRAP.                        NO:        ONE LINE PER DEPTH STEP
~WELL INFORMATION
#MNEM.UNIT               DATA            INFORMATION
#----------          ------------        ------------------------------
 STRT.F                  81.0000:        START DEPTH
 STOP.F               15400.0000:        STOP DEPTH
 STEP.F                   0.5000:        STEP VALUE
 NULL.                 -999.2500:        NULL VALUE
 COMP. USGS/NPR HUSKY OIL OPERAT:        COMPANY  
 WELL.     IKPIKPUK TEST WELL #1:        WELL     
 FLD .                   WILDCAT:        FIELD    
 LOC .              25  13N  10W:        LOCATION   
 CNTY.               NORTH SLPOE:        COUNTY  
 STAT.                    ALASKA:        STATE   
 CTRY.                       USA:        COUNTRY 
 DATE.                  11/29/78:        LOG DATE 
 API .              502792000400:        UNIQUE WELL IDENTIFIER 
 OPER. USGS/NPR HUSKY OIL OPERAT:        OPERATOR  
 SRVC.              Schlumberger:        SERVICE COMPANY 
 UWI .              502792000400:        UNIQUE WELL ID 
 LAT .                    0.0000:        LATITUDE
 LON .                    0.0000:        LONGITUDE
 DIGS.          Center Line Data:        DIGITIZING COMPANY 
~CURVE INFORMATION      
#MNEM.UNIT            API CODE           CURVE DESCRIPTION
#---------          -------------        ------------------------------
 DEPT.F                         :        1  DEPTH
 SP  .MV                        :        2
 ILD .OHMM                      :        3
 ILM .OHMM                      :        4
 LL8 .OHMM                      :        5
 GR  .GAPI                      :        6
 CALI.IN                        :        7
 RHOB.G/C3                      :        8
 DRHO.G/C3                      :        9
 NPHI.%                         :       10
 DT  .US/F                      :       11
~PARAMETER INFORMATION       
#MNEM.UNIT              VALUE            DESCRIPTION OF MNEMONIC
#---------          -------------        ------------------------------
 EKB .F                  52.0000:        KELLY BUSHING
 TD  .F               15481.0000:        TOTAL DEPTH
 BHT .F                   0.0000:        BOTTOM HOLE TEMPERATURE
 BS  .                   17.5000:        BIT SIZE
 FD  .                    9.0000:        FLUID DENSITY
 CSIZ.                   30.0000:        CASING SIZE
 CBD .F                 100.0000:        CASING DRILLER 1
 CBL .F                 101.0000:        CASING LOGGER 1
 DFT .                       Gel:        TYPE FLUID IN HOLE
 DFV .                   60.0000:        VISCOSITY
 DFPH.                    8.5000:        PH
 DFL .                   18.0000:        FLUID LOSS
 RMS .                    3.7300:        RM
 MST .F                  66.0000:        RM MEAS. TEMP.
 RMF .                    4.3900:        RMF
 MFST.F                  58.0000:        RMF MEAS. TEMP.
 RMC .                    2.5000:        RMC
 MCST.F                  57.0000:        RMC MEAS. TEMP.
 UWI .              502792000400:        UNIQUE WELL ID
~OTHER INFORMATION
~A    DEPTH          SP         ILD         ILM         LL8          GR        CALI        RHOB        DRHO        NPHI          DT  
# ...
  8241.0000    -22.3495      3.5834      3.5116      3.5192     50.5888     17.9461      2.2719      0.0870     23.3192     85.2473  
  8241.5000    -22.3961      3.4256      3.3655      3.4269     51.6581     17.9479      2.2561      0.0572     25.0143     85.1362  
  8242.0000    -22.4768      3.2780      3.2255      3.4324     52.3838     17.9497      2.2557      0.0479     26.9571     83.8192  
  8242.5000    -22.4307      3.1541      3.0913      3.5355     52.8487     17.9515      2.2344      0.0355     28.6176     84.2873  
  8243.0000    -22.1810      3.0348      2.9772      3.5843     53.4194     17.9533      2.2164      0.0326     30.3694     82.1825  
  8243.5000    -21.9236      2.9114      2.8716      3.5858     53.4393     17.9551      2.1898      0.0359     31.8884     83.7749  
  8244.0000    -21.8163      2.8531      2.7697      3.3993     53.4309     17.9569      2.2155      0.0350     31.9116     86.0167  
  8244.5000    -22.0391      2.6483      2.6714      3.1431     53.4812     17.9587      2.2513      0.0585     31.4894     88.2355  
  8245.0000    -21.9929      2.5417      2.5766      2.9358     53.9197     17.9605      2.2616      0.0824     31.5917     90.3561  
  8245.5000    -21.9734      2.4493      2.4852      2.8556     55.7814     17.9623      2.2228      0.0678     32.7103     93.5740  
  8246.0000    -22.1665      2.4098      2.3970      2.7868     57.7214     17.9641      2.1844      0.0448     33.5904     93.0403  
  8246.5000    -22.2413      2.3978      2.3384      2.7810     58.7769     17.9659      2.1768      0.0204     33.1131     92.2364  
  8247.0000    -22.0330      2.4193      2.4048      2.9031     59.5619     17.9677      2.1877      0.0229     32.7727     90.5722  
  8247.5000    -21.6819      2.4575      2.4730      3.0459     59.8945     17.9695      2.1903      0.0197     32.9070     85.0826  
  8248.0000    -21.4745      2.5236      2.5432      3.1710     59.8842     17.9713      2.2203      0.0187     33.6896     83.1325  
  8248.5000    -21.3362      2.6108      2.6154      3.3013     59.7988     17.9731      2.2315      0.0217     34.5947     82.3625  
  8249.0000    -21.2568      2.6989      2.6896      3.4220     59.4958     17.9749      2.2170      0.0255     34.3736     84.3771  
  8249.5000    -21.2822      2.7890      2.7660      3.4798     58.9705     17.9767      2.2385      0.0215     33.7037     86.1798  
  8250.0000    -21.2490      2.8137      2.8252      3.4967     58.7495     17.9785      2.2461      0.0337     33.6600     88.0429  
  8250.5000    -21.2279      2.8376      2.8371      3.5199     58.7977     17.9803      2.2446      0.0329     34.5179     88.5067  
  8251.0000    -21.2873      2.8617      2.8490      3.4906     57.8167     17.9821      2.3074      0.0375     35.3759     90.4236  
  8251.5000    -21.4771      2.8860      2.8610      3.4565     56.5613     17.9839      2.3485      0.0640     35.7160     93.0428  
  8252.0000    -21.6088      2.9105      2.8730      3.4417     55.4270     17.9857      2.3409      0.0637     35.3053     93.8980  
  8252.5000    -21.4511      2.9352      2.8850      3.4525     55.6324     17.9875      2.3334      0.0631     34.9681     94.7311  
  8253.0000    -21.1714      2.9601      2.8971      3.4896     56.0995     17.9893      2.3305      0.0459     34.9666     92.6559  
  8253.5000    -20.9428      2.9852      2.8990      3.5349     55.9226     17.9911      2.3346      0.0294     35.0626     90.6624  
  8254.0000    -21.0115      2.9967      2.8990      3.5943     55.2497     17.9929      2.2967      0.0312     35.2834     90.1530  
  8254.5000    -21.1327      2.9679      2.8990      3.7467     54.1990     17.9947      2.2502      0.0314     35.7273     89.6698  
  8255.0000    -20.9541      2.9395      2.8660      3.8422     54.3071     17.9965      2.2155      0.0262     36.5228     88.2600  
  8255.5000    -20.8263      2.9113      2.7912      3.8186     53.4273     17.9983      2.2528      0.0490     38.0976     88.8023  
  8256.0000    -20.6609      2.8833      2.7183      3.5894     51.7528     18.0001      2.3021      0.0468     38.8931     90.1466  
  8256.5000    -20.6025      2.8229      2.6473      3.3787     50.8137     18.0019      2.3148      0.0421     39.2649     91.2466  
  8257.0000    -20.7301      2.7380      2.5782      3.2581     49.6505     18.0037      2.3050      0.0387     40.2693     92.3271  
  8257.5000    -20.8112      2.6556      2.5109      3.1781     47.8560     18.0055      2.2818      0.0453     40.9234     92.7894  
  8258.0000    -20.9546      2.5775      2.4457      3.1887     47.5108     18.0073      2.2937      0.0553     41.6710     92.4011  
  8258.5000    -20.7638      2.5024      2.4395      3.2205     48.7808     18.0091      2.2965      0.0487     42.5582     92.1486  
  8259.0000    -20.8053      2.4508      2.4333      3.2764     50.9387     18.0109      2.2830      0.0239     43.4454     92.0287  
  8259.5000    -21.0379      2.4214      2.4272      3.2649     53.4697     15.8935      2.2791      0.0201     42.8891     91.4505  
  8260.0000    -21.2772      2.4198      2.4272      3.1983     56.2186     15.6510      2.2831      0.0129     42.0899     91.2076  
  8260.5000    -21.2726      2.4229      2.4307      3.1341     57.9654     15.9869      2.2693      0.0285     40.8710     91.6581  
  8261.0000    -21.0751      2.4488      2.4341      3.0843     59.2151     16.1650      2.2677      0.0466     39.8231     92.8013  
  8261.5000    -20.8659      2.4663      2.4376      3.1548     60.1079     17.4002      2.2842      0.0519     39.0731     93.6550  
  8262.0000    -20.9020      2.4848      2.4448      3.2721     61.6291     17.9532      2.3015      0.0599     37.8699     93.5887  
  8262.5000    -21.0154      2.4901      2.4534      3.3230     62.6607     17.5886      2.3463      0.0720     37.2960     93.0434  
  8263.0000    -20.8668      2.4957      2.4621      3.2993     61.9922     16.9718      2.3892      0.0872     37.4520     91.4014  
  8263.5000    -20.7048      2.5299      2.4708      3.2903     59.8901     16.2442      2.4078      0.0893     37.5097     90.4359  
  8264.0000    -20.7332      2.5426      2.4795      3.3475     56.6591     16.1654      2.4218      0.0765     36.2052     89.6743  
  8264.5000    -20.6791      2.5554      2.4883      3.3983     53.4419     16.5925      2.4313      0.0633     35.5035     87.9445  
  8265.0000    -20.7672      2.5683      2.4970      3.3122     52.2349     16.9649      2.4271      0.0798     35.7722     87.3013  
  8265.5000    -20.8843      2.5812      2.5059      3.1999     50.9835     17.9560      2.4023      0.0765     35.7464     88.4589  
  8266.0000    -21.0955      2.5942      2.5147      3.1966     50.2430     17.7672      2.3868      0.0656     35.5362     90.8141  
  8266.5000    -21.2338      2.6072      2.5309      3.2026     53.5755     17.1588      2.3930      0.0820     35.9882     91.7359  
  8267.0000    -21.2232      2.6203      2.5514      3.2074     58.0005     17.5339      2.3872      0.0936     36.0700     91.6015  
  8267.5000    -20.9960      2.6211      2.5542      3.2226     61.3418     17.6200      2.3695      0.0933     35.8196     91.7125  
  8268.0000    -21.0385      2.6210      2.5696      3.2598     63.9942     16.4279      2.3770      0.0752     35.5886     91.6505  
  8268.5000    -21.0992      2.6208      2.5733      3.3122     66.6493     17.1239      2.3947      0.0636     35.4584     92.8762  
  8269.0000    -21.1060      2.6206      2.5402      3.3449     68.8204     17.9581      2.3898      0.0561     34.9360     94.0518  
  8269.5000    -20.9057      2.6205      2.5736      3.2892     68.5704     17.6901      2.3673      0.0547     34.7185     94.4972  
  8270.0000    -20.9989      2.6045      2.5497      3.2322     68.2610     16.6795      2.3616      0.0447     34.6643     95.0676  
  8270.5000    -21.1545      2.5760      2.4975      3.1958     67.9198     17.9543      2.3738      0.0503     34.6264     95.6254  
