~VERSION INFORMATION
 VERS.                           2.00:        CWLS LOG ASCII STANDARD - VERSION 2.00
 WRAP.                             NO:        ONE LINE PER DEPTH STEP
~WELL INFORMATION
#MNEM.UNIT                   DATA             INFORMATION
#----------             --------------        ------------------------------
 STRT.F                      100.0000:        START DEPTH
 STOP.F                    13172.0000:        STOP DEPTH
 STEP.F                        0.5000:        STEP VALUE
 NULL.                      -999.2500:        NULL VALUE
 COMP.    USGS/NPR HUSKY OIL OPERATOR:        COMPANY  
 LOC .                   25   1S   1W:        LOCATION   
 DATE.                         7/5/79:        LOG DATE 
 WELL.            SEABEE TEST WELL #1:        WELL     
 UWI .                   502872000700:        UNIQUE WELL ID 
 API .                   502872000700:        UNIQUE WELL IDENTIFIER 
 FLD .                        WILDCAT:        FIELD    
 CNTY.                       N. SLOPE:        COUNTY  
 STAT.                         ALASKA:        STATE   
 CTRY.                            USA:        COUNTRY 
 OPER.    USGS/NPR HUSKY OIL OPERATOR:        OPERATOR  
 SRVC.                   SCHLUMBERGER:        SERVICE COMPANY 
 LAT .                         0.0000:        LATITUDE
 LON .                         0.0000:        LONGITUDE
 DIGS.               CENTER LINE DATA:        DIGITIZING COMPANY 
~CURVE INFORMATION      
#MNEM        .UNIT         API CODE           CURVE DESCRIPTION
#-----------------      --------------        ------------------------------
 DEPT        .F                      :        1  DEPTH
 SP          .MV                     :        2  
 ILD         .OHMM                   :        3  
 ILM         .OHMM                   :        4  
 LL8         .OHMM                   :        5  
 CALI        .IN                     :        6  
 GR          .GAPI                   :        7  
 RHOB        .G/C3                   :        8  
 DRHO        .G/C3                   :        9  
 DPHI        .%                      :        10 
 NPHI        .%                      :        11 
 DT          .US/F                   :        12 
~PARAMETER INFORMATION       
#MNEM.UNIT                  VALUE             DESCRIPTION OF MNEMONIC
#---------             ---------------        ------------------------------
 EKB .F                      322.0000:        KELLY BUSHING
 TD  .F                    15611.0000:        TOTAL DEPTH
 BHT .F                       96.0000:        BOTTOM HOLE TEMPERATURE
 BS  .                        17.5000:        BIT SIZE
 FD  .                         9.7000:        FLUID DENSITY
 CSIZ.                        30.0000:        CASING SIZE
 CBD .F                      122.0000:        CASING DRILLER 1
 CBL .F                      125.0000:        CASING LOGGER 1
 DFT .                            Gel:        TYPE FLUID IN HOLE
 DFV .                        80.0000:        VISCOSITY
 DFPH.                         8.5000:        PH
 DFL .                         8.0000:        FLUID LOSS
 RMS .                         4.2600:        RM
 MST .F                       86.0000:        RM MEAS. TEMP.
 RMF .                         4.9100:        RMF
 MFST.F                       64.0000:        RMF MEAS. TEMP.
 RMC .                         4.8300:        RMC
 MCST.F                       64.0000:        RMC MEAS. TEMP.
~OTHER INFORMATION
~A    DEPTH          SP         ILD         ILM         LL8        CALI          GR        RHOB        DRHO        DPHI        NPHI          DT  
# ...
 11072.5000    -17.2306      4.4765      4.2161      5.7534      6.9742     34.8384      2.2911      0.0418     -8.0643     40.0953     87.6748  
 11073.0000    -17.5129      4.4853      4.2735      5.7731      6.9833     34.0866      2.2900      0.0327     -8.2138     39.8373     87.4129  
 11073.5000    -17.7865      4.5404      4.3784      5.7887      6.9800     34.5176      2.2912      0.0275    -10.3318     39.2879     87.4188  
 11074.0000    -17.9588      4.6079      4.4896      5.7740      6.9683     35.3266      2.2983      0.0537    -10.4351     38.4340     87.6721  
 11074.5000    -18.0906      4.6764      4.5415      5.8366      6.9803     35.8940      2.3067      0.0647     -9.7644     37.8057     87.9390  
 11075.0000    -18.1262      4.7459      4.5384      5.9263      6.9695     35.6551      2.3127      0.0576     -9.7174     37.8134     87.9561  
 11075.5000    -18.0995      4.7649      4.5166      6.0391      6.9607     35.3151      2.3159      0.0511     -9.7467     37.6475     87.9955  
 11076.0000    -18.0492      4.7300      4.4534      6.0361      6.9632     34.8226      2.3185      0.0600     -7.9505     37.5555     88.0865  
 11076.5000    -18.0855      4.7300      4.3907      6.0173      6.9774     35.2097      2.3187      0.0245     -7.3719     37.8690     88.1557  
 11077.0000    -18.1553      4.7300      4.3988      5.9643      6.9655     35.5783      2.3105      0.0152     -8.3726     37.7937     88.1615  
 11077.5000    -18.1082      4.7785      4.5350      5.7745      6.9626     35.1599      2.3155      0.0306     -9.7966     38.2828     88.2487  
 11078.0000    -17.8558      4.8736      4.7048      5.6021      6.9613     34.8036      2.3105      0.0504    -10.1126     39.1113     88.7702  
 11078.5000    -17.7582      4.9684      4.8160      5.6712      6.9645     34.5314      2.3007      0.0595     -9.9327     40.0801     89.7023  
 11079.0000    -18.0659      5.0412      4.8898      6.2099      6.9624     34.1411      2.2910      0.0565     -9.8397     38.4240     90.2871  
 11079.5000    -18.2270      5.1151      4.9615      7.5901      6.9602     33.2432      2.3003      0.0562    -11.9846     37.2216     90.4636  
 11080.0000    -18.2423      5.1900      5.0343      7.0255      6.9488     32.9380      2.3143      0.0865    -12.6833     36.9679     90.3886  
 11080.5000    -18.2531      5.1539      5.0039      6.2918      6.9585     33.0256      2.3283      0.0978    -12.5879     37.8682     88.9793  
 11081.0000    -18.3606      5.1126      4.9638      6.0120      6.9641     33.4921      2.3161      0.0979    -11.7047     38.5936     87.7772  
 11081.5000    -18.2790      5.0536      4.8825      5.9648      6.9610     33.9690      2.3077      0.0857    -11.3312     39.1575     87.6486  
 11082.0000    -18.1973      4.9066      4.7406      6.0871      6.9575     34.0595      2.3002      0.0779    -10.8060     39.4060     87.7058  
 11082.5000    -18.0037      4.7639      4.5751      6.1465      6.9589     34.0532      2.2979      0.0725    -11.7967     39.0992     87.7545  
 11083.0000    -17.9512      4.6253      4.3134      6.0412      6.9636     34.7503      2.2955      0.0860    -10.7350     40.0144     87.7426  
 11083.5000    -18.0108      4.5055      4.0666      5.8625      6.9589     36.0349      2.2931      0.0719     -9.9299     41.3180     87.7099  
 11084.0000    -18.0523      4.4150      3.8799      5.5974      6.9569     36.9487      2.2815      0.0579     -7.7142     42.4283     87.7143  
 11084.5000    -18.0430      4.3720      4.1509      5.3237      6.9671     34.6685      2.2598      0.0278     -6.3731     43.3183     87.7369  
 11085.0000    -17.9360      4.3952      4.4733      5.5667      6.9682     32.7980      2.2477      0.0046     -6.1226     43.6847     87.7080  
 11085.5000    -17.8375      4.4437      4.4389      6.2461      6.9737     33.7900      2.2494     -0.0044     -7.7679     40.6919     87.7085  
 11086.0000    -17.8003      4.5007      4.3838      6.9544      6.9500     36.4841      2.2703      0.0190    -10.3530     38.2751     87.7083  
 11086.5000    -17.7683      4.5227      4.2966      6.8470      6.9609     39.8431      2.2965      0.0582    -10.4650     39.5711     87.7056  
 11087.0000    -17.5656      4.5829      4.2032      6.3876      6.9604     37.8804      2.3047      0.0666     -8.2907     40.9434     87.7078  
 11087.5000    -17.3303      4.7615      4.3234      5.8743      6.9599     34.3415      2.2813      0.0357     -7.6441     41.2885     87.7100  
 11088.0000    -17.2208      4.8954      4.7547      6.1357      6.9601     34.4611      2.2803      0.0216     -8.6582     39.8811     87.7094  
 11088.5000    -17.1657      4.9179      4.7767      6.6652      6.9679     35.0678      2.2980      0.0346    -10.2942     38.5332     87.7058  
 11089.0000    -17.0212      4.9097      4.7638      6.7554      6.9678     34.8068      2.3067      0.0580    -11.0245     36.7039     87.7022  
 11089.5000    -16.8930      4.8883      4.7480      6.6888      6.9788     34.5655      2.3200      0.0739    -10.9422     35.0639     87.6986  
 11090.0000    -16.9617      4.8416      4.6969      6.4401      6.9711     34.6061      2.3400      0.0730     -9.6271     33.8951     87.6950  
 11090.5000    -17.0036      4.7854      4.6457      6.4114      6.9606     34.6006      2.3575      0.0536     -9.3603     33.2203     87.6970  
 11091.0000    -16.9019      4.6936      4.5280      6.3797      6.9526     34.6620      2.3632      0.0479     -9.2891     33.2313     87.7122  
 11091.5000    -16.9476      4.5289      4.3643      6.2156      6.9606     35.2231      2.3621      0.0471     -9.3249     34.8773     87.6878  
 11092.0000    -17.0502      4.3652      4.2066      5.9880      6.9574     35.5489      2.3502      0.0484     -9.7212     37.3707     87.6582  
 11092.5000    -17.1738      4.2074      4.0546      5.5385      6.9547     35.4907      2.3131      0.0531    -10.4627     40.6971     87.6368  
 11093.0000    -17.3357      4.0553      3.9306      5.2804      6.9605     34.7117      2.2892      0.0635     -9.4243     42.8091     87.6295  
 11093.5000    -17.4629      4.0011      3.8826      5.1333      6.9569     33.6717      2.2549      0.0500     -9.3743     43.8827     87.6222  
 11094.0000    -17.5825      3.9523      3.8352      4.9451      6.9352     31.6471      2.2441      0.0481     -9.2644     43.3782     87.6074  
 11094.5000    -17.7989      3.9040      3.7884      4.9166      6.9519     30.1321      2.2469      0.0462     -8.8624     42.5370     87.5998  
 11095.0000    -18.1202      3.8619      3.7499      4.9935      6.9595     30.4679      2.2645      0.0415     -8.8919     41.7214     87.5689  
 11095.5000    -18.1904      3.8342      3.7230      5.1114      6.9566     32.0305      2.2769      0.0404     -9.4007     41.2653     87.5372  
 11096.0000    -17.9668      3.8066      3.6962      5.1787      6.9563     34.1931      2.2710      0.0432     -8.7242     40.8091     87.5618  
 11096.5000    -17.8396      3.7947      3.6772      5.1171      6.9606     33.5217      2.2810      0.0372     -8.2003     41.0261     87.6084  
 11097.0000    -17.6343      3.8679      3.7481      4.8414      6.9591     32.3693      2.2789      0.0301     -7.7185     41.5203     87.5917  
 11097.5000    -17.5106      3.9424      3.8204      4.7853      6.9506     31.1553      2.2730      0.0226     -7.0885     42.0973     87.5730  
 11098.0000    -17.8292      4.0185      3.8941      5.0106      6.9253     31.2706      2.2705      0.0150     -7.4175     41.6091     87.6063  
 11098.5000    -18.2787      4.0960      3.9640      5.2191      6.9349     31.8356      2.2745      0.0125     -7.9592     40.7804     87.6395  
 11099.0000    -18.2716      4.1967      4.0613      5.3067      6.9502     32.3524      2.2823      0.0237     -8.0164     39.6924     87.6080  
 11099.5000    -18.1133      4.2997      4.1611      5.3818      6.9512     32.9124      2.2905      0.0251     -7.9489     38.6290     87.6378  
