~VERSION INFORMATION
 VERS.                           2.00:        CWLS LOG ASCII STANDARD - VERSION 2.00
 WRAP.                             NO:        ONE LINE PER DEPTH STEP
~WELL INFORMATION
#MNEM.UNIT                   DATA             INFORMATION
#----------             --------------        ------------------------------
 STRT.F                      100.0000:        START DEPTH
 STOP.F                    13172.0000:        STOP DEPTH
 STEP.F                        0.5000:        STEP VALUE
 NULL.                      -999.2500:        NULL VALUE
 COMP.    USGS/NPR HUSKY OIL OPERATOR:        COMPANY  
 LOC .                   25   1S   1W:        LOCATION   
 DATE.                         7/5/79:        LOG DATE 
 WELL.            SEABEE TEST WELL #1:        WELL     
 UWI .                   502872000700:        UNIQUE WELL ID 
 API .                   502872000700:        UNIQUE WELL IDENTIFIER 
 FLD .                        WILDCAT:        FIELD    
 CNTY.                       N. SLOPE:        COUNTY  
 STAT.                         ALASKA:        STATE   
 CTRY.                            USA:        COUNTRY 
 OPER.    USGS/NPR HUSKY OIL OPERATOR:        OPERATOR  
 SRVC.                   SCHLUMBERGER:        SERVICE COMPANY 
 LAT .                         0.0000:        LATITUDE
 LON .                         0.0000:        LONGITUDE
 DIGS.               CENTER LINE DATA:        DIGITIZING COMPANY 
~CURVE INFORMATION      
#MNEM        .UNIT         API CODE           CURVE DESCRIPTION
#-----------------      --------------        ------------------------------
 DEPT        .F                      :        1  DEPTH
 SP          .MV                     :        2  
 ILD         .OHMM                   :        3  
 ILM         .OHMM                   :        4  
 LL8         .OHMM                   :        5  
 CALI        .IN                     :        6  
 GR          .GAPI                   :        7  
 RHOB        .G/C3                   :        8  
 DRHO        .G/C3                   :        9  
 DPHI        .%                      :        10 
 NPHI        .%                      :        11 
 DT          .US/F                   :        12 
~PARAMETER INFORMATION       
#MNEM.UNIT                  VALUE             DESCRIPTION OF MNEMONIC
#---------             ---------------        ------------------------------
 EKB .F                      322.0000:        KELLY BUSHING
 TD  .F                    15611.0000:        TOTAL DEPTH
 BHT .F                       96.0000:        BOTTOM HOLE TEMPERATURE
 BS  .                        17.5000:        BIT SIZE
 FD  .                         9.7000:        FLUID DENSITY
 CSIZ.                        30.0000:        CASING SIZE
 CBD .F                      122.0000:        CASING DRILLER 1
 CBL .F                      125.0000:        CASING LOGGER 1
 DFT .                            Gel:        TYPE FLUID IN HOLE
 DFV .                        80.0000:        VISCOSITY
 DFPH.                         8.5000:        PH
 DFL .                         8.0000:        FLUID LOSS
 RMS .                         4.2600:        RM
 MST .F                       86.0000:        RM MEAS. TEMP.
 RMF .                         4.9100:        RMF
 MFST.F                       64.0000:        RMF MEAS. TEMP.
 RMC .                         4.8300:        RMC
 MCST.F                       64.0000:        RMC MEAS. TEMP.
~OTHER INFORMATION
~A    DEPTH          SP         ILD         ILM         LL8        CALI          GR        RHOB        DRHO        DPHI        NPHI          DT  
# ...
  7690.0000    -11.1619      8.4301      6.4348      9.6319     14.8024     67.7677      2.6331      0.0031      1.6125     28.5362     81.3591  
  7690.5000    -11.4734      8.6245      6.5916      9.9656     14.7697     67.1479      2.6313      0.0011      1.1326     28.3998     81.7394  
  7691.0000    -11.2142      8.8235      6.7624     10.1348     14.7486     67.5471      2.6180     -0.0058      1.2372     28.7232     81.8165  
  7691.5000    -10.9081      9.0270      6.8955     10.3645     14.7508     67.9463      2.6099     -0.0008      2.1503     28.7230     81.6310  
  7692.0000    -11.0103      9.2349      6.8854     11.0837     14.7397     66.9269      2.6073      0.0037      2.3448     28.6943     81.3087  
  7692.5000    -10.9796      9.3192      6.9092     11.2746     14.7750     65.9034      2.6016     -0.0022      2.5517     28.5818     81.3034  
  7693.0000    -10.7425      9.4042      6.9442     10.9045     14.8491     64.0589      2.6011     -0.0091      3.1924     28.2048     81.4840  
  7693.5000    -10.6487      9.4900      6.9939     10.6274     14.7568     62.4962      2.5985     -0.0107      3.2442     27.6507     81.7374  
  7694.0000    -10.8447      9.5766      7.0824     10.5968     14.6782     62.9667      2.5909     -0.0011      3.5133     27.6341     81.8683  
  7694.5000    -10.9158      9.6640      7.2269     11.3918     14.6302     64.2828      2.5957      0.0015      3.6063     27.8771     81.7533  
  7695.0000    -10.8739      9.7586      7.3891     11.8380     14.6233     66.1857      2.5897     -0.0011      3.4240     27.9723     81.1469  
  7695.5000    -11.2302      9.9022      7.5590     11.8951     14.6162     66.9639      2.5946     -0.0067      3.9035     28.5010     80.5078  
  7696.0000    -11.3586     10.0462      7.6376     12.1434     14.6091     66.9763      2.5941     -0.0063      3.6468     28.9577     79.9206  
  7696.5000    -10.1413     10.1906      7.6671     12.5956     14.6020     66.5302      2.5892     -0.0080      3.6472     28.7239     79.8546  
  7697.0000     -9.9519     10.3311      7.6968     12.8853     14.5949     65.8167      2.5748     -0.0192      3.8503     27.9735     80.3800  
  7697.5000    -10.0794     10.3985      7.7211     12.5985     14.5953     64.3641      2.5622     -0.0223      4.5780     27.3173     81.0468  
  7698.0000    -10.0077     10.4665      7.7246     12.3181     14.5954     63.1477      2.5607     -0.0150      5.3170     27.0071     81.5020  
  7698.5000     -9.9192     10.4963      7.7056     12.0700     14.5934     63.8622      2.5691     -0.0068      5.6672     26.8826     81.4795  
  7699.0000    -10.0145     10.5129      7.6759     11.9831     14.5914     64.8938      2.5680     -0.0076      5.3008     27.2203     81.1239  
  7699.5000    -10.0777     10.5022      7.6463     12.0077     14.5747     65.7293      2.5699     -0.0086      4.9285     27.7437     81.0237  
  7700.0000    -10.2537     10.3955      7.6169     12.1522     14.5556     67.9706      2.5795     -0.0058      5.3248     28.1154     81.2676  
  7700.5000    -10.4588     10.2875      7.5875     12.4858     14.5364     69.5188      2.5879     -0.0030      4.5680     28.4871     81.5043  
  7701.0000    -10.5354     10.1805      7.5562     12.9455     14.5143     70.1547      2.5876     -0.0002      4.0942     28.6863     81.6315  
  7701.5000    -10.4661     10.0799      7.5215     12.9639     14.4725     70.0309      2.5866      0.0007      3.9363     28.6526     81.6123  
  7702.0000    -10.8059     10.1572      7.4849     12.3847     14.4670     69.4752      2.5865      0.0010      4.0071     28.3131     80.8266  
  7702.5000    -11.1832     10.2074      7.4485     11.8119     14.4720     68.7320      2.5896      0.0014      4.0150     28.0950     79.7647  
  7703.0000    -10.9644     10.2306      7.4184     11.8196     14.4626     66.8221      2.5860     -0.0002      3.8379     28.2827     78.7113  
  7703.5000    -10.8275     10.1412      7.4184     12.1126     14.4433     64.3363      2.5775     -0.0043      3.8950     28.3846     78.0374  
  7704.0000    -10.9909     10.2807      7.4312     12.2359     14.4239     63.7992      2.5814     -0.0013      4.6107     28.6737     78.1305  
  7704.5000    -11.1544     10.3467      7.5835     12.2319     14.4128     63.5842      2.5923      0.0060      4.2733     27.8540     78.5097  
  7705.0000    -11.3178     10.7009      7.6980     12.4139     14.4205     63.7575      2.5974      0.0093      3.6727     27.0812     79.0240  
  7705.5000    -11.7017     11.4190      7.8497     12.8292     14.4281     64.2953      2.5913      0.0026      3.5162     26.5246     79.2802  
  7706.0000    -12.1746     12.0808      8.3719     13.2584     14.4357     64.5995      2.5735     -0.0076      3.9873     26.9072     79.0976  
  7706.5000    -12.3583     12.7810      8.7644     14.1302     14.4433     64.7121      2.5641     -0.0154      4.9614     27.3144     78.6373  
  7707.0000    -12.7347     13.5218      9.1754     15.4106     14.4509     64.9331      2.5733     -0.0111      5.2911     26.9857     78.0585  
  7707.5000    -13.0839     14.3055      9.2961     18.0704     14.4514     64.6423      2.5773     -0.0049      4.8854     26.3900     77.7569  
  7708.0000    -13.2977     14.5625      9.3171     19.3778     14.4486     63.9743      2.5953     -0.0021      4.2835     25.9964     77.4606  
  7708.5000    -13.4593     14.6641      9.2556     17.8408     14.4457     63.2433      2.5953     -0.0006      3.2787     25.7550     77.3389  
  7709.0000    -13.3484     14.7412      9.2062     15.7733     14.4431     62.5122      2.6057      0.0019      3.5069     25.5685     77.4019  
  7709.5000    -13.4638     15.0228      9.1638     15.5603     14.4514     62.3058      2.6179      0.0066      2.8116     25.3497     77.4954  
  7710.0000    -13.8894     15.5125      9.4625     16.0434     14.4747     62.3388      2.6082      0.0122      1.9392     25.2311     77.8567  
  7710.5000    -14.3537     16.1279      9.8392     17.0150     14.4961     62.4173      2.5978      0.0099      2.5641     25.1248     78.2434  
  7711.0000    -14.6698     17.1584     10.0909     18.0454     14.4867     62.5491      2.5912      0.0054      3.2291     24.8893     78.2882  
  7711.5000    -14.7351     18.2546     10.2718     19.1382     14.4720     63.0347      2.5873      0.0010      3.6751     24.7330     78.1456  
  7712.0000    -15.0580     19.4209     10.4617     20.1086     14.4574     63.7047      2.5905      0.0022      4.1311     24.8724     77.6398  
  7712.5000    -15.2653     19.6798     10.6489     20.8100     14.4428     62.1663      2.5754     -0.0020      3.7188     25.0346     77.1338  
  7713.0000    -15.3819     19.8861     10.7294     21.1717     14.4278     60.5489      2.5629     -0.0053      4.5429     25.1089     77.2808  
  7713.5000    -15.5053     20.0945     10.7945     21.0974     14.4093     60.1320      2.5804     -0.0045      5.3993     24.9280     77.7431  
  7714.0000    -15.6321     20.2599     10.8683     20.8506     14.4108     60.8517      2.6016      0.0029      4.5153     24.5559     78.1838  
  7714.5000    -15.7720     20.3025     10.9379     20.7203     14.4141     62.6520      2.5949      0.0061      3.3350     24.1834     78.3053  
  7715.0000    -15.9078     20.2760     10.9942     20.6617     14.4173     62.7830      2.5797      0.0032      3.4770     24.4735     78.1384  
  7715.5000    -16.1762     20.1930     11.1197     20.7626     14.4206     62.2327      2.5767      0.0010      4.3786     24.7860     78.0440  
  7716.0000    -16.1284     20.1103     11.1791     21.2682     14.4580     61.6239      2.5796      0.0008      4.6969     25.2437     78.0041  
  7716.5000    -16.1725     19.9143     11.0714     21.8227     14.4746     60.7314      2.5841      0.0007      4.4263     25.4269     77.9021  
  7717.0000    -16.1632     19.1969     10.8360     21.9664     14.4790     60.8421      2.5866      0.0006      4.0837     25.5930     77.6413  
