~VERSION INFORMATION
 VERS.                           2.00:        CWLS LOG ASCII STANDARD - VERSION 2.00
 WRAP.                             NO:        ONE LINE PER DEPTH STEP
~WELL INFORMATION
#MNEM.UNIT                   DATA             INFORMATION
#----------             --------------        ------------------------------
 STRT.F                      100.0000:        START DEPTH
 STOP.F                    13172.0000:        STOP DEPTH
 STEP.F                        0.5000:        STEP VALUE
 NULL.                      -999.2500:        NULL VALUE
 COMP.    USGS/NPR HUSKY OIL OPERATOR:        COMPANY  
 LOC .                   25   1S   1W:        LOCATION   
 DATE.                         7/5/79:        LOG DATE 
 WELL.            SEABEE TEST WELL #1:        WELL     
 UWI .                   502872000700:        UNIQUE WELL ID 
 API .                   502872000700:        UNIQUE WELL IDENTIFIER 
 FLD .                        WILDCAT:        FIELD    
 CNTY.                       N. SLOPE:        COUNTY  
 STAT.                         ALASKA:        STATE   
 CTRY.                            USA:        COUNTRY 
 OPER.    USGS/NPR HUSKY OIL OPERATOR:        OPERATOR  
 SRVC.                   SCHLUMBERGER:        SERVICE COMPANY 
 LAT .                         0.0000:        LATITUDE
 LON .                         0.0000:        LONGITUDE
 DIGS.               CENTER LINE DATA:        DIGITIZING COMPANY 
~CURVE INFORMATION      
#MNEM        .UNIT         API CODE           CURVE DESCRIPTION
#-----------------      --------------        ------------------------------
 DEPT        .F                      :        1  DEPTH
 SP          .MV                     :        2  
 ILD         .OHMM                   :        3  
 ILM         .OHMM                   :        4  
 LL8         .OHMM                   :        5  
 CALI        .IN                     :        6  
 GR          .GAPI                   :        7  
 RHOB        .G/C3                   :        8  
 DRHO        .G/C3                   :        9  
 DPHI        .%                      :        10 
 NPHI        .%                      :        11 
 DT          .US/F                   :        12 
~PARAMETER INFORMATION       
#MNEM.UNIT                  VALUE             DESCRIPTION OF MNEMONIC
#---------             ---------------        ------------------------------
 EKB .F                      322.0000:        KELLY BUSHING
 TD  .F                    15611.0000:        TOTAL DEPTH
 BHT .F                       96.0000:        BOTTOM HOLE TEMPERATURE
 BS  .                        17.5000:        BIT SIZE
 FD  .                         9.7000:        FLUID DENSITY
 CSIZ.                        30.0000:        CASING SIZE
 CBD .F                      122.0000:        CASING DRILLER 1
 CBL .F                      125.0000:        CASING LOGGER 1
 DFT .                            Gel:        TYPE FLUID IN HOLE
 DFV .                        80.0000:        VISCOSITY
 DFPH.                         8.5000:        PH
 DFL .                         8.0000:        FLUID LOSS
 RMS .                         4.2600:        RM
 MST .F                       86.0000:        RM MEAS. TEMP.
 RMF .                         4.9100:        RMF
 MFST.F                       64.0000:        RMF MEAS. TEMP.
 RMC .                         4.8300:        RMC
 MCST.F                       64.0000:        RMC MEAS. TEMP.
~OTHER INFORMATION
~A    DEPTH          SP         ILD         ILM         LL8        CALI          GR        RHOB        DRHO        DPHI        NPHI          DT  
# ...
  3482.5000    -33.6981     11.3104     10.0117     10.8760     18.4239     77.1084      2.4768      0.0639      9.1312     47.3209     95.7337  
  3483.0000    -32.2451     11.1936     10.0071     10.7674     18.4083     75.1067      2.4543      0.0413     10.4200     46.6235     98.0452  
  3483.5000    -30.5166     11.1074     10.0025     10.6853     18.4103     72.7485      2.4724      0.0533     11.8203     45.4750     97.6940  
  3484.0000    -30.0546     11.1059     10.0053     10.6889     18.7957     71.4205      2.4984      0.0648     11.0800     44.4581     97.0582  
  3484.5000    -30.1650     11.2256     10.0895     10.7803     18.9922     71.0841      2.5126      0.0762      9.0379     44.9984     96.5959  
  3485.0000    -31.7124     11.3785     10.1257     10.9350     18.6684     71.3910      2.4835      0.0876      8.3013     45.8673     95.8384  
  3485.5000    -32.5321     11.4630     10.1619     11.0327     18.3797     71.4570      2.4879      0.1002      9.9451     45.8444     96.0055  
  3486.0000    -32.9135     11.5324     10.2025     11.0865     18.4553     70.4936      2.5077      0.1125      9.8806     45.5649     96.1725  
  3486.5000    -33.2261     11.6232     10.2477     11.1863     18.8730     70.8491      2.5046      0.0947      8.8149     45.4092     95.9594  
  3487.0000    -33.5997     11.6794     10.2876     11.2146     18.9639     71.8923      2.5103      0.0809      8.8205     45.0748     95.3749  
  3487.5000    -34.7095     11.8372     10.3007     11.3797     18.8474     72.2165      2.5108      0.0837      8.4949     44.1804     95.3727  
  3488.0000    -35.1181     11.9815     10.3138     11.5095     18.7985     72.6031      2.5039      0.0813      8.2555     43.6632     95.7320  
  3488.5000    -35.1015     12.2115     10.3269     11.4387     18.5986     72.9718      2.5041      0.0777      8.8536     43.5770     96.1199  
  3489.0000    -34.6903     12.2045     10.3401     11.3863     18.5513     72.6211      2.5093      0.0844      8.8658     43.7812     96.4752  
  3489.5000    -34.5239     12.1078     10.3533     11.3156     18.5257     73.2959      2.5074      0.0861      8.4994     44.1377     97.2876  
  3490.0000    -33.9697     12.0118     10.3665     11.2077     18.5063     74.4738      2.4998      0.0930      8.7076     45.1653     97.2414  
  3490.5000    -33.1205     11.9016     10.3517     11.0654     18.4869     74.9981      2.4735      0.0773      9.2198     45.6700     97.2655  
  3491.0000    -32.6988     11.7575     10.3243     10.9839     18.4811     74.0003      2.4532      0.0435     10.5186     45.2534     97.1050  
  3491.5000    -32.8079     11.6386     10.3154     10.9733     18.4893     71.7087      2.4923      0.0562     11.7655     44.3004     96.7331  
  3492.0000    -33.5636     11.6062     10.3196     10.9779     18.4993     70.5186      2.5200      0.0799      9.9147     45.2556     96.9185  
  3492.5000    -34.4047     11.5739     10.3272     10.9859     18.5877     69.5356      2.5103      0.0869      7.6036     46.4683     97.0659  
  3493.0000    -34.5804     11.5417     10.3773     11.0398     18.5008     68.7089      2.5100      0.1010      8.3819     48.1801     97.0171  
  3493.5000    -34.7809     11.5096     10.3846     11.0472     18.3684     69.7502      2.5252      0.1242      8.7585     48.3601     97.2549  
  3494.0000    -33.1564     11.4776     10.3057     10.9878     18.3016     70.6350      2.5115      0.1187      7.6859     47.6914     98.3774  
  3494.5000    -31.0511     11.4456     10.2725     10.9538     18.2723     70.6666      2.5071      0.1002      8.3396     47.3037     98.0676  
  3495.0000    -29.7991     11.4034     10.3127     10.9736     18.4775     70.3704      2.4926      0.0727      8.6786     46.7011     97.8363  
  3495.5000    -29.5955     11.3576     10.2713     10.9294     18.6961     70.5606      2.4846      0.0579      9.5831     46.9563     97.8368  
  3496.0000    -30.2991     11.3361     10.2554     10.9102     18.7424     70.9198      2.4933      0.0807     10.2449     46.8177     97.5685  
  3496.5000    -31.1293     11.3325     10.2456     10.9041     18.6187     71.6294      2.4999      0.0901      9.7617     46.1124     97.8648  
  3497.0000    -31.8724     11.2716     10.1906     10.8455     18.5506     72.4594      2.4822      0.0786      9.2558     45.3940     98.4471  
  3497.5000    -32.4223     11.1896     10.0703     10.7478     18.5165     74.4715      2.4926      0.0668     10.0095     43.8600     98.3019  
  3498.0000    -33.0039     11.2031     10.1142     10.7737     18.5304     76.3402      2.4815      0.0585      9.9180     42.9786     97.6503  
  3498.5000    -33.8938     11.3124     10.2091     10.8773     18.5984     74.9120      2.5021      0.0798      9.9359     43.0098     97.3194  
  3499.0000    -34.9715     11.4214     10.3120     10.9854     18.6273     72.8441      2.5117      0.0898      9.0560     44.4608     97.1468  
  3499.5000    -35.4132     11.5149     10.4002     11.0754     18.5223     72.3366      2.5204      0.0962      8.4918     45.0082     97.1684  
  3500.0000    -35.2190     11.4899     10.3895     11.0562     18.5257     71.4639      2.5255      0.1104      7.7429     45.5653     97.4978  
  3500.5000    -34.7679     11.4355     10.3263     11.0012     18.5267     70.6392      2.5059      0.1143      7.4243     46.0168     98.3900  
  3501.0000    -34.0945     11.3259     10.2207     10.8908     18.5065     70.4952      2.4903      0.0813      8.3212     46.2413     99.4987  
  3501.5000    -33.4300     11.1979     10.1177     10.7701     18.4772     70.5471      2.4860      0.0669      9.6153     47.3205     99.9905  
  3502.0000    -32.7833     11.1529     10.0893     10.7338     18.4817     70.6056      2.4996      0.0807     10.2831     47.0529    100.1659  
  3502.5000    -32.5758     11.1567     10.0913     10.7368     18.5128     70.5270      2.5135      0.1055      9.3156     46.4267     99.3829  
  3503.0000    -32.7149     11.2588     10.1585     10.8267     18.4804     69.7560      2.4945      0.1148      8.3081     45.9229     99.3681  
  3503.5000    -32.8405     11.2827     10.1765     10.8460     18.4408     69.6809      2.4671      0.0761      9.4327     44.4117     99.2919  
  3504.0000    -33.7509     11.3080     10.2243     10.8808     18.4000     70.6651      2.4650      0.0529     10.8729     42.6281     98.5928  
  3504.5000    -34.3300     11.3138     10.1928     10.8714     18.4700     73.0089      2.4928      0.0577     11.0525     42.1873     98.0433  
  3505.0000    -34.0710     11.4106     10.3225     10.9818     18.6697     73.8094      2.5339      0.0884      9.9337     42.3737     97.3082  
  3505.5000    -32.5332     11.5084     10.3893     11.0671     18.5646     73.3840      2.5311      0.1061      7.3408     42.6935     97.1041  
  3506.0000    -30.9186     11.5402     10.4404     11.1068     18.4899     73.3123      2.5066      0.0857      7.4070     43.1352     96.9740  
  3506.5000    -29.6317     11.6220     10.4501     11.1805     18.4394     73.3330      2.4856      0.0672      8.6437     44.1766     96.7341  
  3507.0000    -28.8485     11.6603     10.4493     11.2217     18.3988     71.8789      2.4881      0.0598      9.8528     44.8252     96.0677  
  3507.5000    -29.4030     11.7815     10.4485     11.3327     18.4024     69.9943      2.4885      0.0490      9.8962     45.1541     94.9939  
  3508.0000    -30.3155     11.8834     10.4477     11.4276     18.4853     69.3185      2.4923      0.0400      9.7479     44.6318     95.3299  
  3508.5000    -31.1416     12.0080     10.4469     11.5362     18.4884     69.9268      2.4907      0.0373      9.6192     44.4431     95.6552  
  3509.0000    -31.5657     11.8402     10.4461     11.3750     18.4665     71.2385      2.4836      0.0498      9.6538     44.4284     95.5859  
  3509.5000    -31.9937     11.6869     10.4453     11.2382     18.4445     71.8491      2.5014      0.0711     10.3407     43.9348     95.6034  
