~VERSION INFORMATION
 VERS.                           2.00:        CWLS LOG ASCII STANDARD - VERSION 2.00
 WRAP.                             NO:        ONE LINE PER DEPTH STEP
~WELL INFORMATION
#MNEM.UNIT                   DATA             INFORMATION
#----------             --------------        ------------------------------
 STRT.F                      100.0000:        START DEPTH
 STOP.F                    13172.0000:        STOP DEPTH
 STEP.F                        0.5000:        STEP VALUE
 NULL.                      -999.2500:        NULL VALUE
 COMP.    USGS/NPR HUSKY OIL OPERATOR:        COMPANY  
 LOC .                   25   1S   1W:        LOCATION   
 DATE.                         7/5/79:        LOG DATE 
 WELL.            SEABEE TEST WELL #1:        WELL     
 UWI .                   502872000700:        UNIQUE WELL ID 
 API .                   502872000700:        UNIQUE WELL IDENTIFIER 
 FLD .                        WILDCAT:        FIELD    
 CNTY.                       N. SLOPE:        COUNTY  
 STAT.                         ALASKA:        STATE   
 CTRY.                            USA:        COUNTRY 
 OPER.    USGS/NPR HUSKY OIL OPERATOR:        OPERATOR  
 SRVC.                   SCHLUMBERGER:        SERVICE COMPANY 
 LAT .                         0.0000:        LATITUDE
 LON .                         0.0000:        LONGITUDE
 DIGS.               CENTER LINE DATA:        DIGITIZING COMPANY 
~CURVE INFORMATION      
#MNEM        .UNIT         API CODE           CURVE DESCRIPTION
#-----------------      --------------        ------------------------------
 DEPT        .F                      :        1  DEPTH
 SP          .MV                     :        2  
 ILD         .OHMM                   :        3  
 ILM         .OHMM                   :        4  
 LL8         .OHMM                   :        5  
 CALI        .IN                     :        6  
 GR          .GAPI                   :        7  
 RHOB        .G/C3                   :        8  
 DRHO        .G/C3                   :        9  
 DPHI        .%                      :        10 
 NPHI        .%                      :        11 
 DT          .US/F                   :        12 
~PARAMETER INFORMATION       
#MNEM.UNIT                  VALUE             DESCRIPTION OF MNEMONIC
#---------             ---------------        ------------------------------
 EKB .F                      322.0000:        KELLY BUSHING
 TD  .F                    15611.0000:        TOTAL DEPTH
 BHT .F                       96.0000:        BOTTOM HOLE TEMPERATURE
 BS  .                        17.5000:        BIT SIZE
 FD  .                         9.7000:        FLUID DENSITY
 CSIZ.                        30.0000:        CASING SIZE
 CBD .F                      122.0000:        CASING DRILLER 1
 CBL .F                      125.0000:        CASING LOGGER 1
 DFT .                            Gel:        TYPE FLUID IN HOLE
 DFV .                        80.0000:        VISCOSITY
 DFPH.                         8.5000:        PH
 DFL .                         8.0000:        FLUID LOSS
 RMS .                         4.2600:        RM
 MST .F                       86.0000:        RM MEAS. TEMP.
 RMF .                         4.9100:        RMF
 MFST.F                       64.0000:        RMF MEAS. TEMP.
 RMC .                         4.8300:        RMC
 MCST.F                       64.0000:        RMC MEAS. TEMP.
~OTHER INFORMATION
~A    DEPTH          SP         ILD         ILM         LL8        CALI          GR        RHOB        DRHO        DPHI        NPHI          DT  
# ...
  5187.5000    -53.2140      9.5215      8.0717     10.1235     18.0060     80.0497      2.5192      0.0119      7.5118     31.0217     93.9310  
  5188.0000    -53.0969      9.6553      8.1274     10.9708     18.0049     80.8944      2.5172      0.0083      7.9659     30.4099     92.3793  
  5188.5000    -53.0620      9.7810      8.0761     10.9064     18.0037     81.7226      2.5165      0.0047      8.2551     30.5020     92.6552  
  5189.0000    -53.1714      9.8872      8.0294     10.3736     18.0026     83.1135      2.5182      0.0025      8.3383     31.9795     94.5753  
  5189.5000    -53.2769      9.9067      7.9829      9.7456     18.0015     83.9072      2.5261      0.0043      8.2897     33.0835     95.6709  
  5190.0000    -53.1106      9.7958      7.9367      9.4004     18.0003     84.2238      2.5224      0.0070      7.9164     33.4298     95.6100  
  5190.5000    -52.8947      9.6673      7.8992      9.3030     17.9992     84.3517      2.5137      0.0083      7.9135     33.6390     97.8706  
  5191.0000    -52.8401      9.5410      7.8689      9.2066     17.9981     83.7403      2.5030      0.0054      8.4279     34.0237     98.8114  
  5191.5000    -52.8793      9.4163      7.7386      9.1112     17.9970     82.7402      2.5029      0.0013      9.0493     34.4381     97.8280  
  5192.0000    -52.6988      9.3179      7.6243      9.0236     17.9041     81.5632      2.5038      0.0004      9.2617     34.1998     96.6595  
  5192.5000    -52.5346      9.2289      7.5166      8.9375     17.7183     79.6435      2.5038      0.0064      9.0433     33.9618     98.8913  
  5193.0000    -52.6066      9.1408      7.4496      8.8539     18.0276     77.9558      2.5080      0.0000      9.0970     33.7654    103.4615  
  5193.5000    -52.6881      9.0871      7.5890      8.8041     17.9301     78.5051      2.5041     -0.0066      8.8341     33.5384    103.1255  
  5194.0000    -52.7607      9.0360      7.6376      8.7545     17.9353     79.7494      2.4983     -0.0132      9.0266     32.5476     99.1726  
  5194.5000    -52.7866      8.9851      7.6677      8.7053     18.0213     80.3149      2.5032     -0.0156      9.3466     31.7119     96.6447  
  5195.0000    -52.8815      8.9346      7.7094      8.6563     18.0162     80.9165      2.5088     -0.0126      9.1926     31.8340     96.7253  
  5195.5000    -52.8690      8.8915      7.6965      8.6167     18.0111     81.8944      2.5162     -0.0088      8.8749     32.6605     98.2764  
  5196.0000    -52.8173      8.8915      7.6483      8.6167     18.0060     83.0147      2.5174     -0.0055      8.4732     33.4112     97.5917  
  5196.5000    -52.8353      8.9149      7.6356      8.6388     18.0009     83.8529      2.5116     -0.0073      8.3306     33.8917     96.1542  
  5197.0000    -52.8752      8.9446      7.6383      8.6675     17.9958     84.5210      2.5017     -0.0085      8.3869     34.1889     94.5938  
  5197.5000    -52.8104      8.9743      7.6411      8.6963     17.9907     85.3059      2.5085     -0.0080      9.4124     34.4841     93.9707  
  5198.0000    -52.7751      9.0041      7.5378      8.7252     17.9856     85.4450      2.5256     -0.0065      8.9911     34.9472     93.8562  
  5198.5000    -52.7501      9.0340      7.3783      8.7542     17.7296     85.6077      2.5217     -0.0049      7.9627     35.4094     94.7342  
  5199.0000    -52.7190      8.9973      7.2752      8.7168     17.7496     86.8356      2.5103     -0.0078      7.7336     35.0631     95.6276  
  5199.5000    -52.4605      8.9429      7.2828      8.6641     17.8144     87.6839      2.5058     -0.0108      8.6603     34.6497     96.3902  
  5200.0000    -52.5646      8.8888      7.2905      8.6056     17.3267     88.0068      2.5121     -0.0094      9.0300     34.3158     97.8669  
  5200.5000    -52.5686      8.7726      7.3006      8.4904     17.2130     88.1613      2.5291     -0.0014      8.8489     33.7892     97.8206  
  5201.0000    -52.3955      8.7130      7.3506      8.4417     17.0426     87.9912      2.5221      0.0017      7.8085     33.5473     97.2767  
  5201.5000    -52.3198      8.7586      7.4009      8.4860     16.8295     88.8542      2.5162     -0.0001      7.7789     33.5649     97.1338  
  5202.0000    -52.1906      8.8046      7.4516      8.5305     16.6164     89.2564      2.5233      0.0016      8.5367     33.1757     97.2301  
  5202.5000    -52.0203      8.8869      7.4070      8.6033     16.4383     89.4433      2.5169      0.0024      8.0137     32.5311     97.1299  
  5203.0000    -51.8854      8.9898      7.3587      8.7029     16.6825     89.4597      2.5118      0.0000      8.1666     31.9887     96.5937  
  5203.5000    -52.0940      9.0583      7.3107      8.7780     17.0042     89.1618      2.5049     -0.0024      8.5409     31.8689     95.6108  
  5204.0000    -52.2786      9.0467      7.2630      8.7669     16.8710     88.5894      2.5073     -0.0025      9.2363     31.8163     93.8470  
  5204.5000    -52.4328      9.0352      7.2509      8.7558     16.8393     87.8571      2.4957     -0.0067      8.8717     31.8473     92.8612  
  5205.0000    -52.5941      9.0236      7.2509      8.7447     17.2677     87.1248      2.4730     -0.0125      9.4825     32.1757     92.6894  
  5205.5000    -52.5944      9.0121      7.3278      8.7336     17.3670     86.2989      2.4630     -0.0108     10.7003     32.9015     91.9089  
  5206.0000    -52.4664      9.0006      7.4457      8.7225     17.3193     85.7168      2.4580     -0.0085     11.5462     33.5981     90.8361  
  5206.5000    -52.4858      8.9987      7.5541      8.7208     17.1671     85.6455      2.4487     -0.0133     11.8969     34.1531     92.7267  
  5207.0000    -52.6159      8.9987      7.6514      8.7208     16.6492     85.7216      2.4492     -0.0124     12.3540     34.3409     93.1305  
  5207.5000    -52.7044      8.9987      7.6634      8.7208     17.1531     85.6117      2.4859     -0.0036     12.5301     33.6096     92.6101  
  5208.0000    -52.7372      8.9987      7.6531      8.7208     17.9213     86.0454      2.5228      0.0099     10.5993     32.0031     92.8873  
  5208.5000    -52.6378      8.9987      7.6661      8.7208     18.0415     86.5893      2.5341      0.0085      8.0267     31.1513     92.0050  
  5209.0000    -52.6618      9.0400      7.6898      8.7572     18.0974     86.4636      2.5315      0.0071      7.3399     31.5534     90.9117  
  5209.5000    -52.6437      9.1091      7.7135      8.8242     17.8099     85.6379      2.5202      0.0061      7.3155     32.4125     90.6629  
  5210.0000    -52.7387      9.1788      7.7344      8.8918     17.7998     85.3343      2.5119      0.0051      8.0179     32.8952     89.2233  
  5210.5000    -52.8018      9.2487      7.6519      8.9598     17.7518     85.1534      2.4946     -0.0007      8.4813     32.7867     90.2206  
  5211.0000    -52.6629      9.2487      7.5703      8.9632     17.8946     84.3446      2.4848     -0.0085      9.5750     32.3521     90.7194  
  5211.5000    -52.6328      9.2277      7.4895      8.9401     17.9678     83.7367      2.4885     -0.0028     10.3740     32.0608     92.5047  
  5212.0000    -52.6378      9.1707      7.4096      8.8849     17.9625     82.5241      2.4847     -0.0014      9.7915     32.4863     96.0773  
  5212.5000    -52.5993      9.0780      7.3613      8.7849     17.9571     80.8535      2.4800     -0.0060     10.1931     33.1080     99.6145  
  5213.0000    -52.4277      8.9505      7.3521      8.6615     17.9389     80.1725      2.4770     -0.0130     10.5027     34.1060    103.8366  
  5213.5000    -52.4307      8.8249      7.3411      8.5398     17.3096     79.7138      2.4610     -0.0206     10.6524     35.2437    105.5697  
  5214.0000    -52.4613      8.7581      7.3210      8.4853     16.5722     79.7030      2.4534     -0.0136     11.5629     35.7906    103.1117  
  5214.5000    -52.4918      8.7070      7.2585      8.4358     16.4606     80.6165      2.4506     -0.0073     12.4154     35.7982     99.7757  
