~VERSION INFORMATION
 VERS.                           2.00:        CWLS LOG ASCII STANDARD - VERSION 2.00
 WRAP.                             NO:        ONE LINE PER DEPTH STEP
~WELL INFORMATION
#MNEM.UNIT                   DATA             INFORMATION
#----------             --------------        ------------------------------
 STRT.F                      100.0000:        START DEPTH
 STOP.F                    13172.0000:        STOP DEPTH
 STEP.F                        0.5000:        STEP VALUE
 NULL.                      -999.2500:        NULL VALUE
 COMP.    USGS/NPR HUSKY OIL OPERATOR:        COMPANY  
 LOC .                   25   1S   1W:        LOCATION   
 DATE.                         7/5/79:        LOG DATE 
 WELL.            SEABEE TEST WELL #1:        WELL     
 UWI .                   502872000700:        UNIQUE WELL ID 
 API .                   502872000700:        UNIQUE WELL IDENTIFIER 
 FLD .                        WILDCAT:        FIELD    
 CNTY.                       N. SLOPE:        COUNTY  
 STAT.                         ALASKA:        STATE   
 CTRY.                            USA:        COUNTRY 
 OPER.    USGS/NPR HUSKY OIL OPERATOR:        OPERATOR  
 SRVC.                   SCHLUMBERGER:        SERVICE COMPANY 
 LAT .                         0.0000:        LATITUDE
 LON .                         0.0000:        LONGITUDE
 DIGS.               CENTER LINE DATA:        DIGITIZING COMPANY 
~CURVE INFORMATION      
#MNEM        .UNIT         API CODE           CURVE DESCRIPTION
#-----------------      --------------        ------------------------------
 DEPT        .F                      :        1  DEPTH
 SP          .MV                     :        2  
 ILD         .OHMM                   :        3  
 ILM         .OHMM                   :        4  
 LL8         .OHMM                   :        5  
 CALI        .IN                     :        6  
 GR          .GAPI                   :        7  
 RHOB        .G/C3                   :        8  
 DRHO        .G/C3                   :        9  
 DPHI        .%                      :        10 
 NPHI        .%                      :        11 
 DT          .US/F                   :        12 
~PARAMETER INFORMATION       
#MNEM.UNIT                  VALUE             DESCRIPTION OF MNEMONIC
#---------             ---------------        ------------------------------
 EKB .F                      322.0000:        KELLY BUSHING
 TD  .F                    15611.0000:        TOTAL DEPTH
 BHT .F                       96.0000:        BOTTOM HOLE TEMPERATURE
 BS  .                        17.5000:        BIT SIZE
 FD  .                         9.7000:        FLUID DENSITY
 CSIZ.                        30.0000:        CASING SIZE
 CBD .F                      122.0000:        CASING DRILLER 1
 CBL .F                      125.0000:        CASING LOGGER 1
 DFT .                            Gel:        TYPE FLUID IN HOLE
 DFV .                        80.0000:        VISCOSITY
 DFPH.                         8.5000:        PH
 DFL .                         8.0000:        FLUID LOSS
 RMS .                         4.2600:        RM
 MST .F                       86.0000:        RM MEAS. TEMP.
 RMF .                         4.9100:        RMF
 MFST.F                       64.0000:        RMF MEAS. TEMP.
 RMC .                         4.8300:        RMC
 MCST.F                       64.0000:        RMC MEAS. TEMP.
~OTHER INFORMATION
~A    DEPTH          SP         ILD         ILM         LL8        CALI          GR        RHOB        DRHO        DPHI        NPHI          DT  
# ...
  6865.0000    -34.1408      9.6235      6.9665      9.1669     16.7741     61.0126      2.5515     -0.0068      5.1538     21.9734     82.0804  
  6865.5000    -34.2777      9.6242      6.9053      9.2922     16.7718     62.5671      2.5159     -0.0071      6.6133     22.9864     82.1438  
  6866.0000    -34.3749      9.6248      6.9524      9.4191     16.7828     62.7912      2.4899     -0.0089      8.7785     25.4428     82.1573  
  6866.5000    -34.4149      9.6254      7.0202      9.4837     16.7902     61.4033      2.5074     -0.0111     10.0231     27.4994     82.0723  
  6867.0000    -34.4782      9.6260      6.9816      9.4572     16.7827     61.3447      2.5297     -0.0076      8.8881     27.9338     81.8744  
  6867.5000    -34.5075      9.6017      7.0325      9.4503     16.7909     61.8005      2.5402     -0.0061      7.4131     27.7755     81.6834  
  6868.0000    -34.5351      9.5729      7.0672      9.4786     16.7896     63.0669      2.5416      0.0002      6.8295     27.3276     81.4482  
  6868.5000    -34.4991      9.5470      7.0532      9.5071     16.7811     63.8358      2.5560      0.0098      6.6046     26.7135     81.1602  
  6869.0000    -34.4137      9.5819      7.0384      9.5663     16.7835     64.1407      2.5478      0.0026      5.9612     26.9174     81.0912  
  6869.5000    -34.4078      9.5017      7.1159      9.6103     16.7786     64.6679      2.5369     -0.0044      6.5308     27.0975     81.5113  
  6870.0000    -34.5001      9.3856      7.1902      9.5476     16.7763     65.1152      2.5453     -0.0055      7.2024     27.0734     81.8739  
  6870.5000    -34.6446      9.2562      7.2085      9.4847     16.7744     65.5668      2.5576     -0.0004      6.6286     26.8514     81.6743  
  6871.0000    -34.7746      9.2495      7.1077      9.3756     16.7702     66.0349      2.5667      0.0051      5.7721     26.2018     81.4235  
  6871.5000    -34.7557      9.2428      7.0276      9.2676     16.7768     65.6820      2.5711      0.0115      5.2724     26.0138     81.7299  
  6872.0000    -34.7508      9.2361      6.9484      9.1975     16.7831     64.6903      2.5687      0.0053      4.8453     26.5257     82.8369  
  6872.5000    -34.8112      9.2294      6.8701      9.1675     16.7939     62.9062      2.5519     -0.0083      4.9226     27.3781     81.9228  
  6873.0000    -34.8444      9.2217      6.8459      9.1610     16.7926     61.8908      2.5515     -0.0154      6.4325     28.3171     81.4874  
  6873.5000    -34.8775      9.2116      6.8544      9.1545     16.7924     61.6372      2.5678     -0.0098      6.0547     28.8020     81.3220  
  6874.0000    -34.7342      9.2229      6.8630      9.1322     16.7822     61.6509      2.5575     -0.0069      5.4422     28.8870     81.3062  
  6874.5000    -34.7763      9.2586      6.8972      9.1031     16.7716     62.4080      2.5428     -0.0065      5.7235     28.6803     81.4203  
  6875.0000    -34.8996      9.2945      6.9525      9.0667     16.7637     63.2598      2.5420     -0.0066      6.7462     28.2909     81.5964  
  6875.5000    -34.9856      9.3655      7.0084      9.0320     16.7610     64.2641      2.5522     -0.0066      6.6910     27.9741     81.5358  
  6876.0000    -35.0999      9.4796      7.0976      9.2877     16.7692     63.1567      2.5605     -0.0067      6.2236     27.6952     81.5546  
  6876.5000    -35.2306      9.6146      7.2003      9.6060     16.7716     61.1404      2.5700     -0.0068      5.5693     27.4123     81.5851  
  6877.0000    -35.3205      9.7516      7.3044      9.9091     16.7666     59.5779      2.5720     -0.0069      5.0607     27.2868     81.4962  
  6877.5000    -35.1934      9.7836      7.3549     10.1976     16.7675     58.8392      2.5695     -0.0097      4.7272     27.5888     81.4371  
  6878.0000    -35.1269      9.7608      7.3669     10.2564     16.7692     58.4462      2.5717     -0.0131      5.2367     28.0340     81.4752  
  6878.5000    -35.0970      9.7379      7.3437     10.2868     16.7599     58.0315      2.5792     -0.0105      4.9388     28.4128     81.5791  
  6879.0000    -35.0008      9.7152      7.3159     10.1280     16.7569     57.5968      2.5842     -0.0034      4.3930     28.7096     81.7008  
  6879.5000    -35.0815      9.6924      7.2882      9.9737     16.7586     57.8416      2.5830      0.0061      4.0277     28.8910     81.7747  
  6880.0000    -35.2095      9.6698      7.2607      9.9368     16.7551     58.6742      2.5817      0.0102      4.2045     28.4181     81.7570  
  6880.5000    -35.3110      9.6334      7.2277      9.9000     16.7521     59.6290      2.5791      0.0148      4.3537     27.8165     81.6579  
  6881.0000    -35.1784      9.5966      7.1844      9.8634     16.7613     60.5848      2.5824      0.0219      4.4422     27.8162     81.3437  
  6881.5000    -34.9524      9.5601      7.1413      9.8268     16.7636     61.8522      2.5602      0.0135      3.7956     27.7943     81.0938  
  6882.0000    -34.9386      9.5000      7.0986      9.7668     16.7637     62.3777      2.5534      0.0017      5.2885     27.8049     81.3401  
  6882.5000    -35.0020      9.4384      7.0416      9.7029     16.7757     62.4846      2.5546     -0.0097      5.9107     27.3605     81.8970  
  6883.0000    -35.0518      9.3847      6.9546      9.6477     16.7696     62.4344      2.5594     -0.0097      5.9603     26.4173     82.4540  
  6883.5000    -35.0432      9.3313      6.9219      9.5928     16.7698     62.0041      2.5588     -0.0083      5.6395     26.1401     82.8539  
  6884.0000    -35.0921      9.2782      6.9602      9.5382     16.7699     61.1591      2.5496     -0.0098      5.9628     26.3403     82.5389  
  6884.5000    -35.3074      9.2254      6.9810      9.4840     16.7638     60.8714      2.5485     -0.0060      6.2861     26.4947     82.2713  
  6885.0000    -35.3636      9.2173      7.0566      9.4740     16.7543     61.3593      2.5498     -0.0049      6.3603     26.7215     82.4683  
  6885.5000    -35.2547      9.2243      7.1138      9.4812     16.7581     62.7165      2.5479     -0.0057      6.3298     27.1205     82.8062  
  6886.0000    -35.1227      9.2362      7.1917      9.4938     16.7620     63.5180      2.5494     -0.0064      6.4044     27.7243     83.5133  
  6886.5000    -35.0691      9.2558      7.1765      9.5140     16.7550     63.6478      2.5596      0.0009      6.4420     28.2194     83.9730  
  6887.0000    -34.9964      9.2755      7.1510      9.5342     16.7587     63.1706      2.5691      0.0053      5.9110     28.8124     84.0217  
  6887.5000    -34.9050      9.2960      7.1301      9.5555     16.7701     62.7548      2.5732      0.0051      5.2159     29.4606     83.5158  
  6888.0000    -34.7263      9.3237      7.1404      9.5841     16.7646     62.9409      2.5750     -0.0018      4.8508     29.7232     81.7636  
  6888.5000    -34.5696      9.3516      7.1585      9.6127     16.7563     63.0828      2.5464     -0.0125      4.5516     29.5623     79.9027  
  6889.0000    -34.5601      9.3795      7.1558      9.6414     16.7550     62.0390      2.5278     -0.0171      6.1745     29.3276     79.4358  
  6889.5000    -34.5116      9.3805      7.1532      9.6484     16.7663     60.1236      2.5147     -0.0163      7.3916     29.1198     80.1406  
  6890.0000    -34.4781      9.3561      7.0381      9.6685     16.7667     58.4570      2.5167     -0.0080      8.2973     29.5527     81.1089  
  6890.5000    -34.4433      9.3116      6.9598      9.6886     16.7666     57.2790      2.5083     -0.0060      8.6765     29.8617     81.9916  
  6891.0000    -34.3454      9.2672      6.9735      9.7087     16.7798     56.3110      2.5154     -0.0159      8.5831     29.4237     82.3834  
  6891.5000    -34.1649      9.2230      7.0392      9.7289     16.7799     55.7922      2.5513     -0.0060      8.6685     28.7448     82.5400  
  6892.0000    -34.3050      9.1791      7.1099      9.7491     16.7757     55.9856      2.5683     -0.0087      6.6389     27.7430     82.5254  
