~VERSION INFORMATION
 VERS.                           2.00:        CWLS LOG ASCII STANDARD - VERSION 2.00
 WRAP.                             NO:        ONE LINE PER DEPTH STEP
~WELL INFORMATION
#MNEM.UNIT                   DATA             INFORMATION
#----------             --------------        ------------------------------
 STRT.F                      100.0000:        START DEPTH
 STOP.F                    13172.0000:        STOP DEPTH
 STEP.F                        0.5000:        STEP VALUE
 NULL.                      -999.2500:        NULL VALUE
 COMP.    USGS/NPR HUSKY OIL OPERATOR:        COMPANY  
 LOC .                   25   1S   1W:        LOCATION   
 DATE.                         7/5/79:        LOG DATE 
 WELL.            SEABEE TEST WELL #1:        WELL     
 UWI .                   502872000700:        UNIQUE WELL ID 
 API .                   502872000700:        UNIQUE WELL IDENTIFIER 
 FLD .                        WILDCAT:        FIELD    
 CNTY.                       N. SLOPE:        COUNTY  
 STAT.                         ALASKA:        STATE   
 CTRY.                            USA:        COUNTRY 
 OPER.    USGS/NPR HUSKY OIL OPERATOR:        OPERATOR  
 SRVC.                   SCHLUMBERGER:        SERVICE COMPANY 
 LAT .                         0.0000:        LATITUDE
 LON .                         0.0000:        LONGITUDE
 DIGS.               CENTER LINE DATA:        DIGITIZING COMPANY 
~CURVE INFORMATION      
#MNEM        .UNIT         API CODE           CURVE DESCRIPTION
#-----------------      --------------        ------------------------------
 DEPT        .F                      :        1  DEPTH
 SP          .MV                     :        2  
 ILD         .OHMM                   :        3  
 ILM         .OHMM                   :        4  
 LL8         .OHMM                   :        5  
 CALI        .IN                     :        6  
 GR          .GAPI                   :        7  
 RHOB        .G/C3                   :        8  
 DRHO        .G/C3                   :        9  
 DPHI        .%                      :        10 
 NPHI        .%                      :        11 
 DT          .US/F                   :        12 
~PARAMETER INFORMATION       
#MNEM.UNIT                  VALUE             DESCRIPTION OF MNEMONIC
#---------             ---------------        ------------------------------
 EKB .F                      322.0000:        KELLY BUSHING
 TD  .F                    15611.0000:        TOTAL DEPTH
 BHT .F                       96.0000:        BOTTOM HOLE TEMPERATURE
 BS  .                        17.5000:        BIT SIZE
 FD  .                         9.7000:        FLUID DENSITY
 CSIZ.                        30.0000:        CASING SIZE
 CBD .F                      122.0000:        CASING DRILLER 1
 CBL .F                      125.0000:        CASING LOGGER 1
 DFT .                            Gel:        TYPE FLUID IN HOLE
 DFV .                        80.0000:        VISCOSITY
 DFPH.                         8.5000:        PH
 DFL .                         8.0000:        FLUID LOSS
 RMS .                         4.2600:        RM
 MST .F                       86.0000:        RM MEAS. TEMP.
 RMF .                         4.9100:        RMF
 MFST.F                       64.0000:        RMF MEAS. TEMP.
 RMC .                         4.8300:        RMC
 MCST.F                       64.0000:        RMC MEAS. TEMP.
~OTHER INFORMATION
~A    DEPTH          SP         ILD         ILM         LL8        CALI          GR        RHOB        DRHO        DPHI        NPHI          DT  
# ...
   980.0000    -94.0803     48.0999     33.2013     35.9144     19.4335     62.4051      2.2443      0.1031     25.2099     54.0642     79.1516  
   980.5000    -95.5028     48.0149     32.1458     35.1382     19.2441     63.2102      2.2377      0.1010     24.3968     53.4059     79.1671  
   981.0000    -95.1902     48.4096     31.8428     34.3788     18.8212     63.5749      2.2473      0.0990     23.5332     52.7587     79.7124  
   981.5000    -93.5697     47.9151     32.0204     33.9026     18.4206     63.9218      2.2629      0.0930     23.5429     51.7976     80.3584  
   982.0000    -90.7562     47.4257     32.9186     34.1134     18.6605     65.1328      2.2639      0.0920     22.8355     51.9089     81.7227  
   982.5000    -89.6478     46.6613     33.3539     35.2070     18.4915     66.4205      2.2670      0.1002     24.8038     53.3450     81.3962  
   983.0000    -88.8823     44.8581     33.2832     36.5489     18.3906     66.7381      2.2491      0.1039     26.5883     54.7610     80.8337  
   983.5000    -89.8386     42.9447     32.3153     35.8418     18.3410     66.9432      2.2136      0.1091     27.1894     56.3117     80.4836  
   984.0000    -90.8851     40.2011     29.8005     34.0120     18.2977     66.8024      2.2110      0.1264     25.6308     57.5900     79.7285  
   984.5000    -91.6126     37.4390     27.4814     31.4059     18.0306     66.8596      2.2251      0.1501     24.1384     58.8497     79.0237  
   985.0000    -92.5094     36.9712     25.3428     28.8858     17.8179     67.9384      2.2490      0.1514     21.7896     59.6182     79.9338  
   985.5000    -93.1021     36.4586     24.6733     25.8790     17.6790     69.2125      2.2855      0.1558     19.1773     59.3578     81.6468  
   986.0000    -93.0564     35.5829     24.5850     25.5984     17.6055     70.3372      2.3328      0.1617     18.6241     58.3799     84.5186  
   986.5000    -93.3926     34.8535     25.1733     26.0090     17.6968     70.2210      2.3455      0.1208     19.0215     57.2143     88.7803  
   987.0000    -94.7234     34.5975     26.0215     27.3882     17.7363     69.5483      2.3400      0.0962     17.9031     55.7509     90.1487  
   987.5000    -95.2870     35.3537     26.7939     28.8405     17.7461     69.5256      2.3551      0.1035     18.8042     54.4109     89.2405  
   988.0000    -94.9980     36.3001     27.5891     30.2311     17.7362     69.3532      2.3431      0.0854     19.5055     53.4261     87.2585  
   988.5000    -94.0930     37.7397     27.8013     30.5761     17.7225     68.4411      2.3358      0.0588     19.4379     54.3824     84.3687  
   989.0000    -93.3159     38.9631     27.9788     30.5131     17.7292     67.5288      2.3329      0.0472     20.1078     53.5804     83.2603  
   989.5000    -92.8279     39.3314     28.2165     30.4166     17.7293     66.0782      2.3217      0.0391     19.9638     51.8121     82.6262  
   990.0000    -92.2964     39.7033     28.4080     30.3204     17.7226     66.9445      2.3237      0.0443     19.0523     50.8123     81.9662  
   990.5000    -91.9015     40.0786     28.1785     30.5886     17.7180     67.8237      2.3377      0.0641     18.2154     51.7347     83.0782  
   991.0000    -91.8168     40.2472     27.9509     31.2130     17.7170     68.6721      2.3504      0.0616     18.0595     52.8723     84.1692  
   991.5000    -92.0030     39.1940     27.7251     31.0515     17.7373     69.1270      2.3550      0.0596     18.2055     53.7880     85.0346  
   992.0000    -93.2998     39.0047     27.5012     30.8908     17.7546     68.7406      2.3481      0.0637     16.9937     54.4185     85.1570  
   992.5000    -94.2182     38.8163     27.2790     30.7310     17.7631     67.0945      2.3650      0.0659     18.3148     56.0004     85.2479  
   993.0000    -94.4351     38.5699     27.0806     30.5244     17.7655     65.9161      2.3533      0.0621     19.5792     57.6759     85.4734  
   993.5000    -91.5813     38.2928     26.9095     30.1863     17.7750     65.1857      2.3357      0.0497     20.7767     57.9803     85.9606  
   994.0000    -89.7130     37.9823     26.7395     29.8911     17.7813     65.1658      2.3135      0.0310     20.8689     57.1068     86.4636  
   994.5000    -88.6176     37.4820     26.5705     29.7244     17.7846     65.3640      2.3071      0.0498     20.7279     55.5394     87.1668  
   995.0000    -88.5843     37.0543     26.3643     29.5587     17.7477     66.0287      2.3083      0.0631     22.4162     54.3551     87.9939  
   995.5000    -89.2000     36.6315     26.1555     29.3938     17.7030     68.8304      2.2940      0.0694     20.5240     53.4442     88.4398  
   996.0000    -89.8158     36.3448     25.9442     29.2300     17.6712     69.6580      2.3064      0.0887     17.9977     54.2343     88.7228  
   996.5000    -90.4514     36.3723     25.6619     29.0670     17.6416     68.5868      2.3504      0.1003     15.9980     53.9534     88.9681  
   997.0000    -92.0501     36.8478     25.3995     29.0063     17.7233     67.9505      2.3782      0.0998     15.2702     52.6343     89.1966  
   997.5000    -93.0480     36.9771     25.5038     28.9915     17.7833     67.5592      2.4061      0.0925     16.1053     51.9052     89.4660  
   998.0000    -93.7661     37.2732     25.7701     28.9766     17.8296     66.5256      2.3863      0.0618     16.8772     52.0935     89.5475  
   998.5000    -94.6586     37.5418     25.9443     28.9618     17.8503     65.8742      2.3698      0.0665     17.8187     53.1577     89.5589  
   999.0000    -95.0597     37.8909     25.8822     28.9470     17.8567     66.4418      2.3608      0.0593     18.0770     54.1856     88.9158  
   999.5000    -95.6944     38.1685     25.9991     28.9363     17.8648     66.9329      2.3566      0.0616     18.5693     53.4972     89.6101  
  1000.0000    -95.3600     37.8018     26.1166     28.9449     17.8495     66.9817      2.3443      0.0711     17.8333     54.8379     90.4388  
  1000.5000    -94.6758     37.2991     26.2346     28.9536     17.8359     67.0282      2.3301      0.0803     20.1834     56.3808     88.8795  
  1001.0000    -94.1853     36.2002     25.7647     28.9622     17.8241     67.2229      2.3259      0.0912     19.9549     56.6009     88.2163  
  1001.5000    -93.5637     34.5550     24.9475     28.1010     17.8183     67.2264      2.3249      0.0826     20.5990     55.7263     87.3271  
  1002.0000    -93.2967     32.8908     22.8236     27.0926     17.8860     67.7847      2.3158      0.0580     19.6495     54.4113     87.2606  
  1002.5000    -93.1866     31.4783     21.6686     26.0958     17.9225     68.6944      2.3207      0.0757     18.7284     53.6469     87.1941  
  1003.0000    -93.1795     30.2142     20.5835     24.5315     17.9263     68.9930      2.3453      0.1001     18.2070     53.3184     87.7083  
  1003.5000    -94.3041     29.3707     20.0212     23.5351     17.9072     69.7115      2.3508      0.1047     17.8307     53.0067     89.9819  
  1004.0000    -94.9870     28.4021     19.6655     23.1488     17.9175     71.5687      2.3586      0.0841     17.2866     53.2882     92.7363  
  1004.5000    -95.3276     27.8475     19.3333     23.4695     17.9977     71.0956      2.3599      0.0699     17.6107     54.6432     95.4194  
  1005.0000    -95.0052     27.3038     19.1787     23.7640     18.0124     70.2005      2.3632      0.0777     17.1591     55.0355     95.6591  
  1005.5000    -93.2785     26.7707     18.9854     24.0623     18.0027     69.5485      2.3723      0.0837     18.4057     54.7732     95.2862  
  1006.0000    -90.7076     26.2480     18.9857     24.2268     17.9712     69.0016      2.3538      0.0767     18.7520     53.4054     93.9088  
  1006.5000    -89.7566     26.3190     19.0326     24.2035     17.9487     69.6457      2.3465      0.0713     18.8463     53.4246     92.8460  
  1007.0000    -90.1948     26.8177     19.1123     24.1347     17.9903     69.3229      2.3451      0.0633     18.8984     53.9332     93.7830  
