~VERSION INFORMATION
 VERS.                           2.00:        CWLS LOG ASCII STANDARD - VERSION 2.00
 WRAP.                             NO:        ONE LINE PER DEPTH STEP
~WELL INFORMATION
#MNEM.UNIT                   DATA             INFORMATION
#----------             --------------        ------------------------------
 STRT.F                      100.0000:        START DEPTH
 STOP.F                    13172.0000:        STOP DEPTH
 STEP.F                        0.5000:        STEP VALUE
 NULL.                      -999.2500:        NULL VALUE
 COMP.    USGS/NPR HUSKY OIL OPERATOR:        COMPANY  
 LOC .                   25   1S   1W:        LOCATION   
 DATE.                         7/5/79:        LOG DATE 
 WELL.            SEABEE TEST WELL #1:        WELL     
 UWI .                   502872000700:        UNIQUE WELL ID 
 API .                   502872000700:        UNIQUE WELL IDENTIFIER 
 FLD .                        WILDCAT:        FIELD    
 CNTY.                       N. SLOPE:        COUNTY  
 STAT.                         ALASKA:        STATE   
 CTRY.                            USA:        COUNTRY 
 OPER.    USGS/NPR HUSKY OIL OPERATOR:        OPERATOR  
 SRVC.                   SCHLUMBERGER:        SERVICE COMPANY 
 LAT .                         0.0000:        LATITUDE
 LON .                         0.0000:        LONGITUDE
 DIGS.               CENTER LINE DATA:        DIGITIZING COMPANY 
~CURVE INFORMATION      
#MNEM        .UNIT         API CODE           CURVE DESCRIPTION
#-----------------      --------------        ------------------------------
 DEPT        .F                      :        1  DEPTH
 SP          .MV                     :        2  
 ILD         .OHMM                   :        3  
 ILM         .OHMM                   :        4  
 LL8         .OHMM                   :        5  
 CALI        .IN                     :        6  
 GR          .GAPI                   :        7  
 RHOB        .G/C3                   :        8  
 DRHO        .G/C3                   :        9  
 DPHI        .%                      :        10 
 NPHI        .%                      :        11 
 DT          .US/F                   :        12 
~PARAMETER INFORMATION       
#MNEM.UNIT                  VALUE             DESCRIPTION OF MNEMONIC
#---------             ---------------        ------------------------------
 EKB .F                      322.0000:        KELLY BUSHING
 TD  .F                    15611.0000:        TOTAL DEPTH
 BHT .F                       96.0000:        BOTTOM HOLE TEMPERATURE
 BS  .                        17.5000:        BIT SIZE
 FD  .                         9.7000:        FLUID DENSITY
 CSIZ.                        30.0000:        CASING SIZE
 CBD .F                      122.0000:        CASING DRILLER 1
 CBL .F                      125.0000:        CASING LOGGER 1
 DFT .                            Gel:        TYPE FLUID IN HOLE
 DFV .                        80.0000:        VISCOSITY
 DFPH.                         8.5000:        PH
 DFL .                         8.0000:        FLUID LOSS
 RMS .                         4.2600:        RM
 MST .F                       86.0000:        RM MEAS. TEMP.
 RMF .                         4.9100:        RMF
 MFST.F                       64.0000:        RMF MEAS. TEMP.
 RMC .                         4.8300:        RMC
 MCST.F                       64.0000:        RMC MEAS. TEMP.
~OTHER INFORMATION
~A    DEPTH          SP         ILD         ILM         LL8        CALI          GR        RHOB        DRHO        DPHI        NPHI          DT  
# ...
 12750.0000    -18.4074      4.1379      4.3188      4.7122      6.9762     54.8937      2.3823      0.0816    -12.3775     31.2687     82.2442  
 12750.5000    -18.5090      3.9754      4.1133      4.8119      6.9864     57.6388      2.3885      0.0924    -12.2205     30.8717     82.2451  
 12751.0000    -18.7474      3.8192      3.9567      5.0112      6.9925     58.9403      2.3953      0.0909    -12.0316     30.8448     82.1613  
 12751.5000    -18.9486      3.6692      3.8172      5.3826      6.9781     61.3541      2.3937      0.0893    -11.9859     32.3141     82.0826  
 12752.0000    -18.9987      3.5251      3.6832      5.8730      6.9650     63.6578      2.3784      0.0896    -12.2961     33.2507     82.0698  
 12752.5000    -18.9953      3.3985      3.5984      5.1293      6.9745     64.4689      2.3667      0.0907    -11.8416     32.6768     82.0707  
 12753.0000    -18.9066      3.3085      3.5203      4.7727      6.9921     63.9875      2.3722      0.0876    -11.4236     32.1029     82.0802  
 12753.5000    -19.0523      3.2446      3.4605      4.6725      6.9992     61.7465      2.3785      0.0818    -10.5239     32.5280     82.0897  
 12754.0000    -18.8971      3.2320      3.4115      4.8259      6.9889     59.9602      2.3749      0.0675    -10.7340     33.3436     82.0716  
 12754.5000    -18.7419      3.2572      3.4097      4.9691      6.9877     59.2879      2.3644      0.0686    -11.3381     33.1199     82.0535  
 12755.0000    -18.5867      3.3220      3.4377      4.9569      6.9778     59.8200      2.3686      0.0766    -10.5786     31.6687     82.0630  
 12755.5000    -18.4712      3.3936      3.4709      4.9359      6.9696     60.8435      2.3827      0.0694     -9.5639     31.0078     82.0913  
 12756.0000    -18.3565      3.5207      3.5045      5.0365      6.9585     62.9762      2.3946      0.0583    -10.2362     31.0608     82.1038  
 12756.5000    -18.2617      3.6688      3.6542      5.2436      6.9562     65.0561      2.3972      0.0589    -10.3145     29.0614     82.0852  
 12757.0000    -18.1936      3.7752      3.9047      5.3450      6.9659     66.2785      2.4057      0.0620    -11.6509     26.7109     82.0615  
 12757.5000    -18.1579      3.8847      4.1724      5.5882      7.0011     67.7343      2.4330      0.0800    -12.4393     25.7399     82.0378  
 12758.0000    -18.1866      3.9974      4.3607      6.8333      7.0140     69.2059      2.4489      0.0920    -12.6267     28.0635     81.9851  
 12758.5000    -18.2850      4.0410      4.3974      8.5233      7.0151     70.5929      2.4403      0.1060    -10.7333     30.2694     81.9256  
 12759.0000    -18.4257      4.0566      4.3679      8.2174      7.0129     71.2831      2.4090      0.0769     -9.2285     31.0312     81.9131  
 12759.5000    -18.5463      4.0547      4.3378      6.5287      7.0109     72.0027      2.3929      0.0494    -10.9529     32.0236     81.9425  
 12760.0000    -18.6481      4.0500      4.3109      5.1940      7.0133     71.9552      2.3856      0.0671    -12.6631     33.0131     82.0583  
 12760.5000    -18.7440      4.0338      4.3593      5.1255      7.0170     71.3293      2.3755      0.0950    -12.3070     33.1264     82.3723  
 12761.0000    -18.8643      4.0167      4.4083      5.5462      7.0235     71.2195      2.3707      0.0955    -12.9421     33.2217     83.6701  
 12761.5000    -18.9325      3.9857      4.3699      6.0842      7.0006     70.8222      2.3692      0.1018    -13.1703     33.3781     85.8270  
 12762.0000    -19.0636      3.8569      4.1992      6.7909      7.0012     70.5414      2.3670      0.1109    -12.6390     34.0613     88.7199  
 12762.5000    -19.2140      3.6389      4.0037      7.4282      7.0125   -999.2500      2.3617      0.1015    -11.9312     34.7627     90.4996  
 12763.0000    -19.3240      3.5868      3.8230      6.0053      7.0171   -999.2500      2.3552      0.0905    -12.1206     33.6458     90.4230  
 12763.5000    -19.2438      3.5500      3.7352      4.7679      7.0249   -999.2500      2.3647      0.0902    -12.5126     31.9430     89.8422  
 12764.0000    -19.2031      3.5155      3.6916      4.3881      7.0076   -999.2500      2.3773      0.0952    -12.2364     29.4735     88.7830  
 12764.5000    -19.2214      3.4901      3.6794      4.9011      6.9956   -999.2500      2.4036      0.0946    -10.7352     27.8059     88.0324  
 12765.0000    -19.1773      3.4709      3.7146      5.4740      6.9889   -999.2500      2.4269      0.0724    -10.2246     26.7531     87.6111  
 12765.5000    -19.0435      3.5121      3.8363      5.9943      6.9868   -999.2500      2.4399      0.0617     -9.6759     26.4818     86.8733  
 12766.0000    -18.9048      3.5785      3.9619      5.7997      6.9682   -999.2500      2.4482      0.0496     -7.6511     26.8151     85.9165  
 12766.5000    -18.7116      3.6461      4.0917      5.4956      6.9768   -999.2500      2.4417      0.0236     -6.7047     27.8885     85.7598  
 12767.0000    -18.4945      3.7175      4.2257      5.6882      6.9951   -999.2500      2.4353      0.0069     -6.4305     28.7058     86.5563  
 12767.5000    -18.4145      3.7870      4.2576      6.2255      6.9995   -999.2500      2.4222      0.0021     -6.1770     28.5895     87.3701  
 12768.0000    -18.5351      3.7747      4.2030      6.6761      6.9977   -999.2500      2.4219     -0.0020     -5.0009     27.5923     88.0082  
 12768.5000    -18.6746      3.7506      4.1459      6.5249      6.9989   -999.2500      2.4296     -0.0189     -4.1728     26.4728     87.5572  
 12769.0000    -18.7891      3.7289      4.0895      5.8596      6.9935   -999.2500      2.4408     -0.0312     -3.7496     26.8203     87.4449  
 12769.5000    -18.9036      3.7473      4.0338      5.7228      6.9828   -999.2500      2.4423     -0.0411     -4.5069     27.7822     87.3409  
 12770.0000    -18.8655      3.8058      4.0169      5.6265      6.9803   -999.2500      2.4299     -0.0301     -5.7602     28.9907     87.1681  
 12770.5000    -18.8773      3.9071      4.1043      5.5587      6.9793   -999.2500      2.4149     -0.0014     -6.5781   -999.2500     87.1412  
 12771.0000    -18.9986      3.9555      4.2735      5.5656      6.9800   -999.2500      2.4091      0.0039     -6.9685   -999.2500     87.2036  
 12771.5000    -19.1404      3.9649      4.5105      5.6412      6.9997   -999.2500   -999.2500      0.0097     -7.8389   -999.2500     86.5432  
 12772.0000    -19.1370      4.0353      4.7607      5.5754      7.0173   -999.2500   -999.2500      0.0310     -7.5918   -999.2500     85.9403  
 12772.5000    -19.0769      4.1860      4.8599      5.8618      7.0153   -999.2500   -999.2500      0.0197     -6.9548   -999.2500   -999.2500  
 12773.0000    -19.0101      4.3384      4.8844      6.7828      6.9953   -999.2500   -999.2500      0.0097     -7.8623   -999.2500   -999.2500  
 12773.5000    -18.9456      4.4964      5.0919      7.2530      6.9947   -999.2500   -999.2500      0.0251    -11.1832   -999.2500   -999.2500  
 12774.0000    -18.8593      4.6601      5.2352      7.7243      6.9716   -999.2500   -999.2500      0.0849    -15.2850   -999.2500   -999.2500  
 12774.5000    -18.6720      4.7309      5.1225      8.7726      6.8901   -999.2500   -999.2500      0.1697   -999.2500   -999.2500   -999.2500  
 12775.0000    -18.2844      4.7564      4.9943      7.1420      6.5059   -999.2500   -999.2500      0.2280   -999.2500   -999.2500   -999.2500  
 12775.5000    -17.9527      4.7024      4.9490      6.6297   -999.2500   -999.2500   -999.2500   -999.2500   -999.2500   -999.2500   -999.2500  
 12776.0000    -17.8680      4.6489      4.9041      6.5481   -999.2500   -999.2500   -999.2500   -999.2500   -999.2500   -999.2500   -999.2500  
 12776.5000    -18.0984      4.6459      4.9020      6.4676   -999.2500   -999.2500   -999.2500   -999.2500   -999.2500   -999.2500   -999.2500  
 12777.0000    -18.3210      4.6589      4.9089      6.4136   -999.2500   -999.2500   -999.2500   -999.2500   -999.2500   -999.2500   -999.2500  
