~VERSION INFORMATION
 VERS.                           2.00:        CWLS LOG ASCII STANDARD - VERSION 2.00
 WRAP.                             NO:        ONE LINE PER DEPTH STEP
~WELL INFORMATION
#MNEM.UNIT                   DATA             INFORMATION
#----------             --------------        ------------------------------
 STRT.F                      100.0000:        START DEPTH
 STOP.F                    13172.0000:        STOP DEPTH
 STEP.F                        0.5000:        STEP VALUE
 NULL.                      -999.2500:        NULL VALUE
 COMP.    USGS/NPR HUSKY OIL OPERATOR:        COMPANY  
 LOC .                   25   1S   1W:        LOCATION   
 DATE.                         7/5/79:        LOG DATE 
 WELL.            SEABEE TEST WELL #1:        WELL     
 UWI .                   502872000700:        UNIQUE WELL ID 
 API .                   502872000700:        UNIQUE WELL IDENTIFIER 
 FLD .                        WILDCAT:        FIELD    
 CNTY.                       N. SLOPE:        COUNTY  
 STAT.                         ALASKA:        STATE   
 CTRY.                            USA:        COUNTRY 
 OPER.    USGS/NPR HUSKY OIL OPERATOR:        OPERATOR  
 SRVC.                   SCHLUMBERGER:        SERVICE COMPANY 
 LAT .                         0.0000:        LATITUDE
 LON .                         0.0000:        LONGITUDE
 DIGS.               CENTER LINE DATA:        DIGITIZING COMPANY 
~CURVE INFORMATION      
#MNEM        .UNIT         API CODE           CURVE DESCRIPTION
#-----------------      --------------        ------------------------------
 DEPT        .F                      :        1  DEPTH
 SP          .MV                     :        2  
 ILD         .OHMM                   :        3  
 ILM         .OHMM                   :        4  
 LL8         .OHMM                   :        5  
 CALI        .IN                     :        6  
 GR          .GAPI                   :        7  
 RHOB        .G/C3                   :        8  
 DRHO        .G/C3                   :        9  
 DPHI        .%                      :        10 
 NPHI        .%                      :        11 
 DT          .US/F                   :        12 
~PARAMETER INFORMATION       
#MNEM.UNIT                  VALUE             DESCRIPTION OF MNEMONIC
#---------             ---------------        ------------------------------
 EKB .F                      322.0000:        KELLY BUSHING
 TD  .F                    15611.0000:        TOTAL DEPTH
 BHT .F                       96.0000:        BOTTOM HOLE TEMPERATURE
 BS  .                        17.5000:        BIT SIZE
 FD  .                         9.7000:        FLUID DENSITY
 CSIZ.                        30.0000:        CASING SIZE
 CBD .F                      122.0000:        CASING DRILLER 1
 CBL .F                      125.0000:        CASING LOGGER 1
 DFT .                            Gel:        TYPE FLUID IN HOLE
 DFV .                        80.0000:        VISCOSITY
 DFPH.                         8.5000:        PH
 DFL .                         8.0000:        FLUID LOSS
 RMS .                         4.2600:        RM
 MST .F                       86.0000:        RM MEAS. TEMP.
 RMF .                         4.9100:        RMF
 MFST.F                       64.0000:        RMF MEAS. TEMP.
 RMC .                         4.8300:        RMC
 MCST.F                       64.0000:        RMC MEAS. TEMP.
~OTHER INFORMATION
~A    DEPTH          SP         ILD         ILM         LL8        CALI          GR        RHOB        DRHO        DPHI        NPHI          DT  
# ...
  4335.0000    -60.1538     14.6684     12.2253     11.1747     18.1629     67.0337      2.4878      0.0037     10.1341     28.9649     85.3969  
  4335.5000    -60.0346     14.7342     12.2664     11.1789     18.1637     67.2577      2.4898      0.0029     10.0988     28.7615     85.1430  
  4336.0000    -60.2449     14.7658     12.3077     11.1830     18.1645     67.0779      2.4886      0.0052      9.7979     28.5409     84.5961  
  4336.5000    -60.3856     14.9287     12.3738     11.1871     18.1653     67.1318      2.4847      0.0056     10.0398     28.1826     83.9874  
  4337.0000    -60.5190     15.0542     12.4713     11.1875     18.1661     67.3077      2.4745      0.0021     10.2491     27.6250     83.2852  
  4337.5000    -60.1629     14.8703     12.5695     11.1782     18.1619     67.0482      2.4665     -0.0062     10.8674     27.2585     82.6239  
  4338.0000    -60.8147     14.8726     12.6685     11.1690     18.1406     66.4518      2.4767      0.0001     11.4361     26.6404     82.0507  
  4338.5000    -60.7449     15.0793     12.7683     11.1597     18.1193     66.1102      2.4944      0.0089     10.9301     26.1622     81.6882  
  4339.0000    -60.4176     15.2270     12.8592     11.1504     18.0980     66.0450      2.5031      0.0118      9.8226     26.1452     81.9172  
  4339.5000    -60.6314     15.2011     12.9216     11.1376     18.0864     65.7964      2.5079      0.0152      9.1542     26.2398     82.1770  
  4340.0000    -60.7172     15.2167     12.9844     11.1244     18.0860     66.3810      2.5247      0.0247      8.6512     26.1575     82.2995  
  4340.5000    -60.3989     15.2454     13.0430     11.1113     18.0758     67.8603      2.5253      0.0242      7.9695     26.3542     82.4562  
  4341.0000    -59.8483     15.2482     13.0614     11.0981     18.0247     69.2123      2.5150      0.0205      7.6846     26.9066     82.7355  
  4341.5000    -59.6390     15.2995     13.0611     11.0850     17.9745     70.1899      2.5052      0.0157      8.3660     27.3333     83.1928  
  4342.0000    -59.3311     15.2971     13.0579     11.0694     17.9612     70.8327      2.5027      0.0100      8.9933     27.7175     84.0572  
  4342.5000    -58.8994     15.1801     13.0377     11.0461     17.9888     71.4019      2.5114      0.0098      9.3754     27.8505     84.8642  
  4343.0000    -58.8791     15.1763     13.0099     11.0227     18.0236     71.7465      2.5186      0.0159      8.8006     28.3862     84.8746  
  4343.5000    -58.8247     15.2795     13.0288     11.0109     18.0584     71.8240      2.5295      0.0239      8.4491     28.9030     84.5048  
  4344.0000    -58.9172     15.3041     13.0478     11.0014     18.0931     72.0042      2.5227      0.0199      7.6440     29.0827     82.7520  
  4344.5000    -58.9407     15.2914     13.0668     10.9920     18.1175     72.4848      2.5212      0.0137      7.9255     28.4893     81.4426  
  4345.0000    -58.6232     15.1996     13.0859     10.9826     18.1205     72.7093      2.5193      0.0096      8.1111     27.5712     81.2215  
  4345.5000    -58.8934     15.1699     13.0734     10.9600     18.1235     72.1272      2.5164      0.0055      8.1252     27.1641     81.3022  
  4346.0000    -59.8954     15.1689     12.9149     10.9160     18.1265     71.1147      2.5127      0.0014      8.4455     27.0925     81.6100  
  4346.5000    -60.3484     15.2067     12.7583     10.8711     18.1296     70.5091      2.5019     -0.0027      8.4670     27.1658     82.1900  
  4347.0000    -60.2187     15.2989     12.6332     10.8234     18.1326     70.4242      2.5014     -0.0011      9.0515     27.5790     82.9504  
  4347.5000    -60.2886     15.0761     12.6534     10.7709     18.1356     70.6582      2.5068      0.0137      9.3919     28.1822     83.7409  
  4348.0000    -60.6015     15.0182     12.6221     10.7095     18.1387     71.0476      2.5139      0.0223      8.8811     29.0455     84.3880  
  4348.5000    -60.9143     14.9343     12.4980     10.6484     18.1417     71.6358      2.5045      0.0203      8.5260     29.7362     83.7275  
  4349.0000    -61.2272     14.7804     12.2645     10.5452     18.1447     72.0073      2.4971      0.0149      8.8802     29.9820     82.9962  
  4349.5000    -61.3998     14.6281     12.0127     10.4374     18.1396     72.0913      2.4934      0.0061      9.4101     29.8553     82.4398  
  4350.0000    -61.4961     14.3197     11.8466     10.2222     18.0617     71.9808      2.4971      0.0050      9.8730     29.4715     83.7040  
  4350.5000    -61.5780     14.2988     11.7732     10.0050     17.9764     71.9222      2.4859      0.0022      9.6522     29.1876     84.8623  
  4351.0000    -61.5364     14.3231     11.8907     10.0330     17.9163     72.1544      2.4726     -0.0033      9.8574     29.5405     85.5789  
  4351.5000    -61.4874     14.3988     11.9863     10.2439     17.8832     71.7549      2.4630     -0.0022     10.8070     30.0432     86.4774  
  4352.0000    -61.4339     14.3926     12.0279     10.3376     17.8454     70.9471      2.4708      0.0004     11.4125     30.2494     88.0078  
  4352.5000    -61.3804     14.4223     12.1114     10.3558     17.8049     70.2127      2.4642      0.0031     11.2152     29.9797     86.7630  
  4353.0000    -61.3259     14.4610     12.1812     10.3594     17.7498     69.5507      2.4603     -0.0000     11.4241     29.5520     85.9180  
  4353.5000    -61.2645     14.5092     12.1676     10.4227     17.7446     69.0175      2.4493     -0.0062     11.7456     29.5511     85.9067  
  4354.0000    -61.1884     14.4660     12.0663     10.4773     17.7529     69.9847      2.4556     -0.0043     12.2843     29.5238     86.0474  
  4354.5000    -61.1123     14.3936     11.8694     10.4102     17.6816     71.4938      2.4703     -0.0021     12.2223     29.4346     86.1010  
  4355.0000    -61.0362     14.3958     11.6885     10.3101     17.6536     72.6144      2.4856     -0.0003     11.3510     29.4333     86.0412  
  4355.5000    -61.0311     14.3862     11.6154     10.1577     17.6395     73.9550      2.4888      0.0015     10.2971     29.5053     85.9402  
  4356.0000    -61.0745     14.3248     11.6381     10.1667     17.6687     75.0673      2.4962      0.0002     10.0555     29.5445     86.5988  
  4356.5000    -61.1179     14.2694     11.6433     10.2236     17.7070     75.5183      2.4866      0.0030      9.6071     29.5678     87.8895  
  4357.0000    -61.1519     14.2133     11.6667     10.2609     17.7291     74.4146      2.4735      0.0080     10.0428     29.7612     90.1272  
  4357.5000    -61.1362     14.1503     11.6630     10.2635     17.7589     73.8207      2.4676      0.0154     10.8297     29.7679     91.5294  
  4358.0000    -61.1204     14.1648     11.6315     10.2209     17.7741     73.6929      2.4663      0.0246     11.4074     29.6405     91.2830  
  4358.5000    -61.1047     14.1700     11.6069     10.1662     17.7630     74.0493      2.4706      0.0137     11.2805     29.5075     89.4049  
  4359.0000    -61.0889     14.0387     11.5158     10.1118     17.7548     74.1168      2.4929      0.0257     11.1988     29.4416     87.4730  
  4359.5000    -61.0313     13.9527     11.4243     10.0577     17.7705     73.5777      2.5094      0.0369     10.0603     29.3531     85.3677  
  4360.0000    -61.4009     13.8492     11.2428     10.0038     17.7944     72.7133      2.4993      0.0277      9.1425     29.5959     83.3646  
  4360.5000    -61.5262     13.6534     11.0426     10.0541     17.7477     71.8939      2.4908      0.0184      9.6154     30.1537     83.7423  
  4361.0000    -61.5117     13.2066     10.8406      9.8876     17.4746     71.5725      2.4852      0.0141      9.7781     30.8530     84.3454  
  4361.5000    -61.5582     12.7745     10.6394      9.7047     17.3521     71.8949      2.4780      0.0119     10.1811     31.4742     84.3910  
  4362.0000    -61.5550     12.5578     10.4419      9.2898     17.3875     72.2925      2.4702      0.0071     10.5765     31.8137     87.0327  
