~VERSION INFORMATION
 VERS.                           2.00:        CWLS LOG ASCII STANDARD - VERSION 2.00
 WRAP.                             NO:        ONE LINE PER DEPTH STEP
~WELL INFORMATION
#MNEM.UNIT                   DATA             INFORMATION
#----------             --------------        ------------------------------
 STRT.F                      100.0000:        START DEPTH
 STOP.F                    13172.0000:        STOP DEPTH
 STEP.F                        0.5000:        STEP VALUE
 NULL.                      -999.2500:        NULL VALUE
 COMP.    USGS/NPR HUSKY OIL OPERATOR:        COMPANY  
 LOC .                   25   1S   1W:        LOCATION   
 DATE.                         7/5/79:        LOG DATE 
 WELL.            SEABEE TEST WELL #1:        WELL     
 UWI .                   502872000700:        UNIQUE WELL ID 
 API .                   502872000700:        UNIQUE WELL IDENTIFIER 
 FLD .                        WILDCAT:        FIELD    
 CNTY.                       N. SLOPE:        COUNTY  
 STAT.                         ALASKA:        STATE   
 CTRY.                            USA:        COUNTRY 
 OPER.    USGS/NPR HUSKY OIL OPERATOR:        OPERATOR  
 SRVC.                   SCHLUMBERGER:        SERVICE COMPANY 
 LAT .                         0.0000:        LATITUDE
 LON .                         0.0000:        LONGITUDE
 DIGS.               CENTER LINE DATA:        DIGITIZING COMPANY 
~CURVE INFORMATION      
#MNEM        .UNIT         API CODE           CURVE DESCRIPTION
#-----------------      --------------        ------------------------------
 DEPT        .F                      :        1  DEPTH
 SP          .MV                     :        2  
 ILD         .OHMM                   :        3  
 ILM         .OHMM                   :        4  
 LL8         .OHMM                   :        5  
 CALI        .IN                     :        6  
 GR          .GAPI                   :        7  
 RHOB        .G/C3                   :        8  
 DRHO        .G/C3                   :        9  
 DPHI        .%                      :        10 
 NPHI        .%                      :        11 
 DT          .US/F                   :        12 
~PARAMETER INFORMATION       
#MNEM.UNIT                  VALUE             DESCRIPTION OF MNEMONIC
#---------             ---------------        ------------------------------
 EKB .F                      322.0000:        KELLY BUSHING
 TD  .F                    15611.0000:        TOTAL DEPTH
 BHT .F                       96.0000:        BOTTOM HOLE TEMPERATURE
 BS  .                        17.5000:        BIT SIZE
 FD  .                         9.7000:        FLUID DENSITY
 CSIZ.                        30.0000:        CASING SIZE
 CBD .F                      122.0000:        CASING DRILLER 1
 CBL .F                      125.0000:        CASING LOGGER 1
 DFT .                            Gel:        TYPE FLUID IN HOLE
 DFV .                        80.0000:        VISCOSITY
 DFPH.                         8.5000:        PH
 DFL .                         8.0000:        FLUID LOSS
 RMS .                         4.2600:        RM
 MST .F                       86.0000:        RM MEAS. TEMP.
 RMF .                         4.9100:        RMF
 MFST.F                       64.0000:        RMF MEAS. TEMP.
 RMC .                         4.8300:        RMC
 MCST.F                       64.0000:        RMC MEAS. TEMP.
~OTHER INFORMATION
~A    DEPTH          SP         ILD         ILM         LL8        CALI          GR        RHOB        DRHO        DPHI        NPHI          DT  
# ...
  8542.5000    -28.1984      8.8764      6.7542      8.8470     15.5352     69.0464      2.6055      0.0018      2.8608     28.6378     74.8256  
  8543.0000    -28.3900      9.1348      6.9431      9.2649     15.2875     67.9847      2.6069     -0.0116      2.7289     27.4812     75.3979  
  8543.5000    -28.4440      9.4006      7.0783      9.7026     15.2446     67.1077      2.6057     -0.0199      2.6871     26.5524     76.6691  
  8544.0000    -28.3909      9.6742      7.1352     10.1428     15.2483     66.7482      2.6093     -0.0104      2.9403     26.1651     77.6829  
  8544.5000    -28.2412      9.9492      7.1927     10.4132     15.2419     67.1499      2.6159     -0.0004      2.8525     26.6800     78.3795  
  8545.0000    -28.0899     10.0371      7.2505     10.6136     15.2242     67.5524      2.6142      0.0036      2.1955     28.1188     78.8967  
  8545.5000    -28.1051     10.1258      7.3145     11.1109     15.2450     67.8964      2.6052      0.0038      2.2866     29.4311     79.3814  
  8546.0000    -28.1868     10.2007      7.3722     11.5512     15.3274     69.0264      2.6017      0.0026      2.8624     29.7847     79.7672  
  8546.5000    -28.3473     10.1921      7.3445     11.3494     15.3462     69.9930      2.5983      0.0011      3.1850     30.1556     80.0939  
  8547.0000    -28.5909     10.1836      7.5191     10.7882     15.3734     70.0675      2.5947     -0.0006      3.3500     30.6526     80.3735  
  8547.5000    -28.4890     10.1750      7.6942     11.4721     15.4163     70.1102      2.5896      0.0005      3.5462     31.2105     80.6824  
  8548.0000    -28.5706      9.9988      7.6827     12.1608     15.5226     71.3064      2.5909      0.0003      3.8492     31.5534     81.0780  
  8548.5000    -28.6033      9.7810      7.2601     12.2557     15.7146     72.7938      2.5948     -0.0030      3.9227     31.5445     81.4547  
  8549.0000    -28.5871      9.5679      7.0265     11.4742     15.7380     75.8347      2.6033     -0.0029      3.4941     31.3594     81.9046  
  8549.5000    -28.5493      9.5372      7.0050     10.7440     15.6123     78.2940      2.5967     -0.0024      2.8960     31.2259     82.3382  
  8550.0000    -27.7479      9.5124      7.0988     10.0604     15.4866     79.9054      2.5727     -0.0065      3.6993     31.7390     82.9298  
  8550.5000    -28.3171      9.4876      7.1843      9.6812     15.3652     79.5521      2.5549     -0.0156      5.4995     32.2216     83.4379  
  8551.0000    -28.6281      9.4682      7.2229      9.5014     15.3308     77.8080      2.5495     -0.0185      5.7956     31.8803     83.3167  
  8551.5000    -28.8293      9.4619      7.2535      9.9946     15.3387     76.1290      2.5447     -0.0225      6.3612     31.4972     82.3453  
  8552.0000    -28.6185      9.4713      7.2335     10.7362     15.3393     74.2640      2.5364     -0.0220      6.7531     31.1431     81.3206  
  8552.5000    -28.9790      9.5152      7.1358     11.3102     15.3285     73.3367      2.5535     -0.0193      7.0331     31.4724     80.3850  
  8553.0000    -29.2270      9.5816      6.9652     11.1025     15.3177     73.0831      2.5745     -0.0166      6.0443     31.9677     80.0809  
  8553.5000    -29.1297      9.6575      6.9880     10.4792     15.3069     72.7428      2.5703     -0.0159      4.7841     32.0792     80.0230  
  8554.0000    -28.7533      9.7340      7.1544     10.0784     15.2802     72.7248      2.5694     -0.0156      4.9554     31.5134     79.6458  
  8554.5000    -28.7924      9.8111      7.3373      9.9788     15.2328     72.4593      2.5796     -0.0155      4.9661     30.6489     79.1244  
  8555.0000    -28.8674      9.8959      7.5248     10.1600     15.2228     71.1615      2.5875     -0.0200      4.4142     29.7656     78.5171  
  8555.5000    -28.6462      9.9952      7.6190     10.5847     15.2512     68.9417      2.5901     -0.0243      3.9168     29.5363     78.1607  
  8556.0000    -27.8912     10.0955      7.6822     11.6305     15.1549     66.1388      2.5985     -0.0236      3.3344     29.8745     77.9562  
  8556.5000    -24.6179     10.2079      7.8280     12.4177     14.9885     65.0201      2.5927     -0.0165      2.9657     29.8895     77.9193  
  8557.0000    -16.3258     10.3580      7.8026     12.0889     15.0502     65.3005      2.5952     -0.0118      3.6247     29.5629     77.6726  
  8557.5000    -13.1256     10.4470      7.7286     11.8719     15.0912     66.1352      2.6017      0.0013      3.4650     29.2299     77.5168  
  8558.0000    -12.3671     10.4734      7.6144     12.2190     15.0679     67.4101      2.6042      0.0009      3.2146     29.0771     77.9564  
  8558.5000    -12.1176     10.4999      7.5621     11.8027     15.0448     68.1058      2.6059      0.0004      2.9641     29.0367     78.8945  
  8559.0000    -11.9994     10.5264      7.4656     10.9826     15.0283     68.2533      2.6038      0.0009      2.8950     28.9864     79.9552  
  8559.5000    -11.8811     10.5567      7.5376     10.5277     15.0615     68.5879      2.5905      0.0011      2.9314     29.1716     80.6233  
  8560.0000    -12.1159     10.6869      7.8715     10.5228     15.0947     69.5674      2.5739      0.0015      3.6229     29.8135     81.3749  
  8560.5000    -12.3771     10.8432      8.2179     10.7356     15.1279     70.4047      2.5720      0.0017      4.5265     30.6014     80.4427  
  8561.0000    -12.5034     11.0035      8.2178     11.1107     15.1600     71.5154      2.5763      0.0032      4.8607     31.4264     79.6077  
  8561.5000    -12.4567     11.1661      8.1640     11.4060     15.1882     72.6865      2.5916      0.0049      4.6482     31.6268     78.4345  
  8562.0000    -12.4831     11.3312      8.0920     11.5825     15.1886     74.0618      2.6052      0.0066      3.8003     30.6311     77.1680  
  8562.5000    -12.5772     11.4987      8.0746     11.7779     15.1774     74.9317      2.6204      0.0084      2.9152     29.6745     79.3692  
  8563.0000    -12.7110     11.6686      8.1695     12.2644     15.1949     75.0428      2.6444      0.0100      1.9241     29.7911     80.7807  
  8563.5000    -12.7093     11.8865      8.2040     12.8251     15.3510     74.6755      2.6481      0.0104      0.4873     30.0548     81.6314  
  8564.0000    -12.6092     12.1159      8.2722     13.2836     15.2701     72.9108      2.6246      0.0078     -0.5099     30.2152     80.1734  
  8564.5000    -12.5833     12.3498      8.2977     13.3834     15.1101     71.1159      2.6072      0.0028      1.6164     30.6374     77.5595  
  8565.0000    -12.6036     12.5881      8.4549     13.5261     15.0790     70.0998      2.6129     -0.0025      2.6432     31.1625     75.6162  
  8565.5000    -12.8173     12.8311      8.6423     13.6920     15.0653     68.9034      2.6202     -0.0074      2.3181     31.0253     74.1533  
  8566.0000    -13.0591     13.2624      8.8340     13.9583     15.0517     65.9515      2.6274     -0.0098      1.8750     29.7893     73.2180  
  8566.5000    -13.2909     13.9100      9.0299     14.2820     15.0399     63.6468      2.6276     -0.0011      1.5057     28.1820     72.7754  
  8567.0000    -13.6222     14.7377      9.4324     14.6133     15.0187     62.9538      2.6251     -0.0007      1.3248     26.7205     72.8648  
  8567.5000    -13.9447     15.6146      9.8253     15.1522     14.9814     63.9845      2.6212     -0.0023      1.4976     25.6513     73.9312  
  8568.0000    -14.1320     16.5414     10.1859     16.1371     14.9623     65.6694      2.6197      0.0002      1.8426     25.3317     75.1109  
  8568.5000    -14.3332     17.0990     10.5362     17.3672     14.9439     66.9161      2.6192      0.0066      1.9269     25.9024     75.9578  
  8569.0000    -14.5013     17.6754     10.8306     19.1852     14.9304     68.0686      2.6234      0.0063      1.8920     26.6106     76.8860  
  8569.5000    -14.4217     18.2713     11.0999     21.4045     14.9170     68.6787      2.6305      0.0030      1.5678     27.1728     77.2964  
