~VERSION INFORMATION
 VERS.                           2.00:        CWLS LOG ASCII STANDARD - VERSION 2.00
 WRAP.                             NO:        ONE LINE PER DEPTH STEP
~WELL INFORMATION
#MNEM.UNIT                   DATA             INFORMATION
#----------             --------------        ------------------------------
 STRT.F                      100.0000:        START DEPTH
 STOP.F                    13172.0000:        STOP DEPTH
 STEP.F                        0.5000:        STEP VALUE
 NULL.                      -999.2500:        NULL VALUE
 COMP.    USGS/NPR HUSKY OIL OPERATOR:        COMPANY  
 LOC .                   25   1S   1W:        LOCATION   
 DATE.                         7/5/79:        LOG DATE 
 WELL.            SEABEE TEST WELL #1:        WELL     
 UWI .                   502872000700:        UNIQUE WELL ID 
 API .                   502872000700:        UNIQUE WELL IDENTIFIER 
 FLD .                        WILDCAT:        FIELD    
 CNTY.                       N. SLOPE:        COUNTY  
 STAT.                         ALASKA:        STATE   
 CTRY.                            USA:        COUNTRY 
 OPER.    USGS/NPR HUSKY OIL OPERATOR:        OPERATOR  
 SRVC.                   SCHLUMBERGER:        SERVICE COMPANY 
 LAT .                         0.0000:        LATITUDE
 LON .                         0.0000:        LONGITUDE
 DIGS.               CENTER LINE DATA:        DIGITIZING COMPANY 
~CURVE INFORMATION      
#MNEM        .UNIT         API CODE           CURVE DESCRIPTION
#-----------------      --------------        ------------------------------
 DEPT        .F                      :        1  DEPTH
 SP          .MV                     :        2  
 ILD         .OHMM                   :        3  
 ILM         .OHMM                   :        4  
 LL8         .OHMM                   :        5  
 CALI        .IN                     :        6  
 GR          .GAPI                   :        7  
 RHOB        .G/C3                   :        8  
 DRHO        .G/C3                   :        9  
 DPHI        .%                      :        10 
 NPHI        .%                      :        11 
 DT          .US/F                   :        12 
~PARAMETER INFORMATION       
#MNEM.UNIT                  VALUE             DESCRIPTION OF MNEMONIC
#---------             ---------------        ------------------------------
 EKB .F                      322.0000:        KELLY BUSHING
 TD  .F                    15611.0000:        TOTAL DEPTH
 BHT .F                       96.0000:        BOTTOM HOLE TEMPERATURE
 BS  .                        17.5000:        BIT SIZE
 FD  .                         9.7000:        FLUID DENSITY
 CSIZ.                        30.0000:        CASING SIZE
 CBD .F                      122.0000:        CASING DRILLER 1
 CBL .F                      125.0000:        CASING LOGGER 1
 DFT .                            Gel:        TYPE FLUID IN HOLE
 DFV .                        80.0000:        VISCOSITY
 DFPH.                         8.5000:        PH
 DFL .                         8.0000:        FLUID LOSS
 RMS .                         4.2600:        RM
 MST .F                       86.0000:        RM MEAS. TEMP.
 RMF .                         4.9100:        RMF
 MFST.F                       64.0000:        RMF MEAS. TEMP.
 RMC .                         4.8300:        RMC
 MCST.F                       64.0000:        RMC MEAS. TEMP.
~OTHER INFORMATION
~A    DEPTH          SP         ILD         ILM         LL8        CALI          GR        RHOB        DRHO        DPHI        NPHI          DT  
# ...
  9395.0000    -45.7121      4.9084      4.5770      7.6932     13.9991     75.2654      2.3394     -0.0296     19.2065     33.3569     81.6264  
  9395.5000    -45.6850      4.9865      4.7137      7.8436     13.9997     75.4795      2.3376     -0.0248     19.1454     34.1680     82.2948  
  9396.0000    -45.6770      5.0298      4.6910      7.8397     14.0035     76.1009      2.3392     -0.0170     19.3386     34.7410     82.5727  
  9396.5000    -45.7729      5.0634      4.6574      7.6614     14.0105     77.3735      2.3416     -0.0102     19.2719     35.2875     83.5368  
  9397.0000    -46.0687      5.0213      4.6186      7.3152     14.0278     77.6631      2.3300     -0.0135     19.0673     35.6170     85.1078  
  9397.5000    -46.3645      4.9097      4.5012      6.8679     14.0539     76.7477      2.3221     -0.0203     19.5739     35.8329     87.4003  
  9398.0000    -46.5731      4.8084      4.3869      6.4164     14.0868     75.4052      2.3315     -0.0271     20.4809     36.2668     89.6577  
  9398.5000    -46.6046      4.7269      4.2754      6.3026     14.0904     74.5121      2.3223     -0.0353     19.8060     36.5609     88.9163  
  9399.0000    -46.6360      4.6311      4.1667      6.6651     14.1092     74.0980      2.3119     -0.0442     20.1002     36.5104     88.4224  
  9399.5000    -46.6675      4.4817      4.0837      7.5770     14.1476     74.5333      2.3106     -0.0473     20.7669     36.5171     87.8476  
  9400.0000    -46.5608      4.3371      4.0184      8.0763     14.2586     75.4477      2.3178     -0.0392     21.3548     36.4963     86.6620  
  9400.5000    -46.3170      4.1972      3.9798      6.1543     13.7927     75.2076      2.3200     -0.0328     20.7407     36.4476     87.3948  
  9401.0000    -46.0732      4.1979      3.9892      4.4794     14.5279     74.3452      2.3184     -0.0411     20.4382     35.8851     88.3658  
  9401.5000    -45.8294      4.2575      3.9986      3.6001     15.1155     72.7202      2.3133     -0.0482     20.4709     35.1475     90.0833  
  9402.0000    -45.5856      4.3588      4.0994      4.5824     14.8253     72.3124      2.3158     -0.0430     21.0929     34.2216     91.4019  
  9402.5000    -45.5584      4.4626      4.3023      6.6778     14.7850     72.6029      2.3203     -0.0342     21.1159     34.0934     91.8635  
  9403.0000    -45.6012      4.6834      4.5152      8.5633     14.7810     72.9351      2.3264     -0.0299     20.4910     34.4841     90.9396  
  9403.5000    -45.6439      4.9448      4.7249      8.9025     14.6751     72.7447      2.3294     -0.0295     20.0579     34.0155     89.5650  
  9404.0000    -45.8085      5.2093      4.8722      9.3792     14.5808     72.1231      2.3217     -0.0306     19.4453     33.4648     87.8754  
  9404.5000    -46.0146      5.3641      4.8907      9.4354     14.9653     71.1121      2.3065     -0.0328     20.3433     33.2068     86.6008  
  9405.0000    -46.2206      5.5236      4.8616      8.7922     14.8868     69.9895      2.3064     -0.0374     21.3468     33.1837     86.2179  
  9405.5000    -46.4267      5.6878      4.8651      7.6925     14.3364     69.3878      2.3020     -0.0410     21.3500     33.1666     86.5018  
  9406.0000    -46.5799      5.8569      5.1219      6.5009     14.4537     69.1454      2.3024     -0.0421     21.5732     33.5005     87.8524  
  9406.5000    -46.6066      6.0568      5.2516      6.8229     14.9051     68.9030      2.3182     -0.0408     21.4556     33.6323     89.2610  
  9407.0000    -46.6334      6.2647      5.4583      7.8470     15.3156     69.0129      2.3392     -0.0368     20.8165     33.8651     90.4594  
  9407.5000    -46.6602      6.4798      5.6731      9.6001     15.0728     69.8256      2.3615     -0.0303     19.3305     33.7327     91.5275  
  9408.0000    -46.7065      6.7039      5.7618     11.1121     14.7727     71.1297      2.3904     -0.0278     17.5122     32.7563     89.7590  
  9408.5000    -46.6526      6.9424      5.8396     10.8953     14.9182     72.4339      2.4086     -0.0272     15.9003     31.2739     86.0439  
  9409.0000    -46.4832      7.1893      5.9184     10.4494     15.1087     73.7380      2.3987     -0.0326     14.9694     30.5486     84.1353  
  9409.5000    -46.3408      7.4451      5.9983      9.7413     14.4536     74.8280      2.3542     -0.0377     15.7454     31.4798     85.0590  
  9410.0000    -46.2331      7.4782      6.0280      9.1648     14.4133     74.8970      2.3167     -0.0371     18.4400     32.9437     87.7154  
  9410.5000    -46.2745      7.4582      5.9909      8.6981     14.7090     73.6824      2.3082     -0.0353     20.5419     34.5543     91.2140  
  9411.0000    -46.4159      7.3134      5.9540      8.6950     14.6052     73.1979      2.3387     -0.0210     21.0083     35.1930     92.4348  
  9411.5000    -46.2907      7.1771      5.9173      9.0537     15.0110     74.0618      2.3838     -0.0073     19.4880     34.1957     90.5622  
  9412.0000    -46.3298      7.0533      5.8809      9.5240     14.9063     74.2597      2.3979     -0.0091     16.3950     32.1022     88.3269  
  9412.5000    -46.3311      6.9315      5.8534      9.4546     14.9164     71.0476      2.4029     -0.0100     15.7205     30.8266     85.8504  
  9413.0000    -46.1082      6.8164      5.8207      8.9964     14.7350     68.4777      2.4351     -0.0111     15.1035     30.3677     84.5733  
  9413.5000    -46.2607      6.7573      5.7683      8.5282     14.7808     66.5221      2.4213     -0.0148     13.3277     30.7235     84.4040  
  9414.0000    -46.3737      6.7598      5.7972      8.2465     15.1179     64.2891      2.3893     -0.0252     14.5118     30.4808     83.6849  
  9414.5000    -46.5515      6.7623      5.8649      8.2566     15.4323     63.2764      2.3503     -0.0362     16.5029     29.5568     84.5707  
  9415.0000    -46.3494      6.8001      5.9335      8.4572     15.0350     62.6731      2.3422     -0.0344     18.5571     28.5698     86.9594  
  9415.5000    -46.0806      6.8949      6.0135      8.8636     13.8998     60.2000      2.3805     -0.0235     18.8015     27.7825     88.7030  
  9416.0000    -46.1301      6.9911      6.1110      9.7336     14.2244     58.7367      2.4505     -0.0117     16.4041     27.2505     87.7216  
  9416.5000    -46.3675      7.0861      6.1146      9.9576     14.3421     58.0176      2.4793      0.0002     11.8942     27.1638     83.9305  
  9417.0000    -46.8301      7.0581      5.9924     10.1107     14.1319     58.5119      2.4912      0.0004     10.6221     27.1723     78.8296  
  9417.5000    -46.8078      7.0301      5.8112      9.7306     14.0582     60.1096      2.4886     -0.0044     10.0245     27.6621     76.4052  
  9418.0000    -46.7223      7.0022      5.8157      8.6895     14.0885     60.8579      2.4777     -0.0085     10.0441     28.2671     76.8336  
  9418.5000    -46.8203      6.9745      5.9740      7.7601     14.1193     61.4659      2.4688     -0.0118     10.7591     28.7875     77.7698  
  9419.0000    -46.8401      6.9308      6.1193      7.9883     14.0776     61.0547      2.4515     -0.0183     11.3113     29.0769     78.7967  
  9419.5000    -46.4507      6.8753      5.9477      8.5879     13.9743     59.7924      2.4246     -0.0247     12.3166     28.3416     80.1392  
  9420.0000    -46.3158      6.8203      5.7909      9.1317     14.2015     58.5300      2.4116     -0.0240     13.9235     27.7575     80.2976  
  9420.5000    -46.4766      6.8374      5.7669      9.1555     13.7889     57.7033      2.4131     -0.0214     14.8343     27.9034     79.6089  
  9421.0000    -46.5899      6.8608      5.8312      8.6710     13.8307     58.9261      2.4324     -0.0101     14.7542     28.5183     79.4224  
  9421.5000    -46.2326      6.9140      5.9240      8.2983     13.9989     60.3251      2.4544      0.0098     13.8048     29.4652     79.4886  
  9422.0000    -45.9887      6.9811      5.9757      8.2320     14.1106     61.7241      2.4898      0.0117     12.1518     30.7185     80.1814  
