~VERSION INFORMATION
 VERS.                           2.00:        CWLS LOG ASCII STANDARD - VERSION 2.00
 WRAP.                             NO:        ONE LINE PER DEPTH STEP
~WELL INFORMATION
#MNEM.UNIT                   DATA             INFORMATION
#----------             --------------        ------------------------------
 STRT.F                      100.0000:        START DEPTH
 STOP.F                    13172.0000:        STOP DEPTH
 STEP.F                        0.5000:        STEP VALUE
 NULL.                      -999.2500:        NULL VALUE
 COMP.    USGS/NPR HUSKY OIL OPERATOR:        COMPANY  
 LOC .                   25   1S   1W:        LOCATION   
 DATE.                         7/5/79:        LOG DATE 
 WELL.            SEABEE TEST WELL #1:        WELL     
 UWI .                   502872000700:        UNIQUE WELL ID 
 API .                   502872000700:        UNIQUE WELL IDENTIFIER 
 FLD .                        WILDCAT:        FIELD    
 CNTY.                       N. SLOPE:        COUNTY  
 STAT.                         ALASKA:        STATE   
 CTRY.                            USA:        COUNTRY 
 OPER.    USGS/NPR HUSKY OIL OPERATOR:        OPERATOR  
 SRVC.                   SCHLUMBERGER:        SERVICE COMPANY 
 LAT .                         0.0000:        LATITUDE
 LON .                         0.0000:        LONGITUDE
 DIGS.               CENTER LINE DATA:        DIGITIZING COMPANY 
~CURVE INFORMATION      
#MNEM        .UNIT         API CODE           CURVE DESCRIPTION
#-----------------      --------------        ------------------------------
 DEPT        .F                      :        1  DEPTH
 SP          .MV                     :        2  
 ILD         .OHMM                   :        3  
 ILM         .OHMM                   :        4  
 LL8         .OHMM                   :        5  
 CALI        .IN                     :        6  
 GR          .GAPI                   :        7  
 RHOB        .G/C3                   :        8  
 DRHO        .G/C3                   :        9  
 DPHI        .%                      :        10 
 NPHI        .%                      :        11 
 DT          .US/F                   :        12 
~PARAMETER INFORMATION       
#MNEM.UNIT                  VALUE             DESCRIPTION OF MNEMONIC
#---------             ---------------        ------------------------------
 EKB .F                      322.0000:        KELLY BUSHING
 TD  .F                    15611.0000:        TOTAL DEPTH
 BHT .F                       96.0000:        BOTTOM HOLE TEMPERATURE
 BS  .                        17.5000:        BIT SIZE
 FD  .                         9.7000:        FLUID DENSITY
 CSIZ.                        30.0000:        CASING SIZE
 CBD .F                      122.0000:        CASING DRILLER 1
 CBL .F                      125.0000:        CASING LOGGER 1
 DFT .                            Gel:        TYPE FLUID IN HOLE
 DFV .                        80.0000:        VISCOSITY
 DFPH.                         8.5000:        PH
 DFL .                         8.0000:        FLUID LOSS
 RMS .                         4.2600:        RM
 MST .F                       86.0000:        RM MEAS. TEMP.
 RMF .                         4.9100:        RMF
 MFST.F                       64.0000:        RMF MEAS. TEMP.
 RMC .                         4.8300:        RMC
 MCST.F                       64.0000:        RMC MEAS. TEMP.
~OTHER INFORMATION
~A    DEPTH          SP         ILD         ILM         LL8        CALI          GR        RHOB        DRHO        DPHI        NPHI          DT  
# ...
   127.5000   -128.2281      6.2429      3.8320     13.2820     18.8078     27.0349      1.9846      0.0360     40.7293     59.9158     99.2494  
   128.0000   -126.7930     15.2123      6.6213     16.2497     18.9063     27.7426      1.9781      0.0291     41.8535     59.9838     94.6339  
   128.5000   -125.0793     19.6973     14.3916     19.0573     18.9118     28.4503      1.9678      0.0191     42.9647     59.9742     95.5512  
   129.0000   -122.7683     23.8841     21.3135     22.1198     18.9185     29.6997      1.9428      0.0116     43.7709     59.9645    110.2481  
   129.5000   -120.3176     26.1618     26.7862     25.6745     18.9317     31.8617      1.9294      0.0031     44.7471     59.9548     89.3950  
   130.0000   -110.0961     27.8086     32.0214     28.5875     18.8760     34.3974      1.9170     -0.0025     46.7610     59.9452     76.5373  
   130.5000    -99.1323     28.9708     20.7154     29.4110     18.7589     36.1421      1.8881     -0.0093     51.0145     59.9355    103.2823  
   131.0000    -89.6478     29.5651     11.3731     29.5168     18.4136     38.1245      1.8493     -0.0166     57.5417     59.9259     69.8111  
   131.5000    -85.1469     28.0128     12.2729     29.1753     19.2247     40.1584      1.7553     -0.0208     60.0793     59.9162    132.8526  
   132.0000    -82.6382     23.7839     15.5359     28.6797     20.6398     42.7754      1.6025     -0.0035     60.1069     59.9065     56.0844  
   132.5000    -81.0962     23.3738     18.6339     30.0957     21.6211     47.8955      1.4581      0.0138     60.1345     59.8969     98.5396  
   133.0000    -80.2538     26.0444     16.3581     32.8860     21.7017     52.7062      1.4540      0.0342     55.8114     59.8872     92.4257  
   133.5000    -77.7531     25.8833     15.8817     34.2711     21.1783     57.6547      1.6287      0.0603     46.1305     59.3007    109.3591  
   134.0000    -75.7394     25.1399     16.2503     34.3096     18.0353     62.2232      2.0609      0.0861     35.2691     49.7299     70.9248  
   134.5000    -72.6535     24.8271     17.2899     34.2491     17.5407     65.8059      2.1385      0.1048     26.0564     41.5275     89.4582  
   135.0000    -70.8534     28.0359     18.8411     35.4234     17.7073     67.2232      2.2160      0.1336     19.5268     40.9930    130.6005  
   135.5000    -69.5124     33.6009     21.9858     36.8045     18.0381     68.2845      2.3194      0.1523     18.0027     38.6121     74.9235  
   136.0000    -69.9902     40.3825     23.2552     38.1678     18.2716     69.3676      2.3510      0.0961     13.6576     34.9726     75.8132  
   136.5000    -70.9543     46.9498     24.1924     39.5816     18.6787     70.3301      2.4076      0.0281     10.7157     32.7430     73.7693  
   137.0000    -72.9492     48.2908     23.8611     41.0478     19.1169     70.6615      2.4737      0.0242     10.6960     32.0592     82.3383  
   137.5000    -74.9441     45.5655     23.2838     41.9521     19.0707     70.7524      2.4799      0.0231     11.4306     33.2871     86.1853  
   138.0000    -76.9390     42.1351     22.7629     42.6436     19.0245     71.7646      2.4671      0.0214     11.8750     34.2007     73.8899  
   138.5000    -78.9339     38.9629     22.2432     43.3482     18.9782     73.9719      2.4599      0.0416     12.3842     35.2543    112.8367  
   139.0000    -80.6384     36.5562     21.0417     44.0645     18.9239     75.1915      2.4508      0.0501     13.0528     35.5660     85.7849  
   139.5000    -81.1423     34.2313     19.9265     44.7743     18.8386     75.9077      2.4388      0.0457     13.9583     34.8742     68.8332  
   140.0000    -82.6486     32.6732     18.8492     45.2899     18.7331     76.7610      2.4292      0.0333     13.3395     34.0280    101.2677  
   140.5000    -85.1176     31.9531     18.4403     44.5673     18.6907     78.7363      2.4318      0.0356     12.5500     33.5058    101.2152  
   141.0000    -86.1363     31.4774     18.8772     45.2326     18.7542     81.0866      2.4440      0.0459     11.4978     33.0514    105.4435  
   141.5000    -86.1450     31.1929     19.6563     46.8583     19.1436     82.0583      2.4597      0.0520     10.3649     32.5970     63.8951  
   142.0000    -85.1169     30.9905     20.0747     48.7441     18.8287     82.1440      2.4828      0.0715     10.7933     32.1426     51.7245  
   142.5000    -84.2755     30.9049     19.9140     47.6823     18.7007     82.0978      2.4803      0.0682     11.3497     31.9343     61.6681  
   143.0000    -83.4759     30.5542     19.3612     44.2648     18.7420     81.6632      2.4600      0.0239     10.4226     32.6243     52.4476  
   143.5000    -82.6509     30.3569     18.7902     42.1207     18.6492     80.7180      2.4783      0.0233      9.8011     33.6799     76.8992  
   144.0000    -82.9578     29.7611     17.8655     40.8874     18.6359     79.6601      2.4969      0.0314     10.7320     35.1124     76.2258  
   144.5000    -84.0244     28.8338     16.9123     39.5686     18.6559     79.1122      2.4810      0.0280     11.3772     36.7132     65.0735  
   145.0000    -84.9889     28.3688     16.5534     37.4262     18.6928     79.3944      2.4681      0.0270     11.4028     37.1919     67.5213  
   145.5000    -84.9936     27.4256     16.6222     37.1231     18.7312     80.2701      2.4661      0.0316     11.0887     36.3748     86.6584  
   146.0000    -83.9435     27.0595     16.6601     37.9445     18.7651     80.3432      2.4716      0.0507     10.2034     36.0617    105.0255  
   146.5000    -82.7075     26.6984     16.3979     38.7841     18.8068     78.9618      2.4858      0.0771     11.2509     35.7550     49.8888  
   147.0000    -80.6927     26.3420     16.1649     38.3034     18.9309     77.1581      2.4743      0.0636     12.8729     35.4372     71.6076  
   147.5000    -80.7012     25.9905     16.2179     37.2963     18.9883     75.3089      2.4458      0.0425     13.7022     35.1171    106.2942  
   148.0000    -80.6598     25.5350     16.1379     36.6643     19.0044     74.8546      2.4263      0.0414     13.0211     34.9845     86.8949  
   148.5000    -80.5599     24.9306     15.6192     38.6516     19.0206     75.3576      2.4400      0.0667     13.6182     35.4491     79.2245  
   149.0000    -80.3430     24.4851     14.8550     38.6123     19.0507     76.1483      2.4326      0.0517     13.6337     35.2721     72.0029  
   149.5000    -80.2808     24.4779     14.4686     35.2874     19.1063     78.6399      2.4211      0.0229     11.7624     35.6508    113.0265  
   150.0000    -78.2332     25.0353     14.4690     32.4323     19.1648     80.5658      2.4593      0.0390     12.5875     37.0973     83.6132  
   150.5000    -75.7935     25.4899     15.2013     33.7239     19.2174     82.6942      2.4413      0.0109     14.2309     38.6580     65.6989  
   151.0000    -73.7093     25.3931     16.0194     35.9636     19.2701     83.2385      2.4205      0.0113     14.4671     38.5786     66.6061  
   151.5000    -72.1852     25.8206     16.1734     39.1490     19.3311     83.3839      2.4163      0.0184     14.3736     38.4454     60.4523  
   152.0000    -70.2691     27.1171     16.3030     38.1340     19.3678     83.1981      2.4115      0.0269     13.0478     37.9258     66.9578  
   152.5000    -67.8780     28.3455     16.7485     35.9263     19.3457     82.9321      2.4364      0.0311     12.0637     37.4905     64.4918  
   153.0000    -66.3277     28.2704     17.4686     33.9345     19.2398     82.8344      2.4541      0.0257     11.6117     37.6014    101.7554  
   153.5000    -63.8791     27.5592     17.8188     35.9679     19.3153     82.7717      2.4608      0.0402     11.2978     37.8130     62.6836  
   154.0000    -62.1473     26.5826     17.1296     38.1230     19.3786     83.2186      2.4711      0.0566     12.5989     37.2971     79.3982  
   154.5000    -61.0172     25.1398     15.2284     37.7265     19.2491     85.0371      2.4472      0.0175     12.1769     35.4585     96.1127  
