~VERSION INFORMATION
 VERS.                           2.00:        CWLS LOG ASCII STANDARD - VERSION 2.00
 WRAP.                             NO:        ONE LINE PER DEPTH STEP
~WELL INFORMATION
#MNEM.UNIT                   DATA             INFORMATION
#----------             --------------        ------------------------------
 STRT.F                      100.0000:        START DEPTH
 STOP.F                    13172.0000:        STOP DEPTH
 STEP.F                        0.5000:        STEP VALUE
 NULL.                      -999.2500:        NULL VALUE
 COMP.    USGS/NPR HUSKY OIL OPERATOR:        COMPANY  
 LOC .                   25   1S   1W:        LOCATION   
 DATE.                         7/5/79:        LOG DATE 
 WELL.            SEABEE TEST WELL #1:        WELL     
 UWI .                   502872000700:        UNIQUE WELL ID 
 API .                   502872000700:        UNIQUE WELL IDENTIFIER 
 FLD .                        WILDCAT:        FIELD    
 CNTY.                       N. SLOPE:        COUNTY  
 STAT.                         ALASKA:        STATE   
 CTRY.                            USA:        COUNTRY 
 OPER.    USGS/NPR HUSKY OIL OPERATOR:        OPERATOR  
 SRVC.                   SCHLUMBERGER:        SERVICE COMPANY 
 LAT .                         0.0000:        LATITUDE
 LON .                         0.0000:        LONGITUDE
 DIGS.               CENTER LINE DATA:        DIGITIZING COMPANY 
~CURVE INFORMATION      
#MNEM        .UNIT         API CODE           CURVE DESCRIPTION
#-----------------      --------------        ------------------------------
 DEPT        .F                      :        1  DEPTH
 SP          .MV                     :        2  
 ILD         .OHMM                   :        3  
 ILM         .OHMM                   :        4  
 LL8         .OHMM                   :        5  
 CALI        .IN                     :        6  
 GR          .GAPI                   :        7  
 RHOB        .G/C3                   :        8  
 DRHO        .G/C3                   :        9  
 DPHI        .%                      :        10 
 NPHI        .%                      :        11 
 DT          .US/F                   :        12 
~PARAMETER INFORMATION       
#MNEM.UNIT                  VALUE             DESCRIPTION OF MNEMONIC
#---------             ---------------        ------------------------------
 EKB .F                      322.0000:        KELLY BUSHING
 TD  .F                    15611.0000:        TOTAL DEPTH
 BHT .F                       96.0000:        BOTTOM HOLE TEMPERATURE
 BS  .                        17.5000:        BIT SIZE
 FD  .                         9.7000:        FLUID DENSITY
 CSIZ.                        30.0000:        CASING SIZE
 CBD .F                      122.0000:        CASING DRILLER 1
 CBL .F                      125.0000:        CASING LOGGER 1
 DFT .                            Gel:        TYPE FLUID IN HOLE
 DFV .                        80.0000:        VISCOSITY
 DFPH.                         8.5000:        PH
 DFL .                         8.0000:        FLUID LOSS
 RMS .                         4.2600:        RM
 MST .F                       86.0000:        RM MEAS. TEMP.
 RMF .                         4.9100:        RMF
 MFST.F                       64.0000:        RMF MEAS. TEMP.
 RMC .                         4.8300:        RMC
 MCST.F                       64.0000:        RMC MEAS. TEMP.
~OTHER INFORMATION
~A    DEPTH          SP         ILD         ILM         LL8        CALI          GR        RHOB        DRHO        DPHI        NPHI          DT  
# ...
 10220.0000    -19.7193      6.2903      6.6491      9.7855      6.9649     41.0722      2.3626      0.2634    -15.3063     32.1775     87.9989  
 10220.5000    -19.6688      5.9778      6.5012      8.8804      6.9598     41.6550      2.3766      0.2634    -15.3061     32.7142     87.3079  
 10221.0000    -19.7437      5.6334      6.2587      8.2542      6.9631     41.6133      2.3706      0.2634    -15.3058     33.6945     88.5790  
 10221.5000    -19.8756      5.3089      5.9713      7.7023      6.9610     42.0957      2.3563      0.2634    -15.3055     35.5857     89.1348  
 10222.0000    -19.7248      5.0030      5.6971      7.3974      6.9589     42.7222      2.3392      0.2634    -15.3052     37.5257     89.5692  
 10222.5000    -20.1672      4.7148      5.4253      7.1512      6.9638     41.1925      2.3137      0.2635    -15.3050     39.3279     90.1787  
 10223.0000    -20.4586      4.5941      5.1609      6.9379      6.9625     40.0188      2.3033      0.2635    -15.3047     40.3814     90.6017  
 10223.5000    -20.2211      4.5371      4.9094      6.3439      6.9647     38.7316      2.2929      0.2635    -15.3044     41.3681     91.4731  
 10224.0000    -19.6340      4.5250      4.7445      5.6719      6.9629     36.4989      2.2790      0.2635    -15.3041     45.0833     92.6706  
 10224.5000    -19.5455      4.5452      4.6680      5.9286      6.9717     35.1825      2.2483      0.2635    -15.3038     45.0518     93.5061  
 10225.0000    -19.6446      4.6498      4.6368      6.2468      6.9715     36.4607      2.2410      0.2636    -15.3036     42.8281     94.4870  
 10225.5000    -19.4828      4.7899      4.6217      6.5546      6.9714     37.0703      2.2608      0.2636    -15.3033     39.7873     95.6976  
 10226.0000    -19.1840      4.9457      4.7980      6.8062      6.9608     37.5697      2.2954      0.2636    -15.3030     38.1914     94.2260  
 10226.5000    -19.0020      5.1067      5.0254      6.6119      6.9716     38.2746      2.3079      0.2636    -15.3027     37.6667     92.7473  
 10227.0000    -19.1039      5.3203      5.4334      6.7278      6.9843     39.2733      2.3168      0.2636    -15.3025     37.6084     92.2349  
 10227.5000    -19.2216      5.5699      6.8459      7.0654      6.9873     39.7014      2.3178      0.2636    -15.3022     37.9369     93.5434  
 10228.0000    -19.5594      5.7560      8.4777      8.7355      6.9875     38.6755      2.3129      0.2637    -15.3019     38.5975     94.2762  
 10228.5000    -19.9587      5.7560      9.3390      9.1091      6.9876     39.5517      2.3009      0.2637    -15.3016     39.1786     93.4192  
 10229.0000    -20.3807      5.7560      9.5910      9.0965      6.9878     39.9006      2.3031      0.2637    -15.3014     37.1043     92.8925  
 10229.5000    -20.5951      5.7560      8.7775      8.6183      6.9880     39.5871      2.3141      0.2637    -15.3011     34.7378     92.3294  
 10230.0000    -20.5524      5.7560      7.7942      8.5080      6.9869     38.7348      2.3485      0.2637    -15.3008     32.4892     91.2725  
 10230.5000    -20.5052      5.7560      6.7461      9.1341      6.9861     37.7717      2.3768      0.2637    -15.3005     30.3004     89.3029  
 10231.0000    -20.8744      5.7560      5.9224      9.0012      6.9878     37.0097      2.3964      0.2638    -15.3003     27.6755     85.1211  
 10231.5000    -21.5693      5.7560      5.4114      7.6378      6.9886     35.2416      2.3985      0.2638    -15.3000     24.2560     79.5601  
 10232.0000    -22.2484      5.7560      5.2099      7.5643      6.9906     31.3596      2.3967      0.2638    -15.2997     23.4772     75.1597  
 10232.5000    -21.8531      5.6913      5.1410      7.9410      6.9854     33.5822      2.3949      0.2638    -15.2994     26.6053     72.6796  
 10233.0000    -21.1938      5.6857      5.1294      8.0439      6.9695     36.5130      2.3930      0.2638    -15.2992     30.6303     73.6933  
 10233.5000    -20.5991      5.6857      5.1449      7.9991      6.9844     39.4284      2.3912      0.2639    -15.2989     34.1680     78.1227  
 10234.0000    -20.4494      5.6847      5.1604      7.9894      6.9835     41.6753      2.3702      0.2639    -15.2986     34.5709     83.6889  
 10234.5000    -20.3798      5.6835      5.1681      7.9917      6.9865     39.5843      2.3544      0.2639    -15.2983     35.2010     87.4808  
 10235.0000    -20.6035      5.6824      5.1717      7.9483      6.9893     39.3821      2.3452      0.2639    -15.2980     36.6807     89.3839  
 10235.5000    -20.6486      5.6812      5.1754      7.9160      6.9933     39.6468      2.3309      0.2639    -15.2978     36.1677     90.4326  
 10236.0000    -20.4358      5.6801      5.1791      7.9061      6.9921     39.7506      2.3338      0.2639    -15.2975     35.6341     90.6385  
 10236.5000    -19.8071      5.6789      5.1827      7.9032      6.9894     39.7114      2.3377      0.2640    -15.2972     35.8891     90.9139  
 10237.0000    -19.4516      5.6777      5.1864      7.9004      6.9913     40.2113      2.3384      0.2640    -15.2969     36.0674     92.5445  
 10237.5000    -19.3098      5.6766      5.1901      7.8936      6.9938     40.6215      2.3374      0.2640    -15.2967     35.6443     94.4234  
 10238.0000    -19.2751      5.6754      5.1937      7.8846      6.9990     41.1451      2.3366      0.2640    -15.2964     35.9612     92.9893  
 10238.5000    -19.2405      5.6743      5.1905      7.8709      7.0021     41.8121      2.3364      0.2640    -15.2961     36.4788     89.1218  
 10239.0000    -19.2024      5.6731      5.1845      7.7863      6.9959     41.9821      2.3329      0.2640    -15.2958     36.3543     89.8114  
 10239.5000    -19.1368      5.6720      5.1785      7.7615      6.9908     42.0379      2.3320      0.2641    -15.2956     36.1278     91.1763  
 10240.0000    -19.4866      5.6708      5.1725      7.7368      6.9933     41.8949      2.3329      0.2641    -15.2953     35.7370     90.7483  
 10240.5000    -20.1056      5.6699      5.1666      7.7384      6.9966     41.4696      2.3374      0.2641    -15.2950     35.5707     89.7689  
 10241.0000    -21.0800      5.6876      5.1794      7.7297      6.9977     41.1292      2.3459      0.2641    -15.2947     35.5876     90.4987  
 10241.5000    -21.0876      5.7054      5.2075      7.6728      6.9989     40.6315      2.3413      0.2641    -15.2945     35.4118     91.2176  
 10242.0000    -20.3342      5.7233      5.2840      7.5523      7.0000     39.6695      2.3377      0.2642    -15.2942     34.9240     92.7811  
 10242.5000    -19.9443      5.7412      5.3721      7.4370      6.9966     38.7639      2.3473      0.2642    -15.2939     34.7359     92.6569  
 10243.0000    -19.9668      5.7592      5.4440      7.3235      6.9814     40.9487      2.3512      0.2642    -15.2936     34.6313     91.3611  
 10243.5000    -19.9648      5.7803      5.5104      7.2920      6.9941     42.9660      2.3509      0.2642    -15.2934     34.2384     90.3929  
 10244.0000    -19.5764      5.8036      5.5777      7.7309      6.9942     42.1395      2.3567      0.2642    -15.2931     34.7323     90.2119  
 10244.5000    -19.7175      5.8238      5.6011      8.1743      6.9970     43.5789      2.3564      0.2642    -15.2928     34.6455     92.2603  
 10245.0000    -19.8032      5.8409      5.5590      8.4060      6.9901     44.8164      2.3533      0.2221    -10.4754     33.5023     94.1149  
 10245.5000    -19.8452      5.8581      5.3822      8.1829      6.9775     45.2585      2.3610      0.0726    -10.2608     32.6396     92.4206  
 10246.0000    -19.6785      5.8752      5.1659      7.7123      6.9746     44.7499      2.3753      0.0604    -10.7592     32.4506     89.8214  
 10246.5000    -19.5985      5.8925      5.1251      7.6661      6.9726     44.0394      2.3773      0.0719     -9.9623     33.1926     88.5615  
 10247.0000    -19.8123      5.8410      5.1476      7.6202      6.9748     43.4574      2.3706      0.0597     -9.9729     34.0681     89.5107  
