~VERSION INFORMATION
 VERS.                           2.00:        CWLS LOG ASCII STANDARD - VERSION 2.00
 WRAP.                             NO:        ONE LINE PER DEPTH STEP
~WELL INFORMATION
#MNEM.UNIT                   DATA             INFORMATION
#----------             --------------        ------------------------------
 STRT.F                      100.0000:        START DEPTH
 STOP.F                    13172.0000:        STOP DEPTH
 STEP.F                        0.5000:        STEP VALUE
 NULL.                      -999.2500:        NULL VALUE
 COMP.    USGS/NPR HUSKY OIL OPERATOR:        COMPANY  
 LOC .                   25   1S   1W:        LOCATION   
 DATE.                         7/5/79:        LOG DATE 
 WELL.            SEABEE TEST WELL #1:        WELL     
 UWI .                   502872000700:        UNIQUE WELL ID 
 API .                   502872000700:        UNIQUE WELL IDENTIFIER 
 FLD .                        WILDCAT:        FIELD    
 CNTY.                       N. SLOPE:        COUNTY  
 STAT.                         ALASKA:        STATE   
 CTRY.                            USA:        COUNTRY 
 OPER.    USGS/NPR HUSKY OIL OPERATOR:        OPERATOR  
 SRVC.                   SCHLUMBERGER:        SERVICE COMPANY 
 LAT .                         0.0000:        LATITUDE
 LON .                         0.0000:        LONGITUDE
 DIGS.               CENTER LINE DATA:        DIGITIZING COMPANY 
~CURVE INFORMATION      
#MNEM        .UNIT         API CODE           CURVE DESCRIPTION
#-----------------      --------------        ------------------------------
 DEPT        .F                      :        1  DEPTH
 SP          .MV                     :        2  
 ILD         .OHMM                   :        3  
 ILM         .OHMM                   :        4  
 LL8         .OHMM                   :        5  
 CALI        .IN                     :        6  
 GR          .GAPI                   :        7  
 RHOB        .G/C3                   :        8  
 DRHO        .G/C3                   :        9  
 DPHI        .%                      :        10 
 NPHI        .%                      :        11 
 DT          .US/F                   :        12 
~PARAMETER INFORMATION       
#MNEM.UNIT                  VALUE             DESCRIPTION OF MNEMONIC
#---------             ---------------        ------------------------------
 EKB .F                      322.0000:        KELLY BUSHING
 TD  .F                    15611.0000:        TOTAL DEPTH
 BHT .F                       96.0000:        BOTTOM HOLE TEMPERATURE
 BS  .                        17.5000:        BIT SIZE
 FD  .                         9.7000:        FLUID DENSITY
 CSIZ.                        30.0000:        CASING SIZE
 CBD .F                      122.0000:        CASING DRILLER 1
 CBL .F                      125.0000:        CASING LOGGER 1
 DFT .                            Gel:        TYPE FLUID IN HOLE
 DFV .                        80.0000:        VISCOSITY
 DFPH.                         8.5000:        PH
 DFL .                         8.0000:        FLUID LOSS
 RMS .                         4.2600:        RM
 MST .F                       86.0000:        RM MEAS. TEMP.
 RMF .                         4.9100:        RMF
 MFST.F                       64.0000:        RMF MEAS. TEMP.
 RMC .                         4.8300:        RMC
 MCST.F                       64.0000:        RMC MEAS. TEMP.
~OTHER INFORMATION
~A    DEPTH          SP         ILD         ILM         LL8        CALI          GR        RHOB        DRHO        DPHI        NPHI          DT  
# ...
 11897.5000    -19.4483      4.7420      5.0020      5.5438      6.9997     32.6163      2.4718      0.0504     -8.3136     26.9542     83.3915  
 11898.0000    -19.0314      4.9118      5.0742      4.8682      6.9977     35.6454      2.4401      0.0274     -7.5037     28.9558     85.6762  
 11898.5000    -18.6747      5.1739      5.2193      5.2612      6.9946     38.1943      2.4084      0.0168     -6.9277     30.8580     84.8060  
 11899.0000    -18.5833      5.2475      5.3800      6.2909      6.9980     39.4929      2.3984      0.0083     -7.2815     29.0984     82.7890  
 11899.5000    -19.2231      5.0459      5.4558      7.1545      6.9980     39.3374      2.4106      0.0140     -9.0530     26.5764     80.4240  
 11900.0000    -19.9216      4.7951      5.4583      8.1818      6.9980     37.0060      2.4530      0.0390     -9.5091     24.1867     79.2211  
 11900.5000    -19.9530      4.5568      5.0699      8.9984      6.9961     34.2704      2.4721      0.0550    -11.6227     22.4328     77.9876  
 11901.0000    -19.8685      4.3303      4.6526      8.1881      6.9889     35.1018      2.4869      0.0791    -11.3394     22.8116     78.4963  
 11901.5000    -19.6547      4.1185      4.2697      7.2928      6.9947     36.3720      2.4805      0.0757    -10.8074     24.3710     80.0547  
 11902.0000    -20.0191      3.9385      3.9182      6.1590      6.9974     36.1126      2.4651      0.0680     -9.9277     25.5648     82.6328  
 11902.5000    -20.4669      3.7664      3.7205      4.6495      6.9967     34.8042      2.4508      0.0548     -8.8907     26.6489     84.4693  
 11903.0000    -20.5520      3.7166      3.6235      3.7787      6.9974     34.6344      2.4390      0.0385     -8.4188     27.9310     84.8928  
 11903.5000    -20.5202      3.7463      3.6097      3.8497      7.0000     35.6516      2.4272      0.0291     -8.7277     28.4336     84.3306  
 11904.0000    -20.2407      3.7828      3.7206      5.1795      6.9996     37.2354      2.4231      0.0406     -9.9321     27.7822     83.1814  
 11904.5000    -20.1810      4.0032      3.9432      6.1058      6.9987     35.3122      2.4301      0.0581    -10.6000     27.5078     81.4275  
 11905.0000    -20.4789      4.2365      4.1790      7.3724      6.9984     34.1076      2.4301      0.0659    -10.9285     27.4963     79.9207  
 11905.5000    -20.4179      4.4834      4.4289      7.9500      6.9981     32.9093      2.4356      0.0721    -11.4678     25.7512     79.3826  
 11906.0000    -19.9574      4.7447      4.6938      7.2834      6.9935     32.3658      2.4524      0.0825    -11.6801     24.4862     78.6815  
 11906.5000    -19.6439      4.9007      4.8984      7.2391      6.9940     32.1090      2.4702      0.0829    -10.5800     25.3949     79.3438  
 11907.0000    -19.2153      4.9395      4.9777      7.0879      6.9978     32.0057      2.4585      0.0645    -10.2277     26.4126     80.9229  
 11907.5000    -18.7921      4.9627      5.0197      6.0867      6.9985     32.7787      2.4395      0.0625    -10.2005     28.2145     83.0656  
 11908.0000    -18.8282      4.9860      5.0376      5.2269      6.9959     34.6574      2.4212      0.0628     -9.6650     30.2604     83.5502  
 11908.5000    -18.8617      5.0235      5.0556      5.9903      6.9938     37.1017      2.4029      0.0507     -8.4370     31.0895     83.3326  
 11909.0000    -18.3877      5.1038      5.0737      7.7548      6.9983     38.2198      2.3949      0.0319     -9.6782     28.2614     82.6033  
 11909.5000    -18.0839      5.1834      5.1741      6.8293      6.9956     35.8432      2.4144      0.0546    -10.3534     25.7112     81.5243  
 11910.0000    -18.0156      5.2491      5.3186      7.0235      6.9966     32.9219      2.4376      0.0708    -10.3903     25.1585     80.1582  
 11910.5000    -18.0530      5.3099      5.4672      7.5494      6.9947     31.5732      2.4608      0.0617    -10.5629     24.5029     80.3488  
 11911.0000    -18.2312      5.2997      5.4940      7.2943      6.9966     32.8415      2.4683      0.0679    -11.1122     23.7476     79.7697  
 11911.5000    -18.3738      5.2895      5.5122      7.5792      6.9935     33.4908      2.4721      0.0746    -11.1624     24.0123     78.2561  
 11912.0000    -18.5571      5.0282      5.3092      7.4965      6.9904     33.6100      2.4760      0.0779    -10.6783     25.0059     79.6651  
 11912.5000    -18.7006      4.6750      5.0740      6.6168      6.9921     33.8238      2.4629      0.0649    -11.3054     26.8756     81.4860  
 11913.0000    -18.5690      4.3466      4.8492      5.4484      6.9863     34.9219      2.4368      0.0773    -11.6898     29.4978     83.7227  
 11913.5000    -18.3860      4.1854      4.6344      4.0055      6.9835     37.4273      2.4101      0.0876    -10.7081     31.7227     85.6254  
 11914.0000    -18.4927      4.0737      4.4622      4.9363      6.9861     39.2147      2.3842      0.0684     -9.7177     32.1791     86.8172  
 11914.5000    -18.7444      3.9649      4.3576      5.6894      6.9884     39.0320      2.3792      0.0544    -10.1476     31.4501     85.5203  
 11915.0000    -18.7435      3.8694      4.2554      6.7207      6.9870     38.0656      2.3873      0.0588    -10.9534     30.3117     83.9382  
 11915.5000    -18.7170      3.8321      4.1377      5.8881      6.9897     37.4253      2.3972      0.0723    -11.7904     29.1335     82.9662  
 11916.0000    -18.6310      3.8528      4.0513      5.1760      6.9933     36.7849      2.4114      0.0826    -12.1399     27.9025     82.7592  
 11916.5000    -18.4894      3.8808      3.9786      4.6966      6.9990     35.6516      2.4222      0.0922    -11.4836     28.2951     83.4947  
 11917.0000    -18.6333      3.9425      4.0002      4.6206      7.0119     35.3684      2.4286      0.0827    -11.1502     28.8759     84.0721  
 11917.5000    -18.8741      3.9564      4.0378      4.7469      7.0212     35.2609      2.4183      0.0740    -11.4981     28.4074     83.9939  
 11918.0000    -19.2182      3.9458      4.0942      4.9851      7.0301     36.6664      2.4178      0.0841    -13.6129     28.7671     83.2440  
 11918.5000    -19.6302      3.9354      4.1515      5.5541      7.0313     35.5365      2.4182      0.1115    -13.4946     29.5451     82.1410  
 11919.0000    -20.0113      3.9257      4.2065      6.4660      7.0250     34.6162      2.4094      0.1107    -12.9784     29.2929     81.3858  
 11919.5000    -19.9655      3.9160      4.1370      6.9387      7.0290     34.2476      2.4074      0.1033    -13.5189     28.1176     81.4180  
 11920.0000    -19.9214      3.9063      4.1151      5.7749      7.0305     34.7431      2.4236      0.1204    -13.5891     26.7166     81.8118  
 11920.5000    -19.9243      3.8996      4.1209      4.6373      7.0281     35.5457      2.4417      0.1126    -13.2212     26.4996     82.8109  
 11921.0000    -20.1224      3.9178      4.1267      5.0545      7.0270     36.6438      2.4471      0.1073    -12.4675     26.7505     82.1476  
 11921.5000    -20.5277      3.9360      4.1325      5.5541      7.0268     39.0156      2.4488      0.0979    -11.9940     25.4481     80.6129  
 11922.0000    -21.0308      4.0016      4.1638      4.4784      7.0290     39.1659      2.4511      0.0866    -12.5991     23.7881     78.2224  
 11922.5000    -21.4064      4.0915      4.2418      5.5232      7.0320     39.0883      2.4672      0.0977    -13.5956     23.4114     75.7571  
 11923.0000    -21.1199      4.1834      4.3265      8.0212      7.0311     39.2071      2.4834      0.1120    -14.1039     21.2894     74.2213  
 11923.5000    -20.8663      4.2602      4.4317      9.1653      7.0345     39.2280      2.5004      0.1257    -13.2012     19.2060     72.9863  
 11924.0000    -20.7830      4.3461      4.5002      7.5055      7.0306     39.7309      2.5233      0.1098    -12.5019     19.2330     73.9461  
 11924.5000    -20.5059      4.4522      4.5243      5.8888      7.0296     41.7172      2.5322      0.0997    -11.3731     20.2135     75.3226  
