~VERSION INFORMATION
 VERS.                           2.00:        CWLS LOG ASCII STANDARD - VERSION 2.00
 WRAP.                             NO:        ONE LINE PER DEPTH STEP
~WELL INFORMATION
#MNEM.UNIT                   DATA             INFORMATION
#----------             --------------        ------------------------------
 STRT.F                      100.0000:        START DEPTH
 STOP.F                    13172.0000:        STOP DEPTH
 STEP.F                        0.5000:        STEP VALUE
 NULL.                      -999.2500:        NULL VALUE
 COMP.    USGS/NPR HUSKY OIL OPERATOR:        COMPANY  
 LOC .                   25   1S   1W:        LOCATION   
 DATE.                         7/5/79:        LOG DATE 
 WELL.            SEABEE TEST WELL #1:        WELL     
 UWI .                   502872000700:        UNIQUE WELL ID 
 API .                   502872000700:        UNIQUE WELL IDENTIFIER 
 FLD .                        WILDCAT:        FIELD    
 CNTY.                       N. SLOPE:        COUNTY  
 STAT.                         ALASKA:        STATE   
 CTRY.                            USA:        COUNTRY 
 OPER.    USGS/NPR HUSKY OIL OPERATOR:        OPERATOR  
 SRVC.                   SCHLUMBERGER:        SERVICE COMPANY 
 LAT .                         0.0000:        LATITUDE
 LON .                         0.0000:        LONGITUDE
 DIGS.               CENTER LINE DATA:        DIGITIZING COMPANY 
~CURVE INFORMATION      
#MNEM        .UNIT         API CODE           CURVE DESCRIPTION
#-----------------      --------------        ------------------------------
 DEPT        .F                      :        1  DEPTH
 SP          .MV                     :        2  
 ILD         .OHMM                   :        3  
 ILM         .OHMM                   :        4  
 LL8         .OHMM                   :        5  
 CALI        .IN                     :        6  
 GR          .GAPI                   :        7  
 RHOB        .G/C3                   :        8  
 DRHO        .G/C3                   :        9  
 DPHI        .%                      :        10 
 NPHI        .%                      :        11 
 DT          .US/F                   :        12 
~PARAMETER INFORMATION       
#MNEM.UNIT                  VALUE             DESCRIPTION OF MNEMONIC
#---------             ---------------        ------------------------------
 EKB .F                      322.0000:        KELLY BUSHING
 TD  .F                    15611.0000:        TOTAL DEPTH
 BHT .F                       96.0000:        BOTTOM HOLE TEMPERATURE
 BS  .                        17.5000:        BIT SIZE
 FD  .                         9.7000:        FLUID DENSITY
 CSIZ.                        30.0000:        CASING SIZE
 CBD .F                      122.0000:        CASING DRILLER 1
 CBL .F                      125.0000:        CASING LOGGER 1
 DFT .                            Gel:        TYPE FLUID IN HOLE
 DFV .                        80.0000:        VISCOSITY
 DFPH.                         8.5000:        PH
 DFL .                         8.0000:        FLUID LOSS
 RMS .                         4.2600:        RM
 MST .F                       86.0000:        RM MEAS. TEMP.
 RMF .                         4.9100:        RMF
 MFST.F                       64.0000:        RMF MEAS. TEMP.
 RMC .                         4.8300:        RMC
 MCST.F                       64.0000:        RMC MEAS. TEMP.
~OTHER INFORMATION
~A    DEPTH          SP         ILD         ILM         LL8        CALI          GR        RHOB        DRHO        DPHI        NPHI          DT  
# ...
  2657.5000    -43.9219     40.7758     35.6684     38.5989     19.5744     49.1527      2.3901      0.0724     14.3253     44.9188    154.7251  
  2658.0000    -44.5947     41.8836     33.2169     37.0431     19.6499     48.3602      2.3599      0.0802     16.0234     45.8878    159.5534  
  2658.5000    -45.5913     43.0019     31.8583     34.6410     19.7904     47.5628      2.3299      0.0823     17.8368     46.4827    156.4048  
  2659.0000    -46.1343     43.7741     30.6024     33.2343     19.8073     47.0500      2.3360      0.0845     19.5457     46.3808    155.8847  
  2659.5000    -46.4858     43.6704     29.9972     31.9406     20.0476     46.5778      2.3588      0.0849     19.0006     44.5533    160.2755  
  2660.0000    -46.5841     42.0484     30.0405     32.0052     20.1597     46.5754      2.4122      0.1065     17.8349     43.1300    151.9248  
  2660.5000    -46.2494     39.9050     30.4414     32.5355     20.0855     46.9955      2.4492      0.1379     13.9531     42.0194    138.3160  
  2661.0000    -45.5348     38.8235     30.7100     33.1146     19.9734     48.0352      2.4436      0.1108     12.2109     41.9883    129.3918  
  2661.5000    -44.7427     37.8563     30.2126     33.7039     20.1148     49.0878      2.4391      0.1006     12.6311     41.2821    123.4405  
  2662.0000    -44.4290     36.9913     29.7232     33.5069     19.9642     49.0563      2.4511      0.1135     13.0013     40.2002    111.0509  
  2662.5000    -44.3703     36.3384     29.4651     33.3624     19.6518     49.5218      2.4528      0.1114     11.9682     38.3424     89.5372  
  2663.0000    -44.5842     35.5989     29.2526     32.8880     19.6246     50.3460      2.4919      0.1156     11.7667     35.7737     96.6517  
  2663.5000    -44.9650     34.8745     29.0319     32.5475     19.5693     51.2592      2.5266      0.1230      9.6957     33.8068     97.6524  
  2664.0000    -45.2097     34.2179     28.7334     32.2609     19.4667     50.6467      2.5254      0.0948      7.3640     32.0019    109.1781  
  2664.5000    -45.4401     34.2682     28.4380     32.1049     19.4620     49.0659      2.5230      0.0817      7.5357     31.8292     95.5964  
  2665.0000    -43.5469     34.4881     28.4325     32.0886     19.4651     47.8237      2.5394      0.0873      7.5870     32.3095     85.9281  
  2665.5000    -39.4823     36.3888     29.6979     32.5412     19.4651     47.5706      2.5167      0.0713      6.8435     32.4649     83.2627  
  2666.0000    -37.5821     39.4753     32.9298     33.5750     19.4859     48.4380      2.5116      0.0553      7.8945     31.4818     81.3581  
  2666.5000    -36.9305     42.8236     37.2505     34.9404     19.5166     49.6436      2.5065      0.0420      8.4879     30.3963     79.4880  
  2667.0000    -36.9982     46.4558     42.1382     35.9328     19.5394     51.2389      2.5154      0.0384      8.7313     29.7055     78.5527  
  2667.5000    -38.4953     50.3962     45.1438     36.6537     19.5579     52.5942      2.5189      0.0484      8.2464     29.9611     77.6173  
  2668.0000    -39.1737     53.6057     45.6359     37.4076     19.5778     53.4668      2.5217      0.0520      7.9039     30.6952     76.6820  
  2668.5000    -39.5004     52.9236     44.2982     38.2293     19.5972     54.5485      2.5267      0.0461      7.6383     31.5537     78.1046  
  2669.0000    -39.5939     46.4827     41.2130     38.0863     19.6137     55.6197      2.5437      0.0593      7.4882     33.0821     80.8811  
  2669.5000    -40.1266     39.4166     34.9087     35.3567     19.6585     56.8428      2.5485      0.0808      6.7287     35.0794    106.1340  
  2670.0000    -40.8557     33.4247     28.6223     30.6404     19.7109     58.5987      2.5297      0.0766      6.1104     36.3597    133.4092  
  2670.5000    -41.5262     29.4708     22.8020     23.5730     19.6575     60.4861      2.5089      0.0672      7.2442     37.1511    130.4516  
  2671.0000    -41.8365     26.2273     18.1647     18.5184     19.5624     62.8806      2.5169      0.0886      8.5678     37.0572    137.6896  
  2671.5000    -41.3642     23.5539     16.8296     17.2558     19.4673     67.4498      2.5294      0.1181      8.1522     36.6133    148.9677  
  2672.0000    -40.9774     21.1530     16.9730     17.5780     19.3722     70.5869      2.5457      0.1479      7.3343     37.2727    123.7225  
  2672.5000    -41.0308     19.0573     16.7596     16.8933     19.2771     70.4431      2.5276      0.1254      6.1827     38.0517    126.6667  
  2673.0000    -40.9941     17.2362     14.3681     14.2534     19.4009     69.6891      2.5161      0.0880      7.4987     38.7109    134.1866  
  2673.5000    -40.7416     15.5892     12.3308     12.0261     19.5228     69.3199      2.5136      0.0759      8.1073     39.3143    141.7064  
  2674.0000    -40.3203     14.6900     11.7667     12.0920     19.6314     69.9035      2.5059      0.0608      8.2091     40.3115    127.8647  
  2674.5000    -40.1749     14.1975     11.9241     12.3193     19.6881     69.8696      2.4914      0.0466      9.0726     40.4535    110.5375  
  2675.0000    -40.1961     13.7992     12.0835     12.5048     19.7219     69.2994      2.5056      0.0613      9.5986     40.5805    137.0962  
  2675.5000    -40.3041     13.5562     12.1254     12.5632     19.8217     69.6936      2.5242      0.0739      8.8510     41.4780    108.5908  
  2676.0000    -40.0251     13.3567     11.9166     12.4366     19.8783     70.3053      2.5637      0.0718      7.7412     42.0452     92.6455  
  2676.5000    -38.3150     13.1601     11.5172     12.1399     19.9131     71.7272      2.5608      0.0486      4.9277     42.4167    101.6172  
  2677.0000    -36.2925     12.9940     10.8728     11.4481     19.9912     71.4415      2.5672      0.0347      5.4400     43.0547    110.5888  
  2677.5000    -34.3901     12.8395     10.3116     10.7404     20.0847     70.9398      2.5836      0.0491      5.0289     43.5350    119.5605  
  2678.0000    -32.9343     12.5951      9.8398     10.2296     20.1211     71.0535      2.5776      0.0537      3.6995     43.1500    128.5322  
  2678.5000    -32.4632     12.3402      9.6631     10.1264     20.1697     70.9745      2.5635      0.0519      4.3254     42.6085    135.0372  
  2679.0000    -33.1460     12.0905      9.5192     10.0339     21.0127     69.9965      2.5370      0.0432      5.3127     42.1594    121.2239  
  2679.5000    -33.9479     11.8459      9.4185     10.0210     20.5732     69.4858      2.5296      0.0345      6.7452     42.5527    117.2819  
  2680.0000    -34.2842     11.6243      9.4069     10.0081     20.1995     68.6135      2.5291      0.0440      7.2037     42.7430    114.6927  
  2680.5000    -34.6679     11.4965      9.3952      9.9952     20.3036     67.9527      2.5108      0.0471      7.3987     43.2977    115.0707  
  2681.0000    -35.3506     11.3702      9.3691      9.9705     20.4533     67.9069      2.5189      0.0679      8.3038     43.6082    115.4643  
  2681.5000    -36.7919     11.2721      9.3362      9.9320     20.4477     66.9021      2.5157      0.0584      7.9043     42.7246    115.6010  
  2682.0000    -37.5961     11.2056      9.3255      9.9207     20.3501     66.4477      2.4810      0.0140      8.5705     40.9748    116.0554  
  2682.5000    -37.9581     11.1497      9.3148      9.9095     20.3103     67.0890      2.4869      0.0334     10.4622     39.4971    113.2004  
  2683.0000    -37.6061     11.1241      9.3042      9.8982     20.2954     67.2385      2.5015      0.0444      9.8422     39.0781    101.1440  
  2683.5000    -36.7395     11.0986      9.2936      9.8870     20.3007     67.4998      2.5194      0.0550      9.0070     39.2696     99.0529  
  2684.0000    -35.7868     11.0725      9.2829      9.8758     20.3318     67.9131      2.5370      0.0617      8.1322     39.6908    101.7252  
  2684.5000    -35.2407     11.0434      9.2723      9.8646     20.3182     68.3245      2.5235      0.0566      6.8475     41.3522    101.7282  
