~VERSION INFORMATION
 VERS.                           2.00:        CWLS LOG ASCII STANDARD - VERSION 2.00
 WRAP.                             NO:        ONE LINE PER DEPTH STEP
~WELL INFORMATION
#MNEM.UNIT                   DATA             INFORMATION
#----------             --------------        ------------------------------
 STRT.F                      100.0000:        START DEPTH
 STOP.F                    13172.0000:        STOP DEPTH
 STEP.F                        0.5000:        STEP VALUE
 NULL.                      -999.2500:        NULL VALUE
 COMP.    USGS/NPR HUSKY OIL OPERATOR:        COMPANY  
 LOC .                   25   1S   1W:        LOCATION   
 DATE.                         7/5/79:        LOG DATE 
 WELL.            SEABEE TEST WELL #1:        WELL     
 UWI .                   502872000700:        UNIQUE WELL ID 
 API .                   502872000700:        UNIQUE WELL IDENTIFIER 
 FLD .                        WILDCAT:        FIELD    
 CNTY.                       N. SLOPE:        COUNTY  
 STAT.                         ALASKA:        STATE   
 CTRY.                            USA:        COUNTRY 
 OPER.    USGS/NPR HUSKY OIL OPERATOR:        OPERATOR  
 SRVC.                   SCHLUMBERGER:        SERVICE COMPANY 
 LAT .                         0.0000:        LATITUDE
 LON .                         0.0000:        LONGITUDE
 DIGS.               CENTER LINE DATA:        DIGITIZING COMPANY 
~CURVE INFORMATION      
#MNEM        .UNIT         API CODE           CURVE DESCRIPTION
#-----------------      --------------        ------------------------------
 DEPT        .F                      :        1  DEPTH
 SP          .MV                     :        2  
 ILD         .OHMM                   :        3  
 ILM         .OHMM                   :        4  
 LL8         .OHMM                   :        5  
 CALI        .IN                     :        6  
 GR          .GAPI                   :        7  
 RHOB        .G/C3                   :        8  
 DRHO        .G/C3                   :        9  
 DPHI        .%                      :        10 
 NPHI        .%                      :        11 
 DT          .US/F                   :        12 
~PARAMETER INFORMATION       
#MNEM.UNIT                  VALUE             DESCRIPTION OF MNEMONIC
#---------             ---------------        ------------------------------
 EKB .F                      322.0000:        KELLY BUSHING
 TD  .F                    15611.0000:        TOTAL DEPTH
 BHT .F                       96.0000:        BOTTOM HOLE TEMPERATURE
 BS  .                        17.5000:        BIT SIZE
 FD  .                         9.7000:        FLUID DENSITY
 CSIZ.                        30.0000:        CASING SIZE
 CBD .F                      122.0000:        CASING DRILLER 1
 CBL .F                      125.0000:        CASING LOGGER 1
 DFT .                            Gel:        TYPE FLUID IN HOLE
 DFV .                        80.0000:        VISCOSITY
 DFPH.                         8.5000:        PH
 DFL .                         8.0000:        FLUID LOSS
 RMS .                         4.2600:        RM
 MST .F                       86.0000:        RM MEAS. TEMP.
 RMF .                         4.9100:        RMF
 MFST.F                       64.0000:        RMF MEAS. TEMP.
 RMC .                         4.8300:        RMC
 MCST.F                       64.0000:        RMC MEAS. TEMP.
~OTHER INFORMATION
~A    DEPTH          SP         ILD         ILM         LL8        CALI          GR        RHOB        DRHO        DPHI        NPHI          DT  
# ...
  6012.5000    -45.1904      6.2138      6.3335      7.2558     16.2081     65.8644      2.5053     -0.0016      9.8913     40.1359     97.6358  
  6013.0000    -45.2441      6.1458      6.2601      7.3138     16.0447     67.0827      2.4947     -0.0078      9.0762     39.4609     99.3100  
  6013.5000    -45.2680      6.0785      6.1876      7.3504     15.8926     69.0304      2.4900     -0.0121      9.4937     38.8058     97.8665  
  6014.0000    -45.0705      6.0120      6.1155      7.3455     16.0061     71.6486      2.4712     -0.0180     10.0268     38.6378     96.1305  
  6014.5000    -44.8770      5.9471      6.0379      7.3407     15.9109     72.8485      2.4408     -0.0263     10.6763     38.3844     97.2667  
  6015.0000    -44.9580      5.9086      5.9613      7.3358     15.8582     73.2302      2.4023     -0.0326     12.5700     38.0835     98.8601  
  6015.5000    -45.3768      5.8703      5.8856      7.2304     15.6286     73.9528      2.3655     -0.0361     14.9841     38.2710    101.0589  
  6016.0000    -45.8783      5.8736      5.8579      7.2559     15.1042     75.7000      2.3312     -0.0341     17.3776     38.9804    103.0166  
  6016.5000    -46.2248      5.9390      5.8467      7.2892     14.4265     76.9109      2.3198     -0.0333     19.3348     39.6238    102.8257  
  6017.0000    -46.2473      5.9660      5.8355      7.3227     14.2670     77.6539      2.3258     -0.0318     20.1996     38.7649    102.5883  
  6017.5000    -45.9255      6.0910      5.8559      7.2031     14.2038     77.6779      2.3231     -0.0230     19.8072     37.3449    102.6876  
  6018.0000    -45.4331      6.2541      5.8845      7.2170     14.8641     77.6515      2.3140     -0.0302     19.9972     36.6636    102.9692  
  6018.5000    -44.8133      6.4216      5.9133      7.4835     15.3631     78.0427      2.3288     -0.0231     20.6433     36.9181    101.3486  
  6019.0000    -44.5410      6.5936      5.9422      7.9641     15.8621     77.9224      2.3592     -0.0164     19.8610     37.3123     99.7255  
  6019.5000    -44.6858      6.7701      6.0953      8.3352     16.2175     77.3140      2.4065     -0.0064     18.0365     37.8394     98.0788  
  6020.0000    -45.1891      6.8096      6.2959      8.6423     15.7761     76.7649      2.4470     -0.0119     15.2689     38.2818     96.2890  
  6020.5000    -45.6933      6.8284      6.5031      8.8014     15.6511     76.3248      2.4423     -0.0151     12.8728     38.7306     94.8337  
  6021.0000    -45.2521      6.8285      6.5749      8.6887     15.7933     76.1185      2.4413     -0.0176     12.8015     39.0340     96.1223  
  6021.5000    -44.8987      6.7688      6.4787      8.4639     15.6338     76.2173      2.4391     -0.0204     12.8797     39.2958     96.8609  
  6022.0000    -44.5906      6.5980      6.3249      7.8942     14.9903     76.7394      2.4268     -0.0226     12.9471     40.4111     97.8618  
  6022.5000    -44.4475      6.5052      6.1818      7.3628     15.2157     77.5821      2.4149     -0.0214     13.7116     41.9583     97.8346  
  6023.0000    -44.3175      6.4164      6.1732      7.0748     15.3911     79.3812      2.4237     -0.0201     14.5279     42.7993     99.4944  
  6023.5000    -44.0699      6.3703      6.1646      7.3321     15.1139     81.0864      2.4358     -0.0187     14.0607     42.9509    100.9969  
  6024.0000    -44.1614      6.3603      6.1571      7.6707     14.8415     81.7984      2.4488     -0.0136     13.2582     42.0295    103.4058  
  6024.5000    -44.4729      6.3598      6.1503      7.8920     15.2422     82.9217      2.4663     -0.0082     12.4353     41.3671    104.4307  
  6025.0000    -44.6696      6.3685      6.1434      7.7829     15.6394     84.7003      2.4713     -0.0118     11.4808     40.9560    100.3309  
  6025.5000    -44.7771      6.3879      6.1366      7.6409     15.6662     86.7773      2.4729     -0.0072     11.0642     41.0887     92.9431  
  6026.0000    -45.0599      6.4282      6.1907      7.6808     15.6609     88.3198      2.4878     -0.0037     11.0948     40.7332     90.5760  
  6026.5000    -45.2059      6.4827      6.2776      7.8942     14.9385     88.7955      2.4920     -0.0130     10.2250     39.6869     93.9267  
  6027.0000    -45.1297      6.5377      6.3185      8.0744     14.8439     86.5649      2.4861     -0.0194      9.5462     38.2266     95.8568  
  6027.5000    -44.7512      6.5685      6.3505      8.2918     14.7843     82.8068      2.4863     -0.0149     10.1294     37.7574     94.4894  
  6028.0000    -44.7110      6.5780      6.3827      8.2068     14.7945     80.2772      2.4925     -0.0131     10.1828     37.6444     95.0685  
  6028.5000    -44.5235      6.5834      6.3880      8.1358     14.8935     81.4506      2.4870     -0.0126      9.8501     37.4666     96.6557  
  6029.0000    -44.8648      6.5889      6.3444      8.1469     14.9925     82.5776      2.4853     -0.0118     10.0450     37.1645     98.2173  
  6029.5000    -45.3493      6.5750      6.2926      8.1353     14.5733     82.0754      2.4894     -0.0105     10.2352     37.3522     98.8431  
  6030.0000    -44.9961      6.5170      6.2412      7.9384     14.4155     81.0631      2.4964     -0.0055     10.0136     37.8745     98.3109  
  6030.5000    -44.6919      6.4596      6.2030      7.7463     14.6280     80.4897      2.5017     -0.0054      9.5518     38.1226     97.1593  
  6031.0000    -44.7907      6.4150      6.1734      7.6840     14.5553     80.4807      2.5054     -0.0080      9.1816     37.8856     95.5655  
  6031.5000    -44.3873      6.3777      6.1482      7.7144     14.1215     81.0998      2.5095     -0.0090      9.0485     37.6361     97.6945  
  6032.0000    -44.2329      6.3408      6.1286      7.7618     14.0198     81.8907      2.5062     -0.0096      8.4446     37.3658    101.8200  
  6032.5000    -44.4797      6.3529      6.1490      7.7946     14.1466     82.5065      2.5037     -0.0102      9.0612     36.7181    102.3519  
  6033.0000    -44.6718      6.4441      6.2924      7.7119     14.2788     81.7666      2.5024     -0.0086      9.0191     35.1411    101.4561  
  6033.5000    -44.6199      6.6211      6.4391      7.7193     14.4111     79.8383      2.5010     -0.0055      9.1002     34.5155     99.8822  
  6034.0000    -44.2134      6.8024      6.5927      7.9238     14.4131     77.9040      2.5038      0.0016      9.3857     34.9237     96.5216  
  6034.5000    -43.7598      6.9864      6.7667      8.3349     14.4064     76.2308      2.5100      0.0042      9.1537     35.2744     93.3831  
  6035.0000    -44.0147      7.1753      6.9317      8.9616     14.3545     75.8989      2.5217      0.0025      8.7605     35.4544     91.2457  
  6035.5000    -44.4671      7.2491      6.9884      9.6742     14.1939     76.5077      2.5375      0.0008      8.2192     36.1256     90.8331  
  6036.0000    -44.8127      7.2651      6.8590      9.7419     14.1810     77.1018      2.5407     -0.0010      7.1733     37.0474     94.0650  
  6036.5000    -44.1085      7.2247      6.6562      9.0677     14.1842     77.4056      2.5405     -0.0030      6.8281     37.8828     96.3617  
  6037.0000    -43.3316      7.1662      6.4595      8.1744     14.1525     77.3487      2.5291     -0.0053      6.8654     38.3585     97.4327  
  6037.5000    -43.6867      7.1415      6.3624      7.6166     14.1444     76.9071      2.5151     -0.0060      7.4364     38.3336     97.3990  
  6038.0000    -44.1636      7.1381      6.2938      7.4114     14.1452     76.9042      2.5201     -0.0036      8.2408     38.0948     96.4666  
  6038.5000    -44.7927      7.0933      6.2587      7.4340     14.1231     76.8166      2.5339     -0.0025      8.2024     37.8300     95.8958  
  6039.0000    -44.5457      7.0397      6.2894      7.5017     14.1054     75.9871      2.5396     -0.0040      7.3160     37.4009     95.7034  
  6039.5000    -44.3122      6.9736      6.3641      7.7383     14.1073     75.2356      2.5522     -0.0042      7.0904     36.4569     95.2037  
