~VERSION INFORMATION
 VERS.                           2.00:        CWLS LOG ASCII STANDARD - VERSION 2.00
 WRAP.                             NO:        ONE LINE PER DEPTH STEP
~WELL INFORMATION
#MNEM.UNIT                   DATA             INFORMATION
#----------             --------------        ------------------------------
 STRT.F                      100.0000:        START DEPTH
 STOP.F                    13172.0000:        STOP DEPTH
 STEP.F                        0.5000:        STEP VALUE
 NULL.                      -999.2500:        NULL VALUE
 COMP.    USGS/NPR HUSKY OIL OPERATOR:        COMPANY  
 LOC .                   25   1S   1W:        LOCATION   
 DATE.                         7/5/79:        LOG DATE 
 WELL.            SEABEE TEST WELL #1:        WELL     
 UWI .                   502872000700:        UNIQUE WELL ID 
 API .                   502872000700:        UNIQUE WELL IDENTIFIER 
 FLD .                        WILDCAT:        FIELD    
 CNTY.                       N. SLOPE:        COUNTY  
 STAT.                         ALASKA:        STATE   
 CTRY.                            USA:        COUNTRY 
 OPER.    USGS/NPR HUSKY OIL OPERATOR:        OPERATOR  
 SRVC.                   SCHLUMBERGER:        SERVICE COMPANY 
 LAT .                         0.0000:        LATITUDE
 LON .                         0.0000:        LONGITUDE
 DIGS.               CENTER LINE DATA:        DIGITIZING COMPANY 
~CURVE INFORMATION      
#MNEM        .UNIT         API CODE           CURVE DESCRIPTION
#-----------------      --------------        ------------------------------
 DEPT        .F                      :        1  DEPTH
 SP          .MV                     :        2  
 ILD         .OHMM                   :        3  
 ILM         .OHMM                   :        4  
 LL8         .OHMM                   :        5  
 CALI        .IN                     :        6  
 GR          .GAPI                   :        7  
 RHOB        .G/C3                   :        8  
 DRHO        .G/C3                   :        9  
 DPHI        .%                      :        10 
 NPHI        .%                      :        11 
 DT          .US/F                   :        12 
~PARAMETER INFORMATION       
#MNEM.UNIT                  VALUE             DESCRIPTION OF MNEMONIC
#---------             ---------------        ------------------------------
 EKB .F                      322.0000:        KELLY BUSHING
 TD  .F                    15611.0000:        TOTAL DEPTH
 BHT .F                       96.0000:        BOTTOM HOLE TEMPERATURE
 BS  .                        17.5000:        BIT SIZE
 FD  .                         9.7000:        FLUID DENSITY
 CSIZ.                        30.0000:        CASING SIZE
 CBD .F                      122.0000:        CASING DRILLER 1
 CBL .F                      125.0000:        CASING LOGGER 1
 DFT .                            Gel:        TYPE FLUID IN HOLE
 DFV .                        80.0000:        VISCOSITY
 DFPH.                         8.5000:        PH
 DFL .                         8.0000:        FLUID LOSS
 RMS .                         4.2600:        RM
 MST .F                       86.0000:        RM MEAS. TEMP.
 RMF .                         4.9100:        RMF
 MFST.F                       64.0000:        RMF MEAS. TEMP.
 RMC .                         4.8300:        RMC
 MCST.F                       64.0000:        RMC MEAS. TEMP.
~OTHER INFORMATION
~A    DEPTH          SP         ILD         ILM         LL8        CALI          GR        RHOB        DRHO        DPHI        NPHI          DT  
# ...
  1805.0000    -43.4872     19.7543     17.9017     16.7373     18.5591     66.3890      2.5705      0.0279      5.9306     44.6999     89.5161  
  1805.5000    -43.5602     19.7773     17.9619     16.9031     18.5010     65.4265      2.5644      0.0167      5.0310     45.2401     89.4254  
  1806.0000    -42.5283     19.8003     18.0222     17.0705     18.4352     65.4770      2.5673      0.0366      5.0480     46.4034     89.3503  
  1806.5000    -42.5007     19.8331     18.0578     17.1878     18.3695     66.4499      2.5524      0.0466      5.0810     47.4896     89.4017  
  1807.0000    -42.5729     19.8998     18.0936     17.2158     18.3408     67.6309      2.5135      0.0326      5.8699     47.2501     89.5104  
  1807.5000    -43.0253     19.9862     18.1294     17.2438     18.3794     67.2122      2.4949      0.0427      8.2544     45.3442     89.7017  
  1808.0000    -43.6470     20.1234     18.1653     17.2719     18.7284     65.5910      2.4732      0.0620      9.6429     45.0878     89.4593  
  1808.5000    -44.3885     20.2615     18.2012     17.3000     18.9282     64.2394      2.4688      0.0897     10.7433     45.0649     88.9933  
  1809.0000    -43.8178     20.4006     18.2373     17.3325     18.7606     63.1872      2.4293      0.0969     11.1488     44.5572     88.8550  
  1809.5000    -43.1678     20.5407     18.2734     17.3807     19.2433     63.4078      2.4338      0.1028     13.3137     43.4244     88.9129  
  1810.0000    -41.6614     20.6817     18.3096     17.4290     19.7399     64.1344      2.4558      0.1414     13.6581     43.0759     89.2553  
  1810.5000    -39.6473     20.7216     18.3458     17.4774     20.2365     64.6360      2.4728      0.1826     12.3687     42.8617     89.7886  
  1811.0000    -39.4952     20.6836     18.3821     17.4602     20.4324     65.1169      2.4565      0.2020     10.7525     42.8795     90.3329  
  1811.5000    -40.3745     20.6456     18.4185     17.4269     19.6074     64.7117      2.4394      0.2313     11.4639     44.2120     90.6241  
  1812.0000    -41.5109     20.5811     18.4667     17.3935     19.0403     63.1722      2.4554      0.2637     13.2889     45.1157     90.6476  
  1812.5000    -42.3807     20.4901     18.4035     17.3602     19.0950     62.3455      2.4632      0.2334     11.8588     46.2988     90.1582  
  1813.0000    -42.7221     20.3995     18.2935     17.2966     19.7153     61.4399      2.4408      0.1781     11.3931     45.8517     89.6226  
  1813.5000    -43.0354     20.3094     18.1036     17.1848     19.3224     61.0595      2.4288      0.1438     12.6192     45.3397     89.1529  
  1814.0000    -43.5136     20.2196     18.0904     17.0737     20.0520     61.4402      2.4701      0.1207     13.9726     45.1209     89.0109  
  1814.5000    -45.2422     20.1302     18.1235     16.9633     20.0832     62.3907      2.4912      0.1054     10.4418     44.6792     89.4032  
  1815.0000    -45.7333     20.0412     17.9408     16.8537     20.1962     64.0989      2.5236      0.0959      9.8676     43.3840     89.9221  
  1815.5000    -45.9783     19.9526     17.9267     16.7791     19.8981     65.2420      2.5224      0.0954      7.9132     43.1220     89.8251  
  1816.0000    -46.1153     19.8645     17.9415     16.7274     19.5160     65.1268      2.5195      0.1127      7.7468     43.5635     89.3700  
  1816.5000    -45.9025     19.9463     17.9564     16.7594     19.1339     64.3945      2.5123      0.1283      7.9705     43.5173     90.0404  
  1817.0000    -45.7382     20.1256     18.0207     16.8162     19.1905     63.9423      2.4994      0.1400      8.5416     42.6233     90.4376  
  1817.5000    -45.0720     20.2643     18.0825     16.9723     19.3691     63.2236      2.4711      0.1198      9.4477     40.8217     91.0422  
  1818.0000    -45.2118     21.0124     18.2021     17.4822     19.2504     62.1560      2.4793      0.0867     10.8003     38.1856     91.9758  
  1818.5000    -45.2924     22.2686     18.7018     18.3739     19.1596     60.4588      2.4813      0.0997     10.5489     36.5224     89.3142  
  1819.0000    -45.9168     24.0938     20.5022     20.0032     19.4183     57.9233      2.4600      0.1291     10.4842     35.6508     85.9373  
  1819.5000    -46.4458     26.3394     22.4758     22.9603     19.5168     57.1073      2.4734      0.1937     11.2705     33.8104     83.8019  
  1820.0000    -47.2224     28.9875     24.6581     27.4179     19.4295     56.4049      2.4740      0.1788     10.6077     32.1256     81.8504  
  1820.5000    -48.1105     32.2489     27.4826     32.7410     19.4145     55.6977      2.5047      0.1431     10.6732     31.5567     79.9957  
  1821.0000    -47.5567     37.2542     30.6306     36.0544     19.2185     56.2329      2.5106      0.1070      8.8604     31.6104     79.3770  
  1821.5000    -46.2366     43.0364     34.1392     37.9936     19.2756     55.8598      2.5072      0.0860      8.6503     32.0283     81.0330  
  1822.0000    -44.9165     49.0609     36.9160     38.7314     19.5184     53.2146      2.4757      0.0940      8.9777     32.5002     83.8232  
  1822.5000    -43.6817     53.8616     39.0802     39.3402     19.4191     52.9486      2.4480      0.0902     10.7715     33.0011     85.6508  
  1823.0000    -44.3822     55.6581     40.4401     40.0809     19.2112     53.4112      2.4137      0.0837     12.6979     33.2801     85.5020  
  1823.5000    -45.4254     55.3869     40.9770     41.0546     19.1006     53.4871      2.4393      0.1042     14.4010     33.5203     83.6610  
  1824.0000    -46.1794     54.2451     41.1936     41.9153     19.0088     53.2361      2.4915      0.1247     12.8219     34.0595     79.9594  
  1824.5000    -46.9325     52.6790     41.2622     42.7063     18.7042     52.4998      2.5157      0.1346      9.4257     34.3792     77.8090  
  1825.0000    -47.4194     51.3634     41.3116     43.0138     18.3274     51.4935      2.5174      0.1020      8.2019     32.9386     75.8060  
  1825.5000    -47.6449     51.0310     41.0891     43.0272     18.7740     50.1619      2.5184      0.0671      8.0819     30.7972     74.8854  
  1826.0000    -47.8705     51.8244     40.4962     42.2313     19.1956     49.0699      2.5310      0.0863      8.1518     30.5041     77.0255  
  1826.5000    -48.0960     52.5724     39.7892     41.6434     19.1390     49.1318      2.5394      0.0869      7.1944     30.7902     77.0286  
  1827.0000    -48.2156     53.2322     39.2498     41.0936     18.9746     49.7354      2.5196      0.0330      6.7063     31.1466     76.0032  
  1827.5000    -48.2778     54.1227     39.0997     40.6148     18.4370     51.2194      2.5260      0.0157      7.7729     31.2656     74.0891  
  1828.0000    -48.2299     54.1274     39.7639     41.8495     18.3053     53.0029      2.5718      0.0174      7.7332     30.3842     69.6868  
  1828.5000    -47.9216     53.9199     40.4393     43.4184     18.2001     54.3833      2.6011      0.0220      4.6623     29.4297     68.6081  
  1829.0000    -47.5250     53.0942     41.0622     44.6961     18.1960     54.1491      2.5971      0.0107      3.0615     28.9293     67.6785  
  1829.5000    -47.0716     52.2812     41.5508     44.6083     18.1983     53.6022      2.5987     -0.0000      3.1856     29.2109     67.9926  
  1830.0000    -47.0474     50.8433     41.8752     42.7257     18.2015     53.6923      2.6167      0.0202      3.1075     29.7022     69.9457  
  1830.5000    -47.1914     49.0410     41.0387     39.8813     18.2047     53.9937      2.6534      0.0529      1.7929     31.0573     71.0594  
  1831.0000    -47.5506     46.6913     39.5593     36.9296     18.2076     53.0010      2.6646      0.0500     -0.1256     32.7370     71.5325  
  1831.5000    -47.9653     44.3787     38.0409     34.3502     18.2102     51.2544      2.6422      0.0385     -0.5164     33.0373     71.6311  
  1832.0000    -48.3168     42.1805     36.5515     33.2104     18.2093     51.1661      2.6252      0.0272      0.0141     33.2014     71.5438  
