~VERSION INFORMATION
 VERS.                           2.00:        CWLS LOG ASCII STANDARD - VERSION 2.00
 WRAP.                             NO:        ONE LINE PER DEPTH STEP
~WELL INFORMATION
#MNEM.UNIT                   DATA             INFORMATION
#----------             --------------        ------------------------------
 STRT.F                       66.0000:        START DEPTH
 STOP.F                    10227.0000:        STOP DEPTH
 STEP.F                        0.5000:        STEP VALUE
 NULL.                      -999.2500:        NULL VALUE
 COMP.      USGS/NPR #4 HUSKY OIL CO.:        COMPANY  
 LOC .                   25  16N  28W:        LOCATION   
 DATE.                        1/31/79:        LOG DATE 
 WELL.             PEARD TEST WELL #1:        WELL     
 UWI .                   503012000200:        UNIQUE WELL ID 
 API .                   503012000200:        UNIQUE WELL IDENTIFIER 
 FLD .                        WILDCAT:        FIELD    
 CNTY.                        N.SLOPE:        COUNTY  
 STAT.                         ALASKA:        STATE   
 CTRY.                            USA:        COUNTRY 
 OPER.      USGS/NPR #4 HUSKY OIL CO.:        OPERATOR  
 SRVC.                   SCHLUMBERGER:        SERVICE COMPANY 
 LAT .                         0.0000:        LATITUDE
 LON .                         0.0000:        LONGITUDE
 DIGS.               CENTER LINE DATA:        DIGITIZING COMPANY 
~CURVE INFORMATION      
#MNEM        .UNIT         API CODE           CURVE DESCRIPTION
#-----------------      --------------        ------------------------------
 DEPT        .F                      :        1  DEPTH
 SP          .MV                     :        2  
 GR          .GAPI                   :        3  
 ILD         .OHMM                   :        4  
 ILM         .OHMM                   :        5  
 LL8         .OHMM                   :        6  
 RHOB        .G/C3                   :        7  
 DRHO        .G/C3                   :        8  
 CALI        .IN                     :        9  
 DPHI        .%                      :        10 
 NPHI        .%                      :        11 
 DT          .US/F                   :        12 
~PARAMETER INFORMATION       
#MNEM.UNIT                  VALUE             DESCRIPTION OF MNEMONIC
#---------             ---------------        ------------------------------
 EKB .F                      103.3000:        KELLY BUSHING
 TD  .F                    10229.0000:        TOTAL DEPTH
 BHT .F                       76.0000:        BOTTOM HOLE TEMPERATURE
 BS  .                        17.5000:        BIT SIZE
 FD  .                        10.0000:        FLUID DENSITY
 CSIZ.                        20.0000:        CASING SIZE
 CBD .F                       88.0000:        CASING DRILLER 1
 CBL .F                      109.0000:        CASING LOGGER 1
 DFT .                  Miscellaneous:        TYPE FLUID IN HOLE
 DFV .                        31.0000:        VISCOSITY
 DFPH.                         7.5000:        PH
 DFL .                        23.0000:        FLUID LOSS
 RMS .                        10.6700:        RM
 MST .F                       62.0000:        RM MEAS. TEMP.
 RMF .                        10.8000:        RMF
 MFST.F                       52.0000:        RMF MEAS. TEMP.
 RMC .                        10.7300:        RMC
 MCST.F                       55.0000:        RMC MEAS. TEMP.
~OTHER INFORMATION
~A    DEPTH          SP          GR         ILD         ILM         LL8        RHOB        DRHO        CALI        DPHI        NPHI          DT  
# ...
  8206.0000    -18.4769     78.6699      3.3580      3.4470      5.1777      2.4895      0.0980     16.1793      9.4567     33.9797     86.1534  
  8206.5000    -18.4210     77.9475      3.3549      3.4438      5.0577      2.4943      0.0767     16.3362      9.9284     33.2008     86.7368  
  8207.0000    -19.0301     77.6003      3.3518      3.4406      5.0266      2.5049      0.0636     16.1971      9.5505     32.8389     87.6327  
  8207.5000    -18.9523     77.5631      3.3486      3.4374      5.0993      2.4983      0.0630     15.9283      8.7724     32.9728     87.9188  
  8208.0000    -18.9510     77.0349      3.3987      3.5044      5.1891      2.4700      0.0479     15.8227      9.4636     34.0292     87.8334  
  8208.5000    -19.0989     76.0624      3.3901      3.4816      5.2609      2.4694      0.0678     15.9020     10.8293     34.6916     87.3496  
  8209.0000    -19.5202     76.4677      3.4327      3.5451      5.3807      2.4909      0.0962     15.9637     11.0447     34.5073     86.5007  
  8209.5000    -19.4706     78.5643      3.5249      3.6304      5.4198      2.4956      0.0975     15.6508      9.8647     34.7395     86.1012  
  8210.0000    -19.4210     81.4830      3.6098      3.7176      5.3395      2.5177      0.0907     15.5186      9.5945     35.1511     86.2605  
  8210.5000    -19.3715     84.1213      3.6482      3.7462      5.4231      2.5838      0.1115     15.3203      8.8866     34.1145     86.4864  
  8211.0000    -19.3219     86.8172      3.6712      3.7739      5.7783      2.5790      0.1297     15.2319      4.7953     33.0833     86.1545  
  8211.5000    -19.2723     87.9714      3.7233      3.8338      5.9842      2.5301      0.1118     15.6037      4.3863     34.4865     85.4393  
  8212.0000    -19.2228     90.8074      3.8389      3.9655      6.0589      2.5367      0.0880     15.3584      7.1461     35.1969     84.0441  
  8212.5000    -19.1732     93.4968      3.9672      4.0958      6.1475      2.5590      0.0977     14.9638      7.1880     35.3837     82.3956  
  8213.0000    -19.1741     94.9908      4.1068      4.2427      6.3183      2.5517      0.0776     14.9035      5.9131     35.7661     83.4036  
  8213.5000    -19.2372     95.4656      4.2494      4.3899      6.6242      2.5156      0.0564     14.7451      6.0503     35.1023     83.9635  
  8214.0000    -19.2954     95.1009      4.3969      4.5423      6.7917      2.5265      0.0633     14.5850      8.3021     34.1047     83.2326  
  8214.5000    -19.3921     95.1394      4.5496      4.7000      6.8027      2.5353      0.0924     14.4788      7.7631     34.3067     82.4745  
  8215.0000    -19.4998     95.1969      4.7076      4.8631      6.8137      2.5053      0.0801     14.4497      6.8942     33.8022     82.0500  
  8215.5000    -19.5905     93.8824      4.8711      5.0319      6.9006      2.5386      0.0891     14.4482      9.0765     32.1663     81.7716  
  8216.0000    -19.8890     90.7911      5.0327      5.1879      7.3022      2.5181      0.0658     14.4986      7.3724     29.1624     81.4363  
  8216.5000    -20.1876     87.9589      5.1779      5.3762      7.7271      2.5411      0.0183     14.3391      7.8042     26.6585     81.0461  
  8217.0000    -20.4861     87.0120      5.3272      5.4730      7.9645      2.5775      0.0304     14.1572      6.9185     25.1497     80.3230  
  8217.5000    -20.9638     86.2823      5.3613      5.5052      8.3203      2.6043      0.0343     14.1066      4.8603     24.3874     79.3331  
  8218.0000    -21.6445     85.8849      5.4442      5.5988      8.5561      2.6086      0.0259     14.1352      3.2023     24.4161     78.5502  
  8218.5000    -22.3252     85.5128      5.4601      5.6084      8.6137      2.6264      0.0203     13.9967      2.5359     24.4991     77.9902  
  8219.0000    -23.0059     85.0136      5.4845      5.6643      8.3932      2.6224      0.0167     13.9163      1.9706     24.7360     77.5322  
  8219.5000    -23.6866     84.7398      5.6708      5.8915      7.6539      2.6161     -0.0008     13.8598      2.0278     24.5867     77.6650  
  8220.0000    -24.5706     85.3665      5.9560      6.1696      8.6547      2.6340      0.0057     13.8213      2.6239     23.9678     77.4707  
  8220.5000    -25.6354     87.2394      6.2001      6.3994      9.8456      2.6536      0.0001     13.8032      1.4178     24.4022     76.4714  
  8221.0000    -26.7056     88.5273      6.5065      6.7713     11.3181      2.6987     -0.0066     13.8071      0.1642     26.0846     75.2826  
  8221.5000    -28.4099     88.4182      6.9016      7.4454     11.5688      2.7626     -0.0158     13.8320     -2.3617     27.7378     74.1013  
  8222.0000    -30.9444     88.3973      7.9249      8.6700     12.6131      2.8259     -0.0250     13.9771     -5.9401     28.8265     73.1850  
  8222.5000    -34.6220     88.5173      9.2244     10.0935     14.3841      2.8389     -0.0306     13.5467     -9.7226     28.9679     72.5697  
  8223.0000    -40.3115     87.2303     10.7391     11.7508     20.7251      2.8149     -0.0326     13.5730    -10.3661     28.8295     70.4723  
  8223.5000    -46.7289     84.9441     12.5025     13.6802     25.2469      2.7621     -0.0230     13.7970     -9.9925     28.5256     68.1436  
  8224.0000    -52.1278     82.3074     14.5554     15.9264     25.6593      2.6806      0.0010     13.5929     -6.5674     25.3386     66.0572  
  8224.5000    -59.6280     76.4544     16.9376     18.3616     26.1164      2.6033     -0.0056     13.4023     -1.4003     19.3563     65.7833  
  8225.0000    -68.0420     64.5047     19.8981     21.9612     32.2001      2.5859     -0.0168     13.3582      2.6421     14.8655     66.1465  
  8225.5000    -77.5872     47.9113     23.3070     25.4180     41.1998      2.6133     -0.0257     13.3179      4.6022     12.4433     66.4563  
  8226.0000    -87.1323     39.3299     26.9753     28.0336     56.3652      2.6018     -0.0178     13.2997      2.7140     12.9425     64.9645  
  8226.5000    -96.6775     37.4830     28.0054     28.8944     67.6407      2.5569     -0.0083     13.2868      3.0854     13.5798     62.6738  
  8227.0000   -102.1815     36.3681     28.3905     29.7643     57.4950      2.5010     -0.0035     13.2695      5.4560     14.3439     61.4777  
  8227.5000   -106.6363     35.3035     26.4827     27.7634     47.4923      2.4768     -0.0026     13.2523      8.7514     15.3150     61.5961  
  8228.0000   -110.2177     35.1959     24.7030     25.8971     40.0283      2.4714      0.0033     13.2622     10.4052     16.2800     63.1387  
  8228.5000   -111.5864     35.4486     23.0430     24.1563     35.9314      2.4724      0.0336     13.2924     10.7716     17.2182     65.0031  
  8229.0000   -111.6537     35.7404     21.4945     22.5324     32.9771      2.4824      0.0719     13.3361     10.8899     18.1091     65.9128  
  8229.5000   -111.2153     35.5857     20.0501     21.0177     30.6761      2.4470      0.0645     13.3781      9.8932     18.4640     66.2933  
  8230.0000   -107.6367     35.4040     18.7027     19.6049     28.4186      2.3967      0.0525     13.4310     11.9969     18.4929     67.6174  
  8230.5000   -104.0580     36.8922     17.4834     18.2870     26.3272      2.3880      0.0531     13.4840     15.0994     18.4643     69.8106  
  8231.0000    -98.9530     39.7491     17.2299     17.7092     24.3898      2.3763      0.0257     13.5508     15.7557     18.5150     71.5094  
  8231.5000    -93.0671     42.9536     16.9802     17.4524     22.5978      2.4118     -0.0006     13.5513     16.5693     18.5530     72.1355  
  8232.0000    -86.5437     46.3042     16.9312     17.4062     20.9401      2.4673      0.0457     13.6144     14.7441     18.4042     71.7679  
  8232.5000    -80.0203     47.8151     17.2097     17.6924     19.9743      2.4580      0.0466     13.6846     11.3117     18.3604     71.2829  
  8233.0000    -74.2797     46.4933     17.4823     17.9695     20.0358      2.4572      0.0306     13.7742     11.3213     18.6917     70.9114  
