~VERSION INFORMATION
 VERS.                           2.00:        CWLS LOG ASCII STANDARD - VERSION 2.00
 WRAP.                             NO:        ONE LINE PER DEPTH STEP
~WELL INFORMATION
#MNEM.UNIT                   DATA             INFORMATION
#----------             --------------        ------------------------------
 STRT.F                       66.0000:        START DEPTH
 STOP.F                    10227.0000:        STOP DEPTH
 STEP.F                        0.5000:        STEP VALUE
 NULL.                      -999.2500:        NULL VALUE
 COMP.      USGS/NPR #4 HUSKY OIL CO.:        COMPANY  
 LOC .                   25  16N  28W:        LOCATION   
 DATE.                        1/31/79:        LOG DATE 
 WELL.             PEARD TEST WELL #1:        WELL     
 UWI .                   503012000200:        UNIQUE WELL ID 
 API .                   503012000200:        UNIQUE WELL IDENTIFIER 
 FLD .                        WILDCAT:        FIELD    
 CNTY.                        N.SLOPE:        COUNTY  
 STAT.                         ALASKA:        STATE   
 CTRY.                            USA:        COUNTRY 
 OPER.      USGS/NPR #4 HUSKY OIL CO.:        OPERATOR  
 SRVC.                   SCHLUMBERGER:        SERVICE COMPANY 
 LAT .                         0.0000:        LATITUDE
 LON .                         0.0000:        LONGITUDE
 DIGS.               CENTER LINE DATA:        DIGITIZING COMPANY 
~CURVE INFORMATION      
#MNEM        .UNIT         API CODE           CURVE DESCRIPTION
#-----------------      --------------        ------------------------------
 DEPT        .F                      :        1  DEPTH
 SP          .MV                     :        2  
 GR          .GAPI                   :        3  
 ILD         .OHMM                   :        4  
 ILM         .OHMM                   :        5  
 LL8         .OHMM                   :        6  
 RHOB        .G/C3                   :        7  
 DRHO        .G/C3                   :        8  
 CALI        .IN                     :        9  
 DPHI        .%                      :        10 
 NPHI        .%                      :        11 
 DT          .US/F                   :        12 
~PARAMETER INFORMATION       
#MNEM.UNIT                  VALUE             DESCRIPTION OF MNEMONIC
#---------             ---------------        ------------------------------
 EKB .F                      103.3000:        KELLY BUSHING
 TD  .F                    10229.0000:        TOTAL DEPTH
 BHT .F                       76.0000:        BOTTOM HOLE TEMPERATURE
 BS  .                        17.5000:        BIT SIZE
 FD  .                        10.0000:        FLUID DENSITY
 CSIZ.                        20.0000:        CASING SIZE
 CBD .F                       88.0000:        CASING DRILLER 1
 CBL .F                      109.0000:        CASING LOGGER 1
 DFT .                  Miscellaneous:        TYPE FLUID IN HOLE
 DFV .                        31.0000:        VISCOSITY
 DFPH.                         7.5000:        PH
 DFL .                        23.0000:        FLUID LOSS
 RMS .                        10.6700:        RM
 MST .F                       62.0000:        RM MEAS. TEMP.
 RMF .                        10.8000:        RMF
 MFST.F                       52.0000:        RMF MEAS. TEMP.
 RMC .                        10.7300:        RMC
 MCST.F                       55.0000:        RMC MEAS. TEMP.
~OTHER INFORMATION
~A    DEPTH          SP          GR         ILD         ILM         LL8        RHOB        DRHO        CALI        DPHI        NPHI          DT  
# ...
  1468.5000    -65.3678     79.6364     13.5031     13.4326     16.9448   -999.2500   -999.2500   -999.2500   -999.2500   -999.2500    102.1882  
  1469.0000    -65.7243     80.7479     12.5923     12.3687     16.3251   -999.2500   -999.2500   -999.2500   -999.2500   -999.2500    108.3808  
  1469.5000    -66.8398     82.6087     11.8797     11.3891     14.5295   -999.2500   -999.2500   -999.2500   -999.2500   -999.2500    113.0520  
  1470.0000    -68.0395     84.1484     11.2074     10.4630     12.6107   -999.2500   -999.2500   -999.2500   -999.2500   -999.2500    117.9032  
  1470.5000    -68.7458     86.2302     10.5732      9.6736     10.9454   -999.2500   -999.2500   -999.2500   -999.2500   -999.2500    120.9590  
  1471.0000    -69.3727     86.8349      9.9749      9.1271     10.6974   -999.2500   -999.2500   -999.2500   -999.2500   -999.2500    119.6357  
  1471.5000    -69.8100     86.3234      9.4104      8.7823     11.0861   -999.2500   -999.2500   -999.2500   -999.2500   -999.2500    117.2607  
  1472.0000    -69.9966     84.8158      8.8779      8.5743     11.5215   -999.2500   -999.2500   -999.2500   -999.2500   -999.2500    115.1839  
  1472.5000    -69.8977     83.8237      8.5913      8.3713     12.0273   -999.2500   -999.2500   -999.2500   -999.2500   -999.2500    114.3874  
  1473.0000    -69.7425     84.5843      8.3146      8.1731     12.4437   -999.2500   -999.2500   -999.2500   -999.2500   -999.2500    114.8552  
  1473.5000    -69.6384     84.9667      8.0468      7.9000     12.1186   -999.2500   -999.2500   -999.2500   -999.2500   -999.2500    118.5614  
  1474.0000    -69.5477     84.2833      7.7877      7.6819     11.1604   -999.2500   -999.2500   -999.2500   -999.2500   -999.2500    122.4310  
  1474.5000    -69.4569     82.4556      7.9076      7.6037      9.8065   -999.2500   -999.2500   -999.2500   -999.2500   -999.2500    121.1108  
  1475.0000    -68.8475     80.8378      8.1202      7.7692      8.8707   -999.2500   -999.2500   -999.2500   -999.2500   -999.2500    116.8366  
  1475.5000    -68.8529     77.2741      8.3126      7.9383      9.2635   -999.2500   -999.2500   -999.2500   -999.2500   -999.2500    110.9987  
  1476.0000    -71.4143     73.4671      8.3678      8.1110     13.1358   -999.2500   -999.2500   -999.2500   -999.2500   -999.2500    109.0349  
  1476.5000    -74.9383     71.8316      8.4232      8.2067     16.8812   -999.2500   -999.2500   -999.2500   -999.2500   -999.2500    107.0938  
  1477.0000    -74.9441     72.2684      8.4805      8.2783     14.8758   -999.2500   -999.2500   -999.2500   -999.2500   -999.2500    108.1376  
  1477.5000    -73.4494     74.5633      8.6778      8.3738     11.9046   -999.2500   -999.2500   -999.2500   -999.2500   -999.2500    110.1043  
  1478.0000    -74.1471     76.5325      8.8528      8.5827     11.4493   -999.2500   -999.2500   -999.2500   -999.2500   -999.2500    106.7407  
  1478.5000    -75.8827     75.6830      9.0315      8.7969     11.3780   -999.2500   -999.2500   -999.2500   -999.2500   -999.2500    104.5957  
  1479.0000    -78.5155     72.6269      9.2336      8.9898     12.1086   -999.2500   -999.2500   -999.2500   -999.2500   -999.2500    101.6291  
  1479.5000    -83.1890     69.5170      9.1694      8.9080     16.3578   -999.2500   -999.2500   -999.2500   -999.2500   -999.2500    100.5500  
  1480.0000    -85.2685     69.1505      9.1444      8.7719     21.2092   -999.2500   -999.2500   -999.2500   -999.2500   -999.2500    103.1138  
  1480.5000    -85.2365     71.6537      9.1195      8.5932     18.3172   -999.2500   -999.2500   -999.2500   -999.2500   -999.2500    107.4378  
  1481.0000    -81.5142     77.5258      9.2488      8.4181     12.6916   -999.2500   -999.2500   -999.2500   -999.2500   -999.2500    110.8586  
  1481.5000    -77.1916     80.9853      9.4111      8.3089     10.6841   -999.2500   -999.2500   -999.2500   -999.2500   -999.2500    113.3454  
  1482.0000    -74.3921     82.6479      9.5795      8.6508     10.7032   -999.2500   -999.2500   -999.2500   -999.2500   -999.2500    111.7031  
  1482.5000    -72.3766     82.6654      9.7519      9.0871     11.7030   -999.2500   -999.2500   -999.2500   -999.2500   -999.2500    110.9416  
  1483.0000    -70.6896     81.7960      9.9274      9.3628     12.2528   -999.2500   -999.2500   -999.2500   -999.2500   -999.2500    111.5253  
  1483.5000    -70.0081     80.4551     10.1061      9.5313     12.4570   -999.2500   -999.2500   -999.2500   -999.2500   -999.2500    111.2693  
  1484.0000    -69.4845     79.5896     10.2652      9.7029     12.5325   -999.2500   -999.2500   -999.2500   -999.2500   -999.2500    110.5909  
  1484.5000    -70.6449     78.6134     10.3523      9.7935     12.6204   -999.2500   -999.2500   -999.2500   -999.2500   -999.2500    108.5767  
  1485.0000    -71.1377     77.6836     10.4402      9.8769     12.7178   -999.2500   -999.2500   -999.2500   -999.2500   -999.2500    108.8151  
  1485.5000    -70.6409     76.6644     10.5288      9.9609     13.0138   -999.2500   -999.2500   -999.2500   -999.2500   -999.2500    110.7985  
  1486.0000    -70.1441     76.2327     10.5041      9.9452     12.9429   -999.2500   -999.2500   -999.2500   -999.2500   -999.2500    111.0492  
  1486.5000    -69.6474     76.0530     10.4705      9.9135     12.8126   -999.2500   -999.2500   -999.2500   -999.2500   -999.2500    110.7540  
  1487.0000    -69.3119     76.0128     10.4467      9.8923     12.9715   -999.2500   -999.2500   -999.2500   -999.2500   -999.2500    109.0573  
  1487.5000    -68.8122     75.5711     10.4467      9.8923     13.1811   -999.2500   -999.2500   -999.2500   -999.2500   -999.2500    107.8172  
  1488.0000    -67.9799     75.9700     10.4521      9.8923     12.7643   -999.2500   -999.2500   -999.2500   -999.2500   -999.2500    109.7467  
  1488.5000    -67.4024     77.6508     10.7362     10.0794     12.2046   -999.2500   -999.2500   -999.2500   -999.2500   -999.2500    107.8198  
  1489.0000    -68.2979     78.9482     11.0280     10.3534     12.7424   -999.2500   -999.2500   -999.2500   -999.2500   -999.2500    106.6332  
  1489.5000    -70.5138     78.6087     11.3277     10.6348     13.7687   -999.2500   -999.2500   -999.2500   -999.2500   -999.2500    104.6581  
  1490.0000    -72.0877     77.9902     11.5639     10.9030     14.6732   -999.2500   -999.2500   -999.2500   -999.2500   -999.2500    101.8142  
  1490.5000    -71.1433     77.9087     11.8890     11.1185     14.8519   -999.2500   -999.2500   -999.2500   -999.2500   -999.2500    100.3874  
  1491.0000    -69.0040     77.7255     12.2887     11.4923     15.2477   -999.2500   -999.2500   -999.2500   -999.2500   -999.2500     99.4010  
  1491.5000    -67.8243     77.1444     12.5199     11.8316     16.3579   -999.2500   -999.2500   -999.2500   -999.2500   -999.2500    100.6647  
  1492.0000    -67.3969     77.2687     12.3670     11.6801     15.7853   -999.2500   -999.2500   -999.2500   -999.2500   -999.2500    102.2910  
  1492.5000    -67.8076     77.8218     12.1930     11.3111     14.4553   -999.2500   -999.2500   -999.2500   -999.2500   -999.2500    105.9199  
  1493.0000    -68.9148     78.1259     12.0208     10.9212     13.7752   -999.2500   -999.2500   -999.2500   -999.2500   -999.2500    108.4247  
  1493.5000    -68.6881     78.5195     11.8511     10.5447     13.4779   -999.2500   -999.2500   -999.2500   -999.2500   -999.2500    109.0455  
  1494.0000    -68.5173     79.5894     11.7400     10.2432     13.1864   -999.2500   -999.2500   -999.2500   -999.2500   -999.2500    109.5576  
  1494.5000    -69.0549     80.1548     11.6593     10.1722     12.8977   -999.2500   -999.2500   -999.2500   -999.2500   -999.2500    109.5308  
  1495.0000    -68.8134     80.0149     11.5790     10.2679     12.6267   -999.2500   -999.2500   -999.2500   -999.2500   -999.2500    107.4490  
  1495.5000    -68.8658     79.6317     11.4994     10.5095     12.4243   -999.2500   -999.2500   -999.2500   -999.2500   -999.2500    104.9622  
