~VERSION INFORMATION
 VERS.                           2.00:        CWLS LOG ASCII STANDARD - VERSION 2.00
 WRAP.                             NO:        ONE LINE PER DEPTH STEP
~WELL INFORMATION
#MNEM.UNIT                   DATA             INFORMATION
#----------             --------------        ------------------------------
 STRT.F                       66.0000:        START DEPTH
 STOP.F                    10227.0000:        STOP DEPTH
 STEP.F                        0.5000:        STEP VALUE
 NULL.                      -999.2500:        NULL VALUE
 COMP.      USGS/NPR #4 HUSKY OIL CO.:        COMPANY  
 LOC .                   25  16N  28W:        LOCATION   
 DATE.                        1/31/79:        LOG DATE 
 WELL.             PEARD TEST WELL #1:        WELL     
 UWI .                   503012000200:        UNIQUE WELL ID 
 API .                   503012000200:        UNIQUE WELL IDENTIFIER 
 FLD .                        WILDCAT:        FIELD    
 CNTY.                        N.SLOPE:        COUNTY  
 STAT.                         ALASKA:        STATE   
 CTRY.                            USA:        COUNTRY 
 OPER.      USGS/NPR #4 HUSKY OIL CO.:        OPERATOR  
 SRVC.                   SCHLUMBERGER:        SERVICE COMPANY 
 LAT .                         0.0000:        LATITUDE
 LON .                         0.0000:        LONGITUDE
 DIGS.               CENTER LINE DATA:        DIGITIZING COMPANY 
~CURVE INFORMATION      
#MNEM        .UNIT         API CODE           CURVE DESCRIPTION
#-----------------      --------------        ------------------------------
 DEPT        .F                      :        1  DEPTH
 SP          .MV                     :        2  
 GR          .GAPI                   :        3  
 ILD         .OHMM                   :        4  
 ILM         .OHMM                   :        5  
 LL8         .OHMM                   :        6  
 RHOB        .G/C3                   :        7  
 DRHO        .G/C3                   :        8  
 CALI        .IN                     :        9  
 DPHI        .%                      :        10 
 NPHI        .%                      :        11 
 DT          .US/F                   :        12 
~PARAMETER INFORMATION       
#MNEM.UNIT                  VALUE             DESCRIPTION OF MNEMONIC
#---------             ---------------        ------------------------------
 EKB .F                      103.3000:        KELLY BUSHING
 TD  .F                    10229.0000:        TOTAL DEPTH
 BHT .F                       76.0000:        BOTTOM HOLE TEMPERATURE
 BS  .                        17.5000:        BIT SIZE
 FD  .                        10.0000:        FLUID DENSITY
 CSIZ.                        20.0000:        CASING SIZE
 CBD .F                       88.0000:        CASING DRILLER 1
 CBL .F                      109.0000:        CASING LOGGER 1
 DFT .                  Miscellaneous:        TYPE FLUID IN HOLE
 DFV .                        31.0000:        VISCOSITY
 DFPH.                         7.5000:        PH
 DFL .                        23.0000:        FLUID LOSS
 RMS .                        10.6700:        RM
 MST .F                       62.0000:        RM MEAS. TEMP.
 RMF .                        10.8000:        RMF
 MFST.F                       52.0000:        RMF MEAS. TEMP.
 RMC .                        10.7300:        RMC
 MCST.F                       55.0000:        RMC MEAS. TEMP.
~OTHER INFORMATION
~A    DEPTH          SP          GR         ILD         ILM         LL8        RHOB        DRHO        CALI        DPHI        NPHI          DT  
# ...
  5511.0000    -56.7408     49.9718     17.7879     17.1405     19.6508      2.5066     -0.0009     14.3537      8.7983     17.2162     73.6346  
  5511.5000    -57.3501     50.5031     18.1977     17.7007     20.1619      2.5118      0.0068     14.3482      8.9152     16.5816     73.7815  
  5512.0000    -57.8410     51.5663     18.5725     18.0652     20.6864      2.5178      0.0078     14.3426      8.6486     15.9470     73.9451  
  5512.5000    -58.1444     53.2953     18.9523     18.4372     21.2245      2.5310      0.0042     14.3371      8.3935     15.3367     74.0566  
  5513.0000    -57.9378     54.0366     19.1317     18.6437     21.7766      2.5431     -0.0029     14.3316      7.6398     14.9161     73.8857  
  5513.5000    -57.4798     54.1048     19.3129     18.8202     22.3430      2.5491     -0.0050     14.3260      6.8318     14.7798     72.1891  
  5514.0000    -57.4777     52.8469     19.4957     18.9984     22.9242      2.5288     -0.0026     14.3210      6.4066     15.1570     70.2942  
  5514.5000    -58.2012     51.8759     19.6440     19.1490     22.8243      2.4963     -0.0001     14.3257      6.7704     15.8765     68.7070  
  5515.0000    -58.5415     51.8665     19.4903     18.8624     21.5179      2.4700     -0.0007     14.3303      8.9567     16.6947     68.8518  
  5515.5000    -58.3987     53.3645     18.7734     18.1697     20.2863      2.4644     -0.0001     14.3349     10.6969     17.5410     70.2324  
  5516.0000    -58.1618     55.0987     18.0798     17.3501     19.1252      2.4601      0.0034     14.3396     11.4192     18.2973     72.9335  
  5516.5000    -57.9135     55.8678     17.2924     16.8106     18.0305      2.4734      0.0086     14.3455     11.4606     19.0993     74.5746  
  5517.0000    -57.1410     55.7124     16.9029     16.4320     17.6374      2.4747     -0.0000     14.3146     10.9847     19.9525     75.4711  
  5517.5000    -56.5556     55.6672     16.5222     16.0619     17.7754      2.4748     -0.0055     14.2886     10.8037     20.4541     75.9650  
  5518.0000    -55.6512     56.6004     15.8323     15.2236     17.9712      2.4780     -0.0114     14.2684     10.7239     20.7508     76.0874  
  5518.5000    -54.5797     58.9442     14.9927     14.4160     16.5739      2.4855     -0.0119     14.2521     10.5256     21.1266     75.9910  
  5519.0000    -53.5229     62.4825     13.9532     13.2702     15.0929      2.5177     -0.0039     14.2260     10.1632     22.2365     75.9008  
  5519.5000    -52.7697     65.1309     13.2777     12.9456     13.8107      2.5392      0.0153     14.2051      8.9654     23.3220     76.1181  
  5520.0000    -52.0165     67.2004     13.2905     12.9580     13.7601      2.5523      0.0366     14.1950      7.2361     23.6263     76.8808  
  5520.5000    -51.4394     66.4900     13.3179     12.9705     13.8111      2.5402      0.0338     14.1938      6.3834     23.1358     77.8245  
  5521.0000    -51.5843     65.8289     13.4465     13.1093     13.9227      2.5238      0.0159     14.2238      6.6645     22.4875     79.1956  
  5521.5000    -52.2990     65.5291     13.5548     13.2679     14.1960      2.5081      0.0036     14.2066      7.3520     22.3327     79.7630  
  5522.0000    -53.0138     65.6240     13.7134     13.5072     14.7413      2.5158      0.0029     14.2190      8.3845     22.0998     79.5263  
  5522.5000    -53.7285     65.3980     13.8738     13.6956     15.4703      2.5239      0.0069     14.2762      8.4887     21.6574     78.9653  
  5523.0000    -54.4725     62.5452     14.0361     13.8867     16.5412      2.5232      0.0057     14.3195      7.8910     20.6409     78.0129  
  5523.5000    -55.3568     58.3457     14.2003     14.0805     16.8471      2.4996      0.0005     14.3475      7.7911     20.9281     76.4936  
  5524.0000    -56.2410     54.8102     14.3664     14.2769     16.3731      2.4891     -0.0046     14.3524      8.8796     21.3348     75.6746  
  5524.5000    -56.7873     53.9566     14.5344     14.4761     15.8541      2.4903     -0.0063     14.3503      9.7522     21.3943     75.2971  
  5525.0000    -57.4076     54.3467     14.7044     14.6780     16.1095      2.4873     -0.0056     14.3393      9.7284     21.0086     75.0222  
  5525.5000    -58.0414     55.0125     14.8764     14.7201     16.5029      2.4839     -0.0049     14.3395      9.8943     20.5642     74.7865  
  5526.0000    -58.9930     54.7989     15.0504     14.7438     16.9059      2.4850     -0.0042     14.3124     10.1412     20.4011     74.5098  
  5526.5000    -59.5468     54.0225     15.2265     14.7675     17.3187      2.4854     -0.0030     14.2753     10.1916     20.2643     74.4857  
  5527.0000    -59.9238     54.3683     15.2373     14.7912     17.6331      2.4812     -0.0014     14.2382     10.0318     19.9686     74.5713  
  5527.5000    -60.3297     55.3181     15.2358     14.8150     17.3893      2.4792      0.0001     14.2011     10.2321     19.5273     74.8070  
  5528.0000    -60.8789     55.6853     15.2344     14.8389     17.0028      2.4718      0.0017     14.2012     10.4713     19.2375     75.0137  
  5528.5000    -60.8440     55.6225     15.2330     14.8627     16.6248      2.4714      0.0020     14.1903     10.8283     19.0772     75.0601  
  5529.0000    -60.7143     55.7835     15.2316     14.8866     16.7273      2.4687     -0.0027     14.1673     10.8533     19.1592     75.1880  
  5529.5000    -60.9912     56.4598     15.2302     14.9074     17.3707      2.4604     -0.0059     14.1837     10.8843     19.1997     75.2604  
  5530.0000    -61.0729     56.0427     15.2287     14.9055     18.0388      2.4688     -0.0060     14.1781     11.6382     19.1503     75.2199  
  5530.5000    -60.8321     54.0429     15.2273     14.9037     18.2853      2.4868     -0.0051     14.1887     11.0357     19.1967     75.2200  
  5531.0000    -60.5544     52.8105     15.2259     14.8706     17.7033      2.5052     -0.0053     14.2079     10.1089     19.6669     75.4675  
  5531.5000    -60.2761     53.9458     15.2245     14.8222     16.4257      2.5127     -0.0060     14.1989      9.0716     20.4272     75.5993  
  5532.0000    -59.8289     57.6314     15.2231     14.7740     14.9644      2.5209     -0.0068     14.1367      8.4357     21.2822     76.3447  
  5532.5000    -59.3423     62.1674     15.2116     14.7260     14.3075      2.5295      0.0004     14.1635      8.0062     21.6148     77.2492  
  5533.0000    -58.9818     65.3960     15.1717     14.6781     15.4074      2.5209      0.0064     14.1582      7.6392     20.7959     77.5784  
  5533.5000    -59.8801     65.9059     15.1319     14.6303     16.5918      2.5108      0.0113     14.1613      7.7425     19.3799     77.3696  
  5534.0000    -60.7783     63.0164     15.0923     14.5827     17.8673      2.5060      0.0086     14.1585      8.3891     18.8378     76.7221  
  5534.5000    -61.2729     57.8374     15.0527     14.5353     17.9166      2.4999      0.0031     14.1547      8.8718     18.7164     75.6758  
  5535.0000    -60.7791     52.5091     15.0132     14.4880     17.5419      2.4972     -0.0025     14.1593      9.2000     19.0369     74.9934  
  5535.5000    -60.2655     50.0526     14.9738     14.4409     17.1348      2.4900     -0.0080     14.1533      9.3958     19.5608     74.8462  
  5536.0000    -59.7461     52.2205     14.9346     14.3939     16.3537      2.4984     -0.0023     14.1591      9.7884     20.0264     74.8008  
  5536.5000    -59.5107     55.1938     14.8954     14.3080     15.6083      2.5093      0.0041     14.1605      9.3392     20.4014     74.8396  
  5537.0000    -60.0006     55.9026     14.8563     14.2097     15.7576      2.5119      0.0026     14.1582      8.7373     20.4680     74.8246  
  5537.5000    -60.4905     55.0371     14.8208     14.1120     16.1954      2.5097     -0.0004     14.1558      8.3213     20.2509     74.8399  
  5538.0000    -60.3814     54.1185     14.8485     14.0289     15.3146      2.5003     -0.0075     14.1668      8.6592     20.4260     74.8135  
