~VERSION INFORMATION
 VERS.                           2.00:        CWLS LOG ASCII STANDARD - VERSION 2.00
 WRAP.                             NO:        ONE LINE PER DEPTH STEP
~WELL INFORMATION
#MNEM.UNIT                   DATA             INFORMATION
#----------             --------------        ------------------------------
 STRT.F                       66.0000:        START DEPTH
 STOP.F                    10227.0000:        STOP DEPTH
 STEP.F                        0.5000:        STEP VALUE
 NULL.                      -999.2500:        NULL VALUE
 COMP.      USGS/NPR #4 HUSKY OIL CO.:        COMPANY  
 LOC .                   25  16N  28W:        LOCATION   
 DATE.                        1/31/79:        LOG DATE 
 WELL.             PEARD TEST WELL #1:        WELL     
 UWI .                   503012000200:        UNIQUE WELL ID 
 API .                   503012000200:        UNIQUE WELL IDENTIFIER 
 FLD .                        WILDCAT:        FIELD    
 CNTY.                        N.SLOPE:        COUNTY  
 STAT.                         ALASKA:        STATE   
 CTRY.                            USA:        COUNTRY 
 OPER.      USGS/NPR #4 HUSKY OIL CO.:        OPERATOR  
 SRVC.                   SCHLUMBERGER:        SERVICE COMPANY 
 LAT .                         0.0000:        LATITUDE
 LON .                         0.0000:        LONGITUDE
 DIGS.               CENTER LINE DATA:        DIGITIZING COMPANY 
~CURVE INFORMATION      
#MNEM        .UNIT         API CODE           CURVE DESCRIPTION
#-----------------      --------------        ------------------------------
 DEPT        .F                      :        1  DEPTH
 SP          .MV                     :        2  
 GR          .GAPI                   :        3  
 ILD         .OHMM                   :        4  
 ILM         .OHMM                   :        5  
 LL8         .OHMM                   :        6  
 RHOB        .G/C3                   :        7  
 DRHO        .G/C3                   :        8  
 CALI        .IN                     :        9  
 DPHI        .%                      :        10 
 NPHI        .%                      :        11 
 DT          .US/F                   :        12 
~PARAMETER INFORMATION       
#MNEM.UNIT                  VALUE             DESCRIPTION OF MNEMONIC
#---------             ---------------        ------------------------------
 EKB .F                      103.3000:        KELLY BUSHING
 TD  .F                    10229.0000:        TOTAL DEPTH
 BHT .F                       76.0000:        BOTTOM HOLE TEMPERATURE
 BS  .                        17.5000:        BIT SIZE
 FD  .                        10.0000:        FLUID DENSITY
 CSIZ.                        20.0000:        CASING SIZE
 CBD .F                       88.0000:        CASING DRILLER 1
 CBL .F                      109.0000:        CASING LOGGER 1
 DFT .                  Miscellaneous:        TYPE FLUID IN HOLE
 DFV .                        31.0000:        VISCOSITY
 DFPH.                         7.5000:        PH
 DFL .                        23.0000:        FLUID LOSS
 RMS .                        10.6700:        RM
 MST .F                       62.0000:        RM MEAS. TEMP.
 RMF .                        10.8000:        RMF
 MFST.F                       52.0000:        RMF MEAS. TEMP.
 RMC .                        10.7300:        RMC
 MCST.F                       55.0000:        RMC MEAS. TEMP.
~OTHER INFORMATION
~A    DEPTH          SP          GR         ILD         ILM         LL8        RHOB        DRHO        CALI        DPHI        NPHI          DT  
# ...
  3476.0000    -53.7612     80.1497      9.1496      8.1654      9.6573      1.9689      0.0851     17.9924     41.4523     36.4347     92.0060  
  3476.5000    -53.5361     77.1026      9.1411      8.1069      9.6484      1.9805      0.0983     17.9924     41.2862     37.1486     93.5106  
  3477.0000    -53.3583     76.0176      9.1326      8.0795      9.6394      2.0000      0.1103     17.9924     40.3689     37.2633     92.2537  
  3477.5000    -53.2586     75.2931      9.1242      8.1089      9.6305      2.0015      0.1184     17.9924     39.3788     37.2483     94.8590  
  3478.0000    -53.2403     74.1992      9.1158      8.1487      9.6247      2.0110      0.1171     17.9924     39.0615     37.5534     97.5273  
  3478.5000    -53.2170     73.3697      9.1675      8.1886      9.6795      2.0245      0.1199     17.9924     38.6532     36.9581     98.6404  
  3479.0000    -53.2084     74.2343      9.2198      8.2288      9.7346      2.0302      0.1227     17.9924     37.8056     35.8726    100.2028  
  3479.5000    -53.4506     75.6758      9.2724      8.2902      9.7900      2.0297      0.1220     17.9924     37.2930     35.4786    100.0550  
  3480.0000    -53.5302     76.5390      9.3253      8.3599      9.8458      2.0315      0.1218     17.9924     37.2033     36.3918     96.5024  
  3480.5000    -53.6921     77.6975      9.2206      8.3659      9.6772      2.0412      0.1242     17.9924     37.1585     37.3836     95.4007  
  3481.0000    -53.9155     79.2690      9.1591      8.3250      9.4146      2.0566      0.1311     17.9924     36.8430     37.9535     94.4105  
  3481.5000    -54.2864     79.6625      9.0980      8.2844      9.2805      2.0629      0.1350     17.9924     35.8772     38.1473     90.1146  
  3482.0000    -54.1283     79.2639      9.1032      8.2439      9.3058      2.0669      0.1375     17.9924     35.3118     38.4743     90.9667  
  3482.5000    -53.9269     79.2968      9.1184      8.2017      9.3311      2.0654      0.1375     17.9923     35.0245     37.3165     94.6027  
  3483.0000    -53.6987     80.2491      9.1335      8.1222      9.3565      2.0606      0.1280     17.9923     35.0002     35.8377     95.6882  
  3483.5000    -53.5581     80.8331      9.1487      8.0433      9.3820      2.0734      0.1271     17.9923     35.3731     35.3219     96.7747  
  3484.0000    -53.4577     80.1378      9.1639      8.0968      9.4075      2.0817      0.1324     17.9923     34.9106     35.9858     95.7198  
  3484.5000    -53.1508     79.7923      9.1791      8.1758      9.4292      2.0854      0.1265     17.9923     34.0691     36.6496     94.8722  
  3485.0000    -52.8056     79.4513      9.1944      8.1589      9.4362      2.0882      0.1182     17.9923     33.9095     36.9370     96.6286  
  3485.5000    -52.8066     78.1516      9.2097      8.1421      9.4431      2.0967      0.1163     17.9923     33.7380     37.2282     99.6731  
  3486.0000    -52.8750     75.3560      9.2250      8.1254      9.4501      2.1162      0.1250     17.9923     33.3647     37.6811    100.1726  
  3486.5000    -53.0943     73.7407      9.2403      8.1086      9.4570      2.1330      0.1351     17.9923     32.4427     37.5475     99.0659  
  3487.0000    -53.2519     73.7927      9.2310      8.1439      9.4640      2.1475      0.1412     17.9923     31.1865     36.5022     96.3462  
  3487.5000    -53.5433     75.0976      9.2355      8.1715      9.4710      2.1700      0.1506     17.9923     30.5473     36.6705     92.1063  
  3488.0000    -53.6933     76.0945      9.2399      8.1991      9.4780      2.1881      0.1570     17.9923     29.2664     37.2518     91.0358  
  3488.5000    -53.5116     76.7930      9.2444      8.2268      9.4849      2.1990      0.1635     17.9923     27.8840     37.2390     93.1113  
  3489.0000    -53.2917     77.2552      9.2489      8.2546      9.4919      2.2018      0.1665     17.9923     27.1660     36.8553     95.7851  
  3489.5000    -53.3948     77.3281      9.2533      8.2825      9.4989      2.1945      0.1601     17.9923     26.6913     36.1846     96.8652  
  3490.0000    -53.5422     77.1325      9.2578      8.3105      9.5059      2.1925      0.1564     17.9923     27.1303     36.0901     97.0235  
  3490.5000    -53.7288     78.0506      9.2623      8.3358      9.5116      2.1920      0.1594     17.9923     27.5990     36.6377     97.0079  
  3491.0000    -53.8689     79.5979      9.2668      8.2921      9.5133      2.1899      0.1618     17.9923     27.5388     37.8862     93.7970  
  3491.5000    -53.9261     80.7026      9.2712      8.2486      9.5149      2.1865      0.1603     17.9923     27.4942     38.4833     92.1440  
  3492.0000    -54.1176     81.0354      9.2757      8.2054      9.5166      2.1787      0.1524     17.9923     27.6934     38.0494     92.3608  
  3492.5000    -54.2818     80.0836      9.2802      8.1623      9.5183      2.1854      0.1503     17.9923     28.1952     37.5730     93.7587  
  3493.0000    -54.3872     78.6769      9.2847      8.1195      9.5200      2.2060      0.1559     17.9923     28.0673     37.6654     94.9598  
  3493.5000    -53.5173     77.0746      9.2892      8.0770      9.5216      2.2107      0.1593     17.9923     26.9489     38.1003     96.6392  
  3494.0000    -53.8458     75.9042      9.2937      8.0819      9.5233      2.2060      0.1541     17.9923     26.2643     39.0710     96.5864  
  3494.5000    -53.9485     74.8472      9.2981      8.1008      9.5250      2.2051      0.1488     17.9923     26.3429     39.4902     97.3264  
  3495.0000    -53.7995     74.8089      9.3026      8.1197      9.5267      2.2109      0.1449     17.9923     26.4781     38.3883     95.8076  
  3495.5000    -53.5148     75.2701      9.3071      8.1387      9.5283      2.2197      0.1432     17.9923     26.3188     36.9826     94.6812  
  3496.0000    -53.3316     75.8481      9.3116      8.1577      9.5300      2.2456      0.1495     17.9923     25.9032     36.3791     93.9214  
  3496.5000    -53.2013     76.0749      9.3161      8.1750      9.5317      2.2865      0.1581     17.9923     24.5556     35.4385     94.6381  
  3497.0000    -53.2722     76.2981      9.3206      8.2099      9.5334      2.3191      0.1576     17.9923     22.3422     34.6330     94.6531  
  3497.5000    -53.2798     77.4394      9.3251      8.3207      9.5350      2.3487      0.1525     17.9923     20.1848     34.2340     95.4980  
  3498.0000    -53.2185     78.7791      9.3296      8.4330      9.5367      2.3729      0.1567     17.9923     18.6063     34.2590     95.5638  
  3498.5000    -53.0750     80.2946      9.3342      8.5469      9.5384      2.3802      0.1525     17.9923     16.8931     34.3784     94.0246  
  3499.0000    -52.8517     81.9603      9.3387      8.5514      9.5411      2.3629      0.1336     17.9923     15.8338     34.8068     93.9573  
  3499.5000    -53.0096     82.7094      9.3432      8.4991      9.5473      2.3561      0.1250     17.9923     16.7748     35.1212     95.0742  
  3500.0000    -53.4022     82.3446      9.3477      8.4504      9.5534      2.3577      0.1358     17.9923     17.6457     36.0002     94.3484  
  3500.5000    -53.8609     80.5258      9.3503      8.4019      9.5596      2.3676      0.1477     17.9923     17.5726     36.9976     92.1552  
  3501.0000    -54.2639     76.9930      9.3525      8.3537      9.5658      2.3750      0.1488     17.9923     17.0720     38.2788     91.6674  
  3501.5000    -54.4760     72.6742      9.3547      8.3058      9.5720      2.3783      0.1422     17.9923     16.5969     39.0063     91.8429  
  3502.0000    -54.5300     71.6153      9.3569      8.2809      9.5782      2.3822      0.1453     17.9923     16.3059     38.0421     92.4604  
  3502.5000    -54.5371     72.3038      9.3590      8.2774      9.5844      2.3924      0.1586     17.9923     16.2138     37.0242     94.5284  
  3503.0000    -54.6159     73.2481      9.3612      8.2700      9.5906      2.4021      0.1682     17.9923     15.6850     37.1027     97.8465  
