~VERSION INFORMATION
 VERS.                           2.00:        CWLS LOG ASCII STANDARD - VERSION 2.00
 WRAP.                             NO:        ONE LINE PER DEPTH STEP
~WELL INFORMATION
#MNEM.UNIT                   DATA             INFORMATION
#----------             --------------        ------------------------------
 STRT.F                       66.0000:        START DEPTH
 STOP.F                    10227.0000:        STOP DEPTH
 STEP.F                        0.5000:        STEP VALUE
 NULL.                      -999.2500:        NULL VALUE
 COMP.      USGS/NPR #4 HUSKY OIL CO.:        COMPANY  
 LOC .                   25  16N  28W:        LOCATION   
 DATE.                        1/31/79:        LOG DATE 
 WELL.             PEARD TEST WELL #1:        WELL     
 UWI .                   503012000200:        UNIQUE WELL ID 
 API .                   503012000200:        UNIQUE WELL IDENTIFIER 
 FLD .                        WILDCAT:        FIELD    
 CNTY.                        N.SLOPE:        COUNTY  
 STAT.                         ALASKA:        STATE   
 CTRY.                            USA:        COUNTRY 
 OPER.      USGS/NPR #4 HUSKY OIL CO.:        OPERATOR  
 SRVC.                   SCHLUMBERGER:        SERVICE COMPANY 
 LAT .                         0.0000:        LATITUDE
 LON .                         0.0000:        LONGITUDE
 DIGS.               CENTER LINE DATA:        DIGITIZING COMPANY 
~CURVE INFORMATION      
#MNEM        .UNIT         API CODE           CURVE DESCRIPTION
#-----------------      --------------        ------------------------------
 DEPT        .F                      :        1  DEPTH
 SP          .MV                     :        2  
 GR          .GAPI                   :        3  
 ILD         .OHMM                   :        4  
 ILM         .OHMM                   :        5  
 LL8         .OHMM                   :        6  
 RHOB        .G/C3                   :        7  
 DRHO        .G/C3                   :        8  
 CALI        .IN                     :        9  
 DPHI        .%                      :        10 
 NPHI        .%                      :        11 
 DT          .US/F                   :        12 
~PARAMETER INFORMATION       
#MNEM.UNIT                  VALUE             DESCRIPTION OF MNEMONIC
#---------             ---------------        ------------------------------
 EKB .F                      103.3000:        KELLY BUSHING
 TD  .F                    10229.0000:        TOTAL DEPTH
 BHT .F                       76.0000:        BOTTOM HOLE TEMPERATURE
 BS  .                        17.5000:        BIT SIZE
 FD  .                        10.0000:        FLUID DENSITY
 CSIZ.                        20.0000:        CASING SIZE
 CBD .F                       88.0000:        CASING DRILLER 1
 CBL .F                      109.0000:        CASING LOGGER 1
 DFT .                  Miscellaneous:        TYPE FLUID IN HOLE
 DFV .                        31.0000:        VISCOSITY
 DFPH.                         7.5000:        PH
 DFL .                        23.0000:        FLUID LOSS
 RMS .                        10.6700:        RM
 MST .F                       62.0000:        RM MEAS. TEMP.
 RMF .                        10.8000:        RMF
 MFST.F                       52.0000:        RMF MEAS. TEMP.
 RMC .                        10.7300:        RMC
 MCST.F                       55.0000:        RMC MEAS. TEMP.
~OTHER INFORMATION
~A    DEPTH          SP          GR         ILD         ILM         LL8        RHOB        DRHO        CALI        DPHI        NPHI          DT  
# ...
  9553.5000    -86.5948     39.4690     14.5452     19.5992     24.6089      2.5028      0.0392      9.3833      8.3955     12.9016     74.8711  
  9554.0000    -87.1678     46.0019     13.8916     19.3062     27.0021      2.4930      0.0342      9.3244      9.3982     13.0945     75.1702  
  9554.5000    -87.6357     52.6504     13.2673     19.0176     31.0264      2.4795      0.0365      9.2675     10.0406     13.1137     75.2015  
  9555.0000    -88.0301     58.6431     12.6711     18.4056     33.4779      2.4903      0.0385      9.2497     10.7341     13.1449     74.5504  
  9555.5000    -88.6254     60.1218     12.1337     17.4814     32.6409      2.4991      0.0373      9.2412     10.0177     13.4343     72.5403  
  9556.0000    -89.2675     57.0433     11.6601     15.7040     24.0986      2.5235      0.0403      9.2440      9.3009     13.7237     70.2420  
  9556.5000    -90.0154     46.2900     10.8047     14.7356     18.6409      2.5628      0.0459      9.2597      7.9171     14.1557     70.8962  
  9557.0000    -90.2796     36.6982     10.0809     13.7235     16.0289      2.6073      0.0586      9.2898      5.4782     14.8246     74.2439  
  9557.5000    -90.5980     30.4083      9.4057     13.0631     15.3805      2.5853      0.0669      9.3201      3.0860     15.9720     78.2616  
  9558.0000    -91.1518     29.9399      8.7757     12.4088     15.2239      2.5460      0.0651      9.2903      4.6161     17.6180     80.1951  
  9558.5000    -91.3378     30.8946      8.2787     11.9079     15.2280      2.5166      0.0582      9.2310      7.1804     18.9340     82.3088  
  9559.0000    -91.9418     31.9215      8.1469     11.4836     15.1462      2.4522      0.0427      9.1717      8.6129     19.3419     83.9070  
  9559.5000    -92.4392     32.4351      8.0118     11.1652     14.9677      2.4059      0.0321      9.1328     12.5936     18.6073     84.7050  
  9560.0000    -92.8147     32.7038      7.8987     10.9735     15.0119      2.3723      0.0262      9.1406     15.3599     18.1438     84.6709  
  9560.5000    -93.1903     33.0477      7.8028     10.7609     15.0450      2.3539      0.0195      9.1439     17.5608     17.6803     82.8345  
  9561.0000    -94.0000     33.9781      7.6469     10.6691     15.0261      2.3680      0.0288      9.1461     18.2692     17.5214     82.0136  
  9561.5000    -94.5836     35.1781      7.7466     10.5867     15.0355      2.3815      0.0406      9.1598     17.4901     17.6672     80.5308  
  9562.0000    -95.3333     36.2100      7.9012     10.6217     15.1574      2.3947      0.0475      9.1590     16.5576     17.8130     79.8062  
  9562.5000    -96.0196     37.2677      8.0146     10.7092     15.9831      2.3943      0.0496      9.1634     15.8825     17.9587     79.2315  
  9563.0000    -96.2708     37.6858      8.1611     11.0852     18.8159      2.3980      0.0443      9.1639     15.8998     18.1045     78.4965  
  9563.5000    -96.1714     37.1794      8.2590     11.3920     22.4638      2.3851      0.0289      9.1580     15.7756     18.2503     76.7199  
  9564.0000    -95.4098     35.8647      8.4789     11.6027     23.9416      2.3913      0.0158      9.1420     16.4738     18.3511     74.7784  
  9564.5000    -94.3941     33.8218      8.7047     11.9294     19.9676      2.4119      0.0044      9.1423     15.9590     18.2856     73.5016  
  9565.0000    -93.6377     31.8063      8.9365     12.3852     18.2409      2.4425     -0.0007      9.1745     14.5459     18.2266     73.6254  
  9565.5000    -92.9548     31.2181      9.1744     12.9147     18.3827      2.4668     -0.0057      9.1688     12.7739     18.1675     75.1951  
  9566.0000    -92.9254     31.4544      9.4187     13.2652     19.3324      2.4855      0.0131      9.1779     11.2365     17.9436     76.6447  
  9566.5000    -92.9758     31.7169      9.6695     13.4241     20.7909      2.4627      0.0379      9.1956     10.1943     16.6059     75.1900  
  9567.0000    -93.0167     32.3012      9.6066     13.4677     21.3184      2.4310      0.0387      9.1427     12.1295     15.8795     74.3172  
  9567.5000    -93.0577     33.5710      9.5088     13.5804     20.9652      2.4432      0.0369      9.0990     13.8777     15.2871     73.9417  
  9568.0000    -92.9230     35.0219      9.4119     13.6031     21.5407      2.4465      0.0340      9.1037     12.7209     14.9841     75.0419  
  9568.5000    -92.3898     36.1303      9.3161     13.5565     23.0862      2.4727      0.0436      9.1044     12.9955     14.8867     76.3419  
  9569.0000    -91.6197     36.5526      9.2212     13.3329     25.4448      2.4802      0.0458      9.0965     11.0889     14.8635     75.0401  
  9569.5000    -90.4419     35.8018      9.0593     12.8901     24.4180      2.4852      0.0525      9.0917     10.6539     15.1812     73.4889  
  9570.0000    -88.7842     32.6994      8.8256     12.2323     20.0707      2.4985      0.0619      9.0879     10.1896     15.7445     72.8426  
  9570.5000    -87.4943     29.1042      8.5855     11.6875     15.6576      2.5011      0.0505      9.0841      9.6169     16.2912     72.6406  
  9571.0000    -86.4226     26.9405      8.3521     11.4122     14.7328      2.5101      0.0433      9.0803      9.2997     17.2675     73.9581  
  9571.5000    -85.7579     26.3276      8.1816     11.0898     14.1082      2.5233      0.0387      9.1035      8.7599     18.6193     76.5840  
  9572.0000    -85.1750     26.7531      7.9304     10.9340     13.5830      2.5036      0.0474      9.0937      7.9871     19.3701     78.1991  
  9572.5000    -84.7436     28.0173      7.7491     10.8652     13.1699      2.4570      0.0467      9.0799      8.6682     19.6706     78.9097  
  9573.0000    -84.6973     29.3482      7.6328     10.9466     13.4395      2.4151      0.0378      9.0214     12.6898     18.8720     79.3643  
  9573.5000    -84.8058     30.6204      7.4388     11.1195     15.2589      2.3850      0.0271      9.0153     14.8183     18.2706     78.9740  
  9574.0000    -85.1032     31.9250      7.3575     10.9570     20.1407      2.3767      0.0312      9.0165     16.6541     17.8151     77.8783  
  9574.5000    -85.7473     32.1760      7.2872     10.4634     20.9861      2.3920      0.0352      9.0157     16.7641     17.5835     76.6996  
  9575.0000    -86.1551     32.2555      7.2260      9.9671     15.1540      2.4225      0.0374      9.0240     15.8775     17.5606     76.2282  
  9575.5000    -85.9445     32.8421      7.2003      9.5991     12.2688      2.4403      0.0253      9.0374     14.0791     17.7369     77.5522  
  9576.0000    -85.8189     33.0983      7.2127     10.0361     14.0785      2.4609      0.0222      9.0508     12.7875     17.9132     79.5936  
  9576.5000    -85.1232     32.9018      7.2251     10.2104     16.9810      2.4460      0.0232      9.0589     11.5211     18.5919     79.1870  
  9577.0000    -84.9024     32.3986      7.1142     10.1127     18.1965      2.4229      0.0276      9.0298     12.9903     18.9204     78.5365  
  9577.5000    -84.6817     32.4874      7.2237      9.9727     16.8005      2.4161      0.0321      9.0006     14.1963     18.7451     78.2518  
  9578.0000    -84.3641     33.0795      7.4674      9.7541     15.5838      2.4207      0.0325      9.0005     14.6970     18.1603     78.3813  
  9578.5000    -83.9835     33.3966      7.7194      9.6648     14.7838      2.4492      0.0369      9.0105     14.2062     17.4586     78.6623  
  9579.0000    -83.5793     32.9892      7.9799      9.9542     13.3797      2.4585      0.0483      9.0205     12.5392     17.1403     78.2776  
  9579.5000    -83.0643     31.9654      8.4531     10.7929     12.5198      2.4102      0.0322      9.0327     12.1111     17.4504     76.8214  
  9580.0000    -82.8643     31.3183      9.1136     12.1674     14.2565      2.3767      0.0226      9.0366     15.1274     17.8804     76.2718  
  9580.5000    -82.9997     31.8123      9.8256     13.3503     21.6642      2.3879      0.0312      9.0405     17.1819     18.1881     77.4652  
