~VERSION INFORMATION
 VERS.                           2.00:        CWLS LOG ASCII STANDARD - VERSION 2.00
 WRAP.                             NO:        ONE LINE PER DEPTH STEP
~WELL INFORMATION
#MNEM.UNIT                   DATA             INFORMATION
#----------             --------------        ------------------------------
 STRT.F                       66.0000:        START DEPTH
 STOP.F                    10227.0000:        STOP DEPTH
 STEP.F                        0.5000:        STEP VALUE
 NULL.                      -999.2500:        NULL VALUE
 COMP.      USGS/NPR #4 HUSKY OIL CO.:        COMPANY  
 LOC .                   25  16N  28W:        LOCATION   
 DATE.                        1/31/79:        LOG DATE 
 WELL.             PEARD TEST WELL #1:        WELL     
 UWI .                   503012000200:        UNIQUE WELL ID 
 API .                   503012000200:        UNIQUE WELL IDENTIFIER 
 FLD .                        WILDCAT:        FIELD    
 CNTY.                        N.SLOPE:        COUNTY  
 STAT.                         ALASKA:        STATE   
 CTRY.                            USA:        COUNTRY 
 OPER.      USGS/NPR #4 HUSKY OIL CO.:        OPERATOR  
 SRVC.                   SCHLUMBERGER:        SERVICE COMPANY 
 LAT .                         0.0000:        LATITUDE
 LON .                         0.0000:        LONGITUDE
 DIGS.               CENTER LINE DATA:        DIGITIZING COMPANY 
~CURVE INFORMATION      
#MNEM        .UNIT         API CODE           CURVE DESCRIPTION
#-----------------      --------------        ------------------------------
 DEPT        .F                      :        1  DEPTH
 SP          .MV                     :        2  
 GR          .GAPI                   :        3  
 ILD         .OHMM                   :        4  
 ILM         .OHMM                   :        5  
 LL8         .OHMM                   :        6  
 RHOB        .G/C3                   :        7  
 DRHO        .G/C3                   :        8  
 CALI        .IN                     :        9  
 DPHI        .%                      :        10 
 NPHI        .%                      :        11 
 DT          .US/F                   :        12 
~PARAMETER INFORMATION       
#MNEM.UNIT                  VALUE             DESCRIPTION OF MNEMONIC
#---------             ---------------        ------------------------------
 EKB .F                      103.3000:        KELLY BUSHING
 TD  .F                    10229.0000:        TOTAL DEPTH
 BHT .F                       76.0000:        BOTTOM HOLE TEMPERATURE
 BS  .                        17.5000:        BIT SIZE
 FD  .                        10.0000:        FLUID DENSITY
 CSIZ.                        20.0000:        CASING SIZE
 CBD .F                       88.0000:        CASING DRILLER 1
 CBL .F                      109.0000:        CASING LOGGER 1
 DFT .                  Miscellaneous:        TYPE FLUID IN HOLE
 DFV .                        31.0000:        VISCOSITY
 DFPH.                         7.5000:        PH
 DFL .                        23.0000:        FLUID LOSS
 RMS .                        10.6700:        RM
 MST .F                       62.0000:        RM MEAS. TEMP.
 RMF .                        10.8000:        RMF
 MFST.F                       52.0000:        RMF MEAS. TEMP.
 RMC .                        10.7300:        RMC
 MCST.F                       55.0000:        RMC MEAS. TEMP.
~OTHER INFORMATION
~A    DEPTH          SP          GR         ILD         ILM         LL8        RHOB        DRHO        CALI        DPHI        NPHI          DT  
# ...
  2816.0000    -60.8914     65.8425     13.6804     10.3807     11.2814      2.5117      0.0695     17.9945      8.4222     30.5886     62.4132  
  2816.5000    -60.6654     67.4040     13.5139     10.3351     11.1155      2.4948      0.0513     17.9945      8.2069     30.2315     84.7918  
  2817.0000    -60.4393     67.8167     13.6255     10.3115     10.8833      2.4821      0.0447     17.9945      9.2208     29.9016     87.2183  
  2817.5000    -60.2132     67.9063     13.9305     10.2880     10.6791      2.4723      0.0409     17.9945      9.9622     29.6205     85.4675  
  2818.0000    -60.0257     67.8864     14.2098     10.5323     10.9434      2.4873      0.0555     17.9945     10.9083     29.9648     72.0594  
  2818.5000    -60.1218     68.0470     14.4587     11.0654     11.4020      2.5063      0.0671     17.9945     10.0514     31.2329     57.8990  
  2819.0000    -60.2180     68.8304     14.4959     11.4401     11.8849      2.4967      0.0753     17.9945      8.8631     33.3007     94.2130  
  2819.5000    -60.3142     69.8451     14.3439     11.3426     11.7930      2.4805      0.0733     17.9945      9.1326     35.0060    165.6586  
  2820.0000    -60.4103     70.5893     14.1937     10.9649     11.5426      2.4849      0.0772     17.9944      9.9380     35.3141    182.9321  
  2820.5000    -60.5065     72.6627     14.0450     10.5998     11.1604      2.4915      0.0861     17.9944     10.4324     35.4346    183.8403  
  2821.0000    -60.6026     74.4725     13.8980     10.2469     10.7782      2.4923      0.0810     17.9944      9.6845     34.8639    191.1800  
  2821.5000    -60.6988     75.4567     13.7524      9.9057     10.4875      2.4942      0.0709     17.9944      9.6372     34.4141    181.4150  
  2822.0000    -60.7911     74.8267     13.4219      9.8078     10.2125      2.4933      0.0651     17.9944      9.5776     34.1988    147.2902  
  2822.5000    -60.8685     72.1231     13.1709      9.7741     10.0333      2.4875      0.0579     17.9944      9.5411     33.4900     92.9466  
  2823.0000    -60.9459     69.7284     13.0806      9.7405     10.0930      2.4953      0.0619     17.9944      9.8328     32.0580     89.2003  
  2823.5000    -61.0232     68.2515     13.0078      9.7677     10.4400      2.5097      0.0717     17.9944      9.7067     31.1896     72.1257  
  2824.0000    -61.1006     67.2122     13.3613      9.9570     10.7990      2.5105      0.0770     17.9944      8.9172     32.4322     68.9930  
  2824.5000    -61.3846     66.0235     13.5226     10.1499     11.1702      2.4965      0.0661     17.9944      8.1864     33.8137     89.5613  
  2825.0000    -61.6341     65.2501     13.6200     10.3466     11.2429      2.4921      0.0674     17.9944      9.1693     34.0370     93.6217  
  2825.5000    -61.5403     64.9651     14.2807     10.5053     11.1545      2.4917      0.0722     17.9944      9.6546     33.0594     90.9895  
  2826.0000    -61.3743     64.9708     14.5014     10.5069     11.0668      2.4844      0.0770     17.9944      9.6940     32.3518     73.8060  
  2826.5000    -61.2083     65.3447     14.6919     10.5085     11.0104      2.4815      0.0776     17.9944     10.1049     32.7785     53.1443  
  2827.0000    -61.0422     66.8850     14.6796     10.5101     10.9668      2.4792      0.0623     17.9944     10.2940     33.0896     62.5818  
  2827.5000    -60.8762     68.8715     14.6225     10.5117     10.9234      2.4702      0.0472     17.9944     10.3061     33.5467     84.9288  
  2828.0000    -60.7102     70.2284     14.4583     10.5133     10.8802      2.4619      0.0323     17.9944     10.8237     33.6032     88.0382  
  2828.5000    -60.5442     71.4651     14.3831     10.5149     10.8371      2.4504      0.0205     17.9944     11.2827     33.5445     88.7159  
  2829.0000    -60.4661     71.9010     14.2753     10.5166     10.7942      2.4475      0.0209     17.9944     11.8856     33.5683     89.7076  
  2829.5000    -60.4790     71.3862     14.2100     10.4269     10.7515      2.4587      0.0351     17.9943     12.2259     33.4157     90.2998  
  2830.0000    -60.4919     70.0589     14.1306     10.3209     10.7016      2.4616      0.0424     17.9943     11.4986     33.2205     90.6071  
  2830.5000    -60.5048     68.6417     14.0332     10.2160     10.6141      2.4517      0.0375     17.9943     11.3863     32.8947     88.8853  
  2831.0000    -60.5178     66.6924     13.7813     10.1121     10.5272      2.4455      0.0327     17.9943     11.8162     32.7187     88.0037  
  2831.5000    -60.5307     65.8515     13.4598     10.0093     10.4411      2.4522      0.0387     17.9943     12.2664     33.0370     87.2963  
  2832.0000    -60.5436     66.1142     13.2012      9.9076     10.3557      2.4681      0.0512     17.9943     12.0383     33.0710     87.3675  
  2832.5000    -60.5103     66.2841     13.0089      9.8284     10.2716      2.4819      0.0660     17.9943     11.2342     32.2958     89.7589  
  2833.0000    -60.4991     65.4303     12.8871      9.9019     10.1905      2.4927      0.0758     17.9943     10.4097     31.1064     93.3807  
  2833.5000    -60.5257     64.5586     12.7607      9.9760     10.1652      2.4930      0.0780     17.9943      9.7489     30.4610     96.4745  
  2834.0000    -60.6479     64.9707     12.5716     10.0456     10.2296      2.4865      0.0840     17.9943      9.4129     30.6429     97.3132  
  2834.5000    -60.7085     66.4289     12.3972     10.1012     10.2943      2.4897      0.0969     17.9943      9.8776     30.7233     97.3451  
  2835.0000    -60.6469     67.9566     12.3764     10.1571     10.3595      2.4950      0.1109     17.9943      9.9063     30.6665     93.7010  
  2835.5000    -60.9687     69.8165     12.5514     10.2134     10.3028      2.4846      0.1139     17.9943      9.2377     30.6211     88.4915  
  2836.0000    -60.7363     71.4581     12.7184     10.2443     10.3693      2.4804      0.1161     17.9943      9.9066     31.3303     89.0486  
  2836.5000    -60.4064     71.7212     12.8897     10.2419     10.4144      2.4795      0.1148     17.9943     10.3759     32.9912     89.5973  
  2837.0000    -59.8754     69.7888     13.1265     10.2396     10.3846      2.4733      0.1106     17.9943     10.3505     34.1038     90.5161  
  2837.5000    -59.4045     65.6549     13.2563     10.2372     10.5338      2.4648      0.1064     17.9943     10.6309     33.3609     92.7533  
  2838.0000    -59.3989     62.9398     13.1865     10.3071     10.9693      2.4577      0.1021     17.9943     11.0541     32.5547     94.5943  
  2838.5000    -59.5753     64.0420     13.1458     10.3999     11.1973      2.4717      0.1064     17.9943     11.5852     33.0204     94.1189  
  2839.0000    -59.7516     66.7075     13.1051     10.3983     11.0923      2.4881      0.1113     17.9942     11.0193     32.7210     91.4715  
  2839.5000    -59.9280     69.5665     13.0646     10.2376     10.5757      2.5055      0.1162     17.9942     10.1361     32.4473     86.9727  
  2840.0000    -60.0255     70.8707     13.0243     10.0794     10.2608      2.5187      0.1127     17.9942      9.0075     32.1086     83.7254  
  2840.5000    -59.9590     71.1360     12.9756      9.9281     10.3097      2.5159      0.1070     17.9942      8.1922     32.8165     60.5036  
  2841.0000    -59.8924     71.4307     12.7683      9.9475     10.4640      2.5135      0.1013     17.9942      8.2366     34.0402     44.7819  
  2841.5000    -59.8259     71.4518     12.4828      9.9670     10.4766      2.4982      0.0942     17.9942      8.3254     34.7919     89.8343  
  2842.0000    -59.7594     70.9731     12.3620      9.9865     10.4049      2.4800      0.0741     17.9942      9.0863     34.9370     89.4836  
  2842.5000    -59.6928     70.4702     12.3792      9.9914     10.3076      2.4692      0.0605     17.9942     10.3147     33.7209     88.2855  
  2843.0000    -59.6453     70.3130     12.5572      9.9891     10.2531      2.4704      0.0586     17.9942     10.8597     33.1295     92.1151  
