~VERSION INFORMATION
 VERS.                           2.00:        CWLS LOG ASCII STANDARD - VERSION 2.00
 WRAP.                             NO:        ONE LINE PER DEPTH STEP
~WELL INFORMATION
#MNEM.UNIT                   DATA             INFORMATION
#----------             --------------        ------------------------------
 STRT.F                       66.0000:        START DEPTH
 STOP.F                    10227.0000:        STOP DEPTH
 STEP.F                        0.5000:        STEP VALUE
 NULL.                      -999.2500:        NULL VALUE
 COMP.      USGS/NPR #4 HUSKY OIL CO.:        COMPANY  
 LOC .                   25  16N  28W:        LOCATION   
 DATE.                        1/31/79:        LOG DATE 
 WELL.             PEARD TEST WELL #1:        WELL     
 UWI .                   503012000200:        UNIQUE WELL ID 
 API .                   503012000200:        UNIQUE WELL IDENTIFIER 
 FLD .                        WILDCAT:        FIELD    
 CNTY.                        N.SLOPE:        COUNTY  
 STAT.                         ALASKA:        STATE   
 CTRY.                            USA:        COUNTRY 
 OPER.      USGS/NPR #4 HUSKY OIL CO.:        OPERATOR  
 SRVC.                   SCHLUMBERGER:        SERVICE COMPANY 
 LAT .                         0.0000:        LATITUDE
 LON .                         0.0000:        LONGITUDE
 DIGS.               CENTER LINE DATA:        DIGITIZING COMPANY 
~CURVE INFORMATION      
#MNEM        .UNIT         API CODE           CURVE DESCRIPTION
#-----------------      --------------        ------------------------------
 DEPT        .F                      :        1  DEPTH
 SP          .MV                     :        2  
 GR          .GAPI                   :        3  
 ILD         .OHMM                   :        4  
 ILM         .OHMM                   :        5  
 LL8         .OHMM                   :        6  
 RHOB        .G/C3                   :        7  
 DRHO        .G/C3                   :        8  
 CALI        .IN                     :        9  
 DPHI        .%                      :        10 
 NPHI        .%                      :        11 
 DT          .US/F                   :        12 
~PARAMETER INFORMATION       
#MNEM.UNIT                  VALUE             DESCRIPTION OF MNEMONIC
#---------             ---------------        ------------------------------
 EKB .F                      103.3000:        KELLY BUSHING
 TD  .F                    10229.0000:        TOTAL DEPTH
 BHT .F                       76.0000:        BOTTOM HOLE TEMPERATURE
 BS  .                        17.5000:        BIT SIZE
 FD  .                        10.0000:        FLUID DENSITY
 CSIZ.                        20.0000:        CASING SIZE
 CBD .F                       88.0000:        CASING DRILLER 1
 CBL .F                      109.0000:        CASING LOGGER 1
 DFT .                  Miscellaneous:        TYPE FLUID IN HOLE
 DFV .                        31.0000:        VISCOSITY
 DFPH.                         7.5000:        PH
 DFL .                        23.0000:        FLUID LOSS
 RMS .                        10.6700:        RM
 MST .F                       62.0000:        RM MEAS. TEMP.
 RMF .                        10.8000:        RMF
 MFST.F                       52.0000:        RMF MEAS. TEMP.
 RMC .                        10.7300:        RMC
 MCST.F                       55.0000:        RMC MEAS. TEMP.
~OTHER INFORMATION
~A    DEPTH          SP          GR         ILD         ILM         LL8        RHOB        DRHO        CALI        DPHI        NPHI          DT  
# ...
 10213.5000    -17.8925    126.7325     58.1643     77.8328    106.4108      2.5743      0.0609      8.8777      6.4411      0.8073     55.0482  
 10214.0000    -17.7853    125.5123     56.9205     85.2386     91.2762      2.6333      0.1324      8.7531      4.7938      0.7714     56.2320  
 10214.5000    -17.6782    124.4927     55.7033     60.0862     78.2942      2.6986      0.1876      8.9429      0.4835      0.7355     57.5002  
 10215.0000    -17.5711    123.9357     54.2938     41.6504     71.5278      2.6703      0.1939      9.3080     -3.1969      0.6250     58.1306  
 10215.5000    -17.4639    123.9546     54.0585     37.4766     67.1407      2.6558      0.1391      9.5623     -1.3597      0.4344     58.9223  
 10216.0000    -17.3568    125.7260     53.7910     41.4348     68.5713      2.6840      0.1734      9.1094      0.4397      0.1585     58.6242  
 10216.5000    -17.2497    126.6681     52.7786     39.7061     72.2352      2.6901      0.2076      9.0884     -2.2828     -0.4052     58.3261  
 10217.0000    -17.0403    126.6655     51.0519     36.1841     76.0948      2.6806      0.2221      9.2577     -2.7083     -0.9690     58.0280  
 10217.5000    -16.9136    127.0821     49.5877     40.2620     75.3862      2.6923      0.2107      8.9155     -2.2575     -1.5530     57.7299  
 10218.0000    -16.8657    128.2491     48.9041     45.8962     80.2352      2.7013      0.2087      8.6281     -2.4725     -1.3709     57.4318  
 10218.5000    -16.8997    129.3763     48.2298     51.8171     82.9128      2.6922      0.1910      8.7760     -3.0352     -1.0882     57.1337  
 10219.0000    -16.9825    129.4271     47.5648     55.4624     82.0051      2.6385      0.1747      9.1241     -2.6412     -0.8963     56.8356  
 10219.5000    -16.9424    128.6590     47.5059     56.3390     81.1072      2.6229      0.1529      9.5689      0.8685     -1.0386     56.6780  
 10220.0000    -17.0665    125.7658     47.6135     53.2656     80.3712      2.6409      0.1719      9.6310      1.8553     -1.1809     56.6701  
 10220.5000    -17.1906    124.1516     47.7213     50.9257     81.4923      2.6729      0.1769      9.5655      0.2911     -1.3232   -999.2500  
 10221.0000    -17.3147    123.9956     47.8293     49.5988     82.6289      2.6673      0.1190      9.4866     -0.9031     -1.4191   -999.2500  
 10221.5000    -17.4387    123.6900     47.9376     50.3977     83.7814      2.6625      0.1153      9.3443     -0.5348      0.8602   -999.2500  
 10222.0000    -17.5628    123.2572     48.0461     52.2298     84.6125      2.6539      0.0888      8.8369     -0.2259     11.9607   -999.2500  
 10222.5000    -17.6425    122.8244     48.0830     54.1286     85.2429      2.6566      0.0669      8.4750      0.1626     19.0820   -999.2500  
 10223.0000    -17.7001    122.5912     48.0623     54.6063     85.8779      2.6874      0.0776      8.5115     -0.6705     19.1288   -999.2500  
 10223.5000   -999.2500   -999.2500   -999.2500   -999.2500   -999.2500      2.7223      0.1147      8.5414     -2.5368     19.1211   -999.2500  
 10224.0000   -999.2500   -999.2500   -999.2500   -999.2500   -999.2500      2.7752      0.1624      8.5813     -4.9451     18.8630   -999.2500  
 10224.5000   -999.2500   -999.2500   -999.2500   -999.2500   -999.2500      2.7809      0.1469      8.5428     -8.0609     18.6898   -999.2500  
 10225.0000   -999.2500   -999.2500   -999.2500   -999.2500   -999.2500      2.7566      0.1524      8.4325     -8.4421     18.7003   -999.2500  
 10225.5000   -999.2500   -999.2500   -999.2500   -999.2500   -999.2500      2.8064      0.2037      8.5007     -6.7502     18.7280   -999.2500  
 10226.0000   -999.2500   -999.2500   -999.2500   -999.2500   -999.2500      2.8421      0.2341      8.7643     -9.6517     18.7556   -999.2500  
 10226.5000   -999.2500   -999.2500   -999.2500   -999.2500   -999.2500      2.8496      0.2491      8.8275    -12.4223     18.6307   -999.2500  
 10227.0000   -999.2500   -999.2500   -999.2500   -999.2500   -999.2500      2.8572      0.2439      8.7698    -12.8630     18.1824   -999.2500  
