~VERSION INFORMATION
 VERS.                           2.00:        CWLS LOG ASCII STANDARD - VERSION 2.00
 WRAP.                             NO:        ONE LINE PER DEPTH STEP
~WELL INFORMATION
#MNEM.UNIT                   DATA             INFORMATION
#----------             --------------        ------------------------------
 STRT.F                       66.0000:        START DEPTH
 STOP.F                    10227.0000:        STOP DEPTH
 STEP.F                        0.5000:        STEP VALUE
 NULL.                      -999.2500:        NULL VALUE
 COMP.      USGS/NPR #4 HUSKY OIL CO.:        COMPANY  
 LOC .                   25  16N  28W:        LOCATION   
 DATE.                        1/31/79:        LOG DATE 
 WELL.             PEARD TEST WELL #1:        WELL     
 UWI .                   503012000200:        UNIQUE WELL ID 
 API .                   503012000200:        UNIQUE WELL IDENTIFIER 
 FLD .                        WILDCAT:        FIELD    
 CNTY.                        N.SLOPE:        COUNTY  
 STAT.                         ALASKA:        STATE   
 CTRY.                            USA:        COUNTRY 
 OPER.      USGS/NPR #4 HUSKY OIL CO.:        OPERATOR  
 SRVC.                   SCHLUMBERGER:        SERVICE COMPANY 
 LAT .                         0.0000:        LATITUDE
 LON .                         0.0000:        LONGITUDE
 DIGS.               CENTER LINE DATA:        DIGITIZING COMPANY 
~CURVE INFORMATION      
#MNEM        .UNIT         API CODE           CURVE DESCRIPTION
#-----------------      --------------        ------------------------------
 DEPT        .F                      :        1  DEPTH
 SP          .MV                     :        2  
 GR          .GAPI                   :        3  
 ILD         .OHMM                   :        4  
 ILM         .OHMM                   :        5  
 LL8         .OHMM                   :        6  
 RHOB        .G/C3                   :        7  
 DRHO        .G/C3                   :        8  
 CALI        .IN                     :        9  
 DPHI        .%                      :        10 
 NPHI        .%                      :        11 
 DT          .US/F                   :        12 
~PARAMETER INFORMATION       
#MNEM.UNIT                  VALUE             DESCRIPTION OF MNEMONIC
#---------             ---------------        ------------------------------
 EKB .F                      103.3000:        KELLY BUSHING
 TD  .F                    10229.0000:        TOTAL DEPTH
 BHT .F                       76.0000:        BOTTOM HOLE TEMPERATURE
 BS  .                        17.5000:        BIT SIZE
 FD  .                        10.0000:        FLUID DENSITY
 CSIZ.                        20.0000:        CASING SIZE
 CBD .F                       88.0000:        CASING DRILLER 1
 CBL .F                      109.0000:        CASING LOGGER 1
 DFT .                  Miscellaneous:        TYPE FLUID IN HOLE
 DFV .                        31.0000:        VISCOSITY
 DFPH.                         7.5000:        PH
 DFL .                        23.0000:        FLUID LOSS
 RMS .                        10.6700:        RM
 MST .F                       62.0000:        RM MEAS. TEMP.
 RMF .                        10.8000:        RMF
 MFST.F                       52.0000:        RMF MEAS. TEMP.
 RMC .                        10.7300:        RMC
 MCST.F                       55.0000:        RMC MEAS. TEMP.
~OTHER INFORMATION
~A    DEPTH          SP          GR         ILD         ILM         LL8        RHOB        DRHO        CALI        DPHI        NPHI          DT  
# ...
   781.0000    -19.4744     71.8397     13.6900     13.2363     29.2403   -999.2500   -999.2500   -999.2500   -999.2500   -999.2500    137.4892  
   781.5000    -20.8778     77.4667     12.8689     11.5895     23.5740   -999.2500   -999.2500   -999.2500   -999.2500   -999.2500    136.0755  
   782.0000    -21.9873     83.6641     12.6227     10.5303     19.9317   -999.2500   -999.2500   -999.2500   -999.2500   -999.2500    133.8705  
   782.5000    -21.8945     83.8006     12.6322     10.4205     18.0728   -999.2500   -999.2500   -999.2500   -999.2500   -999.2500    131.6694  
   783.0000    -21.3381     80.2607     12.8289     10.6167     17.3725   -999.2500   -999.2500   -999.2500   -999.2500   -999.2500    131.9751  
   783.5000    -20.7981     77.1703     13.2045     10.8864     16.9182   -999.2500   -999.2500   -999.2500   -999.2500   -999.2500    134.4998  
   784.0000    -20.2582     75.1894     13.7026     11.6313     18.0078   -999.2500   -999.2500   -999.2500   -999.2500   -999.2500    137.3169  
   784.5000    -20.4995     72.0164     14.4106     12.6206     20.9236   -999.2500   -999.2500   -999.2500   -999.2500   -999.2500    138.6058  
   785.0000    -20.7434     68.8289     15.1552     13.6941     24.0901   -999.2500   -999.2500   -999.2500   -999.2500   -999.2500    138.7447  
   785.5000    -20.7249     68.6433     15.9383     14.5056     24.3216   -999.2500   -999.2500   -999.2500   -999.2500   -999.2500    138.0226  
   786.0000    -20.6063     70.2903     16.6352     14.8546     23.3106   -999.2500   -999.2500   -999.2500   -999.2500   -999.2500    136.8699  
   786.5000    -20.1939     71.4270     17.5836     15.0346     22.6366   -999.2500   -999.2500   -999.2500   -999.2500   -999.2500    136.2546  
   787.0000    -19.9456     71.2166     17.9862     14.6565     21.1825   -999.2500   -999.2500   -999.2500   -999.2500   -999.2500    136.9919  
   787.5000    -20.7342     72.3789     18.0760     14.2721     19.3479   -999.2500   -999.2500   -999.2500   -999.2500   -999.2500    137.1451  
   788.0000    -21.2454     74.3471     17.8250     14.3299     19.4240   -999.2500   -999.2500   -999.2500   -999.2500   -999.2500    137.6046  
   788.5000    -20.3185     73.9058     17.0468     14.5321     20.3193   -999.2500   -999.2500   -999.2500   -999.2500   -999.2500    137.1702  
   789.0000    -19.3142     71.9956     17.0058     14.5330     21.0735   -999.2500   -999.2500   -999.2500   -999.2500   -999.2500    136.9870  
   789.5000    -20.1717     71.3856     17.0097     14.5938     21.5883   -999.2500   -999.2500   -999.2500   -999.2500   -999.2500    137.2239  
   790.0000    -18.5304     72.3440     17.1860     14.9414     20.9408   -999.2500   -999.2500   -999.2500   -999.2500   -999.2500    136.9251  
   790.5000    -16.5550     72.9270     17.4253     15.3248     20.4199   -999.2500   -999.2500   -999.2500   -999.2500   -999.2500    133.4110  
   791.0000    -14.5796     72.7100     17.2307     15.1406     20.4406   -999.2500   -999.2500   -999.2500   -999.2500   -999.2500    129.6934  
   791.5000    -14.1351     73.2704     16.6137     14.7488     20.2386   -999.2500   -999.2500   -999.2500   -999.2500   -999.2500    125.5387  
   792.0000    -14.3517     74.2188     16.0187     14.2280     18.8253   -999.2500   -999.2500   -999.2500   -999.2500   -999.2500    122.9943  
   792.5000    -15.3339     74.5124     15.4451     13.2032     16.9464   -999.2500   -999.2500   -999.2500   -999.2500   -999.2500    121.5692  
   793.0000    -16.5182     75.0128     14.8920     12.4502     15.2453   -999.2500   -999.2500   -999.2500   -999.2500   -999.2500    121.2202  
   793.5000    -17.0538     75.9867     14.1940     12.0378     14.9450   -999.2500   -999.2500   -999.2500   -999.2500   -999.2500    120.2264  
   794.0000    -17.3625     77.8371     13.4780     11.7141     15.3717   -999.2500   -999.2500   -999.2500   -999.2500   -999.2500    119.1590  
   794.5000    -17.4936     79.7769     12.7361     11.3990     15.3640   -999.2500   -999.2500   -999.2500   -999.2500   -999.2500    118.3155  
   795.0000    -17.5569     80.7714     12.3884     11.0895     14.5136   -999.2500   -999.2500   -999.2500   -999.2500   -999.2500    117.8789  
   795.5000    -18.1040     81.4380     12.0816     10.7885     13.7616   -999.2500   -999.2500   -999.2500   -999.2500   -999.2500    116.9699  
   796.0000    -18.6512     82.2160     11.7824     10.4956     13.5827   -999.2500   -999.2500   -999.2500   -999.2500   -999.2500    116.4588  
   796.5000    -18.7774     82.3556     11.4906     10.2107     13.4196   -999.2500   -999.2500   -999.2500   -999.2500   -999.2500    116.3251  
   797.0000    -18.6273     81.5457     11.2313      9.9335     12.9045   -999.2500   -999.2500   -999.2500   -999.2500   -999.2500    117.7302  
   797.5000    -19.4451     81.6751     11.0719      9.8439     11.7975   -999.2500   -999.2500   -999.2500   -999.2500   -999.2500    118.6026  
   798.0000    -20.3482     83.4476     11.1189      9.8755     11.2033   -999.2500   -999.2500   -999.2500   -999.2500   -999.2500    119.3055  
   798.5000    -20.0884     84.1213     11.4596     10.0552     11.5921   -999.2500   -999.2500   -999.2500   -999.2500   -999.2500    119.5650  
   799.0000    -19.6846     82.5308     11.9373     10.2382     12.2949   -999.2500   -999.2500   -999.2500   -999.2500   -999.2500    116.9459  
   799.5000    -18.8916     80.3659     12.4348     10.4245     13.0404   -999.2500   -999.2500   -999.2500   -999.2500   -999.2500    115.2927  
   800.0000    -17.8470     79.1715     12.5030     10.3334     13.8310   -999.2500   -999.2500   -999.2500   -999.2500   -999.2500    115.3231  
   800.5000    -16.8802     79.9451     12.4387     10.1239     13.4949   -999.2500   -999.2500   -999.2500   -999.2500   -999.2500    117.2085  
   801.0000    -17.2000     83.4735     12.1635      9.8670     12.7018   -999.2500   -999.2500   -999.2500   -999.2500   -999.2500    120.4238  
   801.5000    -18.4432     86.5184     11.8994      9.6166     11.9553   -999.2500   -999.2500   -999.2500   -999.2500   -999.2500    123.6257  
   802.0000    -20.6125     87.4017     11.6410      9.7158     11.4706   -999.2500   -999.2500   -999.2500   -999.2500   -999.2500    125.6105  
   802.5000    -21.2938     86.0832     11.3882      9.8514     11.5517   -999.2500   -999.2500   -999.2500   -999.2500   -999.2500    124.2873  
   803.0000    -20.0971     84.3743     11.1607      9.9888     12.3378   -999.2500   -999.2500   -999.2500   -999.2500   -999.2500    120.6710  
   803.5000    -18.2051     84.4991     11.0447      9.9738     13.3232   -999.2500   -999.2500   -999.2500   -999.2500   -999.2500    118.4852  
   804.0000    -17.9143     85.9386     10.9298      9.9229     12.7886   -999.2500   -999.2500   -999.2500   -999.2500   -999.2500    118.6978  
   804.5000    -19.0822     87.3316     10.8162      9.7126     11.9724   -999.2500   -999.2500   -999.2500   -999.2500   -999.2500    120.9668  
   805.0000    -20.1608     88.0419     10.7037      9.4410     11.8787   -999.2500   -999.2500   -999.2500   -999.2500   -999.2500    123.1918  
   805.5000    -21.1634     88.1555     10.4387      9.1745     12.0572   -999.2500   -999.2500   -999.2500   -999.2500   -999.2500    123.6471  
   806.0000    -21.8282     88.4619     10.1039      8.9136     12.3913   -999.2500   -999.2500   -999.2500   -999.2500   -999.2500    123.5587  
   806.5000    -22.9266     88.8648     10.0425      8.5777     12.5397   -999.2500   -999.2500   -999.2500   -999.2500   -999.2500    124.8374  
   807.0000    -23.7618     86.8457     10.4128      8.2852     12.1269   -999.2500   -999.2500   -999.2500   -999.2500   -999.2500    127.4445  
   807.5000    -24.3874     82.7645     10.8490      8.1104     10.4875   -999.2500   -999.2500   -999.2500   -999.2500   -999.2500    133.0247  
   808.0000    -24.2534     74.1281     11.3035      8.5572      9.0563   -999.2500   -999.2500   -999.2500   -999.2500   -999.2500    138.3745  
