~VERSION INFORMATION
 VERS.                           2.00:        CWLS LOG ASCII STANDARD - VERSION 2.00
 WRAP.                             NO:        ONE LINE PER DEPTH STEP
~WELL INFORMATION
#MNEM.UNIT                   DATA             INFORMATION
#----------             --------------        ------------------------------
 STRT.F                       66.0000:        START DEPTH
 STOP.F                    10227.0000:        STOP DEPTH
 STEP.F                        0.5000:        STEP VALUE
 NULL.                      -999.2500:        NULL VALUE
 COMP.      USGS/NPR #4 HUSKY OIL CO.:        COMPANY  
 LOC .                   25  16N  28W:        LOCATION   
 DATE.                        1/31/79:        LOG DATE 
 WELL.             PEARD TEST WELL #1:        WELL     
 UWI .                   503012000200:        UNIQUE WELL ID 
 API .                   503012000200:        UNIQUE WELL IDENTIFIER 
 FLD .                        WILDCAT:        FIELD    
 CNTY.                        N.SLOPE:        COUNTY  
 STAT.                         ALASKA:        STATE   
 CTRY.                            USA:        COUNTRY 
 OPER.      USGS/NPR #4 HUSKY OIL CO.:        OPERATOR  
 SRVC.                   SCHLUMBERGER:        SERVICE COMPANY 
 LAT .                         0.0000:        LATITUDE
 LON .                         0.0000:        LONGITUDE
 DIGS.               CENTER LINE DATA:        DIGITIZING COMPANY 
~CURVE INFORMATION      
#MNEM        .UNIT         API CODE           CURVE DESCRIPTION
#-----------------      --------------        ------------------------------
 DEPT        .F                      :        1  DEPTH
 SP          .MV                     :        2  
 GR          .GAPI                   :        3  
 ILD         .OHMM                   :        4  
 ILM         .OHMM                   :        5  
 LL8         .OHMM                   :        6  
 RHOB        .G/C3                   :        7  
 DRHO        .G/C3                   :        8  
 CALI        .IN                     :        9  
 DPHI        .%                      :        10 
 NPHI        .%                      :        11 
 DT          .US/F                   :        12 
~PARAMETER INFORMATION       
#MNEM.UNIT                  VALUE             DESCRIPTION OF MNEMONIC
#---------             ---------------        ------------------------------
 EKB .F                      103.3000:        KELLY BUSHING
 TD  .F                    10229.0000:        TOTAL DEPTH
 BHT .F                       76.0000:        BOTTOM HOLE TEMPERATURE
 BS  .                        17.5000:        BIT SIZE
 FD  .                        10.0000:        FLUID DENSITY
 CSIZ.                        20.0000:        CASING SIZE
 CBD .F                       88.0000:        CASING DRILLER 1
 CBL .F                      109.0000:        CASING LOGGER 1
 DFT .                  Miscellaneous:        TYPE FLUID IN HOLE
 DFV .                        31.0000:        VISCOSITY
 DFPH.                         7.5000:        PH
 DFL .                        23.0000:        FLUID LOSS
 RMS .                        10.6700:        RM
 MST .F                       62.0000:        RM MEAS. TEMP.
 RMF .                        10.8000:        RMF
 MFST.F                       52.0000:        RMF MEAS. TEMP.
 RMC .                        10.7300:        RMC
 MCST.F                       55.0000:        RMC MEAS. TEMP.
~OTHER INFORMATION
~A    DEPTH          SP          GR         ILD         ILM         LL8        RHOB        DRHO        CALI        DPHI        NPHI          DT  
# ...
   121.0000    -48.7458     76.6046     16.1335      8.1332     47.0923   -999.2500   -999.2500   -999.2500   -999.2500   -999.2500    150.0177  
   121.5000    -50.6592     75.3459     16.4545      8.1286     45.4074   -999.2500   -999.2500   -999.2500   -999.2500   -999.2500    150.0190  
   122.0000    -52.9780     74.5066     16.4409      8.1239     42.6283   -999.2500   -999.2500   -999.2500   -999.2500   -999.2500    150.0202  
   122.5000    -53.9666     74.5949     16.1947      8.1649     38.9266   -999.2500   -999.2500   -999.2500   -999.2500   -999.2500    150.0214  
   123.0000    -52.8479     75.6629     15.7634      8.2457     38.5863   -999.2500   -999.2500   -999.2500   -999.2500   -999.2500    150.0226  
   123.5000    -51.6643     75.6900     15.4092      8.3470     40.1240   -999.2500   -999.2500   -999.2500   -999.2500   -999.2500    150.0239  
   124.0000    -51.2342     74.0622     15.5636      8.4491     40.4823   -999.2500   -999.2500   -999.2500   -999.2500   -999.2500    150.0251  
   124.5000    -50.8040     73.2540     15.7468      8.4875     38.2723   -999.2500   -999.2500   -999.2500   -999.2500   -999.2500    150.0264  
   125.0000    -50.1964     73.5675     16.1676      8.7925     36.3866   -999.2500   -999.2500   -999.2500   -999.2500   -999.2500    150.0276  
   125.5000    -49.4259     73.4511     16.7027      8.9794     36.3013   -999.2500   -999.2500   -999.2500   -999.2500   -999.2500    150.0288  
   126.0000    -48.8275     72.8985     17.0401      9.1080     36.0150   -999.2500   -999.2500   -999.2500   -999.2500   -999.2500    150.0300  
   126.5000    -49.2795     72.4585     17.5300      9.2490     34.9753   -999.2500   -999.2500   -999.2500   -999.2500   -999.2500    150.0313  
   127.0000    -49.6841     72.1813     17.6769      9.3922     34.3412   -999.2500   -999.2500   -999.2500   -999.2500   -999.2500    150.0325  
   127.5000    -48.0178     72.4724     17.7638      9.4722     35.9583   -999.2500   -999.2500   -999.2500   -999.2500   -999.2500    150.0338  
   128.0000    -46.3505     72.3597     17.8005      9.5270     37.9460   -999.2500   -999.2500   -999.2500   -999.2500   -999.2500    150.0350  
   128.5000    -47.0274     72.0622     18.0643      9.5820     38.6831   -999.2500   -999.2500   -999.2500   -999.2500   -999.2500    150.0362  
   129.0000    -48.1525     71.8442     18.4866      9.6374     37.6980   -999.2500   -999.2500   -999.2500   -999.2500   -999.2500    150.0374  
   129.5000    -49.0986     71.0448     18.8749      9.6930     36.8087   -999.2500   -999.2500   -999.2500   -999.2500   -999.2500    150.0387  
   130.0000    -50.2820     71.0708     19.2147      9.7490     36.8810   -999.2500   -999.2500   -999.2500   -999.2500   -999.2500    150.0399  
   130.5000    -50.2431     73.0442     19.4533      9.7991     37.9829   -999.2500   -999.2500   -999.2500   -999.2500   -999.2500    150.0412  
   131.0000    -50.4179     75.8713     19.1222      9.7502     39.1472   -999.2500   -999.2500   -999.2500   -999.2500   -999.2500    150.0424  
   131.5000    -50.9634     77.4714     18.6425      9.7015     39.8577   -999.2500   -999.2500   -999.2500   -999.2500   -999.2500    150.0436  
   132.0000    -51.9512     77.4612     17.6715      9.4410     41.7555   -999.2500   -999.2500   -999.2500   -999.2500   -999.2500    150.0448  
   132.5000    -52.9672     77.8961     16.0417      8.9704     44.8528   -999.2500   -999.2500   -999.2500   -999.2500   -999.2500    150.0461  
   133.0000    -54.2646     81.0787     14.8309      8.2198     45.9468   -999.2500   -999.2500   -999.2500   -999.2500   -999.2500    150.0473  
   133.5000    -55.7896     84.8008     13.5902      7.4643     44.5085   -999.2500   -999.2500   -999.2500   -999.2500   -999.2500    150.0486  
   134.0000    -56.9789     85.9080     13.4114      6.8444     40.2823   -999.2500   -999.2500   -999.2500   -999.2500   -999.2500    150.0498  
   134.5000    -57.3998     82.0326     13.7269      6.4405     35.6693   -999.2500   -999.2500   -999.2500   -999.2500   -999.2500    150.0510  
   135.0000    -56.8105     73.7483     14.2460      6.7024     31.6821   -999.2500   -999.2500   -999.2500   -999.2500   -999.2500    150.0522  
   135.5000    -56.9258     65.1109     15.2497      7.5016     29.4977   -999.2500   -999.2500   -999.2500   -999.2500   -999.2500    150.0535  
   136.0000    -56.9216     54.8295     17.4560      8.5862     27.7973   -999.2500   -999.2500   -999.2500   -999.2500   -999.2500    150.0547  
   136.5000    -54.7670     44.8398     20.2691     10.2793     30.7457   -999.2500   -999.2500   -999.2500   -999.2500   -999.2500    150.0560  
   137.0000    -52.4307     35.7666     35.0571     14.1213     34.1349   -999.2500   -999.2500   -999.2500   -999.2500   -999.2500    150.0572  
   137.5000    -52.6591     31.0840     65.7304     20.1796     46.6769   -999.2500   -999.2500   -999.2500   -999.2500   -999.2500    150.0584  
   138.0000    -55.5899     30.2543    123.2411     31.9522     57.9810   -999.2500   -999.2500   -999.2500   -999.2500   -999.2500    149.9286  
   138.5000    -56.5926     31.5276    435.8376     44.5423     55.8498   -999.2500   -999.2500   -999.2500   -999.2500   -999.2500    148.5181  
   139.0000    -66.6790     33.7661    865.8650     53.5877     62.6513   -999.2500   -999.2500   -999.2500   -999.2500   -999.2500    146.9164  
   139.5000    -75.8541     38.4456    263.4417     46.9236     73.7320   -999.2500   -999.2500   -999.2500   -999.2500   -999.2500    147.2581  
   140.0000    -78.4066     45.1050    109.5039     29.9520     74.4332   -999.2500   -999.2500   -999.2500   -999.2500   -999.2500    148.3922  
   140.5000    -82.5470     54.4911     65.8902     20.2129     62.1852   -999.2500   -999.2500   -999.2500   -999.2500   -999.2500    148.1026  
   141.0000    -80.5990     64.7667     47.7691     18.3038     56.7824   -999.2500   -999.2500   -999.2500   -999.2500   -999.2500    147.1362  
   141.5000    -76.7061     71.2024     38.7250     17.9537     58.3815   -999.2500   -999.2500   -999.2500   -999.2500   -999.2500    142.8672  
   142.0000    -74.6069     73.3654     32.3279     17.5730     60.0257   -999.2500   -999.2500   -999.2500   -999.2500   -999.2500    140.4940  
   142.5000    -74.6982     70.4807     27.2055     17.1261     60.6970   -999.2500   -999.2500   -999.2500   -999.2500   -999.2500    139.6191  
   143.0000    -74.5918     67.7394     25.9577     16.6867     58.6414   -999.2500   -999.2500   -999.2500   -999.2500   -999.2500    139.1228  
   143.5000    -74.1241     66.9721     24.6118     16.2587     55.5991   -999.2500   -999.2500   -999.2500   -999.2500   -999.2500    138.8249  
   144.0000    -74.2001     66.9437     23.9025     15.1300     50.8763   -999.2500   -999.2500   -999.2500   -999.2500   -999.2500    139.3416  
   144.5000    -74.7799     65.5559     21.7278     13.7494     45.4841   -999.2500   -999.2500   -999.2500   -999.2500   -999.2500    142.9815  
   145.0000    -76.0566     62.7974     20.8407     12.0273     40.3212   -999.2500   -999.2500   -999.2500   -999.2500   -999.2500    144.8284  
   145.5000    -78.4484     62.2096     19.6808     10.6211     35.1771   -999.2500   -999.2500   -999.2500   -999.2500   -999.2500    149.0398  
   146.0000    -80.2997     64.4760     18.6619      9.9193     29.5446   -999.2500   -999.2500   -999.2500   -999.2500   -999.2500    150.0715  
   146.5000    -83.5110     66.6238     18.5143      9.4429     29.6461   -999.2500   -999.2500   -999.2500   -999.2500   -999.2500    150.0665  
   147.0000    -86.3109     68.0135     18.3266      9.4050     33.4772   -999.2500   -999.2500   -999.2500   -999.2500   -999.2500    150.0615  
   147.5000    -88.1699     69.7886     18.2690      9.4591     44.8426   -999.2500   -999.2500   -999.2500   -999.2500   -999.2500    150.0565  
   148.0000    -86.7416     72.8358     18.3495      9.5087     53.1106   -999.2500   -999.2500   -999.2500   -999.2500   -999.2500    148.2236  
