~VERSION INFORMATION
 VERS.                           2.00:        CWLS LOG ASCII STANDARD - VERSION 2.00
 WRAP.                             NO:        ONE LINE PER DEPTH STEP
~WELL INFORMATION
#MNEM.UNIT                   DATA             INFORMATION
#----------             --------------        ------------------------------
 STRT.F                       66.0000:        START DEPTH
 STOP.F                    10227.0000:        STOP DEPTH
 STEP.F                        0.5000:        STEP VALUE
 NULL.                      -999.2500:        NULL VALUE
 COMP.      USGS/NPR #4 HUSKY OIL CO.:        COMPANY  
 LOC .                   25  16N  28W:        LOCATION   
 DATE.                        1/31/79:        LOG DATE 
 WELL.             PEARD TEST WELL #1:        WELL     
 UWI .                   503012000200:        UNIQUE WELL ID 
 API .                   503012000200:        UNIQUE WELL IDENTIFIER 
 FLD .                        WILDCAT:        FIELD    
 CNTY.                        N.SLOPE:        COUNTY  
 STAT.                         ALASKA:        STATE   
 CTRY.                            USA:        COUNTRY 
 OPER.      USGS/NPR #4 HUSKY OIL CO.:        OPERATOR  
 SRVC.                   SCHLUMBERGER:        SERVICE COMPANY 
 LAT .                         0.0000:        LATITUDE
 LON .                         0.0000:        LONGITUDE
 DIGS.               CENTER LINE DATA:        DIGITIZING COMPANY 
~CURVE INFORMATION      
#MNEM        .UNIT         API CODE           CURVE DESCRIPTION
#-----------------      --------------        ------------------------------
 DEPT        .F                      :        1  DEPTH
 SP          .MV                     :        2  
 GR          .GAPI                   :        3  
 ILD         .OHMM                   :        4  
 ILM         .OHMM                   :        5  
 LL8         .OHMM                   :        6  
 RHOB        .G/C3                   :        7  
 DRHO        .G/C3                   :        8  
 CALI        .IN                     :        9  
 DPHI        .%                      :        10 
 NPHI        .%                      :        11 
 DT          .US/F                   :        12 
~PARAMETER INFORMATION       
#MNEM.UNIT                  VALUE             DESCRIPTION OF MNEMONIC
#---------             ---------------        ------------------------------
 EKB .F                      103.3000:        KELLY BUSHING
 TD  .F                    10229.0000:        TOTAL DEPTH
 BHT .F                       76.0000:        BOTTOM HOLE TEMPERATURE
 BS  .                        17.5000:        BIT SIZE
 FD  .                        10.0000:        FLUID DENSITY
 CSIZ.                        20.0000:        CASING SIZE
 CBD .F                       88.0000:        CASING DRILLER 1
 CBL .F                      109.0000:        CASING LOGGER 1
 DFT .                  Miscellaneous:        TYPE FLUID IN HOLE
 DFV .                        31.0000:        VISCOSITY
 DFPH.                         7.5000:        PH
 DFL .                        23.0000:        FLUID LOSS
 RMS .                        10.6700:        RM
 MST .F                       62.0000:        RM MEAS. TEMP.
 RMF .                        10.8000:        RMF
 MFST.F                       52.0000:        RMF MEAS. TEMP.
 RMC .                        10.7300:        RMC
 MCST.F                       55.0000:        RMC MEAS. TEMP.
~OTHER INFORMATION
~A    DEPTH          SP          GR         ILD         ILM         LL8        RHOB        DRHO        CALI        DPHI        NPHI          DT  
# ...
  4823.5000    -44.1189     65.1441     10.5970     10.1090     11.6359      2.4511      0.1118     17.9729     12.2922     27.0546     86.2795  
  4824.0000    -44.2310     66.9928     10.5778     10.0906     11.5086      2.4276      0.1044     17.9728     11.9119     29.8996     84.1491  
  4824.5000    -44.3432     70.6918     10.5004      9.9723     11.2789      2.3991      0.1001     17.9727     13.1532     32.9466     82.7844  
  4825.0000    -44.1361     73.5907     10.2889      9.7714     10.9596      2.3890      0.0896     17.9726     14.9323     34.1437     81.8458  
  4825.5000    -43.7974     74.6964     10.0635      9.5189     10.6494      2.3770      0.0776     17.9725     15.5898     34.6285     80.6449  
  4826.0000    -43.4587     74.6381      9.7786      9.2495     10.3480      2.3927      0.0828     17.9724     16.3339     36.0314     81.8775  
  4826.5000    -43.1200     74.2628      9.5018      9.0019     10.0552      2.4406      0.1121     17.9723     15.9102     36.6714     84.1380  
  4827.0000    -43.1045     73.8487      9.4144      8.9806      9.8775      2.4386      0.1187     17.9722     12.9532     36.5264     87.5804  
  4827.5000    -43.2134     72.6131      9.3921      8.9593      9.8541      2.4132      0.1158     17.9721     12.8941     36.2417     91.7311  
  4828.0000    -43.2909     71.7631      9.3699      8.9382      9.8308      2.4014      0.1140     17.9720     14.1802     38.0691     92.3919  
  4828.5000    -43.3684     71.3872      9.3477      8.9170      9.8076      2.3992      0.1140     17.9719     14.7833     39.5359     91.1559  
  4829.0000    -43.4459     70.0957      9.3256      8.8959      9.7844      2.4185      0.0986     17.9718     15.4122     39.6605     89.4372  
  4829.5000    -43.5234     68.6083      9.3036      8.8749      9.7612      2.4304      0.0729     17.9717     14.2030     37.9457     85.3776  
  4830.0000    -43.3741     67.4690      9.2775      8.8495      9.7345      2.4367      0.0602     17.9716     13.4376     35.8964     85.5883  
  4830.5000    -42.9768     67.5073      9.2475      8.8208      9.7029      2.4228      0.0765     17.9715     12.7307     35.5586     87.2155  
  4831.0000    -42.6284     68.6452      9.2175      8.7922      9.6714      2.3954      0.0812     17.9714     13.6405     35.8730     87.3266  
  4831.5000    -42.5633     71.4040      9.1876      8.7637      9.6401      2.3804      0.0807     17.9713     14.9555     35.6889     87.4615  
  4832.0000    -42.5209     74.4583      9.1578      8.7353      9.6088      2.3896      0.0821     17.9712     16.2796     34.5199     88.4814  
  4832.5000    -42.4785     79.3206      9.1281      8.7070      9.5777      2.3715      0.0647     17.9711     15.3658     34.5533     89.5989  
  4833.0000    -42.3264     82.0620      9.0985      8.6788      9.5466      2.3698      0.0533     17.9710     16.5604     35.9478     88.9609  
  4833.5000    -42.1993     81.7255      9.0690      8.6506      9.5157      2.3703      0.0499     17.9709     16.8189     37.3645     88.2115  
  4834.0000    -42.1136     79.3783      9.0396      8.6226      9.4848      2.3797      0.0377     17.9708     16.6789     36.9112     88.6511  
  4834.5000    -42.1137     77.6621      9.0103      8.5946      9.4541      2.3930      0.0412     17.9707     16.1820     36.1973     90.3265  
  4835.0000    -42.1094     74.6451      8.9896      8.5758      9.4313      2.4145      0.0556     17.9706     15.3602     36.4045     92.7662  
  4835.5000    -42.1052     72.6763      8.9855      8.5716      9.4270      2.4216      0.0679     17.9705     14.4239     36.5966     94.8690  
  4836.0000    -42.1009     72.1113      8.9815      8.5675      9.4227      2.4209      0.0891     17.9704     13.5517     36.9638     93.0605  
  4836.5000    -42.0967     72.3400      8.9774      8.5634      9.4185      2.4197      0.1128     17.9704     13.8258     36.6999     89.8572  
  4837.0000    -42.2142     72.1984      8.9734      8.5593      9.4142      2.3978      0.0925     17.9703     13.8610     35.6062     88.9584  
  4837.5000    -42.3912     71.8600      8.9693      8.5551      9.4099      2.4017      0.0780     17.9702     15.0027     36.1254     88.3786  
  4838.0000    -42.5682     72.9597      8.9653      8.6074      9.4057      2.4055      0.0678     17.9701     14.9991     37.0062     87.9715  
  4838.5000    -42.7452     74.7399      8.9612      8.6831      9.4014      2.4158      0.0961     17.9700     14.8067     36.7629     88.0582  
  4839.0000    -42.9636     75.9130      8.9572      8.7594      9.3972      2.4139      0.1081     17.9699     13.2693     34.6746     87.9557  
  4839.5000    -43.3414     76.8042      8.9531      8.8365      9.3929      2.4005      0.0909     17.9698     14.0958     33.4544     87.8541  
  4840.0000    -43.4764     78.0350      8.9491      8.9142      9.3886      2.4075      0.0888     17.9697     14.8121     33.5595     88.6104  
  4840.5000    -43.3225     78.2183      8.9450      8.9926      9.3844      2.4325      0.1049     17.9696     14.6666     33.8853     88.2591  
  4841.0000    -43.1687     78.5666      8.9766      9.0716      9.4237      2.4316      0.1098     17.9695     13.1080     34.2105     88.4258  
  4841.5000    -43.0036     80.0884      9.0454      9.1474      9.4960      2.4251      0.1079     17.9694     13.1425     35.3183     90.0235  
  4842.0000    -42.8374     80.5730      9.1147      9.1161      9.5688      2.4026      0.0693     17.9693     13.6570     36.4596     90.9451  
  4842.5000    -42.5010     79.6609      9.1846      9.0849      9.6421      2.4002      0.0430     17.9692     14.7006     37.8359     89.7272  
  4843.0000    -42.1434     78.6773      9.2348      9.0538      9.6886      2.4026      0.0325     17.9691     14.7357     38.0211     85.3609  
  4843.5000    -42.2951     78.2469      9.2373      9.0228      9.6911      2.4040      0.0319     17.9690     14.7758     36.6993     84.1870  
  4844.0000    -42.7111     78.4386      9.2397      8.9778      9.6936      2.4118      0.0513     17.9689     14.7281     35.9772     83.5473  
  4844.5000    -42.7223     77.8129      9.2328      8.9129      9.6884      2.4125      0.0789     17.9688     14.5290     34.9291     85.8367  
  4845.0000    -42.7850     76.2056      9.1941      8.8485      9.6478      2.3880      0.0966     17.9687     14.3344     32.9346     88.7979  
  4845.5000    -43.3835     75.7555      9.1556      8.7846      9.6074      2.3507      0.0986     17.9686     15.2633     31.7421     89.1490  
  4846.0000    -43.5659     75.4039      9.1173      8.7212      9.5672      2.3264      0.0990     17.9685     17.4841     31.5156     88.9695  
  4846.5000    -43.5627     74.9147      9.0791      8.6594      9.5271      2.3443      0.1235     17.9684     19.6725     32.5915     88.3245  
  4847.0000    -42.9405     74.8986      9.0411      8.6232      9.4872      2.3752      0.1258     17.9683     18.5203     33.0636     86.3091  
  4847.5000    -42.6270     75.3758      9.0032      8.5871      9.4475      2.4043      0.1357     17.9682     16.9023     33.3993     85.3685  
  4848.0000    -43.0757     75.2546      8.9655      8.6454      9.4079      2.3897      0.1279     17.9681     14.5582     33.7928     88.0994  
  4848.5000    -43.3265     74.7768      9.0205      8.7828      9.4690      2.3837      0.1165     17.9680     15.7607     34.1827     88.8480  
  4849.0000    -43.3138     74.4680      9.0920      8.9224      9.5725      2.3794      0.1032     17.9679     15.9300     36.1750     88.4722  
  4849.5000    -43.1845     74.6541      9.2593      9.0643      9.7493      2.3809      0.0754     17.9678     16.3614     36.9567     87.2873  
  4850.0000    -43.0137     74.7749      9.4298      9.2084      9.9314      2.3960      0.0838     17.9677     15.7041     35.2084     86.0768  
  4850.5000    -42.8057     74.0410      9.6181      9.3547     10.1369      2.4125      0.1113     17.9676     14.7228     33.2574     87.0639  
