~VERSION INFORMATION
 VERS.                           2.00:        CWLS LOG ASCII STANDARD - VERSION 2.00
 WRAP.                             NO:        ONE LINE PER DEPTH STEP
~WELL INFORMATION
#MNEM.UNIT                   DATA             INFORMATION
#----------             --------------        ------------------------------
 STRT.F                       66.0000:        START DEPTH
 STOP.F                    10227.0000:        STOP DEPTH
 STEP.F                        0.5000:        STEP VALUE
 NULL.                      -999.2500:        NULL VALUE
 COMP.      USGS/NPR #4 HUSKY OIL CO.:        COMPANY  
 LOC .                   25  16N  28W:        LOCATION   
 DATE.                        1/31/79:        LOG DATE 
 WELL.             PEARD TEST WELL #1:        WELL     
 UWI .                   503012000200:        UNIQUE WELL ID 
 API .                   503012000200:        UNIQUE WELL IDENTIFIER 
 FLD .                        WILDCAT:        FIELD    
 CNTY.                        N.SLOPE:        COUNTY  
 STAT.                         ALASKA:        STATE   
 CTRY.                            USA:        COUNTRY 
 OPER.      USGS/NPR #4 HUSKY OIL CO.:        OPERATOR  
 SRVC.                   SCHLUMBERGER:        SERVICE COMPANY 
 LAT .                         0.0000:        LATITUDE
 LON .                         0.0000:        LONGITUDE
 DIGS.               CENTER LINE DATA:        DIGITIZING COMPANY 
~CURVE INFORMATION      
#MNEM        .UNIT         API CODE           CURVE DESCRIPTION
#-----------------      --------------        ------------------------------
 DEPT        .F                      :        1  DEPTH
 SP          .MV                     :        2  
 GR          .GAPI                   :        3  
 ILD         .OHMM                   :        4  
 ILM         .OHMM                   :        5  
 LL8         .OHMM                   :        6  
 RHOB        .G/C3                   :        7  
 DRHO        .G/C3                   :        8  
 CALI        .IN                     :        9  
 DPHI        .%                      :        10 
 NPHI        .%                      :        11 
 DT          .US/F                   :        12 
~PARAMETER INFORMATION       
#MNEM.UNIT                  VALUE             DESCRIPTION OF MNEMONIC
#---------             ---------------        ------------------------------
 EKB .F                      103.3000:        KELLY BUSHING
 TD  .F                    10229.0000:        TOTAL DEPTH
 BHT .F                       76.0000:        BOTTOM HOLE TEMPERATURE
 BS  .                        17.5000:        BIT SIZE
 FD  .                        10.0000:        FLUID DENSITY
 CSIZ.                        20.0000:        CASING SIZE
 CBD .F                       88.0000:        CASING DRILLER 1
 CBL .F                      109.0000:        CASING LOGGER 1
 DFT .                  Miscellaneous:        TYPE FLUID IN HOLE
 DFV .                        31.0000:        VISCOSITY
 DFPH.                         7.5000:        PH
 DFL .                        23.0000:        FLUID LOSS
 RMS .                        10.6700:        RM
 MST .F                       62.0000:        RM MEAS. TEMP.
 RMF .                        10.8000:        RMF
 MFST.F                       52.0000:        RMF MEAS. TEMP.
 RMC .                        10.7300:        RMC
 MCST.F                       55.0000:        RMC MEAS. TEMP.
~OTHER INFORMATION
~A    DEPTH          SP          GR         ILD         ILM         LL8        RHOB        DRHO        CALI        DPHI        NPHI          DT  
# ...
  7518.5000    -27.1275     85.7848      2.3456      2.4256      3.5981      2.2136      0.0667     18.0028     25.6939     45.0187    101.6238  
  7519.0000    -27.0139     88.2651      2.3247      2.4067      3.5699      2.2059      0.0493     18.0005     26.0769     46.7250     99.3113  
  7519.5000    -27.3026     87.1452      2.2918      2.3736      3.5693      2.2019      0.0746     17.9983     26.5916     49.2283     98.7977  
  7520.0000    -27.4393     84.2913      2.2726      2.3500      3.5829      2.2260      0.0864     17.9960     26.7188     50.4698     99.1815  
  7520.5000    -27.4895     82.6067      2.2714      2.3483      3.5752      2.2783      0.0622     17.9937     25.9710     48.5727    101.3041  
  7521.0000    -27.5397     81.5335      2.2735      2.3504      3.5522      2.2593      0.0684     17.9470     22.5378     45.8392    101.2704  
  7521.5000    -27.5899     80.8879      2.2719      2.3488      3.5867      2.2401      0.0985     17.9828     23.1478     44.0361     96.1034  
  7522.0000    -27.6400     79.5068      2.2833      2.3607      3.5715      2.1772      0.0803     17.9782     24.3989     42.9122     96.5551  
  7522.5000    -27.6902     78.1636      2.2842      2.3617      3.5369      2.1652      0.0779     17.5309     28.1470     43.2517     99.9949  
  7523.0000    -27.5811     78.1975      2.2701      2.3488      3.5814      2.2143      0.0714     18.0003     29.1384     44.0557    101.6973  
  7523.5000    -27.3608     77.9015      2.2552      2.3316      3.5723      2.3021      0.1080     18.0003     26.6134     45.1794     95.4855  
  7524.0000    -27.1463     78.8263      2.2114      2.3013      3.5006      2.2805      0.1158     17.1142     20.4594     45.8345     95.6498  
  7524.5000    -27.1528     80.9525      2.1526      2.2311      3.4813      2.2366      0.0830     17.9820     21.7402     46.2333     96.0221  
  7525.0000    -27.1594     81.9500      2.1020      2.1794      3.4272      2.2339      0.0704     17.9819     24.5759     46.6340     96.2884  
  7525.5000    -27.1660     82.5300      2.0955      2.1666      3.3757      2.2516      0.0908     17.9819     25.0791     47.0142     99.1073  
  7526.0000    -27.1725     84.0587      2.1070      2.1796      3.3686      2.2601      0.0791     17.9819     24.1856     47.4556    100.7023  
  7526.5000    -27.1791     86.2621      2.0909      2.1639      3.3614      2.2658      0.0913     17.9818     23.4347     47.9182    101.6448  
  7527.0000    -27.1856     87.7509      2.0935      2.1669      3.3983      2.2441      0.0770     17.9818     22.8925     49.2440    100.8559  
  7527.5000    -27.1922     87.6476      2.1268      2.2082      3.4607      2.2406      0.0666     17.9818     24.5132     49.8090     99.7846  
  7528.0000    -27.1988     85.1137      2.1931      2.2875      3.5477      2.2355      0.0685     17.9817     24.0209     48.8383     97.7174  
  7528.5000    -27.2053     81.8827      2.2432      2.3192      3.6336      2.1818      0.0615     17.9817     24.8777     47.8315     93.5150  
  7529.0000    -26.9073     79.6783      2.2653      2.3485      3.6388      2.1672      0.0897     17.9816     27.7512     47.5200     90.9525  
  7529.5000    -27.1651     79.0914      2.3128      2.3933      3.5982      2.1329      0.0791     17.9816     28.8708     48.0018     92.4193  
  7530.0000    -27.3108     79.4414      2.3380      2.4202      3.6892      2.1246      0.0742     17.9816     30.5979     47.6347     92.4405  
  7530.5000    -27.4016     81.0438      2.3656      2.4472      3.7599      2.1771      0.0813     17.9815     31.7158     47.5236     95.9556  
  7531.0000    -27.4925     84.1202      2.3528      2.4326      3.7191      2.1910      0.0854     17.9815     28.6715     47.1091     99.9201  
  7531.5000    -27.8292     85.3721      2.3488      2.4283      3.6274      2.2024      0.0718     17.9815     27.6372     46.4338    100.9724  
  7532.0000    -27.8134     85.0479      2.3483      2.4278      3.6014      2.2405      0.0783     17.9814     26.9338     46.4242    103.0980  
  7532.5000    -27.7814     84.9219      2.3374      2.4182      3.6117      2.2835      0.1008     17.9814     24.1983     46.6998    102.9826  
  7533.0000    -27.7406     85.4189      2.3176      2.3971      3.6049      2.2684      0.1189     17.9814     21.8678     47.3372    101.0054  
  7533.5000    -27.5541     84.6708      2.2894      2.3743      3.6065      2.2614      0.1169     17.9813     22.8047     46.4146     98.1667  
  7534.0000    -27.3384     84.3373      2.2471      2.3253      3.5587      2.2564      0.1197     17.9813     23.2391     44.8738     96.9787  
  7534.5000    -27.1228     85.2552      2.2227      2.3001      3.5164      2.2292      0.1025     17.5732     23.6024     44.1492     96.9171  
  7535.0000    -26.9851     85.7985      2.2002      2.2748      3.5138      2.2152      0.1002     18.0130     25.1719     44.9382     97.8363  
  7535.5000    -26.7538     85.4392      2.1897      2.2638      3.5044      2.1956      0.1017     18.0082     25.9236     45.7426     99.6863  
  7536.0000    -26.6507     85.3333      2.1865      2.2606      3.4521      2.1953      0.1057     18.0034     27.5696     45.6451    101.9902  
  7536.5000    -26.5812     85.9756      2.1541      2.2365      3.3866      2.2019      0.1157     17.9985     27.2243     45.6304    103.4545  
  7537.0000    -26.6387     88.0679      2.1374      2.2110      3.3672      2.2081      0.1103     17.9937     26.8805     45.5408    102.4884  
  7537.5000    -26.7136     89.7259      2.1747      2.2510      3.4089      2.1635      0.0942     17.7888     26.1808     45.4598    101.6527  
  7538.0000    -26.8000     88.0368      2.2151      2.2991      3.4773      2.1333      0.0652     18.0127     28.7001     46.5626    100.0602  
  7538.5000    -26.8863     84.5700      2.1942      2.2698      3.5398      2.1471      0.0713     18.0168     30.8030     47.7166    100.0125  
  7539.0000    -26.9726     82.9871      2.1995      2.2740      3.5512      2.1798      0.0664     18.0208     30.2556     47.2519    101.0572  
  7539.5000    -27.0590     82.6723      2.2273      2.3044      3.5367      2.2523      0.1067     17.9114     28.5883     47.6981    100.5016  
  7540.0000    -27.1453     85.2124      2.2496      2.3275      3.5374      2.2710      0.1089     18.0059     23.9851     46.7557     99.8104  
  7540.5000    -27.2316     89.0141      2.2705      2.3476      3.5334      2.2603      0.0896     17.4771     22.6562     45.0962     98.4341  
  7541.0000    -27.3179     92.2392      2.2771      2.3542      3.5565      2.2494      0.0480     17.9971     23.2287     44.9108     98.6011  
  7541.5000    -27.4065     93.8479      2.2771      2.3542      3.5582      2.2455      0.0652     17.9959     23.8546     46.5345     99.8093  
  7542.0000    -27.1948     94.7246      2.2716      2.3490      3.5577      2.2296      0.0879     17.9946     24.2305     47.9556    100.4557  
  7542.5000    -27.0348     93.0794      2.2648      2.3414      3.5677      2.2027      0.1116     17.9933     24.9063     48.8270    101.4335  
  7543.0000    -26.8945     89.2622      2.2457      2.3248      3.5893      2.2022      0.1136     17.9920     26.6195     49.5739     99.8935  
  7543.5000    -26.7543     84.5997      2.2313      2.3068      3.5678      2.2264      0.1191     17.7734     27.0344     48.5129     98.1723  
  7544.0000    -26.6140     83.5420      2.2144      2.2901      3.5286      2.2745      0.1108     17.4841     25.5503     46.6140     98.8318  
  7544.5000    -26.4737     82.7142      2.2001      2.2753      3.4811      2.2774      0.1068     17.7002     22.7822     45.0739    100.7835  
  7545.0000    -26.3335     81.8863      2.1608      2.2396      3.4116      2.2584      0.0814     17.6279     21.8720     45.7677    103.2814  
  7545.5000    -26.1932     81.5990      2.1518      2.2253      3.4026      2.2496      0.0808     17.6636     23.3419     46.9844    105.4770  
