~VERSION INFORMATION
 VERS.                           2.00:        CWLS LOG ASCII STANDARD - VERSION 2.00
 WRAP.                             NO:        ONE LINE PER DEPTH STEP
~WELL INFORMATION
#MNEM.UNIT                   DATA             INFORMATION
#----------             --------------        ------------------------------
 STRT.F                       66.0000:        START DEPTH
 STOP.F                    10227.0000:        STOP DEPTH
 STEP.F                        0.5000:        STEP VALUE
 NULL.                      -999.2500:        NULL VALUE
 COMP.      USGS/NPR #4 HUSKY OIL CO.:        COMPANY  
 LOC .                   25  16N  28W:        LOCATION   
 DATE.                        1/31/79:        LOG DATE 
 WELL.             PEARD TEST WELL #1:        WELL     
 UWI .                   503012000200:        UNIQUE WELL ID 
 API .                   503012000200:        UNIQUE WELL IDENTIFIER 
 FLD .                        WILDCAT:        FIELD    
 CNTY.                        N.SLOPE:        COUNTY  
 STAT.                         ALASKA:        STATE   
 CTRY.                            USA:        COUNTRY 
 OPER.      USGS/NPR #4 HUSKY OIL CO.:        OPERATOR  
 SRVC.                   SCHLUMBERGER:        SERVICE COMPANY 
 LAT .                         0.0000:        LATITUDE
 LON .                         0.0000:        LONGITUDE
 DIGS.               CENTER LINE DATA:        DIGITIZING COMPANY 
~CURVE INFORMATION      
#MNEM        .UNIT         API CODE           CURVE DESCRIPTION
#-----------------      --------------        ------------------------------
 DEPT        .F                      :        1  DEPTH
 SP          .MV                     :        2  
 GR          .GAPI                   :        3  
 ILD         .OHMM                   :        4  
 ILM         .OHMM                   :        5  
 LL8         .OHMM                   :        6  
 RHOB        .G/C3                   :        7  
 DRHO        .G/C3                   :        8  
 CALI        .IN                     :        9  
 DPHI        .%                      :        10 
 NPHI        .%                      :        11 
 DT          .US/F                   :        12 
~PARAMETER INFORMATION       
#MNEM.UNIT                  VALUE             DESCRIPTION OF MNEMONIC
#---------             ---------------        ------------------------------
 EKB .F                      103.3000:        KELLY BUSHING
 TD  .F                    10229.0000:        TOTAL DEPTH
 BHT .F                       76.0000:        BOTTOM HOLE TEMPERATURE
 BS  .                        17.5000:        BIT SIZE
 FD  .                        10.0000:        FLUID DENSITY
 CSIZ.                        20.0000:        CASING SIZE
 CBD .F                       88.0000:        CASING DRILLER 1
 CBL .F                      109.0000:        CASING LOGGER 1
 DFT .                  Miscellaneous:        TYPE FLUID IN HOLE
 DFV .                        31.0000:        VISCOSITY
 DFPH.                         7.5000:        PH
 DFL .                        23.0000:        FLUID LOSS
 RMS .                        10.6700:        RM
 MST .F                       62.0000:        RM MEAS. TEMP.
 RMF .                        10.8000:        RMF
 MFST.F                       52.0000:        RMF MEAS. TEMP.
 RMC .                        10.7300:        RMC
 MCST.F                       55.0000:        RMC MEAS. TEMP.
~OTHER INFORMATION
~A    DEPTH          SP          GR         ILD         ILM         LL8        RHOB        DRHO        CALI        DPHI        NPHI          DT  
# ...
  6171.0000    -39.9702     65.1578     11.7221     12.0359     13.3972      2.3641      0.1504     14.1149     16.7893     27.7456     78.8206  
  6171.5000    -39.5921     65.2769     11.5168     11.8251     12.5196      2.3151      0.1630     13.9263     16.5450     28.7831     76.0595  
  6172.0000    -39.5873     66.3253     11.3151     11.6180     11.6996      2.2869      0.1482     14.3792     19.5342     29.6009     75.0492  
  6172.5000    -39.6738     68.1568     11.1333     11.4261     11.5203      2.2837      0.1360     14.7294     21.6357     30.7161     74.3593  
  6173.0000    -39.7603     70.1710     10.9656     11.2541     11.4985      2.2727      0.1244     15.2659     21.8792     32.4991     75.3105  
  6173.5000    -39.8469     71.3944     10.8005     11.0846     11.7627      2.3015      0.1299     14.9921     22.5216     33.3773     76.5596  
  6174.0000    -39.9334     71.8104     10.6379     10.9178     12.0330      2.3390      0.1409     14.5830     21.0367     32.4732     77.5175  
  6174.5000    -40.0199     71.2122     10.4777     10.7534     12.0703      2.3321      0.1518     14.1931     18.7131     31.6245     77.3048  
  6175.0000    -40.0058     70.8442     10.3199     10.5916     11.6845      2.2887      0.1459     14.3986     18.8594     31.9296     76.6335  
  6175.5000    -40.0126     71.2741     10.2379     10.4959     11.3109      2.2268      0.1209     14.6887     21.6247     33.5099     75.9260  
  6176.0000    -40.0199     71.2215     10.1706     10.4269     10.6835      2.2474      0.1078     14.4185     25.6568     35.1531     75.5764  
  6176.5000    -40.0275     69.9142     10.1038     10.3584     10.3795      2.2531      0.1073     14.0012     24.0961     35.0184     76.5493  
  6177.0000    -39.8892     68.3640     10.2144     10.4937     10.5536      2.2481      0.1145     14.2423     23.6713     33.7766     77.6435  
  6177.5000    -39.7608     67.7261     10.5286     10.8923     10.9690      2.2728      0.0978     14.0146     24.2200     32.7719     78.4414  
  6178.0000    -39.7276     67.3345     11.0009     11.3810     11.4613      2.3172      0.0699     13.5373     23.0029     30.7488     79.8478  
  6178.5000    -39.8425     66.8102     11.4944     11.9311     11.9756      2.3568      0.0338     13.3302     20.0907     28.6071     80.5608  
  6179.0000    -40.0550     65.4076     12.1482     13.0514     14.0809      2.3951     -0.0015     12.7504     17.8955     26.5279     81.0615  
  6179.5000    -40.5799     64.2634     12.8658     14.3400     17.2202      2.4479      0.0003     12.6896     15.8007     24.3916     80.9361  
  6180.0000    -40.9755     63.5499     13.6258     15.7558     20.9286      2.4658      0.0138     12.5023     12.7271     23.0023     79.1435  
  6180.5000    -41.3242     63.1112     13.9823     15.6720     21.8091      2.4343      0.0271     12.4635     11.0478     23.2204     75.7581  
  6181.0000    -41.7351     63.9708     13.4260     14.9728     20.9169      2.4017      0.0785     12.4819     12.6000     24.9242     72.2811  
  6181.5000    -41.5583     66.4363     12.8432     13.9968     16.8335      2.3475      0.1328     12.6128     14.7822     28.1381     70.0918  
  6182.0000    -41.0141     69.6964     12.2858     13.0844     13.0611      2.2443      0.1288     13.6192     17.4154     31.8045     68.9774  
  6182.5000    -41.2704     71.2242     11.7525     12.2314     10.6222      2.2073      0.0992     14.0917     23.7994     34.5830     71.0076  
  6183.0000    -41.4754     71.9692     11.2424     11.6330      9.8187      2.2564      0.0562     14.1706     27.1305     34.8631     75.7746  
  6183.5000    -41.2466     72.7143     10.7768     11.1283     11.3400      2.3353      0.0448     13.5288     24.1602     33.0299     79.9416  
  6184.0000    -40.1241     73.5711     10.5430     10.8345     13.0970      2.3298      0.0716     13.3841     19.4821     31.3003     83.4253  
  6184.5000    -39.4776     73.6493     10.3143     10.5994     14.6231      2.3169      0.1008     12.7179     19.5860     31.3628     84.3580  
  6185.0000    -39.5859     72.9364     10.0905     10.3693     14.1781      2.2902      0.0839     13.4447     19.0938     32.1536     82.4628  
  6185.5000    -39.6943     72.2234      9.8716     10.1443     13.1251      2.3304      0.1410     13.0897     22.0334     32.4918     78.5000  
  6186.0000    -39.8027     71.6489      9.6574      9.9241     11.8100      2.2695      0.1474     13.2732     19.3285     32.6850     75.2875  
  6186.5000    -39.8524     72.0354      9.6373      9.8918     10.4952      2.2481      0.1238     14.1563     22.3120     33.1088     75.8547  
  6187.0000    -39.5698     73.5118      9.7913     10.0369     10.0880      2.2679      0.1257     14.4475     24.3358     33.0666     78.0895  
  6187.5000    -39.1479     76.2226      9.9125     10.1848     10.4195      2.3057      0.1293     14.6599     23.1308     31.7311     79.9239  
  6188.0000    -39.1569     75.9425     10.2440     10.5894     12.2917      2.3279      0.1035     14.3198     20.9807     30.1401     83.5014  
  6188.5000    -39.3350     74.5031     10.6782     11.0382     13.3028      2.3656      0.1133     13.5819     19.7679     28.2727     85.5220  
  6189.0000    -39.6247     73.4422     11.1308     11.5061     12.9763      2.3771      0.1146     12.8394     17.3930     27.8380     84.0776  
  6189.5000    -39.9144     73.1312     11.6026     11.9937     12.4152      2.4504      0.0822     12.7572     16.6506     27.8424     81.4659  
  6190.0000    -40.2041     73.9080     12.0944     12.5020     13.1717      2.4858      0.0389     12.8139     12.6623     27.4723     77.9259  
  6190.5000    -40.4938     75.3588     12.6071     13.0149     14.1420      2.5462      0.0025     12.8822     10.1333     26.0053     75.1550  
  6191.0000    -40.7789     76.0980     13.0163     13.4017     15.1838      2.5842     -0.0006     12.6660      6.7436     24.9470     74.9876  
  6191.5000    -40.7867     77.8697     13.4030     13.7999     15.8984      2.5899      0.0068     12.6660      4.4612     25.3696     75.6625  
  6192.0000    -40.8169     80.5040     13.8013     14.2100     15.8480      2.5724      0.0112     12.6691      3.8762     25.3675     76.4571  
  6192.5000    -40.8338     81.7145     13.8617     14.2091     15.7977      2.5379      0.0081     12.6742      4.8841     25.3357     76.7582  
  6193.0000    -41.0411     81.5600     13.3293     13.9092     15.8151      2.4936      0.0068     12.6896      6.9184     25.7211     75.5674  
  6193.5000    -40.9468     82.7673     12.4861     13.0294     15.8846      2.4467      0.0276     12.6907      9.4217     26.5823     74.5304  
  6194.0000    -40.7481     87.6115     11.6892     12.2053     15.4528      2.3868      0.0537     12.6747     12.1022     29.1477     74.2712  
  6194.5000    -40.5170     98.0090     10.3482     11.0926     12.1039      2.3552      0.1517     12.7658     16.2385     32.7639     73.9834  
  6195.0000    -40.0760    108.4066      9.1610      9.8210      9.4807      2.2690      0.1523     13.3536     17.1594     36.7563     73.4895  
  6195.5000    -39.9369    121.8200      8.1100      8.6952      8.5895      2.2737      0.1319     14.0461     22.2864     39.4863     74.3893  
  6196.0000    -39.4968    128.2861      7.2410      7.6984      8.0964      2.3106      0.1442     14.3037     22.5506     39.9442     79.4110  
  6196.5000    -39.0312    124.8521      6.7392      7.0543      8.2342      2.3070      0.1421     14.0931     20.5804     39.6213     87.3035  
  6197.0000    -38.8315    117.5102      6.2722      6.5654      8.5914      2.3326      0.1435     14.3117     20.7660     39.3253     92.5080  
  6197.5000    -38.6031    113.7069      5.9107      6.1104      8.9664      2.3406      0.1467     14.1438     19.3897     38.9557     95.4672  
  6198.0000    -38.4999    113.0755      5.7960      5.9532      9.1191      2.3295      0.1337     13.9825     18.2812     39.3703     97.3071  
