~VERSION INFORMATION
 VERS.                           2.00:        CWLS LOG ASCII STANDARD - VERSION 2.00
 WRAP.                             NO:        ONE LINE PER DEPTH STEP
~WELL INFORMATION
#MNEM.UNIT                   DATA             INFORMATION
#----------             --------------        ------------------------------
 STRT.F                       66.0000:        START DEPTH
 STOP.F                    10227.0000:        STOP DEPTH
 STEP.F                        0.5000:        STEP VALUE
 NULL.                      -999.2500:        NULL VALUE
 COMP.      USGS/NPR #4 HUSKY OIL CO.:        COMPANY  
 LOC .                   25  16N  28W:        LOCATION   
 DATE.                        1/31/79:        LOG DATE 
 WELL.             PEARD TEST WELL #1:        WELL     
 UWI .                   503012000200:        UNIQUE WELL ID 
 API .                   503012000200:        UNIQUE WELL IDENTIFIER 
 FLD .                        WILDCAT:        FIELD    
 CNTY.                        N.SLOPE:        COUNTY  
 STAT.                         ALASKA:        STATE   
 CTRY.                            USA:        COUNTRY 
 OPER.      USGS/NPR #4 HUSKY OIL CO.:        OPERATOR  
 SRVC.                   SCHLUMBERGER:        SERVICE COMPANY 
 LAT .                         0.0000:        LATITUDE
 LON .                         0.0000:        LONGITUDE
 DIGS.               CENTER LINE DATA:        DIGITIZING COMPANY 
~CURVE INFORMATION      
#MNEM        .UNIT         API CODE           CURVE DESCRIPTION
#-----------------      --------------        ------------------------------
 DEPT        .F                      :        1  DEPTH
 SP          .MV                     :        2  
 GR          .GAPI                   :        3  
 ILD         .OHMM                   :        4  
 ILM         .OHMM                   :        5  
 LL8         .OHMM                   :        6  
 RHOB        .G/C3                   :        7  
 DRHO        .G/C3                   :        8  
 CALI        .IN                     :        9  
 DPHI        .%                      :        10 
 NPHI        .%                      :        11 
 DT          .US/F                   :        12 
~PARAMETER INFORMATION       
#MNEM.UNIT                  VALUE             DESCRIPTION OF MNEMONIC
#---------             ---------------        ------------------------------
 EKB .F                      103.3000:        KELLY BUSHING
 TD  .F                    10229.0000:        TOTAL DEPTH
 BHT .F                       76.0000:        BOTTOM HOLE TEMPERATURE
 BS  .                        17.5000:        BIT SIZE
 FD  .                        10.0000:        FLUID DENSITY
 CSIZ.                        20.0000:        CASING SIZE
 CBD .F                       88.0000:        CASING DRILLER 1
 CBL .F                      109.0000:        CASING LOGGER 1
 DFT .                  Miscellaneous:        TYPE FLUID IN HOLE
 DFV .                        31.0000:        VISCOSITY
 DFPH.                         7.5000:        PH
 DFL .                        23.0000:        FLUID LOSS
 RMS .                        10.6700:        RM
 MST .F                       62.0000:        RM MEAS. TEMP.
 RMF .                        10.8000:        RMF
 MFST.F                       52.0000:        RMF MEAS. TEMP.
 RMC .                        10.7300:        RMC
 MCST.F                       55.0000:        RMC MEAS. TEMP.
~OTHER INFORMATION
~A    DEPTH          SP          GR         ILD         ILM         LL8        RHOB        DRHO        CALI        DPHI        NPHI          DT  
# ...
  8866.0000    -36.7209     64.4102     16.3576     16.9883     22.2115      2.5851      0.0139     10.3286      4.7348     10.8829     67.7702  
  8866.5000    -36.5773     64.6265     16.1375     16.7598     21.6985      2.5943      0.0221     10.3271      4.2042     11.0219     67.8367  
  8867.0000    -36.3884     65.6335     15.9205     16.5344     20.2167      2.6042      0.0253     10.3196      3.3674     11.2750     68.0445  
  8867.5000    -36.2130     66.2647     15.7063     16.3120     17.8439      2.6002      0.0285     10.3135      3.2020     11.7256     68.1862  
  8868.0000    -35.6718     66.9134     15.4864     16.0868     15.9264      2.5960      0.0289     10.3090      3.4635     12.0224     68.4355  
  8868.5000    -35.1528     67.5630     15.2653     15.8569     15.5980      2.6048      0.0223     10.3044      3.6450     12.2020     68.5303  
  8869.0000    -34.4807     68.4405     15.0472     15.6303     16.9626      2.5896      0.0140     10.2998      3.4763     12.3291     68.3863  
  8869.5000    -34.0341     69.1249     14.8323     15.4070     18.7238      2.5857      0.0191     10.2952      4.1588     12.4732     68.2511  
  8870.0000    -33.9389     68.0626     14.6205     15.1868     19.4264      2.5890      0.0248     10.2907      4.6831     12.2416     67.6648  
  8870.5000    -33.8905     64.7782     14.4117     14.9698     17.2112      2.5871      0.0139     10.2861      3.7627     11.8874     67.1346  
  8871.0000    -33.7784     62.1829     14.2059     14.7559     15.9284      2.6050      0.0127     10.2815      4.3333     11.7932     67.0552  
  8871.5000    -33.7415     61.2657     14.0030     14.5451     16.1666      2.6128      0.0158     10.2784      3.1923     11.7371     67.1882  
  8872.0000    -33.6769     61.4347     13.8933     14.4130     17.0472      2.6041      0.0189     10.2827      2.6397     11.8127     67.4706  
  8872.5000    -33.6378     61.5544     13.7868     14.3025     17.2144      2.5910      0.0234     10.2778      2.9347     11.8502     67.7359  
  8873.0000    -33.5944     61.8722     13.6811     14.1929     16.9190      2.6114      0.0320     10.2877      3.9042     11.8082     67.6878  
  8873.5000    -33.2509     62.6802     13.5763     14.0841     16.6287      2.6335      0.0406     10.2867      3.0850     11.9579     67.4888  
  8874.0000    -32.7085     64.1073     13.4722     13.9761     16.3434      2.6452      0.0492     10.2881      1.6870     12.1600     67.2919  
  8874.5000    -32.0854     66.5428     13.3689     13.8690     16.2927      2.6308      0.0308     10.2894      0.1216     12.3982     67.1318  
  8875.0000    -31.3202     68.3181     13.2664     13.7627     16.5195      2.6008      0.0157     10.2907      1.4324     12.6244     67.0315  
  8875.5000    -30.9661     70.0977     13.0722     13.6572     16.9768      2.5921      0.0121     10.2930      3.3043     12.8367     66.7336  
  8876.0000    -29.8916     71.9806     12.2708     13.0544     15.4374      2.5930      0.0286     10.2883      4.0457     13.6320     65.8203  
  8876.5000    -28.6814     75.3717     11.5185     12.2541     13.3722      2.6126      0.0602     10.3159      3.5377     15.1425     65.5019  
  8877.0000    -27.6479     79.2631     10.8124     11.5029     11.3687      2.6346      0.0956     10.3895      2.9098     16.9027     66.3752  
  8877.5000    -26.3877     79.7117     10.3475     10.7977     10.5084      2.6541      0.1315     10.4632      0.5644     19.0377     67.7344  
  8878.0000    -25.7779     77.0520     10.2558     10.8105      8.8092      2.6481      0.1500     10.6532      0.3424     20.3104     69.9212  
  8878.5000    -25.4826     72.8167     10.7653     11.3473     10.2985      2.6199      0.1628     10.8898      1.3600     20.4773     71.9810  
  8879.0000    -25.6425     68.6938     11.3001     11.9108     13.6022      2.6092      0.1243     10.9936      1.8962     20.0119     73.1018  
  8879.5000    -26.3935     64.0913     11.8614     12.5022     17.7728      2.5685      0.0420     11.0331      2.8241     17.8575     73.0020  
  8880.0000    -27.3411     61.2710     12.4506     13.1231     18.7746      2.5784      0.0067     10.7620      5.2847     14.1475     71.5321  
  8880.5000    -27.1512     60.1243     13.0691     13.7747     18.6681      2.5961      0.0034     10.5374      4.7778     11.7660     69.2693  
  8881.0000    -27.1052     61.0093     13.7183     14.2621     19.0481      2.6060      0.0047     10.4351      3.1594     11.4126     67.4111  
  8881.5000    -26.9405     63.9205     13.6195     14.2588     21.3218      2.5965      0.0087     10.4316      3.1056     11.8304     65.2165  
  8882.0000    -26.6502     70.1874     13.0119     13.6929     25.2984      2.5650      0.0176     10.4314      4.5379     12.3174     64.1123  
  8882.5000    -26.4395     75.4084     12.4314     13.0819     16.8097      2.5335      0.0445     10.4421      5.3272     13.2686     63.5958  
  8883.0000    -26.0555     82.0924     11.8768     12.4981     12.6733      2.5018      0.0769     10.4578      7.6031     15.6808     64.3148  
  8883.5000    -25.6567     86.1498     11.3470     11.9404     12.0035      2.4736      0.1088     10.4852      9.9264     18.6424     66.9602  
  8884.0000    -25.2061     88.9306     10.8408     11.4076     14.1079      2.4504      0.1010     10.5126     11.4303     20.7125     71.3163  
  8884.5000    -24.8171     92.0457     10.6821     11.0781     16.4239      2.4420      0.1062     10.8765     13.3486     21.7554     72.6590  
  8885.0000    -24.4773     92.4010     10.6324     11.0265     14.5139      2.4314      0.1438     10.6950     12.5895     20.9622     72.1643  
  8885.5000    -24.3730     92.2508     10.5829     10.9752     12.7692      2.3696      0.1849     10.6871     13.5719     21.7548     71.8453  
  8886.0000    -24.2897     91.9201     10.5337     10.9241     11.8709      2.3236      0.1876     11.0093     18.1173     23.5272     70.2828  
  8886.5000    -24.1950     90.5047     10.4846     10.8733     11.7257      2.3427      0.1700     11.3607     20.5027     25.2709     70.0353  
  8887.0000    -24.0449     89.1628     10.4359     10.8227     13.9705      2.3668      0.1446     11.6491     19.0235     25.4421     70.3992  
  8887.5000    -23.7839     88.6662     10.5002     10.8892     15.6302      2.3898      0.1434     11.9339     17.3144     24.6768     71.0297  
  8888.0000    -23.4443     88.5448     10.5666     10.9563     13.8543      2.3978      0.1991     11.3528     16.5301     23.6398     71.4960  
  8888.5000    -23.4585     88.0847     10.6334     11.0385     12.1435      2.3742      0.2190     11.2982     15.6876     23.4808     71.5465  
  8889.0000    -23.4974     86.7515     10.7006     11.9760     13.0984      2.3513      0.2085     11.0412     16.4891     24.3373     72.2630  
  8889.5000    -23.4080     85.6577     10.7682     13.6201     15.1026      2.3599      0.1852     11.4985     18.5626     24.6002     72.3721  
  8890.0000    -23.2192     86.3013     10.8363     14.3732     17.4133      2.3739      0.1546     11.1277     17.8841     23.6917     70.7577  
  8890.5000    -22.9975     88.2274     10.9048     13.1326     19.7483      2.4185      0.1181     11.2566     17.2530     22.6072     69.4110  
  8891.0000    -22.8428     90.2204     10.9737     12.1537     17.2305      2.4783      0.1442     11.0292     15.1100     21.6679     68.6303  
  8891.5000    -23.1441     91.8705     11.0431     11.5687     14.0888      2.4746      0.2157     10.5388     10.6796     22.2750     67.5090  
  8892.0000    -23.3803     93.7561     11.1129     11.3955     13.3222      2.3925      0.2043     10.6990     12.0555     24.3413     69.8287  
  8892.5000    -23.5572     91.7826     11.1831     11.4639     14.3595      2.3828      0.2076     11.1766     16.4917     26.0163     71.4612  
  8893.0000    -23.5569     90.4571     11.2538     11.5326     15.3664      2.4276      0.1945     11.2085     17.2931     25.8358     71.8196  
