~VERSION INFORMATION
 VERS.                           2.00:        CWLS LOG ASCII STANDARD - VERSION 2.00
 WRAP.                             NO:        ONE LINE PER DEPTH STEP
~WELL INFORMATION
#MNEM.UNIT                   DATA             INFORMATION
#----------             --------------        ------------------------------
 STRT.F                       66.0000:        START DEPTH
 STOP.F                    10227.0000:        STOP DEPTH
 STEP.F                        0.5000:        STEP VALUE
 NULL.                      -999.2500:        NULL VALUE
 COMP.      USGS/NPR #4 HUSKY OIL CO.:        COMPANY  
 LOC .                   25  16N  28W:        LOCATION   
 DATE.                        1/31/79:        LOG DATE 
 WELL.             PEARD TEST WELL #1:        WELL     
 UWI .                   503012000200:        UNIQUE WELL ID 
 API .                   503012000200:        UNIQUE WELL IDENTIFIER 
 FLD .                        WILDCAT:        FIELD    
 CNTY.                        N.SLOPE:        COUNTY  
 STAT.                         ALASKA:        STATE   
 CTRY.                            USA:        COUNTRY 
 OPER.      USGS/NPR #4 HUSKY OIL CO.:        OPERATOR  
 SRVC.                   SCHLUMBERGER:        SERVICE COMPANY 
 LAT .                         0.0000:        LATITUDE
 LON .                         0.0000:        LONGITUDE
 DIGS.               CENTER LINE DATA:        DIGITIZING COMPANY 
~CURVE INFORMATION      
#MNEM        .UNIT         API CODE           CURVE DESCRIPTION
#-----------------      --------------        ------------------------------
 DEPT        .F                      :        1  DEPTH
 SP          .MV                     :        2  
 GR          .GAPI                   :        3  
 ILD         .OHMM                   :        4  
 ILM         .OHMM                   :        5  
 LL8         .OHMM                   :        6  
 RHOB        .G/C3                   :        7  
 DRHO        .G/C3                   :        8  
 CALI        .IN                     :        9  
 DPHI        .%                      :        10 
 NPHI        .%                      :        11 
 DT          .US/F                   :        12 
~PARAMETER INFORMATION       
#MNEM.UNIT                  VALUE             DESCRIPTION OF MNEMONIC
#---------             ---------------        ------------------------------
 EKB .F                      103.3000:        KELLY BUSHING
 TD  .F                    10229.0000:        TOTAL DEPTH
 BHT .F                       76.0000:        BOTTOM HOLE TEMPERATURE
 BS  .                        17.5000:        BIT SIZE
 FD  .                        10.0000:        FLUID DENSITY
 CSIZ.                        20.0000:        CASING SIZE
 CBD .F                       88.0000:        CASING DRILLER 1
 CBL .F                      109.0000:        CASING LOGGER 1
 DFT .                  Miscellaneous:        TYPE FLUID IN HOLE
 DFV .                        31.0000:        VISCOSITY
 DFPH.                         7.5000:        PH
 DFL .                        23.0000:        FLUID LOSS
 RMS .                        10.6700:        RM
 MST .F                       62.0000:        RM MEAS. TEMP.
 RMF .                        10.8000:        RMF
 MFST.F                       52.0000:        RMF MEAS. TEMP.
 RMC .                        10.7300:        RMC
 MCST.F                       55.0000:        RMC MEAS. TEMP.
~OTHER INFORMATION
~A    DEPTH          SP          GR         ILD         ILM         LL8        RHOB        DRHO        CALI        DPHI        NPHI          DT  
# ...
  6858.5000    -29.4080     72.5187      5.7904      5.9272      7.7543      2.4165      0.0974     13.4361     15.4486     35.0531     84.4239  
  6859.0000    -29.3462     72.0491      5.7795      5.9178      7.7429      2.3997      0.1201     13.5988     14.4695     35.2226     84.2961  
  6859.5000    -29.4105     70.3435      5.7383      5.8767      7.7314      2.3607      0.1084     13.8417     14.7030     35.0855     83.8950  
  6860.0000    -29.5378     68.6048      5.7078      5.8454      7.7200      2.3357      0.1088     13.8030     17.0816     34.8721     83.7871  
  6860.5000    -29.6650     71.9672      5.6774      5.8143      7.7087      2.3503      0.1191     13.6017     18.9434     35.0225     83.8648  
  6861.0000    -29.7479     75.3766      5.6472      5.7834      7.6973      2.3664      0.1295     13.4762     18.0662     35.8943     84.2535  
  6861.5000    -29.7564     77.3294      5.6171      5.7526      7.6859      2.3700      0.1404     13.8029     17.2139     37.0432     84.6438  
  6862.0000    -29.7650     76.9372      5.5873      5.7220      7.6746      2.3660      0.1514     14.0167     16.8688     36.9630     84.4700  
  6862.5000    -29.7735     76.2700      5.5575      5.6915      7.6633      2.3487      0.1514     14.0482     16.9366     36.0538     84.2398  
  6863.0000    -29.7820     75.5014      5.5279      5.6612      7.6520      2.3408      0.1339     13.9551     17.9485     35.0768     84.8220  
  6863.5000    -29.7906     75.4790      5.4985      5.6311      7.6407      2.3576      0.1258     14.1333     18.6713     35.8179     86.3139  
  6864.0000    -29.7991     76.7262      5.4693      5.6011      7.6294      2.3804      0.1299     13.6951     17.7104     37.0879     87.6207  
  6864.5000    -29.8076     79.4224      5.4402      5.5713      7.6182      2.4163      0.1475     13.9594     16.2280     36.6493     87.4436  
  6865.0000    -29.8162     81.1281      5.4112      5.5417      7.6070      2.4240      0.1364     13.7257     14.3156     35.7340     87.8524  
  6865.5000    -29.8247     80.4399      5.3960      5.5253      7.5958      2.4313      0.1153     14.0817     13.6495     36.1909     88.0112  
  6866.0000    -29.8332     78.1346      5.3855      5.5146      7.5846      2.4494      0.1147     14.4673     13.2705     36.6351     88.0694  
  6866.5000    -29.8417     73.6026      5.3751      5.5039      7.5734      2.4735      0.1530     14.4150     12.4795     37.0741     88.3900  
  6867.0000    -29.8478     70.7454      5.3647      5.4932      7.5622      2.4685      0.1721     14.2544     10.8446     37.0821     88.4537  
  6867.5000    -29.5825     67.3373      5.3543      5.4825      7.4686      2.4421      0.1551     14.1074     10.9236     37.1855     88.1173  
  6868.0000    -29.1365     67.8939      5.3439      5.4719      7.3594      2.4447      0.1696     14.0750     12.3745     36.8023     88.0291  
  6868.5000    -29.2954     69.7211      5.3335      5.4613      7.2517      2.4383      0.1522     14.0017     12.5148     36.8333     87.8346  
  6869.0000    -29.4805     71.6209      5.3263      5.4547      7.2457      2.4538      0.1348     13.9139     12.9934     36.8551     87.0877  
  6869.5000    -29.3930     72.9117      5.3567      5.4859      7.2239      2.4596      0.1267     13.8977     12.2119     36.7416     86.8047  
  6870.0000    -29.4077     72.9195      5.3873      5.5172      7.2022      2.4592      0.1233     13.9478     11.7036     36.2049     87.1527  
  6870.5000    -29.4391     72.9024      5.4181      5.5487      7.1806      2.4521      0.1233     14.0139     11.5340     35.7953     87.7096  
  6871.0000    -29.3621     72.9197      5.4490      5.5804      7.1500      2.4092      0.0926     14.0811     11.7834     36.1572     87.7583  
  6871.5000    -29.2852     73.8053      5.4801      5.6122      7.2727      2.4067      0.0822     14.2689     14.1809     35.9486     87.0401  
  6872.0000    -29.2083     75.1558      5.5114      5.6443      7.4431      2.4167      0.1023     14.3018     14.7517     35.2614     86.6433  
  6872.5000    -29.1314     77.3764      5.5409      5.6741      7.6131      2.4236      0.1212     13.9792     14.0780     34.2918     86.5404  
  6873.0000    -29.0545     80.0794      5.5635      5.6971      7.6930      2.4254      0.1399     13.9552     13.8310     33.7365     86.3391  
  6873.5000    -28.9776     80.4533      5.5861      5.7203      7.7670      2.4398      0.1435     14.0576     13.6399     34.0224     86.2604  
  6874.0000    -28.9073     78.6566      5.6088      5.7435      7.8421      2.4599      0.1624     14.1601     12.6768     34.5593     86.2020  
  6874.5000    -28.9077     77.2628      5.6316      5.7669      7.8471      2.4511      0.1446     14.0842     11.3882     33.7599     85.9195  
  6875.0000    -28.9080     76.8541      5.6545      5.7903      7.7616      2.4350      0.1302     14.3314     11.9774     34.4029     85.9457  
  6875.5000    -28.9084     76.7757      5.6775      5.8139      7.6961      2.4207      0.1246     14.4121     12.8537     35.7105     86.1416  
  6876.0000    -28.9088     75.4880      5.7006      5.8375      7.6987      2.4021      0.1356     14.7189     13.8921     36.4766     86.5581  
  6876.5000    -28.9092     72.7416      5.7238      5.8612      7.7289      2.4010      0.1606     14.8229     14.9800     36.9932     87.0733  
  6877.0000    -28.9095     73.0074      5.7471      5.8851      7.7593      2.4036      0.1600     14.4486     15.0023     36.0554     86.8726  
  6877.5000    -28.9099     74.7651      5.7507      5.8883      7.7897      2.4258      0.1480     13.9915     14.9191     35.2676     86.3401  
  6878.0000    -28.9103     77.0193      5.7476      5.8851      7.8202      2.4371      0.1515     14.0144     13.8416     34.9567     85.2440  
  6878.5000    -28.9031     79.2253      5.7445      5.8820      7.8509      2.4446      0.1476     14.0845     12.9674     35.3718     86.1632  
  6879.0000    -28.8854     79.9172      5.7415      5.8788      7.8328      2.4500      0.1491     14.3787     12.4452     35.4409     86.8160  
  6879.5000    -28.8677     79.1508      5.7384      5.8757      7.8380      2.4393      0.1559     14.6386     12.0908     35.3228     86.8496  
  6880.0000    -28.8500     77.2084      5.7353      5.8725      7.9431      2.4064      0.1498     14.2760     12.9261     35.2885     86.3093  
  6880.5000    -28.8323     75.3884      5.7322      5.8694      7.9080      2.3952      0.1368     14.1807     14.9262     35.1162     85.4998  
  6881.0000    -28.8146     76.1650      5.7292      5.8662      7.8171      2.4229      0.1381     14.1935     15.6239     34.8235     86.1222  
  6881.5000    -28.7969     76.7282      5.7261      5.8631      7.7545      2.4338      0.1556     14.2126     14.0080     35.4050     86.5935  
  6882.0000    -28.7792     78.0294      5.7230      5.8600      7.7241      2.4332      0.1683     14.4802     12.7883     35.4451     86.9288  
  6882.5000    -28.7615     79.4624      5.7200      5.8568      7.6939      2.4215      0.1681     14.7165     13.2028     35.0364     86.1281  
  6883.0000    -28.7439     80.1848      5.7169      5.8537      7.6638      2.4050      0.1632     14.1015     13.6797     33.6514     85.3947  
  6883.5000    -28.7262     80.2972      5.7139      5.8506      7.6338      2.3964      0.1756     14.4348     14.6639     32.9799     85.6060  
  6884.0000    -28.6069     79.4573      5.7108      5.8474      7.6173      2.3952      0.1630     14.5240     15.2730     32.9910     85.9764  
  6884.5000    -28.4772     78.4508      5.7078      5.8443      7.6138      2.4015      0.1736     14.3942     15.6472     33.0961     85.8767  
  6885.0000    -28.3475     77.4655      5.7047      5.8412      7.6103      2.4482      0.1834     14.0073     15.0224     33.6604     86.1133  
  6885.5000    -28.2178     76.5394      5.7016      5.8381      7.6068      2.4508      0.1640     14.2499     12.3732     34.5174     85.9680  
