~VERSION INFORMATION
 VERS.                           2.00:        CWLS LOG ASCII STANDARD - VERSION 2.00
 WRAP.                             NO:        ONE LINE PER DEPTH STEP
~WELL INFORMATION
#MNEM.UNIT                   DATA             INFORMATION
#----------             --------------        ------------------------------
 STRT.F                       66.0000:        START DEPTH
 STOP.F                    10227.0000:        STOP DEPTH
 STEP.F                        0.5000:        STEP VALUE
 NULL.                      -999.2500:        NULL VALUE
 COMP.      USGS/NPR #4 HUSKY OIL CO.:        COMPANY  
 LOC .                   25  16N  28W:        LOCATION   
 DATE.                        1/31/79:        LOG DATE 
 WELL.             PEARD TEST WELL #1:        WELL     
 UWI .                   503012000200:        UNIQUE WELL ID 
 API .                   503012000200:        UNIQUE WELL IDENTIFIER 
 FLD .                        WILDCAT:        FIELD    
 CNTY.                        N.SLOPE:        COUNTY  
 STAT.                         ALASKA:        STATE   
 CTRY.                            USA:        COUNTRY 
 OPER.      USGS/NPR #4 HUSKY OIL CO.:        OPERATOR  
 SRVC.                   SCHLUMBERGER:        SERVICE COMPANY 
 LAT .                         0.0000:        LATITUDE
 LON .                         0.0000:        LONGITUDE
 DIGS.               CENTER LINE DATA:        DIGITIZING COMPANY 
~CURVE INFORMATION      
#MNEM        .UNIT         API CODE           CURVE DESCRIPTION
#-----------------      --------------        ------------------------------
 DEPT        .F                      :        1  DEPTH
 SP          .MV                     :        2  
 GR          .GAPI                   :        3  
 ILD         .OHMM                   :        4  
 ILM         .OHMM                   :        5  
 LL8         .OHMM                   :        6  
 RHOB        .G/C3                   :        7  
 DRHO        .G/C3                   :        8  
 CALI        .IN                     :        9  
 DPHI        .%                      :        10 
 NPHI        .%                      :        11 
 DT          .US/F                   :        12 
~PARAMETER INFORMATION       
#MNEM.UNIT                  VALUE             DESCRIPTION OF MNEMONIC
#---------             ---------------        ------------------------------
 EKB .F                      103.3000:        KELLY BUSHING
 TD  .F                    10229.0000:        TOTAL DEPTH
 BHT .F                       76.0000:        BOTTOM HOLE TEMPERATURE
 BS  .                        17.5000:        BIT SIZE
 FD  .                        10.0000:        FLUID DENSITY
 CSIZ.                        20.0000:        CASING SIZE
 CBD .F                       88.0000:        CASING DRILLER 1
 CBL .F                      109.0000:        CASING LOGGER 1
 DFT .                  Miscellaneous:        TYPE FLUID IN HOLE
 DFV .                        31.0000:        VISCOSITY
 DFPH.                         7.5000:        PH
 DFL .                        23.0000:        FLUID LOSS
 RMS .                        10.6700:        RM
 MST .F                       62.0000:        RM MEAS. TEMP.
 RMF .                        10.8000:        RMF
 MFST.F                       52.0000:        RMF MEAS. TEMP.
 RMC .                        10.7300:        RMC
 MCST.F                       55.0000:        RMC MEAS. TEMP.
~OTHER INFORMATION
~A    DEPTH          SP          GR         ILD         ILM         LL8        RHOB        DRHO        CALI        DPHI        NPHI          DT  
# ...
  2128.5000    -28.6159     80.3467     11.6749     11.2161     14.4511   -999.2500   -999.2500   -999.2500   -999.2500   -999.2500    101.6615  
  2129.0000    -28.5811     83.4801     11.5619     11.1075     14.1839   -999.2500   -999.2500   -999.2500   -999.2500   -999.2500    102.3292  
  2129.5000    -28.5825     85.3548     11.4500     11.0000     13.9092   -999.2500   -999.2500   -999.2500   -999.2500   -999.2500    104.1294  
  2130.0000    -28.7075     86.7700     11.3445     10.9017     13.7823   -999.2500   -999.2500   -999.2500   -999.2500   -999.2500    106.1547  
  2130.5000    -28.8900     87.6706     11.2532     10.8142     13.8140   -999.2500   -999.2500   -999.2500   -999.2500   -999.2500    105.1191  
  2131.0000    -28.5606     87.6973     11.1650     10.7352     13.9915   -999.2500   -999.2500   -999.2500   -999.2500   -999.2500    104.4907  
  2131.5000    -28.4019     87.4555     11.1865     10.7549     13.8794   -999.2500   -999.2500   -999.2500   -999.2500   -999.2500    102.6640  
  2132.0000    -28.7776     86.1414     11.2359     10.8024     13.6653   -999.2500   -999.2500   -999.2500   -999.2500   -999.2500    103.6178  
  2132.5000    -29.0078     84.9356     11.3149     10.8658     13.6162   -999.2500   -999.2500   -999.2500   -999.2500   -999.2500    106.7643  
  2133.0000    -29.1111     84.2676     11.6217     11.0720     14.0519   -999.2500   -999.2500   -999.2500   -999.2500   -999.2500    106.4510  
  2133.5000    -28.9112     83.1146     11.9817     11.4333     14.4998   -999.2500   -999.2500   -999.2500   -999.2500   -999.2500    105.8593  
  2134.0000    -28.6099     82.2365     12.3463     11.7812     14.6387   -999.2500   -999.2500   -999.2500   -999.2500   -999.2500    102.7933  
  2134.5000    -28.4486     82.0985     12.7220     12.1397     14.7924   -999.2500   -999.2500   -999.2500   -999.2500   -999.2500     98.7474  
  2135.0000    -28.2654     81.7233     13.1091     12.5091     15.3846   -999.2500   -999.2500   -999.2500   -999.2500   -999.2500     97.8612  
  2135.5000    -28.0699     79.7683     13.4700     12.8898     16.0632   -999.2500   -999.2500   -999.2500   -999.2500   -999.2500     96.6735  
  2136.0000    -27.8665     80.1021     13.6670     13.1167     16.1707   -999.2500   -999.2500   -999.2500   -999.2500   -999.2500     95.2697  
  2136.5000    -27.6462     81.5503     13.8577     13.3085     15.9676   -999.2500   -999.2500   -999.2500   -999.2500   -999.2500     95.5338  
  2137.0000    -27.3439     82.5992     13.9485     13.4073     15.7530   -999.2500   -999.2500   -999.2500   -999.2500   -999.2500     96.3921  
  2137.5000    -27.0723     83.2521     14.0399     13.4748     15.6584   -999.2500   -999.2500   -999.2500   -999.2500   -999.2500     97.8058  
  2138.0000    -26.8616     82.7640     14.1318     13.4937     15.5643   -999.2500   -999.2500   -999.2500   -999.2500   -999.2500     98.6775  
  2138.5000    -26.6630     80.8899     14.2125     13.5126     15.5161   -999.2500   -999.2500   -999.2500   -999.2500   -999.2500     99.0251  
  2139.0000    -26.4889     79.0146     14.2895     13.5315     15.5552   -999.2500   -999.2500   -999.2500   -999.2500   -999.2500    100.0900  
  2139.5000    -26.3213     77.8062     14.3670     13.5505     15.5944   -999.2500   -999.2500   -999.2500   -999.2500   -999.2500     98.2681  
  2140.0000    -26.2544     77.1589     14.4450     13.5695     15.6338   -999.2500   -999.2500   -999.2500   -999.2500   -999.2500     98.0614  
  2140.5000    -26.3362     77.0143     14.5233     13.5885     15.6732   -999.2500   -999.2500   -999.2500   -999.2500   -999.2500     98.2307  
  2141.0000    -26.3440     77.8666     14.5722     13.6075     15.7110   -999.2500   -999.2500   -999.2500   -999.2500   -999.2500     97.9374  
  2141.5000    -26.4294     79.6275     14.6087     13.6265     15.7209   -999.2500   -999.2500   -999.2500   -999.2500   -999.2500     97.7948  
  2142.0000    -26.3843     81.5200     14.6453     13.6456     15.7309   -999.2500   -999.2500   -999.2500   -999.2500   -999.2500     96.0844  
  2142.5000    -26.4522     82.6458     14.6820     13.6647     15.7408   -999.2500   -999.2500   -999.2500   -999.2500   -999.2500     97.6761  
  2143.0000    -26.7334     83.8828     14.7188     13.6839     15.7508   -999.2500   -999.2500   -999.2500   -999.2500   -999.2500     97.8371  
  2143.5000    -26.8571     84.0568     14.7557     13.6828     15.7607   -999.2500   -999.2500   -999.2500   -999.2500   -999.2500     98.5186  
  2144.0000    -26.8963     83.6362     14.7914     13.6781     15.7707   -999.2500   -999.2500   -999.2500   -999.2500   -999.2500     99.5051  
  2144.5000    -27.0250     83.6561     14.7607     13.6734     15.7806   -999.2500   -999.2500   -999.2500   -999.2500   -999.2500     98.3587  
  2145.0000    -27.2238     83.6324     14.7300     13.6687     15.7906   -999.2500   -999.2500   -999.2500   -999.2500   -999.2500     97.8501  
  2145.5000    -27.4961     81.7285     14.6994     13.6641     15.8006   -999.2500   -999.2500   -999.2500   -999.2500   -999.2500     98.6095  
  2146.0000    -27.5092     78.2837     14.6689     13.6594     15.8106   -999.2500   -999.2500   -999.2500   -999.2500   -999.2500     98.5326  
  2146.5000    -27.3078     75.8842     14.6384     13.6547     15.8206   -999.2500   -999.2500   -999.2500   -999.2500   -999.2500     98.4557  
  2147.0000    -27.0168     74.2790     14.6080     13.6501     15.8306   -999.2500   -999.2500   -999.2500   -999.2500   -999.2500     99.1747  
  2147.5000    -26.7258     74.6980     14.5957     13.6685     15.8406   -999.2500   -999.2500   -999.2500   -999.2500   -999.2500     97.5598  
  2148.0000    -26.5751     75.7286     14.6435     13.7018     15.8878   -999.2500   -999.2500   -999.2500   -999.2500   -999.2500     96.9507  
  2148.5000    -26.4724     75.3926     14.6914     13.7351     15.9522   -999.2500   -999.2500   -999.2500   -999.2500   -999.2500     97.7632  
  2149.0000    -26.5190     74.1576     14.7394     13.7686     16.0168   -999.2500   -999.2500   -999.2500   -999.2500   -999.2500     97.6927  
  2149.5000    -26.5226     72.6312     14.7876     13.8021     16.0732   -999.2500   -999.2500   -999.2500   -999.2500   -999.2500     98.4259  
  2150.0000    -26.3797     71.5445     14.8360     13.8357     16.0969   -999.2500   -999.2500   -999.2500   -999.2500   -999.2500     98.4786  
  2150.5000    -26.2368     72.1280     14.8846     13.8694     16.1206   -999.2500   -999.2500   -999.2500   -999.2500   -999.2500     98.1018  
  2151.0000    -26.4345     73.7502     14.9332     13.9031     16.1443   -999.2500   -999.2500   -999.2500   -999.2500   -999.2500     97.7251  
  2151.5000    -26.7208     75.7598     14.9821     13.9370     16.1681   -999.2500   -999.2500   -999.2500   -999.2500   -999.2500     97.3191  
  2152.0000    -26.7007     76.0526     15.0311     13.9654     16.1919   -999.2500   -999.2500   -999.2500   -999.2500   -999.2500     96.5786  
  2152.5000    -26.7003     75.3561     15.0803     13.9834     16.2158   -999.2500   -999.2500   -999.2500   -999.2500   -999.2500     97.0033  
  2153.0000    -26.5394     74.8614     15.1267     14.0014     16.2397   -999.2500   -999.2500   -999.2500   -999.2500   -999.2500     96.1445  
  2153.5000    -26.5936     74.8010     15.0606     14.0194     16.2636   -999.2500   -999.2500   -999.2500   -999.2500   -999.2500     97.5069  
  2154.0000    -26.7624     74.8093     14.9949     14.0375     16.2875   -999.2500   -999.2500   -999.2500   -999.2500   -999.2500     97.2929  
  2154.5000    -27.1263     75.2860     14.9294     13.8339     16.2095   -999.2500   -999.2500   -999.2500   -999.2500   -999.2500     96.8432  
  2155.0000    -27.5583     76.8717     14.6830     13.5652     15.6670   -999.2500   -999.2500   -999.2500   -999.2500   -999.2500     95.2616  
  2155.5000    -27.8104     78.1800     14.3984     13.1542     15.0551   -999.2500   -999.2500   -999.2500   -999.2500   -999.2500     97.9357  
