~VERSION INFORMATION
 VERS.                           2.00:        CWLS LOG ASCII STANDARD - VERSION 2.00
 WRAP.                             NO:        ONE LINE PER DEPTH STEP
~WELL INFORMATION
#MNEM.UNIT                   DATA             INFORMATION
#----------             --------------        ------------------------------
 STRT.F                       66.0000:        START DEPTH
 STOP.F                    10227.0000:        STOP DEPTH
 STEP.F                        0.5000:        STEP VALUE
 NULL.                      -999.2500:        NULL VALUE
 COMP.      USGS/NPR #4 HUSKY OIL CO.:        COMPANY  
 LOC .                   25  16N  28W:        LOCATION   
 DATE.                        1/31/79:        LOG DATE 
 WELL.             PEARD TEST WELL #1:        WELL     
 UWI .                   503012000200:        UNIQUE WELL ID 
 API .                   503012000200:        UNIQUE WELL IDENTIFIER 
 FLD .                        WILDCAT:        FIELD    
 CNTY.                        N.SLOPE:        COUNTY  
 STAT.                         ALASKA:        STATE   
 CTRY.                            USA:        COUNTRY 
 OPER.      USGS/NPR #4 HUSKY OIL CO.:        OPERATOR  
 SRVC.                   SCHLUMBERGER:        SERVICE COMPANY 
 LAT .                         0.0000:        LATITUDE
 LON .                         0.0000:        LONGITUDE
 DIGS.               CENTER LINE DATA:        DIGITIZING COMPANY 
~CURVE INFORMATION      
#MNEM        .UNIT         API CODE           CURVE DESCRIPTION
#-----------------      --------------        ------------------------------
 DEPT        .F                      :        1  DEPTH
 SP          .MV                     :        2  
 GR          .GAPI                   :        3  
 ILD         .OHMM                   :        4  
 ILM         .OHMM                   :        5  
 LL8         .OHMM                   :        6  
 RHOB        .G/C3                   :        7  
 DRHO        .G/C3                   :        8  
 CALI        .IN                     :        9  
 DPHI        .%                      :        10 
 NPHI        .%                      :        11 
 DT          .US/F                   :        12 
~PARAMETER INFORMATION       
#MNEM.UNIT                  VALUE             DESCRIPTION OF MNEMONIC
#---------             ---------------        ------------------------------
 EKB .F                      103.3000:        KELLY BUSHING
 TD  .F                    10229.0000:        TOTAL DEPTH
 BHT .F                       76.0000:        BOTTOM HOLE TEMPERATURE
 BS  .                        17.5000:        BIT SIZE
 FD  .                        10.0000:        FLUID DENSITY
 CSIZ.                        20.0000:        CASING SIZE
 CBD .F                       88.0000:        CASING DRILLER 1
 CBL .F                      109.0000:        CASING LOGGER 1
 DFT .                  Miscellaneous:        TYPE FLUID IN HOLE
 DFV .                        31.0000:        VISCOSITY
 DFPH.                         7.5000:        PH
 DFL .                        23.0000:        FLUID LOSS
 RMS .                        10.6700:        RM
 MST .F                       62.0000:        RM MEAS. TEMP.
 RMF .                        10.8000:        RMF
 MFST.F                       52.0000:        RMF MEAS. TEMP.
 RMC .                        10.7300:        RMC
 MCST.F                       55.0000:        RMC MEAS. TEMP.
~OTHER INFORMATION
~A    DEPTH          SP          GR         ILD         ILM         LL8        RHOB        DRHO        CALI        DPHI        NPHI          DT  
# ...
  4163.5000    -48.2463     71.5575     13.8742     13.4212     14.3298      2.2494      0.1247     14.7552     22.3679     36.1153     82.5622  
  4164.0000    -48.4765     72.4424     14.3659     13.3720     14.8015      2.2359      0.1284     14.4283     23.7165     37.4476     84.0355  
  4164.5000    -48.9425     72.5478     14.3808     13.1616     14.7884      2.2331      0.1321     14.2391     24.7560     37.8391     83.9393  
  4165.0000    -49.2313     73.4023     13.8986     12.8675     14.4649      2.2360      0.1411     13.6691     25.0157     37.1954     82.2325  
  4165.5000    -49.2157     75.0071     13.3585     12.5799     13.7756      2.2351      0.1400     13.4491     24.8547     37.0427     82.4163  
  4166.0000    -49.3022     76.6291     13.1892     12.8202     13.5470      2.2339      0.1372     13.7561     24.9767     38.0584     83.4511  
  4166.5000    -49.4292     75.7205     13.3515     13.1393     13.7895      2.2322      0.1346     14.4587     25.0963     38.7306     82.7848  
  4167.0000    -49.5561     72.3772     13.7784     13.4664     14.2632      2.2391      0.1208     14.7635     25.0423     38.3104     82.0518  
  4167.5000    -49.6831     69.3527     14.3521     13.8016     14.8155      2.2487      0.1085     14.5720     24.9135     37.4256     83.2794  
  4168.0000    -49.8100     67.7077     14.7294     14.0858     15.1937      2.2241      0.0968     13.8589     23.9079     36.5484     85.1217  
  4168.5000    -50.0115     66.9533     15.0892     14.3626     15.4986      2.1974      0.0869     13.5944     25.1928     36.0092     86.2245  
  4169.0000    -50.2145     66.9491     15.1035     14.6448     15.5245      2.1899      0.0793     13.1583     27.0041     36.6326     85.3427  
  4169.5000    -50.4174     67.6032     15.2978     14.9326     15.7798      2.1758      0.0739     13.0503     27.5068     37.2952     81.8568  
  4170.0000    -50.6204     68.1540     15.7511     15.2260     16.2353      2.1482      0.0605     12.9221     28.1301     37.5010     78.6236  
  4170.5000    -50.8233     67.7790     16.1264     14.7211     16.5653      2.1314      0.0379     12.8198     29.9696     37.7671     80.2330  
  4171.0000    -50.9958     66.3517     15.3402     13.7596     16.0893      2.1274      0.0420     12.8955     30.9533     37.9374     80.0818  
  4171.5000    -50.9049     66.6532     13.9646     12.8609     14.8468      2.1208      0.0774     12.9982     31.3293     38.4881     80.6447  
  4172.0000    -50.8140     69.1181     13.3662     12.3873     13.7550      2.1008      0.1146     13.1715     31.6783     41.0893     82.7579  
  4172.5000    -50.6907     71.3467     13.2545     12.3425     13.6135      2.0977      0.1194     13.8085     33.1013     42.9866     80.5902  
  4173.0000    -50.2187     73.3540     13.2499     12.2978     13.6087      2.1376      0.1141     15.0717     33.3140     42.7325     79.9376  
  4173.5000    -50.0452     75.0039     13.3948     12.2533     13.5763      2.1676      0.1169     15.6863     31.0317     41.7418     83.5122  
  4174.0000    -50.0338     76.0818     13.6439     12.2333     13.3888      2.1664      0.1146     16.3538     28.9317     41.4231     86.4237  
  4174.5000    -50.1032     76.5454     14.2758     12.2654     13.1494      2.1606      0.1084     16.0617     29.0142     41.8242     88.8082  
  4175.0000    -50.3213     75.6311     14.9370     12.3971     12.9649      2.1465      0.0855     15.8022     29.3191     42.1939     89.7425  
  4175.5000    -50.8107     71.6879     16.0034     12.7963     13.0070      2.1407      0.0743     15.7167     30.1183     41.7382     88.3199  
  4176.0000    -51.3002     64.5550     17.5587     14.4184     15.3766      2.1540      0.0527     15.3764     30.6733     40.6265     88.2430  
  4176.5000    -51.8097     59.5157     19.2650     16.4686     18.7863      2.2087      0.0211     14.8118     29.9095     38.4052     89.4566  
  4177.0000    -52.5767     57.2778     20.4058     18.5836     23.0046      2.2805      0.0060     14.0830     26.5814     34.6720     85.3284  
  4177.5000    -53.0872     56.8950     20.3987     20.1620     28.6567      2.2892      0.0145     12.7561     22.2410     31.9873     84.8947  
  4178.0000    -53.1186     57.3810     20.3915     18.9296     24.6373      2.2774      0.0504     12.6373     21.1981     31.6910     85.0795  
  4178.5000    -52.9740     60.1895     20.3844     17.4056     18.9028      2.2501      0.0841     12.7043     22.3998     33.5413     81.6369  
  4179.0000    -52.5781     63.9223     19.7727     16.0043     16.1600      2.2156      0.1159     12.7517     23.7698     36.4967     77.7526  
  4179.5000    -52.1822     65.9716     18.6248     14.9516     15.5901      2.1955      0.1343     12.8975     25.8696     38.6463     74.0837  
  4180.0000    -51.7863     67.1436     17.1832     14.7165     15.5570      2.1702      0.1385     13.5801     27.3166     39.8234     74.8069  
  4180.5000    -51.3904     68.0680     15.9340     14.4852     15.5470      2.1536      0.1357     14.4633     28.9092     40.6424     78.7490  
  4181.0000    -50.9945     68.1332     15.3693     14.3130     15.1958      2.1537      0.1366     15.1952     29.8483     41.9748     80.6873  
  4181.5000    -50.5987     67.6567     14.9342     14.1818     14.8280      2.1539      0.1360     15.9271     29.7134     42.6599     82.4585  
  4182.0000    -50.2028     66.8279     14.5717     14.0518     14.5407      2.1582      0.1365     16.1098     29.4148     41.9484     83.3045  
  4182.5000    -49.9143     66.4509     14.3374     13.9229     14.7941      2.1790      0.1442     16.1389     29.7490     40.9177     82.3750  
  4183.0000    -49.6664     66.6141     14.7535     13.7748     15.2236      2.2125      0.1434     16.6329     28.5275     38.7280     81.2767  
  4183.5000    -49.4184     67.0576     14.6734     13.7202     15.1911      2.2597      0.1389     15.7788     26.6188     36.8560     81.9935  
  4184.0000    -49.1705     67.1604     14.1156     13.6658     14.6209      2.2920      0.1345     14.0183     23.6875     37.0725     82.7515  
  4184.5000    -48.9437     66.9714     13.8052     13.6116     14.1948      2.3031      0.1315     14.7484     21.1005     37.5774     81.9214  
  4185.0000    -49.0990     67.1614     13.9108     13.5577     14.3048      2.2905      0.1149     15.8079     20.7805     37.8763     80.5637  
  4185.5000    -49.2542     69.3888     14.1032     13.5039     14.5026      2.2816      0.0900     16.0522     21.3942     37.0587     80.8673  
  4186.0000    -49.4094     71.0332     14.0473     13.4504     14.4480      2.2695      0.0916     15.6793     22.4040     36.1925     82.2041  
  4186.5000    -49.5646     71.5543     13.8284     13.4587     14.2278      2.2382      0.1032     15.0263     22.4132     36.7117     83.2064  
  4187.0000    -49.7350     71.0601     13.6887     13.4940     14.0933      2.1778      0.0996     15.2108     24.5384     37.5541     83.0947  
  4187.5000    -49.7415     71.0986     13.9425     13.5293     14.3398      2.1497      0.1029     15.8032     28.0075     37.9791     81.6538  
  4188.0000    -49.5020     70.9737     14.2632     13.8076     14.7482      2.1444      0.0792     16.1029     29.9349     38.8124     80.0686  
  4188.5000    -49.4515     70.8585     14.7572     14.1885     15.2564      2.1614      0.0497     15.4694     30.6412     39.6532     80.3489  
  4189.0000    -49.8232     71.1184     15.1271     14.5798     15.5387      2.1994      0.0143     14.2100     29.5362     38.8416     80.6933  
  4189.5000    -50.1139     70.1925     15.0747     14.6808     15.4875      2.2276      0.0255     12.9361     27.1827     37.5330     82.3656  
  4190.0000    -50.3797     68.9917     15.1550     14.6774     15.5812      2.2052      0.0476     13.2290     25.2052     36.3332     81.5347  
  4190.5000    -50.6580     67.8656     15.3446     14.6740     15.7608      2.1526      0.0756     13.4044     26.5901     34.8283     80.3934  
